{"type":"FeatureCollection","data_type":"Dataset","url_type":null,"permissions":[{"permissions":{"download":true,"view":true},"group_id":"everyone"}],"classification":null,"title":"tester","count":487,"stream_id":261976,"contributor":{"url":"http://geocommons.com/users/15886","name":"BBWart"},"data_attributes":null,"calculation_params":null,"icon_link":null,"link":"http://geocommons.com/overlays/261976.json","extent":[-87.5632,42.0896,-82.8779,44.2405],"geometry_types":["point"],"unique_name":null,"name":"tester","feature_count":487,"description":"","next_feature":null,"is_raster":false,"short_classification":"Y","stats":{},"features":[{"properties":{"city":"Detroit","intersection or address":"W CONGRESS/CASS","country":"United States","geo_score":0.643,"id":"a7907p42f8v7","geo_precision":"street","state":"MI"},"type":"Feature","geometry":{"type":"Point","coordinates":[-83.050722,42.329284]}},{"properties":{"city":"Detroit","intersection or address":"F/O 8350 ST AUBIN","country":"United States","geo_score":0.429,"id":"a7907p9pru45","geo_precision":"street","state":"MI"},"type":"Feature","geometry":{"type":"Point","coordinates":[-83.032534,42.343302]}},{"properties":{"city":"Detroit","intersection or address":"20100 BLOCK STRATHMOOR","country":"United States","geo_score":0.738,"id":"a7907p973zkm","geo_precision":"range","state":"MI"},"type":"Feature","geometry":{"type":"Point","coordinates":[-83.189501,42.442684]}},{"properties":{"city":"Detroit","intersection or address":"18600 BLOCK SAN JUAN","country":"United States","geo_score":0.714,"id":"a7907p2b7z8p","geo_precision":"range","state":"MI"},"type":"Feature","geometry":{"type":"Point","coordinates":[-83.146881,42.429717]}},{"properties":{"city":"Detroit","intersection or address":"17100 BLOCK PLAINVIEW","country":"United States","geo_score":0.532,"id":"a7907paa8y0x","geo_precision":"street","state":"MI"},"type":"Feature","geometry":{"type":"Point","coordinates":[-83.239023,42.433858]}},{"properties":{"city":"Detroit","intersection or address":"CADILLAC SQUARE/ WOODWARD","country":"United States","geo_score":0.714,"id":"a7907pb81le9","geo_precision":"street","state":"MI"},"type":"Feature","geometry":{"type":"Point","coordinates":[-83.045921,42.330166]}},{"properties":{"city":"Detroit","intersection or address":"RUSSELL &amp; ADELAIDE","country":"United States","geo_score":0.729,"id":"a7907ozru0cw","geo_precision":"street","state":"MI"},"type":"Feature","geometry":{"type":"Point","coordinates":[-83.038708,42.343584]}},{"properties":{"city":"Detroit","intersection or address":"MADISON/ JOHN R","country":"United States","geo_score":0.714,"id":"a7907pb36i2j","geo_precision":"street","state":"MI"},"type":"Feature","geometry":{"type":"Point","coordinates":[-83.04864,42.335282]}},{"properties":{"city":"Detroit","intersection or address":"WARREN/ LIVERNOIS","country":"United States","geo_score":0.714,"id":"a7907pabt32n","geo_precision":"street","state":"MI"},"type":"Feature","geometry":{"type":"Point","coordinates":[-83.045107,42.364132]}},{"properties":{"city":"Detroit","intersection or address":"700 BLOCK W GRAND BLVD","country":"United States","geo_score":0.805,"id":"a7907pevq1o3","geo_precision":"range","state":"MI"},"type":"Feature","geometry":{"type":"Point","coordinates":[-83.093432,42.328742]}},{"properties":{"city":"Detroit","intersection or address":"MICHIGAN/ 14TH","country":"United States","geo_score":0.551,"id":"a7907p0zuxl6","geo_precision":"street","state":"MI"},"type":"Feature","geometry":{"type":"Point","coordinates":[-83.075493,42.329575]}},{"properties":{"city":"Detroit","intersection or address":"ST AUBIN/GRATIOT","country":"United States","geo_score":0.701,"id":"a7907pewz5n4","geo_precision":"street","state":"MI"},"type":"Feature","geometry":{"type":"Point","coordinates":[-83.046197,42.333968]}},{"properties":{"city":"Detroit","intersection or address":"19200 BLOCK ARCHER","country":"United States","geo_score":0.683,"id":"a7907ozb9lf3","geo_precision":"range","state":"MI"},"type":"Feature","geometry":{"type":"Point","coordinates":[-83.26638,42.430468]}},{"properties":{"city":"Detroit","intersection or address":"E 7 MILE / HAMBURG","country":"United States","geo_score":0.729,"id":"a7907p5ora5j","geo_precision":"street","state":"MI"},"type":"Feature","geometry":{"type":"Point","coordinates":[-82.989815,42.4171]}},{"properties":{"city":"Detroit","intersection or address":"11700 BLOCK OHIO","country":"United States","geo_score":0.668,"id":"a7907p8g8bbt","geo_precision":"range","state":"MI"},"type":"Feature","geometry":{"type":"Point","coordinates":[-83.154208,42.374022]}},{"properties":{"city":"Detroit","intersection or address":"ATWATER/ST AUBIN","country":"United States","geo_score":0.729,"id":"a7907p3p1yxq","geo_precision":"street","state":"MI"},"type":"Feature","geometry":{"type":"Point","coordinates":[-83.033057,42.330954]}},{"properties":{"city":"Detroit","intersection or address":"29600 BLOCK PLYMOUTH RD","country":"United States","geo_score":0.604,"id":"a7907p7gk62q","geo_precision":"street","state":"MI"},"type":"Feature","geometry":{"type":"Point","coordinates":[-83.265705,42.371506]}},{"properties":{"city":"Detroit","intersection or address":"9400 BLOCK OAKLAND","country":"United States","geo_score":0.7,"id":"a7907p2v1fq3","geo_precision":"range","state":"MI"},"type":"Feature","geometry":{"type":"Point","coordinates":[-83.074187,42.388233]}},{"properties":{"city":"Detroit","intersection or address":"ATWATER/ORLEANS","country":"United States","geo_score":0.729,"id":"a7907p42pt4h","geo_precision":"street","state":"MI"},"type":"Feature","geometry":{"type":"Point","coordinates":[-83.033057,42.330954]}},{"properties":{"city":"Detroit","intersection or address":"00 BLOCK W. ADAMS","country":"United States","geo_score":0.643,"id":"a7907p957z5g","geo_precision":"street","state":"MI"},"type":"Feature","geometry":{"type":"Point","coordinates":[-83.05089,42.336981]}},{"properties":{"city":"Detroit","intersection or address":"1500 BLOCK BROADWAY","country":"United States","geo_score":0.714,"id":"a7907p72vgob","geo_precision":"range","state":"MI"},"type":"Feature","geometry":{"type":"Point","coordinates":[-83.049584,42.336425]}},{"properties":{"city":"Detroit","intersection or address":"200 BLOCK IRON","country":"United States","geo_score":0.668,"id":"a7907pc8x9cj","geo_precision":"range","state":"MI"},"type":"Feature","geometry":{"type":"Point","coordinates":[-83.009174,42.344037]}},{"properties":{"city":"Detroit","intersection or address":"F/O 1846 MICHIGAN","country":"United States","geo_score":0.429,"id":"a7907pbqrfgq","geo_precision":"street","state":"MI"},"type":"Feature","geometry":{"type":"Point","coordinates":[-83.049973,42.331679]}},{"properties":{"city":"Detroit","intersection or address":"18400 BLOCK JOY","country":"United States","geo_score":0.675,"id":"a7907p3mjh4x","geo_precision":"range","state":"MI"},"type":"Feature","geometry":{"type":"Point","coordinates":[-83.221338,42.357775]}},{"properties":{"city":"Detroit","intersection or address":"W COLUMBIA/PARK AVENUE","country":"United States","geo_score":0.857,"id":"a7907pc94wic","geo_precision":"street","state":"MI"},"type":"Feature","geometry":{"type":"Point","coordinates":[-83.0502,42.335984]}},{"properties":{"city":"Detroit","intersection or address":"BEAUBIEN / MONROE","country":"United States","geo_score":0.714,"id":"a7907pbazubv","geo_precision":"street","state":"MI"},"type":"Feature","geometry":{"type":"Point","coordinates":[-83.046869,42.331668]}},{"properties":{"city":"Detroit","intersection or address":"3600 BLOCK MICHIGAN","country":"United States","geo_score":0.693,"id":"a7907pcim337","geo_precision":"range","state":"MI"},"type":"Feature","geometry":{"type":"Point","coordinates":[-83.094282,42.331412]}},{"properties":{"city":"Detroit","intersection or address":"WOODWARD/ ELIZABETH","country":"United States","geo_score":0.714,"id":"a7907p2pahyc","geo_precision":"street","state":"MI"},"type":"Feature","geometry":{"type":"Point","coordinates":[-83.045921,42.330166]}},{"properties":{"city":"Detroit","intersection or address":"13800 BLOCK BRINGARD","country":"United States","geo_score":0.714,"id":"a7907p8iloch","geo_precision":"range","state":"MI"},"type":"Feature","geometry":{"type":"Point","coordinates":[-82.980648,42.445946]}},{"properties":{"city":"Detroit","intersection or address":"ST. ANTOINE/LARNED","country":"United States","geo_score":0.506,"id":"a7907pc0ftmf","geo_precision":"street","state":"MI"},"type":"Feature","geometry":{"type":"Point","coordinates":[-83.046067,42.329056]}},{"properties":{"city":"Detroit","intersection or address":"S/O 17621 WARREN","country":"United States","geo_score":0.468,"id":"a7907pcrc676","geo_precision":"street","state":"MI"},"type":"Feature","geometry":{"type":"Point","coordinates":[-83.23901,42.343066]}},{"properties":{"city":"Detroit","intersection or address":"2100 BLOCK GLENCOE HILLS DR","country":"United States","geo_score":0.521,"id":"a7907oyw7cth","geo_precision":"street","state":"MI"},"type":"Feature","geometry":{"type":"Point","coordinates":[-83.255625,42.42138]}},{"properties":{"city":"Detroit","intersection or address":"2600 BLOCK FRANKLIN","country":"United States","geo_score":0.714,"id":"a7907p3ahxjy","geo_precision":"range","state":"MI"},"type":"Feature","geometry":{"type":"Point","coordinates":[-83.01887,42.338165]}},{"properties":{"city":"Detroit","intersection or address":"00 BLOCK AMERICAN RD","country":"United States","geo_score":0.488,"id":"a7907p0bge0i","geo_precision":"city","state":"MI"},"type":"Feature","geometry":{"type":"Point","coordinates":[-83.150823,42.239933]}},{"properties":{"city":"Detroit","intersection or address":"ABBOTT/3RD","country":"United States","geo_score":0.5,"id":"a7907p68si4x","geo_precision":"street","state":"MI"},"type":"Feature","geometry":{"type":"Point","coordinates":[-83.05362,42.326862]}},{"properties":{"city":"Detroit","intersection or address":"8100 BLOCK E. JEFFERSON","country":"United States","geo_score":0.486,"id":"a7907pewfv3o","geo_precision":"street","state":"MI"},"type":"Feature","geometry":{"type":"Point","coordinates":[-83.045369,42.328165]}},{"properties":{"city":"Detroit","intersection or address":"8100 BLOCK E. JEFFERSON","country":"United States","geo_score":0.486,"id":"a7907p7o7y6q","geo_precision":"street","state":"MI"},"type":"Feature","geometry":{"type":"Point","coordinates":[-83.045369,42.328165]}},{"properties":{"city":"Detroit","intersection or address":"1400 BLOCK ALTER DR","country":"United States","geo_score":0.756,"id":"a7907ozpxqdf","geo_precision":"range","state":"MI"},"type":"Feature","geometry":{"type":"Point","coordinates":[-82.941057,42.376957]}},{"properties":{"city":"Detroit","intersection or address":"14900 BLOCK FORRER","country":"United States","geo_score":0.683,"id":"a7907p2nr3t1","geo_precision":"range","state":"MI"},"type":"Feature","geometry":{"type":"Point","coordinates":[-83.201342,42.397917]}},{"properties":{"city":"Detroit","intersection or address":"PLYMOUTH/GREENFIELD","country":"United States","geo_score":0.74,"id":"a7907p8mwmbg","geo_precision":"street","state":"MI"},"type":"Feature","geometry":{"type":"Point","coordinates":[-83.152014,42.37363]}},{"properties":{"city":"Detroit","intersection or address":"15100 BLOCK MICHIGAN","country":"United States","geo_score":0.498,"id":"a7907p9epjrz","geo_precision":"street","state":"MI"},"type":"Feature","geometry":{"type":"Point","coordinates":[-83.155354,42.328137]}},{"properties":{"city":"Detroit","intersection or address":"11300 BLOCK GALLAGHER ST","country":"United States","geo_score":0.431,"id":"a7907pbtl5m4","geo_precision":"street","state":"MI"},"type":"Feature","geometry":{"type":"Point","coordinates":[-83.10828,42.434205]}},{"properties":{"city":"Detroit","intersection or address":"6700 BLOCK MIDDLEPOINTE","country":"United States","geo_score":0.561,"id":"a7907p7cwwgq","geo_precision":"street","state":"MI"},"type":"Feature","geometry":{"type":"Point","coordinates":[-83.162146,42.352447]}},{"properties":{"city":"Detroit","intersection or address":"11400 BLOCK S TELEGRAPH RD","country":"United States","geo_score":0.59,"id":"a7907p8l8xeh","geo_precision":"street","state":"MI"},"type":"Feature","geometry":{"type":"Point","coordinates":[-83.276781,42.409518]}},{"properties":{"city":"Detroit","intersection or address":"13300 BLOCK NORFOLK COURT","country":"United States","geo_score":0.811,"id":"a7907p0pjrf1","geo_precision":"range","state":"MI"},"type":"Feature","geometry":{"type":"Point","coordinates":[-83.179773,42.443286]}},{"properties":{"city":"Detroit","intersection or address":"9100 BLOCK DAWES","country":"United States","geo_score":0.663,"id":"a7907p7oym2y","geo_precision":"range","state":"MI"},"type":"Feature","geometry":{"type":"Point","coordinates":[-83.153247,42.362769]}},{"properties":{"city":"Detroit","intersection or address":"19100 BLOCK WINSTON","country":"United States","geo_score":0.7,"id":"a7907pd32lbf","geo_precision":"range","state":"MI"},"type":"Feature","geometry":{"type":"Point","coordinates":[-83.283799,42.43501]}},{"properties":{"city":"Detroit","intersection or address":"9100 BLOCK WHITCOMB","country":"United States","geo_score":0.401,"id":"a7907p6fusar","geo_precision":"street","state":"MI"},"type":"Feature","geometry":{"type":"Point","coordinates":[-83.10828,42.434205]}},{"properties":{"city":"Detroit","intersection or address":"CASS AND FOREST","country":"United States","geo_score":0.629,"id":"a7907p77reqw","geo_precision":"street","state":"MI"},"type":"Feature","geometry":{"type":"Point","coordinates":[-83.050722,42.329284]}},{"properties":{"city":"Detroit","intersection or address":"1700 BLOCK N HAGGERTY","country":"United States","geo_score":0.409,"id":"a7907p0jq1xh","geo_precision":"street","state":"MI"},"type":"Feature","geometry":{"type":"Point","coordinates":[-83.10828,42.434205]}},{"properties":{"city":"Detroit","intersection or address":"E JEFFERSON/E GRAND BLVD","country":"United States","geo_score":0.743,"id":"a7907p849kjt","geo_precision":"street","state":"MI"},"type":"Feature","geometry":{"type":"Point","coordinates":[-83.044533,42.328857]}},{"properties":{"city":"Detroit","intersection or address":"14400 BLOCK DOLPHIN","country":"United States","geo_score":0.7,"id":"a7907p8sws5i","geo_precision":"range","state":"MI"},"type":"Feature","geometry":{"type":"Point","coordinates":[-83.258971,42.391841]}},{"properties":{"city":"Detroit","intersection or address":"00 BLOCK MILE/MEYERS","country":"United States","geo_score":0.714,"id":"a7907pe5c769","geo_precision":"street","state":"MI"},"type":"Feature","geometry":{"type":"Point","coordinates":[-83.167504,42.353902]}},{"properties":{"city":"Detroit","intersection or address":"2500 BLOCK CARRIAGE WAY","country":"United States","geo_score":0.398,"id":"a7907p0l3epq","geo_precision":"street","state":"MI"},"type":"Feature","geometry":{"type":"Point","coordinates":[-83.10828,42.434205]}},{"properties":{"city":"Detroit","intersection or address":"11000 BLOCK INGRAM","country":"United States","geo_score":0.39,"id":"a7907pclommx","geo_precision":"street","state":"MI"},"type":"Feature","geometry":{"type":"Point","coordinates":[-83.10828,42.434205]}},{"properties":{"city":"Detroit","intersection or address":"7400 BLOCK SECOND","country":"United States","geo_score":0.61,"id":"a7907pe5gvvm","geo_precision":"range","state":"MI"},"type":"Feature","geometry":{"type":"Point","coordinates":[-83.076683,42.369611]}},{"properties":{"city":"Detroit","intersection or address":"1400 BLOCK MICHIGAN","country":"United States","geo_score":0.693,"id":"a7907p1ithrh","geo_precision":"range","state":"MI"},"type":"Feature","geometry":{"type":"Point","coordinates":[-83.066075,42.331421]}},{"properties":{"city":"Detroit","intersection or address":"12900 BLOCK RUTLAND","country":"United States","geo_score":0.7,"id":"a7907p3bu9do","geo_precision":"range","state":"MI"},"type":"Feature","geometry":{"type":"Point","coordinates":[-83.213647,42.384151]}},{"properties":{"city":"Detroit","intersection or address":"16200 BLOCK DALE","country":"United States","geo_score":0.502,"id":"a7907p5tavc7","geo_precision":"street","state":"MI"},"type":"Feature","geometry":{"type":"Point","coordinates":[-83.276041,42.388681]}},{"properties":{"city":"Detroit","intersection or address":"19200 BLOCK WISCONSIN","country":"United States","geo_score":0.727,"id":"a7907p9vt7ym","geo_precision":"range","state":"MI"},"type":"Feature","geometry":{"type":"Point","coordinates":[-83.157664,42.432273]}},{"properties":{"city":"Detroit","intersection or address":"24800 BLOCK EUREKA RD","country":"United States","geo_score":0.551,"id":"a7907pe5jimq","geo_precision":"street","state":"MI"},"type":"Feature","geometry":{"type":"Point","coordinates":[-83.058028,42.438167]}},{"properties":{"city":"Detroit","intersection or address":"2200 BLOCK LAKEVIEW DR","country":"United States","geo_score":0.765,"id":"a7907pa7wxlv","geo_precision":"range","state":"MI"},"type":"Feature","geometry":{"type":"Point","coordinates":[-82.953054,42.378525]}},{"properties":{"city":"Detroit","intersection or address":"14600 BLOCK W 8 MILE RD","country":"United States","geo_score":0.677,"id":"a7907p7r0bby","geo_precision":"street","state":"MI"},"type":"Feature","geometry":{"type":"Point","coordinates":[-83.190727,42.444998]}},{"properties":{"city":"Detroit","intersection or address":"FORT / CASS","country":"United States","geo_score":0.673,"id":"a7907pe2lp40","geo_precision":"street","state":"MI"},"type":"Feature","geometry":{"type":"Point","coordinates":[-83.110671,42.400971]}},{"properties":{"city":"Detroit","intersection or address":"1200 BLOCK WOODWARD AVE, DETROIT, MI.","country":"United States","geo_score":0.5,"id":"a7907p5lmnv6","geo_precision":"street","state":"MI"},"type":"Feature","geometry":{"type":"Point","coordinates":[-83.00957,42.391228]}},{"properties":{"city":"Detroit","intersection or address":"14200 BLOCK WYOMING","country":"United States","geo_score":0.7,"id":"a7907p4696ps","geo_precision":"range","state":"MI"},"type":"Feature","geometry":{"type":"Point","coordinates":[-83.159292,42.393688]}},{"properties":{"city":"Detroit","intersection or address":"14200 BLOCK WYOMING","country":"United States","geo_score":0.7,"id":"a7907p73iwsu","geo_precision":"range","state":"MI"},"type":"Feature","geometry":{"type":"Point","coordinates":[-83.159292,42.393688]}},{"properties":{"city":"Detroit","intersection or address":"3000 BLOCK JACOB ST","country":"United States","geo_score":0.679,"id":"a7907p5w71xl","geo_precision":"range","state":"MI"},"type":"Feature","geometry":{"type":"Point","coordinates":[-83.051973,42.392579]}},{"properties":{"city":"Detroit","intersection or address":"OUTER DRIVE/LIVERNOIS","country":"United States","geo_score":0.857,"id":"a7907p2gusb9","geo_precision":"street","state":"MI"},"type":"Feature","geometry":{"type":"Point","coordinates":[-83.167881,42.263943]}},{"properties":{"city":"Detroit","intersection or address":"20800 BLOCK SCHOOLCRAFT","country":"United States","geo_score":0.403,"id":"a7907p5slw8j","geo_precision":"street","state":"MI"},"type":"Feature","geometry":{"type":"Point","coordinates":[-83.10828,42.434205]}},{"properties":{"city":"Detroit","intersection or address":"21500 BLOCK GRAND RIVER","country":"United States","geo_score":0.551,"id":"a7907p1mbszr","geo_precision":"street","state":"MI"},"type":"Feature","geometry":{"type":"Point","coordinates":[-83.136453,42.389651]}},{"properties":{"city":"Detroit","intersection or address":"6900 BLOCK PARKWOOD","country":"United States","geo_score":0.714,"id":"a7907ozyfave","geo_precision":"range","state":"MI"},"type":"Feature","geometry":{"type":"Point","coordinates":[-83.128867,42.328726]}},{"properties":{"city":"Detroit","intersection or address":"6400 BLOCK CHASE","country":"United States","geo_score":0.424,"id":"a7907p520rp5","geo_precision":"street","state":"MI"},"type":"Feature","geometry":{"type":"Point","coordinates":[-83.10828,42.434205]}},{"properties":{"city":"Detroit","intersection or address":"NORTHGATE/S BECK","country":"United States","geo_score":0.347,"id":"a7907pac1lov","geo_precision":"street","state":"MI"},"type":"Feature","geometry":{"type":"Point","coordinates":[-83.197344,42.478519]}},{"properties":{"city":"Detroit","intersection or address":"2ND / ANTOINETTE","country":"United States","geo_score":0.5,"id":"a7907pbrv1ht","geo_precision":"street","state":"MI"},"type":"Feature","geometry":{"type":"Point","coordinates":[-83.067071,42.34191]}},{"properties":{"city":"Detroit","intersection or address":"FARMERS/JOHN R","country":"United States","geo_score":0.714,"id":"a7907pd4q45x","geo_precision":"street","state":"MI"},"type":"Feature","geometry":{"type":"Point","coordinates":[-83.04864,42.335282]}},{"properties":{"city":"Detroit","intersection or address":"CENTRAL / MICHIGAN AVE","country":"United States","geo_score":0.729,"id":"a7907peboxet","geo_precision":"street","state":"MI"},"type":"Feature","geometry":{"type":"Point","coordinates":[-83.118434,42.303844]}},{"properties":{"city":"Detroit","intersection or address":"100 BLOCK CADILLAC SQUARE","country":"United States","geo_score":0.799,"id":"a7907pc26csc","geo_precision":"range","state":"MI"},"type":"Feature","geometry":{"type":"Point","coordinates":[-83.043465,42.331402]}},{"properties":{"city":"Detroit","intersection or address":"45600 BLOCK MICHIGAN","country":"United States","geo_score":0.498,"id":"a7907pezgo7o","geo_precision":"street","state":"MI"},"type":"Feature","geometry":{"type":"Point","coordinates":[-83.155354,42.328137]}},{"properties":{"city":"Detroit","intersection or address":"600 BLOCK S LAKE DR","country":"United States","geo_score":0.434,"id":"a7907oyxqoaa","geo_precision":"street","state":"MI"},"type":"Feature","geometry":{"type":"Point","coordinates":[-83.10828,42.434205]}},{"properties":{"city":"Detroit","intersection or address":"36000 BLOCK SCHOOLCRAFT","country":"United States","geo_score":0.403,"id":"a7907p47vs8v","geo_precision":"street","state":"MI"},"type":"Feature","geometry":{"type":"Point","coordinates":[-83.10828,42.434205]}},{"properties":{"city":"Detroit","intersection or address":"36600 BLOCK SCHOOLCRAFT","country":"United States","geo_score":0.403,"id":"a7907pbi88wx","geo_precision":"street","state":"MI"},"type":"Feature","geometry":{"type":"Point","coordinates":[-83.10828,42.434205]}},{"properties":{"city":"Detroit","intersection or address":"6200 BLOCK WARREN","country":"United States","geo_score":0.512,"id":"a7907oz0q4am","geo_precision":"street","state":"MI"},"type":"Feature","geometry":{"type":"Point","coordinates":[-83.23901,42.343066]}},{"properties":{"city":"Detroit","intersection or address":"24600 BLOCK MARY ST","country":"United States","geo_score":0.527,"id":"a7907pby85yp","geo_precision":"street","state":"MI"},"type":"Feature","geometry":{"type":"Point","coordinates":[-83.00098,42.381766]}},{"properties":{"city":"Detroit","intersection or address":"6100 BLOCK 2ND AVENUE","country":"United States","geo_score":0.716,"id":"a7907peas7g5","geo_precision":"range","state":"MI"},"type":"Feature","geometry":{"type":"Point","coordinates":[-83.074449,42.365423]}},{"properties":{"city":"Detroit","intersection or address":"15600 BLOCK FORDHAM","country":"United States","geo_score":0.7,"id":"a7907p8hy3wl","geo_precision":"range","state":"MI"},"type":"Feature","geometry":{"type":"Point","coordinates":[-82.959007,42.434649]}},{"properties":{"city":"Detroit","intersection or address":"14200 BLOCK LEVAN","country":"United States","geo_score":0.424,"id":"a7907p4w902s","geo_precision":"street","state":"MI"},"type":"Feature","geometry":{"type":"Point","coordinates":[-83.10828,42.434205]}},{"properties":{"city":"Detroit","intersection or address":"23200 BLOCK NONA","country":"United States","geo_score":0.405,"id":"a7907p2rbads","geo_precision":"street","state":"MI"},"type":"Feature","geometry":{"type":"Point","coordinates":[-83.10828,42.434205]}},{"properties":{"city":"Detroit","intersection or address":"4800 BLOCK TRUMBULL","country":"United States","geo_score":0.714,"id":"a7907pbln94u","geo_precision":"range","state":"MI"},"type":"Feature","geometry":{"type":"Point","coordinates":[-83.078728,42.352094]}},{"properties":{"city":"Detroit","intersection or address":"500 BLOCK S MELBORN","country":"United States","geo_score":0.649,"id":"a7907p6hiiii","geo_precision":"range","state":"MI"},"type":"Feature","geometry":{"type":"Point","coordinates":[-83.069925,42.379174]}},{"properties":{"city":"Detroit","intersection or address":"CASS AND MARTIN LUTHER KING(BURTON THEATER)","country":"United States","geo_score":0.673,"id":"a7907p8m8lsu","geo_precision":"street","state":"MI"},"type":"Feature","geometry":{"type":"Point","coordinates":[-83.124412,42.331131]}},{"properties":{"city":"Detroit","intersection or address":"6000 BLOCK JACKSON AVE","country":"United States","geo_score":0.403,"id":"a7907p3q5m7g","geo_precision":"street","state":"MI"},"type":"Feature","geometry":{"type":"Point","coordinates":[-83.10828,42.434205]}},{"properties":{"city":"Detroit","intersection or address":"WARREN/MACK","country":"United States","geo_score":0.536,"id":"a7907p46fjb2","geo_precision":"street","state":"MI"},"type":"Feature","geometry":{"type":"Point","coordinates":[-83.178023,42.373881]}},{"properties":{"city":"Detroit","intersection or address":"CASS NEAR WARREN","country":"United States","geo_score":0.616,"id":"a7907p1mlb56","geo_precision":"street","state":"MI"},"type":"Feature","geometry":{"type":"Point","coordinates":[-83.050722,42.329284]}},{"properties":{"city":"Detroit","intersection or address":"4800 BLOCK E HURON RIVER DR","country":"United States","geo_score":0.503,"id":"a7907p8vkvd8","geo_precision":"street","state":"MI"},"type":"Feature","geometry":{"type":"Point","coordinates":[-83.076332,42.334612]}},{"properties":{"city":"Detroit","intersection or address":"F/O 14 CHARLOTTE","country":"United States","geo_score":0.464,"id":"a7907pbx22i1","geo_precision":"street","state":"MI"},"type":"Feature","geometry":{"type":"Point","coordinates":[-83.125216,42.294291]}},{"properties":{"city":"Detroit","intersection or address":"F/O 14 CHARLOTTE","country":"United States","geo_score":0.464,"id":"a7907pc00ans","geo_precision":"street","state":"MI"},"type":"Feature","geometry":{"type":"Point","coordinates":[-83.125216,42.294291]}},{"properties":{"city":"Detroit","intersection or address":"17500 BLOCK E WARREN","country":"United States","geo_score":0.693,"id":"a7907p3qbrts","geo_precision":"range","state":"MI"},"type":"Feature","geometry":{"type":"Point","coordinates":[-82.923617,42.408322]}},{"properties":{"city":"Detroit","intersection or address":"WOODWARD AVE/8 MILE RD","country":"United States","geo_score":0.521,"id":"a7907p7zzw80","geo_precision":"street","state":"MI"},"type":"Feature","geometry":{"type":"Point","coordinates":[-83.138494,42.382239]}},{"properties":{"city":"Detroit","intersection or address":"4200 BLOCK W VERNOR","country":"United States","geo_score":0.693,"id":"a7907p61bsyp","geo_precision":"range","state":"MI"},"type":"Feature","geometry":{"type":"Point","coordinates":[-83.094912,42.320639]}},{"properties":{"city":"Detroit","intersection or address":"17000 BLOCK HARPER","country":"United States","geo_score":0.659,"id":"a7907pbakz96","geo_precision":"range","state":"MI"},"type":"Feature","geometry":{"type":"Point","coordinates":[-82.936636,42.416436]}},{"properties":{"city":"Detroit","intersection or address":"E JEFFERSON/ CHALMERS","country":"United States","geo_score":0.74,"id":"a7907p25w3zd","geo_precision":"street","state":"MI"},"type":"Feature","geometry":{"type":"Point","coordinates":[-82.938116,42.363046]}},{"properties":{"city":"Detroit","intersection or address":"E. WARREN / BRUSH","country":"United States","geo_score":0.476,"id":"a7907p5i9tcu","geo_precision":"street","state":"MI"},"type":"Feature","geometry":{"type":"Point","coordinates":[-83.045107,42.364132]}},{"properties":{"city":"Detroit","intersection or address":"8000 BLOCK W. MCNICHOLS","country":"United States","geo_score":0.49,"id":"a7907p932okg","geo_precision":"street","state":"MI"},"type":"Feature","geometry":{"type":"Point","coordinates":[-83.131643,42.41728]}},{"properties":{"city":"Detroit","intersection or address":"2500 BLOCK E ELLSWORTH RD","country":"United States","geo_score":0.561,"id":"a7907pat8wfv","geo_precision":"street","state":"MI"},"type":"Feature","geometry":{"type":"Point","coordinates":[-83.143529,42.401889]}},{"properties":{"city":"Detroit","intersection or address":"12900 BLOCK ROSEMONT","country":"United States","geo_score":0.693,"id":"a7907p7gnvjq","geo_precision":"range","state":"MI"},"type":"Feature","geometry":{"type":"Point","coordinates":[-83.219672,42.384252]}},{"properties":{"city":"Detroit","intersection or address":"1400 BLOCK MICHIGAN","country":"United States","geo_score":0.693,"id":"a7907p902t64","geo_precision":"range","state":"MI"},"type":"Feature","geometry":{"type":"Point","coordinates":[-83.066075,42.331421]}},{"properties":{"city":"Detroit","intersection or address":"6400 BLOCK VAUGHAN","country":"United States","geo_score":0.385,"id":"a7907p5hiavl","geo_precision":"street","state":"MI"},"type":"Feature","geometry":{"type":"Point","coordinates":[-83.10828,42.434205]}},{"properties":{"city":"Detroit","intersection or address":"38100 BLOCK RICHLAND","country":"United States","geo_score":0.38,"id":"a7907p0j3i3s","geo_precision":"street","state":"MI"},"type":"Feature","geometry":{"type":"Point","coordinates":[-83.10828,42.434205]}},{"properties":{"city":"Detroit","intersection or address":"2100 BLOCK MICHIGAN AVE.","country":"United States","geo_score":0.805,"id":"a7907pbeu5x5","geo_precision":"range","state":"MI"},"type":"Feature","geometry":{"type":"Point","coordinates":[-83.076473,42.331347]}},{"properties":{"city":"Detroit","intersection or address":"18500 BLOCK MACKAY","country":"United States","geo_score":0.366,"id":"a7907p1qn9co","geo_precision":"street","state":"MI"},"type":"Feature","geometry":{"type":"Point","coordinates":[-82.970654,42.392162]}},{"properties":{"city":"Detroit","intersection or address":"LAFAYETTE/3RD","country":"United States","geo_score":0.5,"id":"a7907p1qmp67","geo_precision":"street","state":"MI"},"type":"Feature","geometry":{"type":"Point","coordinates":[-83.05362,42.326862]}},{"properties":{"city":"Detroit","intersection or address":"E 8 MILE/ DEQUINDRE","country":"United States","geo_score":0.74,"id":"a7907p59po5d","geo_precision":"street","state":"MI"},"type":"Feature","geometry":{"type":"Point","coordinates":[-83.081287,42.447064]}},{"properties":{"city":"Detroit","intersection or address":"44100 BLOCK TWELVE MILE","country":"United States","geo_score":0.482,"id":"a7907p6v10xf","geo_precision":"street","state":"MI"},"type":"Feature","geometry":{"type":"Point","coordinates":[-83.137894,42.381355]}},{"properties":{"city":"Detroit","intersection or address":"CASS/ LAFAYETTE","country":"United States","geo_score":0.643,"id":"a7907ozlljsg","geo_precision":"street","state":"MI"},"type":"Feature","geometry":{"type":"Point","coordinates":[-83.050722,42.329284]}},{"properties":{"city":"Detroit","intersection or address":"FORT ST. AND CASS AVE","country":"United States","geo_score":0.857,"id":"a7907p9sz51m","geo_precision":"street","state":"MI"},"type":"Feature","geometry":{"type":"Point","coordinates":[-83.235109,42.089583]}},{"properties":{"city":"Detroit","intersection or address":"3000 BLOCK E 8 MILE","country":"United States","geo_score":0.714,"id":"a7907oz9p0q7","geo_precision":"range","state":"MI"},"type":"Feature","geometry":{"type":"Point","coordinates":[-83.07284,42.447151]}},{"properties":{"city":"Detroit","intersection or address":"8800 BLOCK GREENFIELD","country":"United States","geo_score":0.738,"id":"a7907oz3jvr6","geo_precision":"range","state":"MI"},"type":"Feature","geometry":{"type":"Point","coordinates":[-83.197113,42.360537]}},{"properties":{"city":"Detroit","intersection or address":"43700 BLOCK FORD","country":"United States","geo_score":0.532,"id":"a7907p2t2j56","geo_precision":"street","state":"MI"},"type":"Feature","geometry":{"type":"Point","coordinates":[-83.225188,42.328942]}},{"properties":{"city":"Detroit","intersection or address":"48000 BLOCK GRAND RIVER AVE","country":"United States","geo_score":0.599,"id":"a7907pcjqhk6","geo_precision":"street","state":"MI"},"type":"Feature","geometry":{"type":"Point","coordinates":[-83.287207,42.428554]}},{"properties":{"city":"Detroit","intersection or address":"1800 BLOCK E MICHIGAN AVE","country":"United States","geo_score":0.785,"id":"a7907p2h95ak","geo_precision":"range","state":"MI"},"type":"Feature","geometry":{"type":"Point","coordinates":[-83.071784,42.331392]}},{"properties":{"city":"Detroit","intersection or address":"E WARREN/ JOHN R","country":"United States","geo_score":0.714,"id":"a7907pecpgta","geo_precision":"street","state":"MI"},"type":"Feature","geometry":{"type":"Point","coordinates":[-83.04864,42.335282]}},{"properties":{"city":"Detroit","intersection or address":"8800 BLOCK JOY RD","country":"United States","geo_score":0.756,"id":"a7907p5rrzxb","geo_precision":"range","state":"MI"},"type":"Feature","geometry":{"type":"Point","coordinates":[-83.155592,42.35906]}},{"properties":{"city":"Detroit","intersection or address":"23500 BLOCK W 7 MILE","country":"United States","geo_score":0.714,"id":"a7907p79fx8j","geo_precision":"range","state":"MI"},"type":"Feature","geometry":{"type":"Point","coordinates":[-83.272155,42.429153]}},{"properties":{"city":"Detroit","intersection or address":"13500 BLOCK W CHICAGO","country":"United States","geo_score":0.727,"id":"a7907p0fia6h","geo_precision":"range","state":"MI"},"type":"Feature","geometry":{"type":"Point","coordinates":[-83.177724,42.365793]}},{"properties":{"city":"Detroit","intersection or address":"8500 BLOCK MENDOTA","country":"United States","geo_score":0.7,"id":"a7907oz57deh","geo_precision":"range","state":"MI"},"type":"Feature","geometry":{"type":"Point","coordinates":[-83.164223,42.358717]}},{"properties":{"city":"Detroit","intersection or address":"JEFFERSON/CHENE","country":"United States","geo_score":0.696,"id":"a7907p2mn2kv","geo_precision":"street","state":"MI"},"type":"Feature","geometry":{"type":"Point","coordinates":[-83.022646,42.338245]}},{"properties":{"city":"Detroit","intersection or address":"DIVISION/RIVARD","country":"United States","geo_score":0.714,"id":"a7907pa0dw9g","geo_precision":"street","state":"MI"},"type":"Feature","geometry":{"type":"Point","coordinates":[-83.032994,42.331452]}},{"properties":{"city":"Detroit","intersection or address":"1500 BLOCK WOODWARD","country":"United States","geo_score":0.693,"id":"a7907pbb7lwr","geo_precision":"range","state":"MI"},"type":"Feature","geometry":{"type":"Point","coordinates":[-83.0502,42.335984]}},{"properties":{"city":"Detroit","intersection or address":"ADAMS &amp; CLIFFORD","country":"United States","geo_score":0.643,"id":"a7907p5pkoq0","geo_precision":"street","state":"MI"},"type":"Feature","geometry":{"type":"Point","coordinates":[-83.05089,42.336981]}},{"properties":{"city":"Detroit","intersection or address":"BAGLEY/GRAND RIVER","country":"United States","geo_score":0.714,"id":"a7907p0oyn24","geo_precision":"street","state":"MI"},"type":"Feature","geometry":{"type":"Point","coordinates":[-83.053304,42.334084]}},{"properties":{"city":"Detroit","intersection or address":"900 BLOCK W. JEFFERSON","country":"United States","geo_score":0.464,"id":"a7907p9y48j3","geo_precision":"street","state":"MI"},"type":"Feature","geometry":{"type":"Point","coordinates":[-83.008083,42.344507]}},{"properties":{"city":"Detroit","intersection or address":"2ND AND FORT","country":"United States","geo_score":0.643,"id":"a7907p0z41q7","geo_precision":"street","state":"MI"},"type":"Feature","geometry":{"type":"Point","coordinates":[-83.067071,42.34191]}},{"properties":{"city":"Detroit","intersection or address":"40600 BLOCK TAMARACK","country":"United States","geo_score":0.38,"id":"a7907p29wufn","geo_precision":"street","state":"MI"},"type":"Feature","geometry":{"type":"Point","coordinates":[-83.10828,42.434205]}},{"properties":{"city":"Detroit","intersection or address":"MICHIGAN/SCHLAFF","country":"United States","geo_score":0.536,"id":"a7907pbkwncw","geo_precision":"street","state":"MI"},"type":"Feature","geometry":{"type":"Point","coordinates":[-83.048249,42.331652]}},{"properties":{"city":"Detroit","intersection or address":"14500 BLOCK EVERGREEN","country":"United States","geo_score":0.727,"id":"a7907p4ahqm6","geo_precision":"range","state":"MI"},"type":"Feature","geometry":{"type":"Point","coordinates":[-83.237231,42.395796]}},{"properties":{"city":"Detroit","intersection or address":"2500 BLOCK W GRAND BLVD","country":"United States","geo_score":0.805,"id":"a7907pcrxlwu","geo_precision":"range","state":"MI"},"type":"Feature","geometry":{"type":"Point","coordinates":[-83.09359,42.362522]}},{"properties":{"city":"Detroit","intersection or address":"W VERNOR/CENTRAL","country":"United States","geo_score":0.729,"id":"a7907p1i8i2a","geo_precision":"street","state":"MI"},"type":"Feature","geometry":{"type":"Point","coordinates":[-83.118434,42.303844]}},{"properties":{"city":"Detroit","intersection or address":"19900 BLOCK VAN DYKE","country":"United States","geo_score":0.582,"id":"a7907pel59iu","geo_precision":"street","state":"MI"},"type":"Feature","geometry":{"type":"Point","coordinates":[-83.014113,42.378034]}},{"properties":{"city":"Detroit","intersection or address":"PEMBROKE/ARCHDALE","country":"United States","geo_score":0.714,"id":"a7907oz9c3lt","geo_precision":"street","state":"MI"},"type":"Feature","geometry":{"type":"Point","coordinates":[-83.136315,42.438956]}},{"properties":{"city":"Detroit","intersection or address":"14200 BLOCK GREENVIEW","country":"United States","geo_score":0.727,"id":"a7907p84gmmx","geo_precision":"range","state":"MI"},"type":"Feature","geometry":{"type":"Point","coordinates":[-83.22361,42.390148]}},{"properties":{"city":"Detroit","intersection or address":"20200 BLOCK LICHFIELD","country":"United States","geo_score":0.727,"id":"a7907ozfckun","geo_precision":"range","state":"MI"},"type":"Feature","geometry":{"type":"Point","coordinates":[-83.133061,42.443212]}},{"properties":{"city":"Detroit","intersection or address":"2900 BLOCK E GRAND BLV","country":"United States","geo_score":0.782,"id":"a7907p5cdxq2","geo_precision":"range","state":"MI"},"type":"Feature","geometry":{"type":"Point","coordinates":[-83.066392,42.372941]}},{"properties":{"city":"Detroit","intersection or address":"RUSSELL/GRATIOT","country":"United States","geo_score":0.729,"id":"a7907pcsfbnl","geo_precision":"street","state":"MI"},"type":"Feature","geometry":{"type":"Point","coordinates":[-83.038708,42.343584]}},{"properties":{"city":"Detroit","intersection or address":"6000 BLOCK WESTWOOD","country":"United States","geo_score":0.714,"id":"a7907p3n27b9","geo_precision":"range","state":"MI"},"type":"Feature","geometry":{"type":"Point","coordinates":[-83.230178,42.334342]}},{"properties":{"city":"Detroit","intersection or address":"18400 BLOCK FORD RD","country":"United States","geo_score":0.767,"id":"a7907p5cys1i","geo_precision":"range","state":"MI"},"type":"Feature","geometry":{"type":"Point","coordinates":[-83.217036,42.329077]}},{"properties":{"city":"Detroit","intersection or address":"W JEFFERSON &amp; 10TH","country":"United States","geo_score":0.551,"id":"a7907p3882ya","geo_precision":"street","state":"MI"},"type":"Feature","geometry":{"type":"Point","coordinates":[-83.062536,42.32337]}},{"properties":{"city":"Detroit","intersection or address":"E 7 MILE RD /SHOENHERR","country":"United States","geo_score":0.571,"id":"a7907p26fifm","geo_precision":"street","state":"MI"},"type":"Feature","geometry":{"type":"Point","coordinates":[-83.173059,42.431207]}},{"properties":{"city":"Detroit","intersection or address":"WOODWARD / W STATE FAIR","country":"United States","geo_score":0.714,"id":"a7907p2avbe1","geo_precision":"street","state":"MI"},"type":"Feature","geometry":{"type":"Point","coordinates":[-83.045921,42.330166]}},{"properties":{"city":"Detroit","intersection or address":"2700 BLOCK E JEFFERSON AVE DET MICH 48207","country":"United States","geo_score":0.732,"id":"a7907p6syuuf","geo_precision":"range","state":"MI"},"type":"Feature","geometry":{"type":"Point","coordinates":[-83.020428,42.339007]}},{"properties":{"city":"Detroit","intersection or address":"400 BLOCK RENAISSANCE DR","country":"United States","geo_score":0.741,"id":"a7907pd0ut0b","geo_precision":"range","state":"MI"},"type":"Feature","geometry":{"type":"Point","coordinates":[-83.039343,42.33032]}},{"properties":{"city":"Detroit","intersection or address":"31300 BLOCK SPRINGLAKE","country":"United States","geo_score":0.524,"id":"a7907p0kjpw9","geo_precision":"street","state":"MI"},"type":"Feature","geometry":{"type":"Point","coordinates":[-82.968122,42.390156]}},{"properties":{"city":"Detroit","intersection or address":"4600 BLOCK WOODWARD","country":"United States","geo_score":0.693,"id":"a7907pbb7log","geo_precision":"range","state":"MI"},"type":"Feature","geometry":{"type":"Point","coordinates":[-83.062994,42.354743]}},{"properties":{"city":"Detroit","intersection or address":"41500 BLOCK E ARCHWOOD DR","country":"United States","geo_score":0.394,"id":"a7907p97gl4n","geo_precision":"street","state":"MI"},"type":"Feature","geometry":{"type":"Point","coordinates":[-83.10828,42.434205]}},{"properties":{"city":"Detroit","intersection or address":"6000 BLOCK E 7 MILE RD","country":"United States","geo_score":0.799,"id":"a7907p0u02ry","geo_precision":"range","state":"MI"},"type":"Feature","geometry":{"type":"Point","coordinates":[-83.041658,42.433611]}},{"properties":{"city":"Detroit","intersection or address":"47300 BLOCK MICHIGAN","country":"United States","geo_score":0.498,"id":"a7907peqdbo2","geo_precision":"street","state":"MI"},"type":"Feature","geometry":{"type":"Point","coordinates":[-83.155354,42.328137]}},{"properties":{"city":"Detroit","intersection or address":"15000 BLOCK BIRWOOD","country":"United States","geo_score":0.7,"id":"a7907peandau","geo_precision":"range","state":"MI"},"type":"Feature","geometry":{"type":"Point","coordinates":[-83.163972,42.402398]}},{"properties":{"city":"Detroit","intersection or address":"18900 BLOCK GRAND RIVER","country":"United States","geo_score":0.551,"id":"a7907p1k6g5k","geo_precision":"street","state":"MI"},"type":"Feature","geometry":{"type":"Point","coordinates":[-83.136453,42.389651]}},{"properties":{"city":"Detroit","intersection or address":"18900 BLOCK GRAND RIVER","country":"United States","geo_score":0.551,"id":"a7907p9wknwv","geo_precision":"street","state":"MI"},"type":"Feature","geometry":{"type":"Point","coordinates":[-83.136453,42.389651]}},{"properties":{"city":"Detroit","intersection or address":"19300 BLOCK PATTON","country":"United States","geo_score":0.683,"id":"a7907pdocu78","geo_precision":"range","state":"MI"},"type":"Feature","geometry":{"type":"Point","coordinates":[-83.245224,42.432414]}},{"properties":{"city":"Detroit","intersection or address":"500 BLOCK MACK","country":"United States","geo_score":0.473,"id":"a7907pdykn6g","geo_precision":"street","state":"MI"},"type":"Feature","geometry":{"type":"Point","coordinates":[-83.182373,42.37379]}},{"properties":{"city":"Detroit","intersection or address":"17100 BLOCK HARPER","country":"United States","geo_score":0.659,"id":"a7907p9gffim","geo_precision":"range","state":"MI"},"type":"Feature","geometry":{"type":"Point","coordinates":[-82.935726,42.416824]}},{"properties":{"city":"Detroit","intersection or address":"MOROSS/MACK","country":"United States","geo_score":0.536,"id":"a7907p7n8fir","geo_precision":"street","state":"MI"},"type":"Feature","geometry":{"type":"Point","coordinates":[-83.178023,42.373881]}},{"properties":{"city":"Detroit","intersection or address":"5600 BLOCK COBB PLACE","country":"United States","geo_score":0.767,"id":"a7907ozvb56q","geo_precision":"range","state":"MI"},"type":"Feature","geometry":{"type":"Point","coordinates":[-83.124299,42.346302]}},{"properties":{"city":"Detroit","intersection or address":"3800 BLOCK CARPENTER RD","country":"United States","geo_score":0.675,"id":"a7907p6y6lln","geo_precision":"range","state":"MI"},"type":"Feature","geometry":{"type":"Point","coordinates":[-83.055207,42.408944]}},{"properties":{"city":"Detroit","intersection or address":"22000 BLOCK W. 8 MILE","country":"United States","geo_score":0.494,"id":"a7907p9ziftp","geo_precision":"street","state":"MI"},"type":"Feature","geometry":{"type":"Point","coordinates":[-83.138494,42.382239]}},{"properties":{"city":"Detroit","intersection or address":"MACK/MOROSS","country":"United States","geo_score":0.536,"id":"a7907pdb4etw","geo_precision":"street","state":"MI"},"type":"Feature","geometry":{"type":"Point","coordinates":[-83.178023,42.373881]}},{"properties":{"city":"Detroit","intersection or address":"3400 BLOCK JUNCTION","country":"United States","geo_score":0.54,"id":"a7907p7gow1u","geo_precision":"street","state":"MI"},"type":"Feature","geometry":{"type":"Point","coordinates":[-83.092372,42.304662]}},{"properties":{"city":"Detroit","intersection or address":"14600 BLOCK PARDEE RD","country":"United States","geo_score":0.415,"id":"a7907p1i1mq4","geo_precision":"street","state":"MI"},"type":"Feature","geometry":{"type":"Point","coordinates":[-83.10828,42.434205]}},{"properties":{"city":"Detroit","intersection or address":"2000 BLOCK OAKMAN BLVD.","country":"United States","geo_score":0.799,"id":"a7907p0936vy","geo_precision":"range","state":"MI"},"type":"Feature","geometry":{"type":"Point","coordinates":[-83.129891,42.39427]}},{"properties":{"city":"Detroit","intersection or address":"7100 BLOCK HOMESTEAD RD","country":"United States","geo_score":0.577,"id":"a7907oypkyz8","geo_precision":"street","state":"MI"},"type":"Feature","geometry":{"type":"Point","coordinates":[-83.046763,42.368044]}},{"properties":{"city":"Detroit","intersection or address":"15900 BLOCK FAIRCREST","country":"United States","geo_score":0.727,"id":"a7907p4j8hda","geo_precision":"range","state":"MI"},"type":"Feature","geometry":{"type":"Point","coordinates":[-82.957285,42.432252]}},{"properties":{"city":"Detroit","intersection or address":"24200 BLOCK W 7 MILE APT83A","country":"United States","geo_score":0.756,"id":"a7907pdj1dn3","geo_precision":"range","state":"MI"},"type":"Feature","geometry":{"type":"Point","coordinates":[-83.279325,42.428875]}},{"properties":{"city":"Detroit","intersection or address":"E HANCOCK/ST ANTOINE","country":"United States","geo_score":0.527,"id":"a7907p2ek6l0","geo_precision":"street","state":"MI"},"type":"Feature","geometry":{"type":"Point","coordinates":[-83.040977,42.335597]}},{"properties":{"city":"Detroit","intersection or address":"3400 BLOCK KATHERINE","country":"United States","geo_score":0.434,"id":"a7907p9c47w3","geo_precision":"street","state":"MI"},"type":"Feature","geometry":{"type":"Point","coordinates":[-83.132348,42.264981]}},{"properties":{"city":"Detroit","intersection or address":"14200 BLOCK SHELDON RD","country":"United States","geo_score":0.482,"id":"a7907oze611g","geo_precision":"street","state":"MI"},"type":"Feature","geometry":{"type":"Point","coordinates":[-82.877896,42.434571]}},{"properties":{"city":"Detroit","intersection or address":"R/O 2030 PARK","country":"United States","geo_score":0.5,"id":"a7907pam3eg9","geo_precision":"street","state":"MI"},"type":"Feature","geometry":{"type":"Point","coordinates":[-83.264209,42.390437]}},{"properties":{"city":"Detroit","intersection or address":"W 7 MILE/GRAND RIVER","country":"United States","geo_score":0.74,"id":"a7907p9uf675","geo_precision":"street","state":"MI"},"type":"Feature","geometry":{"type":"Point","coordinates":[-83.134751,42.431706]}},{"properties":{"city":"Detroit","intersection or address":"00 BLOCK W. ADAMS AVE","country":"United States","geo_score":0.471,"id":"a7907p9qkql6","geo_precision":"street","state":"MI"},"type":"Feature","geometry":{"type":"Point","coordinates":[-83.05089,42.336981]}},{"properties":{"city":"Detroit","intersection or address":"W JEFFERSON/WOODWARD","country":"United States","geo_score":0.714,"id":"a7907p2b1alp","geo_precision":"street","state":"MI"},"type":"Feature","geometry":{"type":"Point","coordinates":[-83.045921,42.330166]}},{"properties":{"city":"Detroit","intersection or address":"20400 BLOCK KENTUCKY","country":"United States","geo_score":0.401,"id":"a7907p7hxjnk","geo_precision":"street","state":"MI"},"type":"Feature","geometry":{"type":"Point","coordinates":[-83.10828,42.434205]}},{"properties":{"city":"Detroit","intersection or address":"2700 BLOCK E JEFFERSON","country":"United States","geo_score":0.73,"id":"a7907p9mq0ez","geo_precision":"range","state":"MI"},"type":"Feature","geometry":{"type":"Point","coordinates":[-83.020428,42.339007]}},{"properties":{"city":"Detroit","intersection or address":"EVERGREEN/W 7 MILE","country":"United States","geo_score":0.74,"id":"a7907p4lj627","geo_precision":"street","state":"MI"},"type":"Feature","geometry":{"type":"Point","coordinates":[-83.134751,42.431706]}},{"properties":{"city":"Detroit","intersection or address":"MOUND/W OUTER DRIVE","country":"United States","geo_score":0.696,"id":"a7907pd1cz4j","geo_precision":"street","state":"MI"},"type":"Feature","geometry":{"type":"Point","coordinates":[-83.043127,42.427867]}},{"properties":{"city":"Detroit","intersection or address":"9200 BLOCK MACARTHUR BLVD","country":"United States","geo_score":0.463,"id":"a7907ozgwzi3","geo_precision":"street","state":"MI"},"type":"Feature","geometry":{"type":"Point","coordinates":[-83.303159,42.399221]}},{"properties":{"city":"Detroit","intersection or address":"BRUSH AND WARREN","country":"United States","geo_score":0.589,"id":"a7907p0xgob8","geo_precision":"street","state":"MI"},"type":"Feature","geometry":{"type":"Point","coordinates":[-83.041041,42.33036]}},{"properties":{"city":"Detroit","intersection or address":"MICHIGAN/ LARKINS","country":"United States","geo_score":0.729,"id":"a7907pacc0ef","geo_precision":"street","state":"MI"},"type":"Feature","geometry":{"type":"Point","coordinates":[-83.129289,42.3292]}},{"properties":{"city":"Detroit","intersection or address":"RANDOLPH / CONGRESS","country":"United States","geo_score":0.74,"id":"a7907oztdn7u","geo_precision":"street","state":"MI"},"type":"Feature","geometry":{"type":"Point","coordinates":[-83.042184,42.327328]}},{"properties":{"city":"Detroit","intersection or address":"5200 BLOCK TARNOW","country":"United States","geo_score":0.683,"id":"a7907p5tc9nr","geo_precision":"range","state":"MI"},"type":"Feature","geometry":{"type":"Point","coordinates":[-83.137262,42.334942]}},{"properties":{"city":"Detroit","intersection or address":"12700 BLOCK MARLOWE","country":"United States","geo_score":0.7,"id":"a7907p5i18fs","geo_precision":"range","state":"MI"},"type":"Feature","geometry":{"type":"Point","coordinates":[-83.189257,42.383759]}},{"properties":{"city":"Detroit","intersection or address":"36600 BLOCK SCHOOLCRAFT","country":"United States","geo_score":0.403,"id":"a7907p5emkwe","geo_precision":"street","state":"MI"},"type":"Feature","geometry":{"type":"Point","coordinates":[-83.10828,42.434205]}},{"properties":{"city":"Detroit","intersection or address":"36700 BLOCK SCHOOLCRAFT","country":"United States","geo_score":0.403,"id":"a7907p26905q","geo_precision":"street","state":"MI"},"type":"Feature","geometry":{"type":"Point","coordinates":[-83.10828,42.434205]}},{"properties":{"city":"Detroit","intersection or address":"36500 BLOCK FIVEMILE","country":"United States","geo_score":0.401,"id":"a7907pa9zyom","geo_precision":"street","state":"MI"},"type":"Feature","geometry":{"type":"Point","coordinates":[-83.10828,42.434205]}},{"properties":{"city":"Detroit","intersection or address":"36500 BLOCK FIVEMILE","country":"United States","geo_score":0.401,"id":"a7907pcx9d9z","geo_precision":"street","state":"MI"},"type":"Feature","geometry":{"type":"Point","coordinates":[-83.10828,42.434205]}},{"properties":{"city":"Detroit","intersection or address":"36500 BLOCK FIVEMILE","country":"United States","geo_score":0.401,"id":"a7907ozcob3j","geo_precision":"street","state":"MI"},"type":"Feature","geometry":{"type":"Point","coordinates":[-83.10828,42.434205]}},{"properties":{"city":"Detroit","intersection or address":"36500 BLOCK FIVEMILE","country":"United States","geo_score":0.401,"id":"a7907p9v0s5j","geo_precision":"street","state":"MI"},"type":"Feature","geometry":{"type":"Point","coordinates":[-83.10828,42.434205]}},{"properties":{"city":"Detroit","intersection or address":"3500 BLOCK KATHERINE","country":"United States","geo_score":0.434,"id":"a7907p8ndebv","geo_precision":"street","state":"MI"},"type":"Feature","geometry":{"type":"Point","coordinates":[-83.132348,42.264981]}},{"properties":{"city":"Detroit","intersection or address":"3400 BLOCK CHICAGO BLVD","country":"United States","geo_score":0.821,"id":"a7907pcempyo","geo_precision":"range","state":"MI"},"type":"Feature","geometry":{"type":"Point","coordinates":[-83.118633,42.373734]}},{"properties":{"city":"Detroit","intersection or address":"12700 BLOCK HAZELTON","country":"United States","geo_score":0.714,"id":"a7907p85xx7j","geo_precision":"range","state":"MI"},"type":"Feature","geometry":{"type":"Point","coordinates":[-83.26722,42.380055]}},{"properties":{"city":"Detroit","intersection or address":"10600 BLOCK BELLEVILLE RD","country":"United States","geo_score":0.394,"id":"a7907p1letj4","geo_precision":"street","state":"MI"},"type":"Feature","geometry":{"type":"Point","coordinates":[-83.10828,42.434205]}},{"properties":{"city":"Detroit","intersection or address":"4700 BLOCK E OUTER DRIVE","country":"United States","geo_score":0.793,"id":"a7907p8p34og","geo_precision":"range","state":"MI"},"type":"Feature","geometry":{"type":"Point","coordinates":[-83.021658,42.441184]}},{"properties":{"city":"Detroit","intersection or address":"W 7 MILE/MEYERS","country":"United States","geo_score":0.714,"id":"a7907p9ta58w","geo_precision":"street","state":"MI"},"type":"Feature","geometry":{"type":"Point","coordinates":[-83.167504,42.353902]}},{"properties":{"city":"Detroit","intersection or address":"8431 ROSA PARKS ( PARKING LOT )","country":"United States","geo_score":0.714,"id":"a7907pcttkof","geo_precision":"street","state":"MI"},"type":"Feature","geometry":{"type":"Point","coordinates":[-83.066845,42.322354]}},{"properties":{"city":"Detroit","intersection or address":"5700 BLOCK FISCHER","country":"United States","geo_score":0.7,"id":"a7907p9z8pow","geo_precision":"range","state":"MI"},"type":"Feature","geometry":{"type":"Point","coordinates":[-83.010489,42.385175]}},{"properties":{"city":"Detroit","intersection or address":"19900 BLOCK VANDYKE","country":"United States","geo_score":0.55,"id":"a7907p4xthjd","geo_precision":"street","state":"MI"},"type":"Feature","geometry":{"type":"Point","coordinates":[-83.014113,42.378034]}},{"properties":{"city":"Detroit","intersection or address":"7400 BLOCK BINGHAM","country":"United States","geo_score":0.385,"id":"a7907pc7ie9c","geo_precision":"street","state":"MI"},"type":"Feature","geometry":{"type":"Point","coordinates":[-83.10828,42.434205]}},{"properties":{"city":"Detroit","intersection or address":"18200 BLOCK WARRINGTON","country":"United States","geo_score":0.738,"id":"a7907p4i67pc","geo_precision":"range","state":"MI"},"type":"Feature","geometry":{"type":"Point","coordinates":[-83.139832,42.426432]}},{"properties":{"city":"Detroit","intersection or address":"00 BLOCK MILE RD/RYAN","country":"United States","geo_score":0.673,"id":"a7907p2lmrua","geo_precision":"street","state":"MI"},"type":"Feature","geometry":{"type":"Point","coordinates":[-83.062784,42.427386]}},{"properties":{"city":"Detroit","intersection or address":"15000 BLOCK MACK","country":"United States","geo_score":0.473,"id":"a7907p0t6p2f","geo_precision":"street","state":"MI"},"type":"Feature","geometry":{"type":"Point","coordinates":[-83.178023,42.373881]}},{"properties":{"city":"Detroit","intersection or address":"7400 BLOCK OAKMONT","country":"United States","geo_score":0.55,"id":"a7907pd0i1ed","geo_precision":"street","state":"MI"},"type":"Feature","geometry":{"type":"Point","coordinates":[-83.012875,42.428816]}},{"properties":{"city":"Detroit","intersection or address":"4000 BLOCK MICHIGAN AVE.","country":"United States","geo_score":0.805,"id":"a7907ozk9nvc","geo_precision":"range","state":"MI"},"type":"Feature","geometry":{"type":"Point","coordinates":[-83.099562,42.331319]}},{"properties":{"city":"Detroit","intersection or address":"8800 BLOCK GRATIOT AVE","country":"United States","geo_score":0.799,"id":"a7907paxpfjh","geo_precision":"range","state":"MI"},"type":"Feature","geometry":{"type":"Point","coordinates":[-83.009287,42.386992]}},{"properties":{"city":"Detroit","intersection or address":"25400 BLOCK ECORSE RD","country":"United States","geo_score":0.415,"id":"a7907p74vuhs","geo_precision":"street","state":"MI"},"type":"Feature","geometry":{"type":"Point","coordinates":[-83.10828,42.434205]}},{"properties":{"city":"Detroit","intersection or address":"3800 BLOCK CARPENTER RD","country":"United States","geo_score":0.675,"id":"a7907pbdgjf9","geo_precision":"range","state":"MI"},"type":"Feature","geometry":{"type":"Point","coordinates":[-83.055207,42.408944]}},{"properties":{"city":"Detroit","intersection or address":"900 BLOCK CANTERBURY","country":"United States","geo_score":0.543,"id":"a7907p4zf53g","geo_precision":"street","state":"MI"},"type":"Feature","geometry":{"type":"Point","coordinates":[-83.132905,42.432466]}},{"properties":{"city":"Detroit","intersection or address":"12500 BLOCK S TELEGRAPH RD","country":"United States","geo_score":0.59,"id":"a7907pco0v24","geo_precision":"street","state":"MI"},"type":"Feature","geometry":{"type":"Point","coordinates":[-83.276781,42.409518]}},{"properties":{"city":"Detroit","intersection or address":"11400 BLOCK E.OUTER DR","country":"United States","geo_score":0.514,"id":"a7907p6liptf","geo_precision":"street","state":"MI"},"type":"Feature","geometry":{"type":"Point","coordinates":[-83.079449,42.440058]}},{"properties":{"city":"Detroit","intersection or address":"77800 BLOCK ABINGTON","country":"United States","geo_score":0.498,"id":"a7907p53eqkh","geo_precision":"street","state":"MI"},"type":"Feature","geometry":{"type":"Point","coordinates":[-83.212166,42.3957]}},{"properties":{"city":"Detroit","intersection or address":"5500 BLOCK ST ANTOINE","country":"United States","geo_score":0.543,"id":"a7907p5s4p9y","geo_precision":"street","state":"MI"},"type":"Feature","geometry":{"type":"Point","coordinates":[-83.04929,42.348292]}},{"properties":{"city":"Detroit","intersection or address":"F/O 12625 W. OUTER DRIVE DET. 48223","country":"United States","geo_score":0.415,"id":"a7907pbo4u7v","geo_precision":"street","state":"MI"},"type":"Feature","geometry":{"type":"Point","coordinates":[-83.1612,42.255499]}},{"properties":{"city":"Detroit","intersection or address":"GRATIOT/E 8 MILE RD","country":"United States","geo_score":0.701,"id":"a7907pca2yyz","geo_precision":"street","state":"MI"},"type":"Feature","geometry":{"type":"Point","coordinates":[-83.046197,42.333968]}},{"properties":{"city":"Detroit","intersection or address":"9100 BLOCK CHALMERS","country":"United States","geo_score":0.714,"id":"a7907pcnflmw","geo_precision":"range","state":"MI"},"type":"Feature","geometry":{"type":"Point","coordinates":[-82.965379,42.406101]}},{"properties":{"city":"Detroit","intersection or address":"F/0 15741 CLOVERLAWN","country":"United States","geo_score":0.488,"id":"a7907peomqoc","geo_precision":"city","state":"MI"},"type":"Feature","geometry":{"type":"Point","coordinates":[-83.150823,42.239933]}},{"properties":{"city":"Detroit","intersection or address":"00 BLOCK W. ADAMS (UNDREGROUND PARKING)","country":"United States","geo_score":0.643,"id":"a7907pelzbrl","geo_precision":"street","state":"MI"},"type":"Feature","geometry":{"type":"Point","coordinates":[-83.05089,42.336981]}},{"properties":{"city":"Detroit","intersection or address":"TYLER/LAWTON","country":"United States","geo_score":0.696,"id":"a7907ozbsydf","geo_precision":"street","state":"MI"},"type":"Feature","geometry":{"type":"Point","coordinates":[-83.108909,42.396243]}},{"properties":{"city":"Detroit","intersection or address":"TELEGRAPH / 8 MILE","country":"United States","geo_score":0.494,"id":"a7907pclq1mi","geo_precision":"street","state":"MI"},"type":"Feature","geometry":{"type":"Point","coordinates":[-83.138494,42.382239]}},{"properties":{"city":"Detroit","intersection or address":"ALLEN RD/EUREKA RD","country":"United States","geo_score":0.75,"id":"a7907p070piv","geo_precision":"street","state":"MI"},"type":"Feature","geometry":{"type":"Point","coordinates":[-83.15032,42.370281]}},{"properties":{"city":"Detroit","intersection or address":"F/O 15703 INDIANA","country":"United States","geo_score":0.429,"id":"a7907pah46hs","geo_precision":"street","state":"MI"},"type":"Feature","geometry":{"type":"Point","coordinates":[-87.563233,44.240457]}},{"properties":{"city":"Detroit","intersection or address":"JOHN R. / E. HANCOCK","country":"United States","geo_score":0.49,"id":"a7907p6gij74","geo_precision":"street","state":"MI"},"type":"Feature","geometry":{"type":"Point","coordinates":[-82.991102,42.414682]}},{"properties":{"city":"Detroit","intersection or address":"16100 BLOCK GRIGGS","country":"United States","geo_score":0.683,"id":"a7907p900e39","geo_precision":"range","state":"MI"},"type":"Feature","geometry":{"type":"Point","coordinates":[-83.16336,42.412079]}},{"properties":{"city":"Detroit","intersection or address":"4200 BLOCK E. EIGHT MILE RD","country":"United States","geo_score":0.506,"id":"a7907p6nzrsd","geo_precision":"street","state":"MI"},"type":"Feature","geometry":{"type":"Point","coordinates":[-83.137894,42.381355]}},{"properties":{"city":"Detroit","intersection or address":"JOHN R/FARMER","country":"United States","geo_score":0.714,"id":"a7907pemp9i3","geo_precision":"street","state":"MI"},"type":"Feature","geometry":{"type":"Point","coordinates":[-83.04864,42.335282]}},{"properties":{"city":"Detroit","intersection or address":"17300 BLOCK MARK TWAIN","country":"United States","geo_score":0.738,"id":"a7907p575dre","geo_precision":"range","state":"MI"},"type":"Feature","geometry":{"type":"Point","coordinates":[-83.187334,42.419981]}},{"properties":{"city":"Detroit","intersection or address":"BERTS PLACE 2739 RUSSELL ST 48207","country":"United States","geo_score":0.571,"id":"a7907p4p4d77","geo_precision":"street","state":"MI"},"type":"Feature","geometry":{"type":"Point","coordinates":[-83.038708,42.343584]}},{"properties":{"city":"Detroit","intersection or address":"2700 BLOCK RUSSELL","country":"United States","geo_score":0.7,"id":"a7907p1vh5o8","geo_precision":"range","state":"MI"},"type":"Feature","geometry":{"type":"Point","coordinates":[-83.041339,42.34767]}},{"properties":{"city":"Detroit","intersection or address":"ORANGELAWN AND GREENFIELD","country":"United States","geo_score":0.651,"id":"a7907p8kkc0h","geo_precision":"street","state":"MI"},"type":"Feature","geometry":{"type":"Point","coordinates":[-83.164414,42.368946]}},{"properties":{"city":"Detroit","intersection or address":"FARMER/MONROE","country":"United States","geo_score":0.714,"id":"a7907oysultb","geo_precision":"street","state":"MI"},"type":"Feature","geometry":{"type":"Point","coordinates":[-83.043741,42.332513]}},{"properties":{"city":"Detroit","intersection or address":"2700 BLOCK RUSSELL","country":"United States","geo_score":0.7,"id":"a7907pbtm3qw","geo_precision":"range","state":"MI"},"type":"Feature","geometry":{"type":"Point","coordinates":[-83.041339,42.34767]}},{"properties":{"city":"Detroit","intersection or address":"100 BLOCK W JEFFERSON","country":"United States","geo_score":0.73,"id":"a7907p45d8a5","geo_precision":"range","state":"MI"},"type":"Feature","geometry":{"type":"Point","coordinates":[-83.046984,42.327698]}},{"properties":{"city":"Detroit","intersection or address":"LAFAYETTE @ BEAUBIEN","country":"United States","geo_score":0.74,"id":"a7907p9h3j6y","geo_precision":"street","state":"MI"},"type":"Feature","geometry":{"type":"Point","coordinates":[-83.039343,42.33032]}},{"properties":{"city":"Detroit","intersection or address":"RUSSELL/GRATIOT","country":"United States","geo_score":0.729,"id":"a7907p6fv12y","geo_precision":"street","state":"MI"},"type":"Feature","geometry":{"type":"Point","coordinates":[-83.038708,42.343584]}},{"properties":{"city":"Detroit","intersection or address":"19400 BLOCK SHERWOOD","country":"United States","geo_score":0.714,"id":"a7907p2torks","geo_precision":"range","state":"MI"},"type":"Feature","geometry":{"type":"Point","coordinates":[-83.034114,42.437691]}},{"properties":{"city":"Detroit","intersection or address":"CHESTERFIELD/LIVERNOIS","country":"United States","geo_score":0.725,"id":"a7907oz8lfpt","geo_precision":"street","state":"MI"},"type":"Feature","geometry":{"type":"Point","coordinates":[-83.103473,42.30663]}},{"properties":{"city":"Detroit","intersection or address":"E OUTER DRIVE &amp; SHERWOOD","country":"United States","geo_score":0.74,"id":"a7907p6m3cyq","geo_precision":"street","state":"MI"},"type":"Feature","geometry":{"type":"Point","coordinates":[-83.030896,42.383085]}},{"properties":{"city":"Detroit","intersection or address":"GRATIOT/RUSSELL","country":"United States","geo_score":0.701,"id":"a7907peutxem","geo_precision":"street","state":"MI"},"type":"Feature","geometry":{"type":"Point","coordinates":[-83.046197,42.333968]}},{"properties":{"city":"Detroit","intersection or address":"9200 BLOCK CHEYENNE","country":"United States","geo_score":0.714,"id":"a7907p1oq0rp","geo_precision":"range","state":"MI"},"type":"Feature","geometry":{"type":"Point","coordinates":[-83.173848,42.362274]}},{"properties":{"city":"Detroit","intersection or address":"BATES/CADILLAC SQUARE","country":"United States","geo_score":0.696,"id":"a7907p2jw7wo","geo_precision":"street","state":"MI"},"type":"Feature","geometry":{"type":"Point","coordinates":[-83.044137,42.329902]}},{"properties":{"city":"Detroit","intersection or address":"18600 BLOCK FORD RD","country":"United States","geo_score":0.767,"id":"a7907p3jcop8","geo_precision":"range","state":"MI"},"type":"Feature","geometry":{"type":"Point","coordinates":[-83.2215,42.329003]}},{"properties":{"city":"Detroit","intersection or address":"GRANDRIVER AND BROADWAY","country":"United States","geo_score":0.634,"id":"a7907oz83xnm","geo_precision":"street","state":"MI"},"type":"Feature","geometry":{"type":"Point","coordinates":[-83.074779,42.342836]}},{"properties":{"city":"Detroit","intersection or address":"7000 BLOCK LONYO","country":"United States","geo_score":0.495,"id":"a7907p33uotp","geo_precision":"street","state":"MI"},"type":"Feature","geometry":{"type":"Point","coordinates":[-83.150457,42.338384]}},{"properties":{"city":"Detroit","intersection or address":"RUSSELL ST. /DIVISION","country":"United States","geo_score":0.74,"id":"a7907pby5jl5","geo_precision":"street","state":"MI"},"type":"Feature","geometry":{"type":"Point","coordinates":[-83.050112,42.343998]}},{"properties":{"city":"Detroit","intersection or address":"3100 BLOCK WESTWOOD","country":"United States","geo_score":0.519,"id":"a7907p2q7j33","geo_precision":"street","state":"MI"},"type":"Feature","geometry":{"type":"Point","coordinates":[-83.230106,42.33236]}},{"properties":{"city":"Detroit","intersection or address":"2ND / HENRY","country":"United States","geo_score":0.5,"id":"a7907p4h09hz","geo_precision":"street","state":"MI"},"type":"Feature","geometry":{"type":"Point","coordinates":[-83.067071,42.34191]}},{"properties":{"city":"Detroit","intersection or address":"6000 BLOCK WILKIE AVE","country":"United States","geo_score":0.409,"id":"a7907padvn7i","geo_precision":"street","state":"MI"},"type":"Feature","geometry":{"type":"Point","coordinates":[-83.10828,42.434205]}},{"properties":{"city":"Detroit","intersection or address":"6600 BLOCK LIVERNOIS","country":"United States","geo_score":0.532,"id":"a7907oynbi2s","geo_precision":"street","state":"MI"},"type":"Feature","geometry":{"type":"Point","coordinates":[-83.099207,42.300747]}},{"properties":{"city":"Detroit","intersection or address":"LIVERNOIS/FENKELL","country":"United States","geo_score":0.729,"id":"a7907pegcya6","geo_precision":"street","state":"MI"},"type":"Feature","geometry":{"type":"Point","coordinates":[-83.122402,42.403045]}},{"properties":{"city":"Detroit","intersection or address":"JOY / MENDOTA","country":"United States","geo_score":0.643,"id":"a7907p8h20kz","geo_precision":"street","state":"MI"},"type":"Feature","geometry":{"type":"Point","coordinates":[-83.111548,42.372437]}},{"properties":{"city":"Detroit","intersection or address":"2500 BLOCK GRANDRIVER AVE","country":"United States","geo_score":0.815,"id":"a7907p1bq88n","geo_precision":"range","state":"MI"},"type":"Feature","geometry":{"type":"Point","coordinates":[-83.062803,42.337976]}},{"properties":{"city":"Detroit","intersection or address":"GRATIOT / FARMER","country":"United States","geo_score":0.714,"id":"a7907pdyiov9","geo_precision":"street","state":"MI"},"type":"Feature","geometry":{"type":"Point","coordinates":[-83.043741,42.332513]}},{"properties":{"city":"Detroit","intersection or address":"NORTHLAWN/FENKELL (WATTS","country":"United States","geo_score":0.5,"id":"a7907p0dza44","geo_precision":"street","state":"MI"},"type":"Feature","geometry":{"type":"Point","coordinates":[-83.151782,42.35424]}},{"properties":{"city":"Detroit","intersection or address":"2500 BLOCK GRAND RIVER","country":"United States","geo_score":0.746,"id":"a7907p9v0nwm","geo_precision":"range","state":"MI"},"type":"Feature","geometry":{"type":"Point","coordinates":[-83.09359,42.362522]}},{"properties":{"city":"Detroit","intersection or address":"9900 BLOCK BELLETERRE","country":"United States","geo_score":0.738,"id":"a7907p5x8ng5","geo_precision":"range","state":"MI"},"type":"Feature","geometry":{"type":"Point","coordinates":[-83.13622,42.36978]}},{"properties":{"city":"Detroit","intersection or address":"17100 BLOCK CONANT","country":"United States","geo_score":0.488,"id":"a7907pb4k3h6","geo_precision":"street","state":"MI"},"type":"Feature","geometry":{"type":"Point","coordinates":[-83.069172,42.426618]}},{"properties":{"city":"Detroit","intersection or address":"GARFIELD / JOHN R (PARKED ON THE CORNER)","country":"United States","geo_score":0.714,"id":"a7907p3nn561","geo_precision":"street","state":"MI"},"type":"Feature","geometry":{"type":"Point","coordinates":[-83.04864,42.335282]}},{"properties":{"city":"Detroit","intersection or address":"20600 BLOCK MCCORMICK","country":"United States","geo_score":0.376,"id":"a7907p8xvjq3","geo_precision":"street","state":"MI"},"type":"Feature","geometry":{"type":"Point","coordinates":[-83.10828,42.434205]}},{"properties":{"city":"Detroit","intersection or address":"5800 BLOCK W MICHIGAN AVE","country":"United States","geo_score":0.785,"id":"a7907p1rbtun","geo_precision":"range","state":"MI"},"type":"Feature","geometry":{"type":"Point","coordinates":[-83.114714,42.33115]}},{"properties":{"city":"Detroit","intersection or address":"1300 BLOCK FISCHER","country":"United States","geo_score":0.602,"id":"a7907pbkeqla","geo_precision":"street","state":"MI"},"type":"Feature","geometry":{"type":"Point","coordinates":[-82.990438,42.357381]}},{"properties":{"city":"Detroit","intersection or address":"32600 BLOCK PLYMOUTH RD","country":"United States","geo_score":0.604,"id":"a7907pf60kuw","geo_precision":"street","state":"MI"},"type":"Feature","geometry":{"type":"Point","coordinates":[-83.265705,42.371506]}},{"properties":{"city":"Detroit","intersection or address":"22300 BLOCK W 8 MILE RD","country":"United States","geo_score":0.677,"id":"a7907p264b8g","geo_precision":"range","state":"MI"},"type":"Feature","geometry":{"type":"Point","coordinates":[-83.259999,42.443117]}},{"properties":{"city":"Detroit","intersection or address":"22300 BLOCK W 8 MILE RD","country":"United States","geo_score":0.677,"id":"a7907p3j6p32","geo_precision":"range","state":"MI"},"type":"Feature","geometry":{"type":"Point","coordinates":[-83.259999,42.443117]}},{"properties":{"city":"Detroit","intersection or address":"5300 BLOCK W MICHIGAN AVE","country":"United States","geo_score":0.785,"id":"a7907p2npy96","geo_precision":"range","state":"MI"},"type":"Feature","geometry":{"type":"Point","coordinates":[-83.109171,42.331262]}},{"properties":{"city":"Detroit","intersection or address":"17000 BLOCK HARPER","country":"United States","geo_score":0.659,"id":"a7907pdgk9dq","geo_precision":"range","state":"MI"},"type":"Feature","geometry":{"type":"Point","coordinates":[-82.936636,42.416436]}},{"properties":{"city":"Detroit","intersection or address":"BRAINARD E/O THIRD ST","country":"United States","geo_score":0.643,"id":"a7907ozt6vn5","geo_precision":"street","state":"MI"},"type":"Feature","geometry":{"type":"Point","coordinates":[-83.05362,42.326862]}},{"properties":{"city":"Detroit","intersection or address":"16600 BLOCK LAHSER","country":"United States","geo_score":0.683,"id":"a7907p6ti8b4","geo_precision":"range","state":"MI"},"type":"Feature","geometry":{"type":"Point","coordinates":[-83.257207,42.410698]}},{"properties":{"city":"Detroit","intersection or address":"MACK / BEAUBIEN","country":"United States","geo_score":0.536,"id":"a7907pdjoel5","geo_precision":"street","state":"MI"},"type":"Feature","geometry":{"type":"Point","coordinates":[-83.178023,42.373881]}},{"properties":{"city":"Detroit","intersection or address":"6800 BLOCK E NEVADA","country":"United States","geo_score":0.714,"id":"a7907pcbc1g2","geo_precision":"range","state":"MI"},"type":"Feature","geometry":{"type":"Point","coordinates":[-83.033073,42.426457]}},{"properties":{"city":"Detroit","intersection or address":"12000 BLOCK FARMINGTON RD","country":"United States","geo_score":0.379,"id":"a7907p1mdukg","geo_precision":"street","state":"MI"},"type":"Feature","geometry":{"type":"Point","coordinates":[-83.10828,42.434205]}},{"properties":{"city":"Detroit","intersection or address":"PLUM/TRUMBULL","country":"United States","geo_score":0.673,"id":"a7907p3afpfo","geo_precision":"street","state":"MI"},"type":"Feature","geometry":{"type":"Point","coordinates":[-83.059417,42.335208]}},{"properties":{"city":"Detroit","intersection or address":"5900 BLOCK WILLIAM AVE","country":"United States","geo_score":0.472,"id":"a7907p1fipec","geo_precision":"street","state":"MI"},"type":"Feature","geometry":{"type":"Point","coordinates":[-82.896806,42.427693]}},{"properties":{"city":"Detroit","intersection or address":"STATE FAIR AND JOHN R","country":"United States","geo_score":0.633,"id":"a7907p62svh7","geo_precision":"street","state":"MI"},"type":"Feature","geometry":{"type":"Point","coordinates":[-83.01825,42.441458]}},{"properties":{"city":"Detroit","intersection or address":"E JEFFERSON/JOS CAMPAU","country":"United States","geo_score":0.486,"id":"a7907pf6br00","geo_precision":"street","state":"MI"},"type":"Feature","geometry":{"type":"Point","coordinates":[-83.044533,42.328857]}},{"properties":{"city":"Detroit","intersection or address":"16800 BLOCK ARDMORE","country":"United States","geo_score":0.7,"id":"a7907pb46klr","geo_precision":"range","state":"MI"},"type":"Feature","geometry":{"type":"Point","coordinates":[-83.185175,42.416525]}},{"properties":{"city":"Detroit","intersection or address":"2600 BLOCK E.JEFFERSON","country":"United States","geo_score":0.486,"id":"a7907p5qfkni","geo_precision":"street","state":"MI"},"type":"Feature","geometry":{"type":"Point","coordinates":[-83.045369,42.328165]}},{"properties":{"city":"Detroit","intersection or address":"2100 BLOCK WASHTENAW AVE","country":"United States","geo_score":0.471,"id":"a7907p54rhj7","geo_precision":"street","state":"MI"},"type":"Feature","geometry":{"type":"Point","coordinates":[-82.949376,42.435893]}},{"properties":{"city":"Detroit","intersection or address":"LINWOOD/W.CHICAGO","country":"United States","geo_score":0.471,"id":"a7907p1r7379","geo_precision":"street","state":"MI"},"type":"Feature","geometry":{"type":"Point","coordinates":[-83.095008,42.35402]}},{"properties":{"city":"Detroit","intersection or address":"5700 BLOCK SCHAEFER","country":"United States","geo_score":0.401,"id":"a7907p1zdl4p","geo_precision":"street","state":"MI"},"type":"Feature","geometry":{"type":"Point","coordinates":[-83.10828,42.434205]}},{"properties":{"city":"Detroit","intersection or address":"BURT/ OUTER DRIVE","country":"United States","geo_score":0.673,"id":"a7907paojchi","geo_precision":"street","state":"MI"},"type":"Feature","geometry":{"type":"Point","coordinates":[-83.245622,42.355546]}},{"properties":{"city":"Detroit","intersection or address":"WOODWARD AND MILWAUKEE","country":"United States","geo_score":0.643,"id":"a7907p12vzmv","geo_precision":"street","state":"MI"},"type":"Feature","geometry":{"type":"Point","coordinates":[-83.045921,42.330166]}},{"properties":{"city":"Detroit","intersection or address":"GRATIOT/CHENE","country":"United States","geo_score":0.696,"id":"a7907p2rurq3","geo_precision":"street","state":"MI"},"type":"Feature","geometry":{"type":"Point","coordinates":[-83.022646,42.338245]}},{"properties":{"city":"Detroit","intersection or address":"6000 BLOCK DUDLEY AVE","country":"United States","geo_score":0.409,"id":"a7907p1cl5q1","geo_precision":"street","state":"MI"},"type":"Feature","geometry":{"type":"Point","coordinates":[-83.10828,42.434205]}},{"properties":{"city":"Detroit","intersection or address":"20100 BLOCK PREST","country":"United States","geo_score":0.69,"id":"a7907pa3oboz","geo_precision":"range","state":"MI"},"type":"Feature","geometry":{"type":"Point","coordinates":[-83.198888,42.441037]}},{"properties":{"city":"Detroit","intersection or address":"F/O 5900 SECOND","country":"United States","geo_score":0.429,"id":"a7907ozms7qm","geo_precision":"street","state":"MI"},"type":"Feature","geometry":{"type":"Point","coordinates":[-87.563233,44.240457]}},{"properties":{"city":"Detroit","intersection or address":"18600 BLOCK WISCONSIN","country":"United States","geo_score":0.727,"id":"a7907p4wtsf5","geo_precision":"range","state":"MI"},"type":"Feature","geometry":{"type":"Point","coordinates":[-83.15764,42.429586]}},{"properties":{"city":"Detroit","intersection or address":"6600 BLOCK SCHAEFER","country":"United States","geo_score":0.401,"id":"a7907pcptcnd","geo_precision":"street","state":"MI"},"type":"Feature","geometry":{"type":"Point","coordinates":[-83.10828,42.434205]}},{"properties":{"city":"Detroit","intersection or address":"15000 BLOCK BILTMORE","country":"United States","geo_score":0.714,"id":"a7907p5u8zi2","geo_precision":"range","state":"MI"},"type":"Feature","geometry":{"type":"Point","coordinates":[-83.210635,42.401247]}},{"properties":{"city":"Detroit","intersection or address":"18400 BLOCK FORD RD","country":"United States","geo_score":0.767,"id":"a7907pf1yx7a","geo_precision":"range","state":"MI"},"type":"Feature","geometry":{"type":"Point","coordinates":[-83.217036,42.329077]}},{"properties":{"city":"Detroit","intersection or address":"GUTHRIE / VAN DYKE","country":"United States","geo_score":0.729,"id":"a7907p1qi2tk","geo_precision":"street","state":"MI"},"type":"Feature","geometry":{"type":"Point","coordinates":[-83.026035,42.398728]}},{"properties":{"city":"Detroit","intersection or address":"12500 BLOCK MORAN","country":"United States","geo_score":0.468,"id":"a7907pccuiov","geo_precision":"street","state":"MI"},"type":"Feature","geometry":{"type":"Point","coordinates":[-83.022549,42.35481]}},{"properties":{"city":"Detroit","intersection or address":"MAPLELAWN / WYOMING","country":"United States","geo_score":0.729,"id":"a7907p0odgqw","geo_precision":"street","state":"MI"},"type":"Feature","geometry":{"type":"Point","coordinates":[-83.156716,42.329522]}},{"properties":{"city":"Detroit","intersection or address":"8000 BLOCK PREST","country":"United States","geo_score":0.69,"id":"a7907pch3s7s","geo_precision":"range","state":"MI"},"type":"Feature","geometry":{"type":"Point","coordinates":[-83.195645,42.353424]}},{"properties":{"city":"Detroit","intersection or address":"19400 BLOCK LAUDER","country":"United States","geo_score":0.683,"id":"a7907p7tjazz","geo_precision":"range","state":"MI"},"type":"Feature","geometry":{"type":"Point","coordinates":[-83.19267,42.436021]}},{"properties":{"city":"Detroit","intersection or address":"46700 BLOCK INVERNESS","country":"United States","geo_score":0.532,"id":"a7907p2c0fku","geo_precision":"street","state":"MI"},"type":"Feature","geometry":{"type":"Point","coordinates":[-83.122999,42.415061]}},{"properties":{"city":"Detroit","intersection or address":"16200 BLOCK LINWOOD","country":"United States","geo_score":0.7,"id":"a7907pd0qjsf","geo_precision":"range","state":"MI"},"type":"Feature","geometry":{"type":"Point","coordinates":[-83.127825,42.411972]}},{"properties":{"city":"Detroit","intersection or address":"42200 BLOCK ADDISON","country":"United States","geo_score":0.505,"id":"a7907p6ni1uf","geo_precision":"street","state":"MI"},"type":"Feature","geometry":{"type":"Point","coordinates":[-83.155014,42.335698]}},{"properties":{"city":"Detroit","intersection or address":"2000 BLOCK BLAINE","country":"United States","geo_score":0.683,"id":"a7907p7l06g5","geo_precision":"range","state":"MI"},"type":"Feature","geometry":{"type":"Point","coordinates":[-83.099911,42.372363]}},{"properties":{"city":"Detroit","intersection or address":"10900 BLOCK WHITEHILL","country":"United States","geo_score":0.727,"id":"a7907p3yr34c","geo_precision":"range","state":"MI"},"type":"Feature","geometry":{"type":"Point","coordinates":[-82.95863,42.417229]}},{"properties":{"city":"Detroit","intersection or address":"8400 BLOCK CHUBB RD","country":"United States","geo_score":0.401,"id":"a7907p6savfk","geo_precision":"street","state":"MI"},"type":"Feature","geometry":{"type":"Point","coordinates":[-83.10828,42.434205]}},{"properties":{"city":"Detroit","intersection or address":"14700 BLOCK DEAN AVE","country":"United States","geo_score":0.582,"id":"a7907p4cnf07","geo_precision":"street","state":"MI"},"type":"Feature","geometry":{"type":"Point","coordinates":[-83.06174,42.427738]}},{"properties":{"city":"Detroit","intersection or address":"16800 BLOCK WARD","country":"United States","geo_score":0.668,"id":"a7907pb6ejm0","geo_precision":"range","state":"MI"},"type":"Feature","geometry":{"type":"Point","coordinates":[-83.174251,42.416629]}},{"properties":{"city":"Detroit","intersection or address":"16900 BLOCK MONTE VISTA","country":"United States","geo_score":0.473,"id":"a7907p3wwrzx","geo_precision":"street","state":"MI"},"type":"Feature","geometry":{"type":"Point","coordinates":[-83.043127,42.427867]}},{"properties":{"city":"Detroit","intersection or address":"23400 BLOCK GODDARD RD","country":"United States","geo_score":0.598,"id":"a7907pdv57mx","geo_precision":"street","state":"MI"},"type":"Feature","geometry":{"type":"Point","coordinates":[-83.328069,42.238934]}},{"properties":{"city":"Detroit","intersection or address":"MEYERS/7 MILE RD","country":"United States","geo_score":0.61,"id":"a7907p0tjgzr","geo_precision":"street","state":"MI"},"type":"Feature","geometry":{"type":"Point","coordinates":[-83.167434,42.352351]}},{"properties":{"city":"Detroit","intersection or address":"5100 BLOCK BOSUNS WAY","country":"United States","geo_score":0.39,"id":"a7907pdgnr1f","geo_precision":"street","state":"MI"},"type":"Feature","geometry":{"type":"Point","coordinates":[-83.10828,42.434205]}},{"properties":{"city":"Detroit","intersection or address":"11700 BLOCK COLLEGE","country":"United States","geo_score":0.7,"id":"a7907p07297r","geo_precision":"range","state":"MI"},"type":"Feature","geometry":{"type":"Point","coordinates":[-82.997283,42.417296]}},{"properties":{"city":"Detroit","intersection or address":"ERSKINE E/O JOHN R","country":"United States","geo_score":0.619,"id":"a7907pem6h2w","geo_precision":"street","state":"MI"},"type":"Feature","geometry":{"type":"Point","coordinates":[-83.04864,42.335282]}},{"properties":{"city":"Detroit","intersection or address":"MARTIN/MICHIGAN","country":"United States","geo_score":0.714,"id":"a7907pcx6yxx","geo_precision":"street","state":"MI"},"type":"Feature","geometry":{"type":"Point","coordinates":[-83.121887,42.323377]}},{"properties":{"city":"Detroit","intersection or address":"2000 BLOCK W. WARREN, DOUGLASS HIGH SCHOOL","country":"United States","geo_score":0.714,"id":"a7907p1saalj","geo_precision":"street","state":"MI"},"type":"Feature","geometry":{"type":"Point","coordinates":[-83.045107,42.364132]}},{"properties":{"city":"Detroit","intersection or address":"5300 BLOCK OREGON","country":"United States","geo_score":0.683,"id":"a7907oz5gu79","geo_precision":"range","state":"MI"},"type":"Feature","geometry":{"type":"Point","coordinates":[-83.126973,42.355529]}},{"properties":{"city":"Detroit","intersection or address":"4100 BLOCK GREEN MEADOWS BLVD","country":"United States","geo_score":0.512,"id":"a7907p0vzwwo","geo_precision":"street","state":"MI"},"type":"Feature","geometry":{"type":"Point","coordinates":[-83.118943,42.310612]}},{"properties":{"city":"Detroit","intersection or address":"10100 BLOCK E FORD RD","country":"United States","geo_score":0.551,"id":"a7907p5zvy9x","geo_precision":"street","state":"MI"},"type":"Feature","geometry":{"type":"Point","coordinates":[-83.217036,42.329077]}},{"properties":{"city":"Detroit","intersection or address":"4900 BLOCK CEDARVIEW ST","country":"United States","geo_score":0.431,"id":"a7907p1ez9db","geo_precision":"street","state":"MI"},"type":"Feature","geometry":{"type":"Point","coordinates":[-83.10828,42.434205]}},{"properties":{"city":"Detroit","intersection or address":"10100 BLOCK E FORD RD","country":"United States","geo_score":0.551,"id":"a7907p0brogc","geo_precision":"street","state":"MI"},"type":"Feature","geometry":{"type":"Point","coordinates":[-83.217036,42.329077]}},{"properties":{"city":"Detroit","intersection or address":"00 BLOCK E ALEXANDRINE","country":"United States","geo_score":0.272,"id":"a7907pcywzsd","geo_precision":"street","state":"MI"},"type":"Feature","geometry":{"type":"Point","coordinates":[-83.10828,42.434205]}},{"properties":{"city":"Detroit","intersection or address":"16800 BLOCK PLAINVIEW","country":"United States","geo_score":0.532,"id":"a7907pchgs2q","geo_precision":"street","state":"MI"},"type":"Feature","geometry":{"type":"Point","coordinates":[-83.239023,42.433858]}},{"properties":{"city":"Detroit","intersection or address":"IRON/JEFFERSON","country":"United States","geo_score":0.673,"id":"a7907pcn7qd5","geo_precision":"street","state":"MI"},"type":"Feature","geometry":{"type":"Point","coordinates":[-83.008046,42.342329]}},{"properties":{"city":"Detroit","intersection or address":"2100 BLOCK GLENCOE HILLS DR","country":"United States","geo_score":0.521,"id":"a7907pe6gifb","geo_precision":"street","state":"MI"},"type":"Feature","geometry":{"type":"Point","coordinates":[-83.255625,42.42138]}},{"properties":{"city":"Detroit","intersection or address":"3400 BLOCK EVALINE ST","country":"United States","geo_score":0.598,"id":"a7907oza0jco","geo_precision":"street","state":"MI"},"type":"Feature","geometry":{"type":"Point","coordinates":[-83.037827,42.401167]}},{"properties":{"city":"Detroit","intersection or address":"12700 BLOCK AUGUST","country":"United States","geo_score":0.745,"id":"a7907p8cw4jh","geo_precision":"range","state":"MI"},"type":"Feature","geometry":{"type":"Point","coordinates":[-83.248566,42.38032]}},{"properties":{"city":"Detroit","intersection or address":"5500 BLOCK YORKSHIRE","country":"United States","geo_score":0.727,"id":"a7907p3z99lx","geo_precision":"range","state":"MI"},"type":"Feature","geometry":{"type":"Point","coordinates":[-82.937295,42.409355]}},{"properties":{"city":"Detroit","intersection or address":"700 BLOCK HIGHLAND AVE","country":"United States","geo_score":0.382,"id":"a7907pa3lkn9","geo_precision":"street","state":"MI"},"type":"Feature","geometry":{"type":"Point","coordinates":[-83.10828,42.434205]}},{"properties":{"city":"Detroit","intersection or address":"18400 BLOCK MACK","country":"United States","geo_score":0.473,"id":"a7907pc9gesy","geo_precision":"street","state":"MI"},"type":"Feature","geometry":{"type":"Point","coordinates":[-83.178023,42.373881]}},{"properties":{"city":"Detroit","intersection or address":"42100 BLOCK CARRIAGE COVE CIR","country":"United States","geo_score":0.381,"id":"a7907pb38p9u","geo_precision":"street","state":"MI"},"type":"Feature","geometry":{"type":"Point","coordinates":[-83.10828,42.434205]}},{"properties":{"city":"Detroit","intersection or address":"900 BLOCK DICKERSON","country":"United States","geo_score":0.415,"id":"a7907p1k5sj2","geo_precision":"street","state":"MI"},"type":"Feature","geometry":{"type":"Point","coordinates":[-83.10828,42.434205]}},{"properties":{"city":"Detroit","intersection or address":"41000 BLOCK OLD MICHIGAN","country":"United States","geo_score":0.48,"id":"a7907pblzq3a","geo_precision":"street","state":"MI"},"type":"Feature","geometry":{"type":"Point","coordinates":[-83.155354,42.328137]}},{"properties":{"city":"Detroit","intersection or address":"15500 BLOCK BAYLIS","country":"United States","geo_score":0.512,"id":"a7907p3nx9de","geo_precision":"street","state":"MI"},"type":"Feature","geometry":{"type":"Point","coordinates":[-83.017688,42.437318]}},{"properties":{"city":"Detroit","intersection or address":"2500 BLOCK RIOPELLE","country":"United States","geo_score":0.714,"id":"a7907p96utoi","geo_precision":"range","state":"MI"},"type":"Feature","geometry":{"type":"Point","coordinates":[-83.039026,42.347169]}},{"properties":{"city":"Detroit","intersection or address":"34000 BLOCK ROYCROFT","country":"United States","geo_score":0.401,"id":"a7907ozvjbvy","geo_precision":"street","state":"MI"},"type":"Feature","geometry":{"type":"Point","coordinates":[-83.10828,42.434205]}},{"properties":{"city":"Detroit","intersection or address":"100 BLOCK SELDEN","country":"United States","geo_score":0.683,"id":"a7907pdlx41g","geo_precision":"range","state":"MI"},"type":"Feature","geometry":{"type":"Point","coordinates":[-83.061794,42.348715]}},{"properties":{"city":"Detroit","intersection or address":"E.JEFFERSON/COPLIN","country":"United States","geo_score":0.471,"id":"a7907pe6exfj","geo_precision":"street","state":"MI"},"type":"Feature","geometry":{"type":"Point","coordinates":[-82.970277,42.402525]}},{"properties":{"city":"Detroit","intersection or address":"5000 BLOCK DAILEY","country":"United States","geo_score":0.683,"id":"a7907p83ior7","geo_precision":"range","state":"MI"},"type":"Feature","geometry":{"type":"Point","coordinates":[-83.131592,42.362488]}},{"properties":{"city":"Detroit","intersection or address":"10100 BLOCK DUPREY","country":"United States","geo_score":0.683,"id":"a7907pdorigg","geo_precision":"range","state":"MI"},"type":"Feature","geometry":{"type":"Point","coordinates":[-82.937224,42.4209]}},{"properties":{"city":"Detroit","intersection or address":"13700 BLOCK COLSON","country":"United States","geo_score":0.464,"id":"a7907p860w8m","geo_precision":"street","state":"MI"},"type":"Feature","geometry":{"type":"Point","coordinates":[-83.167375,42.266103]}},{"properties":{"city":"Detroit","intersection or address":"2400 BLOCK PINECROFT","country":"United States","geo_score":0.415,"id":"a7907p4zxxpc","geo_precision":"street","state":"MI"},"type":"Feature","geometry":{"type":"Point","coordinates":[-83.10828,42.434205]}},{"properties":{"city":"Detroit","intersection or address":"13700 BLOCK COLSON","country":"United States","geo_score":0.464,"id":"a7907p5tk5zw","geo_precision":"street","state":"MI"},"type":"Feature","geometry":{"type":"Point","coordinates":[-83.167375,42.266103]}},{"properties":{"city":"Detroit","intersection or address":"PUTNAM / WOODWARD","country":"United States","geo_score":0.714,"id":"a7907p3eaj7d","geo_precision":"street","state":"MI"},"type":"Feature","geometry":{"type":"Point","coordinates":[-83.080576,42.352787]}},{"properties":{"city":"Detroit","intersection or address":"2600 BLOCK ORLEANS","country":"United States","geo_score":0.7,"id":"a7907p4y7sfr","geo_precision":"range","state":"MI"},"type":"Feature","geometry":{"type":"Point","coordinates":[-83.037977,42.348408]}},{"properties":{"city":"Detroit","intersection or address":"29800 BLOCK CARLYSLE AVE","country":"United States","geo_score":0.545,"id":"a7907p5m6dco","geo_precision":"street","state":"MI"},"type":"Feature","geometry":{"type":"Point","coordinates":[-82.946381,42.449352]}},{"properties":{"city":"Detroit","intersection or address":"42500 BLOCK BEECHWOOD","country":"United States","geo_score":0.532,"id":"a7907pbxy8rb","geo_precision":"street","state":"MI"},"type":"Feature","geometry":{"type":"Point","coordinates":[-83.135821,42.365491]}},{"properties":{"city":"Detroit","intersection or address":"LAPPIN/OUTER DRIVE","country":"United States","geo_score":0.714,"id":"a7907ozs0lig","geo_precision":"street","state":"MI"},"type":"Feature","geometry":{"type":"Point","coordinates":[-83.014541,42.436175]}},{"properties":{"city":"Detroit","intersection or address":"JEFFERSON AND RIVARD","country":"United States","geo_score":0.643,"id":"a7907p9pm8dy","geo_precision":"street","state":"MI"},"type":"Feature","geometry":{"type":"Point","coordinates":[-83.044533,42.328857]}},{"properties":{"city":"Detroit","intersection or address":"8800 BLOCK LIVERNOIS","country":"United States","geo_score":0.532,"id":"a7907p6qbof5","geo_precision":"street","state":"MI"},"type":"Feature","geometry":{"type":"Point","coordinates":[-83.099207,42.300747]}},{"properties":{"city":"Detroit","intersection or address":"2700 BLOCK RUSSELL","country":"United States","geo_score":0.7,"id":"a7907pcmkna9","geo_precision":"range","state":"MI"},"type":"Feature","geometry":{"type":"Point","coordinates":[-83.041339,42.34767]}},{"properties":{"city":"Detroit","intersection or address":"GRAND RIVER/FARMER","country":"United States","geo_score":0.714,"id":"a7907pb6rc7x","geo_precision":"street","state":"MI"},"type":"Feature","geometry":{"type":"Point","coordinates":[-83.043741,42.332513]}},{"properties":{"city":"Detroit","intersection or address":"FARMER/GRAND RIVER","country":"United States","geo_score":0.714,"id":"a7907p24fcof","geo_precision":"street","state":"MI"},"type":"Feature","geometry":{"type":"Point","coordinates":[-83.043741,42.332513]}},{"properties":{"city":"Detroit","intersection or address":"1300 BLOCK HERITAGE","country":"United States","geo_score":0.519,"id":"a7907p9ay1er","geo_precision":"street","state":"MI"},"type":"Feature","geometry":{"type":"Point","coordinates":[-83.120778,42.364934]}},{"properties":{"city":"Detroit","intersection or address":"2700 BLOCK RUSSELL","country":"United States","geo_score":0.7,"id":"a7907pd4uv3x","geo_precision":"range","state":"MI"},"type":"Feature","geometry":{"type":"Point","coordinates":[-83.041339,42.34767]}},{"properties":{"city":"Detroit","intersection or address":"44900 BLOCK W ANN ARBOR RD","country":"United States","geo_score":0.463,"id":"a7907p9ue7cn","geo_precision":"street","state":"MI"},"type":"Feature","geometry":{"type":"Point","coordinates":[-83.263798,42.343775]}},{"properties":{"city":"Detroit","intersection or address":"5700 BLOCK FEDERAL","country":"United States","geo_score":0.7,"id":"a7907p24xueu","geo_precision":"range","state":"MI"},"type":"Feature","geometry":{"type":"Point","coordinates":[-83.110073,42.322722]}},{"properties":{"city":"Detroit","intersection or address":"GREENFIELD / FENKELL","country":"United States","geo_score":0.729,"id":"a7907ozd1rsm","geo_precision":"street","state":"MI"},"type":"Feature","geometry":{"type":"Point","coordinates":[-83.122402,42.403045]}},{"properties":{"city":"Detroit","intersection or address":"13000 BLOCK WARREN","country":"United States","geo_score":0.512,"id":"a7907p9gs8zb","geo_precision":"street","state":"MI"},"type":"Feature","geometry":{"type":"Point","coordinates":[-83.23901,42.343066]}},{"properties":{"city":"Detroit","intersection or address":"19400 BLOCK SHERWOOD","country":"United States","geo_score":0.714,"id":"a7907p5h038g","geo_precision":"range","state":"MI"},"type":"Feature","geometry":{"type":"Point","coordinates":[-83.034114,42.437691]}},{"properties":{"city":"Detroit","intersection or address":"E 7 MILE/E OUTER DRIVE","country":"United States","geo_score":0.74,"id":"a7907pclpm4f","geo_precision":"street","state":"MI"},"type":"Feature","geometry":{"type":"Point","coordinates":[-83.102381,42.432277]}},{"properties":{"city":"Detroit","intersection or address":"1400 BLOCK FRANKLIN","country":"United States","geo_score":0.714,"id":"a7907p82vg02","geo_precision":"range","state":"MI"},"type":"Feature","geometry":{"type":"Point","coordinates":[-83.03114,42.332605]}},{"properties":{"city":"Detroit","intersection or address":"GRAND RIVER/HENRY","country":"United States","geo_score":0.696,"id":"a7907p71it3b","geo_precision":"street","state":"MI"},"type":"Feature","geometry":{"type":"Point","coordinates":[-83.053407,42.340708]}},{"properties":{"city":"Detroit","intersection or address":"18400 BLOCK CONANT","country":"United States","geo_score":0.683,"id":"a7907p6stdr0","geo_precision":"range","state":"MI"},"type":"Feature","geometry":{"type":"Point","coordinates":[-83.070039,42.427815]}},{"properties":{"city":"Detroit","intersection or address":"200 BLOCK SCHWEITZER PLACE","country":"United States","geo_score":0.394,"id":"a7907p5gsikr","geo_precision":"street","state":"MI"},"type":"Feature","geometry":{"type":"Point","coordinates":[-83.10828,42.434205]}},{"properties":{"city":"Detroit","intersection or address":"600 BLOCK SHELBY","country":"United States","geo_score":0.683,"id":"a7907oyzposq","geo_precision":"range","state":"MI"},"type":"Feature","geometry":{"type":"Point","coordinates":[-83.048763,42.330124]}},{"properties":{"city":"Detroit","intersection or address":"WOODWARD / ADAMS (UNDERGROUND PARKING)","country":"United States","geo_score":0.643,"id":"a7907pbyh13h","geo_precision":"street","state":"MI"},"type":"Feature","geometry":{"type":"Point","coordinates":[-83.05089,42.336981]}},{"properties":{"city":"Detroit","intersection or address":"10600 BLOCK E. OUTER DR BP GAS STATION","country":"United States","geo_score":0.514,"id":"a7907pesijt8","geo_precision":"street","state":"MI"},"type":"Feature","geometry":{"type":"Point","coordinates":[-83.079449,42.440058]}},{"properties":{"city":"Detroit","intersection or address":"ORLEANS / DIVISION","country":"United States","geo_score":0.729,"id":"a7907pcucscl","geo_precision":"street","state":"MI"},"type":"Feature","geometry":{"type":"Point","coordinates":[-83.028145,42.33377]}},{"properties":{"city":"Detroit","intersection or address":"3000 BLOCK MARLBOROUGH","country":"United States","geo_score":0.747,"id":"a7907p823b2f","geo_precision":"range","state":"MI"},"type":"Feature","geometry":{"type":"Point","coordinates":[-82.951585,42.386239]}},{"properties":{"city":"Detroit","intersection or address":"6400 BLOCK DESOTO","country":"United States","geo_score":0.683,"id":"a7907p0rtobn","geo_precision":"range","state":"MI"},"type":"Feature","geometry":{"type":"Point","coordinates":[-83.143251,42.401243]}},{"properties":{"city":"Detroit","intersection or address":"PURITAN / WYOMING","country":"United States","geo_score":0.729,"id":"a7907paezg76","geo_precision":"street","state":"MI"},"type":"Feature","geometry":{"type":"Point","coordinates":[-83.125419,42.410202]}},{"properties":{"city":"Detroit","intersection or address":"17000 BLOCK HARPER (MOBIL GAS)","country":"United States","geo_score":0.476,"id":"a7907pbu6ded","geo_precision":"street","state":"MI"},"type":"Feature","geometry":{"type":"Point","coordinates":[-83.053187,42.332504]}},{"properties":{"city":"Detroit","intersection or address":"FORT/GRISWOLD","country":"United States","geo_score":0.673,"id":"a7907pawgnhy","geo_precision":"street","state":"MI"},"type":"Feature","geometry":{"type":"Point","coordinates":[-83.110671,42.400971]}},{"properties":{"city":"Detroit","intersection or address":"18000 BLOCK LIVERNOIS","country":"United States","geo_score":0.532,"id":"a7907pc0dlbo","geo_precision":"street","state":"MI"},"type":"Feature","geometry":{"type":"Point","coordinates":[-83.099207,42.300747]}},{"properties":{"city":"Detroit","intersection or address":"7500 BLOCK CHASE RD","country":"United States","geo_score":0.422,"id":"a7907pa6p6e6","geo_precision":"street","state":"MI"},"type":"Feature","geometry":{"type":"Point","coordinates":[-83.10828,42.434205]}},{"properties":{"city":"Detroit","intersection or address":"E. JEFFERSON/VAN DYKE","country":"United States","geo_score":0.482,"id":"a7907p3kwn95","geo_precision":"street","state":"MI"},"type":"Feature","geometry":{"type":"Point","coordinates":[-83.012615,42.375968]}},{"properties":{"city":"Detroit","intersection or address":"GRATIOIT/RUSSELL","country":"United States","geo_score":0.729,"id":"a7907p46y4ag","geo_precision":"street","state":"MI"},"type":"Feature","geometry":{"type":"Point","coordinates":[-83.038708,42.343584]}},{"properties":{"city":"Detroit","intersection or address":"5200 BLOCK WOODWARD","country":"United States","geo_score":0.693,"id":"a7907p96gidd","geo_precision":"range","state":"MI"},"type":"Feature","geometry":{"type":"Point","coordinates":[-83.065904,42.359204]}},{"properties":{"city":"Detroit","intersection or address":"W MILWAUKEE / CASS","country":"United States","geo_score":0.643,"id":"a7907oz16mmp","geo_precision":"street","state":"MI"},"type":"Feature","geometry":{"type":"Point","coordinates":[-83.050722,42.329284]}},{"properties":{"city":"Detroit","intersection or address":"8000 BLOCK E. OUTER DRIVE","country":"United States","geo_score":0.514,"id":"a7907p2le1g5","geo_precision":"street","state":"MI"},"type":"Feature","geometry":{"type":"Point","coordinates":[-83.079449,42.440058]}},{"properties":{"city":"Detroit","intersection or address":"2100 BLOCK GLENCOE HILLS DR","country":"United States","geo_score":0.521,"id":"a7907p7f6h41","geo_precision":"street","state":"MI"},"type":"Feature","geometry":{"type":"Point","coordinates":[-83.255625,42.42138]}},{"properties":{"city":"Detroit","intersection or address":"ST ANTOINE / E MILWAUKEE","country":"United States","geo_score":0.758,"id":"a7907p8k7dmp","geo_precision":"street","state":"MI"},"type":"Feature","geometry":{"type":"Point","coordinates":[-83.040977,42.335597]}},{"properties":{"city":"Detroit","intersection or address":"22300 BLOCK MOROSS","country":"United States","geo_score":0.488,"id":"a7907p4z9yql","geo_precision":"street","state":"MI"},"type":"Feature","geometry":{"type":"Point","coordinates":[-82.930107,42.424969]}},{"properties":{"city":"Detroit","intersection or address":"LIVERNOIS/8 MILE RD","country":"United States","geo_score":0.521,"id":"a7907peulb7z","geo_precision":"street","state":"MI"},"type":"Feature","geometry":{"type":"Point","coordinates":[-83.138494,42.382239]}},{"properties":{"city":"Detroit","intersection or address":"F/O 715 E. MILWAUKEE","country":"United States","geo_score":0.429,"id":"a7907p36prqv","geo_precision":"street","state":"MI"},"type":"Feature","geometry":{"type":"Point","coordinates":[-83.078291,42.366962]}},{"properties":{"city":"Detroit","intersection or address":"W. 7 MILE/MEYERS","country":"United States","geo_score":0.429,"id":"a7907p2ir1bh","geo_precision":"street","state":"MI"},"type":"Feature","geometry":{"type":"Point","coordinates":[-83.167504,42.353902]}},{"properties":{"city":"Detroit","intersection or address":"10400 BLOCK W MCNICHOLS","country":"United States","geo_score":0.747,"id":"a7907p2rih6z","geo_precision":"range","state":"MI"},"type":"Feature","geometry":{"type":"Point","coordinates":[-83.165798,42.416776]}},{"properties":{"city":"Detroit","intersection or address":"00 BLOCK MILE/LAHSER","country":"United States","geo_score":0.714,"id":"a7907p8iof2e","geo_precision":"street","state":"MI"},"type":"Feature","geometry":{"type":"Point","coordinates":[-83.256761,42.398419]}},{"properties":{"city":"Detroit","intersection or address":"CHALMERS / HARPER","country":"United States","geo_score":0.686,"id":"a7907p4zsult","geo_precision":"street","state":"MI"},"type":"Feature","geometry":{"type":"Point","coordinates":[-83.060423,42.368865]}},{"properties":{"city":"Detroit","intersection or address":"1000 BLOCK E CANFIELD","country":"United States","geo_score":0.738,"id":"a7907p8js9md","geo_precision":"range","state":"MI"},"type":"Feature","geometry":{"type":"Point","coordinates":[-83.04978,42.357122]}},{"properties":{"city":"Detroit","intersection or address":"15400 BLOCK GREENFIELD","country":"United States","geo_score":0.738,"id":"a7907pb6fc1y","geo_precision":"range","state":"MI"},"type":"Feature","geometry":{"type":"Point","coordinates":[-83.198876,42.405127]}},{"properties":{"city":"Detroit","intersection or address":"6500 BLOCK W. OUTER DRIVE","country":"United States","geo_score":0.514,"id":"a7907pdxboi0","geo_precision":"street","state":"MI"},"type":"Feature","geometry":{"type":"Point","coordinates":[-83.079449,42.440058]}},{"properties":{"city":"Detroit","intersection or address":"E. JEFFERSON @ ALTER RD.","country":"United States","geo_score":0.482,"id":"a7907p11crj8","geo_precision":"street","state":"MI"},"type":"Feature","geometry":{"type":"Point","coordinates":[-82.930947,42.361903]}},{"properties":{"city":"Detroit","intersection or address":"MICHIGAN/MARTIN","country":"United States","geo_score":0.714,"id":"a7907pbq3fce","geo_precision":"street","state":"MI"},"type":"Feature","geometry":{"type":"Point","coordinates":[-83.121887,42.323377]}},{"properties":{"city":"Detroit","intersection or address":"2500 BLOCK ORLEANS","country":"United States","geo_score":0.7,"id":"a7907p99btla","geo_precision":"range","state":"MI"},"type":"Feature","geometry":{"type":"Point","coordinates":[-83.037521,42.347719]}},{"properties":{"city":"Detroit","intersection or address":"1700 BLOCK N WAVERLY","country":"United States","geo_score":0.688,"id":"a7907p6s6bau","geo_precision":"range","state":"MI"},"type":"Feature","geometry":{"type":"Point","coordinates":[-83.112288,42.39611]}},{"properties":{"city":"Detroit","intersection or address":"9400 BLOCK MORRISON","country":"United States","geo_score":0.401,"id":"a7907p90ckdu","geo_precision":"street","state":"MI"},"type":"Feature","geometry":{"type":"Point","coordinates":[-83.10828,42.434205]}},{"properties":{"city":"Detroit","intersection or address":"19100 BLOCK REVERE","country":"United States","geo_score":0.683,"id":"a7907p5sr6zj","geo_precision":"range","state":"MI"},"type":"Feature","geometry":{"type":"Point","coordinates":[-83.068347,42.435621]}},{"properties":{"city":"Detroit","intersection or address":"13600 BLOCK GLASTONBURY","country":"United States","geo_score":0.552,"id":"a7907p1ydef5","geo_precision":"street","state":"MI"},"type":"Feature","geometry":{"type":"Point","coordinates":[-83.222642,42.410033]}},{"properties":{"city":"Detroit","intersection or address":"NASHVILLE / GUNSTON","country":"United States","geo_score":0.857,"id":"a7907pdw7pi3","geo_precision":"street","state":"MI"},"type":"Feature","geometry":{"type":"Point","coordinates":[-82.985132,42.394309]}},{"properties":{"city":"Detroit","intersection or address":"19000 BLOCK WARRINGTON","country":"United States","geo_score":0.738,"id":"a7907pe5ytw8","geo_precision":"range","state":"MI"},"type":"Feature","geometry":{"type":"Point","coordinates":[-83.13998,42.430584]}},{"properties":{"city":"Detroit","intersection or address":"12100 BLOCK SAINT AUBIN ST","country":"United States","geo_score":0.62,"id":"a7907pa3g8oj","geo_precision":"street","state":"MI"},"type":"Feature","geometry":{"type":"Point","coordinates":[-83.033954,42.349087]}},{"properties":{"city":"Detroit","intersection or address":"16600 BLOCK GREENFIELD","country":"United States","geo_score":0.738,"id":"a7907pejc2jh","geo_precision":"range","state":"MI"},"type":"Feature","geometry":{"type":"Point","coordinates":[-83.199076,42.411726]}},{"properties":{"city":"Detroit","intersection or address":"3400 BLOCK CARPENTER RD","country":"United States","geo_score":0.675,"id":"a7907pewy9fj","geo_precision":"range","state":"MI"},"type":"Feature","geometry":{"type":"Point","coordinates":[-83.058914,42.408304]}},{"properties":{"city":"Detroit","intersection or address":"5700 BLOCK BLUEHILL","country":"United States","geo_score":0.714,"id":"a7907p3n4x5e","geo_precision":"range","state":"MI"},"type":"Feature","geometry":{"type":"Point","coordinates":[-82.932305,42.413315]}},{"properties":{"city":"Detroit","intersection or address":"TERRY/PLYMOUTH","country":"United States","geo_score":0.696,"id":"a7907ozvkt8u","geo_precision":"street","state":"MI"},"type":"Feature","geometry":{"type":"Point","coordinates":[-83.190283,42.351011]}},{"properties":{"city":"Detroit","intersection or address":"8200 BLOCK HEYDEN","country":"United States","geo_score":0.561,"id":"a7907p6rom7r","geo_precision":"street","state":"MI"},"type":"Feature","geometry":{"type":"Point","coordinates":[-83.237707,42.339448]}},{"properties":{"city":"Detroit","intersection or address":"GRAND RIVER/LIVERNOIS","country":"United States","geo_score":0.679,"id":"a7907p3x1grn","geo_precision":"street","state":"MI"},"type":"Feature","geometry":{"type":"Point","coordinates":[-83.000898,42.345631]}},{"properties":{"city":"Detroit","intersection or address":"12700 BLOCK E JEFFERSON","country":"United States","geo_score":0.73,"id":"a7907p0fyjmm","geo_precision":"range","state":"MI"},"type":"Feature","geometry":{"type":"Point","coordinates":[-82.956504,42.370239]}},{"properties":{"city":"Detroit","intersection or address":"BRUSH/E. CONGRESS","country":"United States","geo_score":0.468,"id":"a7907p8paiag","geo_precision":"street","state":"MI"},"type":"Feature","geometry":{"type":"Point","coordinates":[-83.042011,42.331838]}},{"properties":{"city":"Detroit","intersection or address":"15100 BLOCK W 7 MILE","country":"United States","geo_score":0.714,"id":"a7907p20gxnj","geo_precision":"range","state":"MI"},"type":"Feature","geometry":{"type":"Point","coordinates":[-83.196163,42.430518]}},{"properties":{"city":"Detroit","intersection or address":"11000 BLOCK LAKEPOINTE","country":"United States","geo_score":0.738,"id":"a7907pa91fxa","geo_precision":"range","state":"MI"},"type":"Feature","geometry":{"type":"Point","coordinates":[-82.951101,42.420885]}},{"properties":{"city":"Detroit","intersection or address":"11300 BLOCK LANSDOWNE","country":"United States","geo_score":0.727,"id":"a7907pa8jcy0","geo_precision":"range","state":"MI"},"type":"Feature","geometry":{"type":"Point","coordinates":[-82.956105,42.419437]}},{"properties":{"city":"Detroit","intersection or address":"PINE / GRAND RIVER","country":"United States","geo_score":0.673,"id":"a7907pf4e3wp","geo_precision":"street","state":"MI"},"type":"Feature","geometry":{"type":"Point","coordinates":[-83.065812,42.336765]}},{"properties":{"city":"Detroit","intersection or address":"14700 BLOCK METTETAL","country":"United States","geo_score":0.714,"id":"a7907p45z76y","geo_precision":"range","state":"MI"},"type":"Feature","geometry":{"type":"Point","coordinates":[-83.207742,42.399094]}},{"properties":{"city":"Detroit","intersection or address":"00 BLOCK W ADAMS","country":"United States","geo_score":0.578,"id":"a7907p7ouazc","geo_precision":"street","state":"MI"},"type":"Feature","geometry":{"type":"Point","coordinates":[-83.052421,42.336337]}},{"properties":{"city":"Detroit","intersection or address":"7900 BLOCK PINEHURST","country":"United States","geo_score":0.534,"id":"a7907p8ax5ke","geo_precision":"street","state":"MI"},"type":"Feature","geometry":{"type":"Point","coordinates":[-83.165104,42.353304]}},{"properties":{"city":"Detroit","intersection or address":"MARTIN / MCGRAW","country":"United States","geo_score":0.714,"id":"a7907p0c2phl","geo_precision":"street","state":"MI"},"type":"Feature","geometry":{"type":"Point","coordinates":[-83.121887,42.323377]}},{"properties":{"city":"Detroit","intersection or address":"15400 BLOCK GRAND RIVER","country":"United States","geo_score":0.551,"id":"a7907ozkzk3b","geo_precision":"street","state":"MI"},"type":"Feature","geometry":{"type":"Point","coordinates":[-83.136453,42.389651]}},{"properties":{"city":"Detroit","intersection or address":"F/O 6480 MEMORIAL","country":"United States","geo_score":0.429,"id":"a7907pa7ub0a","geo_precision":"street","state":"MI"},"type":"Feature","geometry":{"type":"Point","coordinates":[-87.563233,44.240457]}},{"properties":{"city":"Detroit","intersection or address":"CADIEUX/HARPER","country":"United States","geo_score":0.686,"id":"a7907oznvpee","geo_precision":"street","state":"MI"},"type":"Feature","geometry":{"type":"Point","coordinates":[-83.060423,42.368865]}},{"properties":{"city":"Detroit","intersection or address":"W. WARREN / TRUMBULL","country":"United States","geo_score":0.476,"id":"a7907p031mma","geo_precision":"street","state":"MI"},"type":"Feature","geometry":{"type":"Point","coordinates":[-83.045107,42.364132]}},{"properties":{"city":"Detroit","intersection or address":"GRATIOT/ANTIETAM","country":"United States","geo_score":0.701,"id":"a7907peglxql","geo_precision":"street","state":"MI"},"type":"Feature","geometry":{"type":"Point","coordinates":[-83.046197,42.333968]}},{"properties":{"city":"Detroit","intersection or address":"8000 BLOCK SORRENTO","country":"United States","geo_score":0.714,"id":"a7907p3ehfr6","geo_precision":"range","state":"MI"},"type":"Feature","geometry":{"type":"Point","coordinates":[-83.171472,42.353812]}},{"properties":{"city":"Detroit","intersection or address":"SHELBY/W. CONGRESS","country":"United States","geo_score":0.462,"id":"a7907pey5xnx","geo_precision":"street","state":"MI"},"type":"Feature","geometry":{"type":"Point","coordinates":[-83.045921,42.330166]}},{"properties":{"city":"Detroit","intersection or address":"15400 BLOCK HARPER","country":"United States","geo_score":0.659,"id":"a7907oyojtxu","geo_precision":"range","state":"MI"},"type":"Feature","geometry":{"type":"Point","coordinates":[-82.954445,42.407556]}},{"properties":{"city":"Detroit","intersection or address":"600 BLOCK TOWN CENTER DR","country":"United States","geo_score":0.712,"id":"a7907p5eomb4","geo_precision":"range","state":"MI"},"type":"Feature","geometry":{"type":"Point","coordinates":[-82.999703,42.350763]}},{"properties":{"city":"Detroit","intersection or address":"8400 BLOCK MARYGROVE DR, DET, MI 48221","country":"United States","geo_score":0.5,"id":"a7907paevaux","geo_precision":"street","state":"MI"},"type":"Feature","geometry":{"type":"Point","coordinates":[-83.00957,42.391228]}},{"properties":{"city":"Detroit","intersection or address":"31100 BLOCK BECK RD","country":"United States","geo_score":0.43,"id":"a7907p1ixpat","geo_precision":"street","state":"MI"},"type":"Feature","geometry":{"type":"Point","coordinates":[-83.10828,42.434205]}},{"properties":{"city":"Detroit","intersection or address":"CHARLOTTE W/O WOODWARD","country":"United States","geo_score":0.643,"id":"a7907ozdw3zv","geo_precision":"street","state":"MI"},"type":"Feature","geometry":{"type":"Point","coordinates":[-83.045921,42.330166]}},{"properties":{"city":"Detroit","intersection or address":"CASS AND COLUMBIA","country":"United States","geo_score":0.58,"id":"a7907pb2kutz","geo_precision":"street","state":"MI"},"type":"Feature","geometry":{"type":"Point","coordinates":[-83.046331,42.340559]}},{"properties":{"city":"Detroit","intersection or address":"18900 BLOCK W MICHIGAN","country":"United States","geo_score":0.488,"id":"a7907p89a5y0","geo_precision":"street","state":"MI"},"type":"Feature","geometry":{"type":"Point","coordinates":[-83.155354,42.328137]}},{"properties":{"city":"Detroit","intersection or address":"GRATOIT/ST ANTOINE","country":"United States","geo_score":0.6,"id":"a7907p9b8r4u","geo_precision":"street","state":"MI"},"type":"Feature","geometry":{"type":"Point","coordinates":[-83.090736,42.349273]}},{"properties":{"city":"Detroit","intersection or address":"18100 BLOCK OAKWOOD","country":"United States","geo_score":0.482,"id":"a7907oz756ji","geo_precision":"street","state":"MI"},"type":"Feature","geometry":{"type":"Point","coordinates":[-83.162385,42.285489]}},{"properties":{"city":"Detroit","intersection or address":"19100 BLOCK NORTHROP","country":"United States","geo_score":0.714,"id":"a7907pezia1x","geo_precision":"range","state":"MI"},"type":"Feature","geometry":{"type":"Point","coordinates":[-83.262194,42.434508]}},{"properties":{"city":"Detroit","intersection or address":"2200 BLOCK BROOKLYN","country":"United States","geo_score":0.714,"id":"a7907p0skytu","geo_precision":"range","state":"MI"},"type":"Feature","geometry":{"type":"Point","coordinates":[-83.064904,42.333496]}},{"properties":{"city":"Detroit","intersection or address":"14300 BLOCK STARK RD","country":"United States","geo_score":0.54,"id":"a7907p19g91q","geo_precision":"street","state":"MI"},"type":"Feature","geometry":{"type":"Point","coordinates":[-83.11482,42.325593]}},{"properties":{"city":"Detroit","intersection or address":"W WARREN/EVERGREEN","country":"United States","geo_score":0.74,"id":"a7907pcto11e","geo_precision":"street","state":"MI"},"type":"Feature","geometry":{"type":"Point","coordinates":[-83.23901,42.343066]}},{"properties":{"city":"Detroit","intersection or address":"9200 BLOCK OUTERDRIVE","country":"United States","geo_score":0.39,"id":"a7907pdnpjk8","geo_precision":"street","state":"MI"},"type":"Feature","geometry":{"type":"Point","coordinates":[-83.10828,42.434205]}},{"properties":{"city":"Detroit","intersection or address":"6800 BLOCK MERCIER","country":"United States","geo_score":0.7,"id":"a7907p0hf2qu","geo_precision":"range","state":"MI"},"type":"Feature","geometry":{"type":"Point","coordinates":[-83.126711,42.324664]}},{"properties":{"city":"Detroit","intersection or address":"10000 BLOCK GRAYTON","country":"United States","geo_score":0.7,"id":"a7907pbpwqwn","geo_precision":"range","state":"MI"},"type":"Feature","geometry":{"type":"Point","coordinates":[-82.944739,42.418289]}},{"properties":{"city":"Detroit","intersection or address":"3100 BLOCK EDGEWOOD","country":"United States","geo_score":0.498,"id":"a7907oz47u4r","geo_precision":"street","state":"MI"},"type":"Feature","geometry":{"type":"Point","coordinates":[-83.021,42.397355]}},{"properties":{"city":"Detroit","intersection or address":"8200 BLOCK HUBBELL","country":"United States","geo_score":0.7,"id":"a7907oz4ceka","geo_precision":"range","state":"MI"},"type":"Feature","geometry":{"type":"Point","coordinates":[-83.187135,42.355981]}},{"properties":{"city":"Detroit","intersection or address":"1500 BLOCK HOLLYWOOD","country":"United States","geo_score":0.551,"id":"a7907pb03fp1","geo_precision":"street","state":"MI"},"type":"Feature","geometry":{"type":"Point","coordinates":[-83.021,42.432547]}},{"properties":{"city":"Detroit","intersection or address":"1300 BLOCK WOODMERE","country":"United States","geo_score":0.714,"id":"a7907peig0xv","geo_precision":"range","state":"MI"},"type":"Feature","geometry":{"type":"Point","coordinates":[-83.134315,42.30063]}},{"properties":{"city":"Detroit","intersection or address":"3800 BLOCK SPARROW WOOD DR","country":"United States","geo_score":0.485,"id":"a7907p0mmsk0","geo_precision":"street","state":"MI"},"type":"Feature","geometry":{"type":"Point","coordinates":[-83.019226,42.345389]}},{"properties":{"city":"Detroit","intersection or address":"22400 BLOCK HESSEL","country":"United States","geo_score":0.488,"id":"a7907oz9tnna","geo_precision":"street","state":"MI"},"type":"Feature","geometry":{"type":"Point","coordinates":[-83.269305,42.441004]}},{"properties":{"city":"Detroit","intersection or address":"1800 BLOCK HOUSTON","country":"United States","geo_score":0.43,"id":"a7907p2os2zr","geo_precision":"street","state":"MI"},"type":"Feature","geometry":{"type":"Point","coordinates":[-83.10828,42.434205]}},{"properties":{"city":"Detroit","intersection or address":"4100 BLOCK CHESTER DR","country":"United States","geo_score":0.561,"id":"a7907pc9ro1h","geo_precision":"street","state":"MI"},"type":"Feature","geometry":{"type":"Point","coordinates":[-82.93229,42.418945]}},{"properties":{"city":"Detroit","intersection or address":"5500 BLOCK TRUMBULL","country":"United States","geo_score":0.714,"id":"a7907p07ojr4","geo_precision":"range","state":"MI"},"type":"Feature","geometry":{"type":"Point","coordinates":[-83.080673,42.355566]}},{"properties":{"city":"Detroit","intersection or address":"9600 BLOCK METTETAL","country":"United States","geo_score":0.714,"id":"a7907p4lz0mi","geo_precision":"range","state":"MI"},"type":"Feature","geometry":{"type":"Point","coordinates":[-83.205704,42.367077]}},{"properties":{"city":"Detroit","intersection or address":"18500 BLOCK E WARREN","country":"United States","geo_score":0.5,"id":"a7907p7gwloj","geo_precision":"street","state":"MI"},"type":"Feature","geometry":{"type":"Point","coordinates":[-82.918582,42.410204]}},{"properties":{"city":"Detroit","intersection or address":"6400 BLOCK WYOMING","country":"United States","geo_score":0.602,"id":"a7907p9uwztz","geo_precision":"street","state":"MI"},"type":"Feature","geometry":{"type":"Point","coordinates":[-83.156737,42.329924]}},{"properties":{"city":"Detroit","intersection or address":"CONGRESS/RANDOLPH","country":"United States","geo_score":0.74,"id":"a7907p7ro0ko","geo_precision":"street","state":"MI"},"type":"Feature","geometry":{"type":"Point","coordinates":[-83.042011,42.331838]}},{"properties":{"city":"Detroit","intersection or address":"7700 BLOCK APPOLINE","country":"United States","geo_score":0.52,"id":"a7907p29dbnb","geo_precision":"street","state":"MI"},"type":"Feature","geometry":{"type":"Point","coordinates":[-83.168543,42.352315]}},{"properties":{"city":"Detroit","intersection or address":"18500 BLOCK E WARREN","country":"United States","geo_score":0.5,"id":"a7907pbqudpr","geo_precision":"street","state":"MI"},"type":"Feature","geometry":{"type":"Point","coordinates":[-82.918582,42.410204]}},{"properties":{"city":"Detroit","intersection or address":"5900 BLOCK POLK AVE","country":"United States","geo_score":0.456,"id":"a7907p3h0zbm","geo_precision":"street","state":"MI"},"type":"Feature","geometry":{"type":"Point","coordinates":[-82.985779,42.426475]}},{"properties":{"city":"Detroit","intersection or address":"5900 BLOCK POLK AVE","country":"United States","geo_score":0.456,"id":"a7907p1v3bdg","geo_precision":"street","state":"MI"},"type":"Feature","geometry":{"type":"Point","coordinates":[-82.985779,42.426475]}},{"properties":{"city":"Detroit","intersection or address":"11600 BLOCK WAYBURN","country":"United States","geo_score":0.7,"id":"a7907pepqm0q","geo_precision":"range","state":"MI"},"type":"Feature","geometry":{"type":"Point","coordinates":[-82.949956,42.426105]}},{"properties":{"city":"Detroit","intersection or address":"30TH/ W WARREN","country":"United States","geo_score":0.551,"id":"a7907pestqym","geo_precision":"street","state":"MI"},"type":"Feature","geometry":{"type":"Point","coordinates":[-83.107939,42.332504]}},{"properties":{"city":"Detroit","intersection or address":"1800 BLOCK MICHIGAN AVENUE","country":"United States","geo_score":0.805,"id":"a7907pev04he","geo_precision":"range","state":"MI"},"type":"Feature","geometry":{"type":"Point","coordinates":[-83.071784,42.331392]}},{"properties":{"city":"Detroit","intersection or address":"7500 BLOCK MAPLE","country":"United States","geo_score":0.468,"id":"a7907pb8tkbv","geo_precision":"street","state":"MI"},"type":"Feature","geometry":{"type":"Point","coordinates":[-83.039614,42.341485]}},{"properties":{"city":"Detroit","intersection or address":"4200 BLOCK CHESTER DR","country":"United States","geo_score":0.561,"id":"a7907pbdey17","geo_precision":"street","state":"MI"},"type":"Feature","geometry":{"type":"Point","coordinates":[-82.93229,42.418945]}},{"properties":{"city":"Detroit","intersection or address":"E MILWAUKEE/JOHN R","country":"United States","geo_score":0.714,"id":"a7907pesubur","geo_precision":"street","state":"MI"},"type":"Feature","geometry":{"type":"Point","coordinates":[-83.04864,42.335282]}},{"properties":{"city":"Detroit","intersection or address":"PLYMOUTH/HUBBELL","country":"United States","geo_score":0.729,"id":"a7907p77hac9","geo_precision":"street","state":"MI"},"type":"Feature","geometry":{"type":"Point","coordinates":[-83.187322,42.360708]}},{"properties":{"city":"Detroit","intersection or address":"3600 BLOCK WOODWARD","country":"United States","geo_score":0.693,"id":"a7907p7eg3d4","geo_precision":"range","state":"MI"},"type":"Feature","geometry":{"type":"Point","coordinates":[-83.058658,42.348546]}},{"properties":{"city":"Detroit","intersection or address":"6900 BLOCK APPOLINE","country":"United States","geo_score":0.519,"id":"a7907paq4q8d","geo_precision":"street","state":"MI"},"type":"Feature","geometry":{"type":"Point","coordinates":[-83.168543,42.352315]}},{"properties":{"city":"Detroit","intersection or address":"1400 BLOCK E. FRANKLIN ST. (KEY CLUB)","country":"United States","geo_score":0.589,"id":"a7907p3n5p55","geo_precision":"street","state":"MI"},"type":"Feature","geometry":{"type":"Point","coordinates":[-83.143726,42.406707]}},{"properties":{"city":"Detroit","intersection or address":"PARK/W MONTCALM","country":"United States","geo_score":0.673,"id":"a7907paiqq9u","geo_precision":"street","state":"MI"},"type":"Feature","geometry":{"type":"Point","coordinates":[-82.975824,42.401357]}},{"properties":{"city":"Detroit","intersection or address":"WARREN/ MACK","country":"United States","geo_score":0.536,"id":"a7907oz6u3r9","geo_precision":"street","state":"MI"},"type":"Feature","geometry":{"type":"Point","coordinates":[-83.178023,42.373881]}},{"properties":{"city":"Detroit","intersection or address":"24100 BLOCK EUREKA RD","country":"United States","geo_score":0.551,"id":"a7907p7vnr15","geo_precision":"street","state":"MI"},"type":"Feature","geometry":{"type":"Point","coordinates":[-83.058028,42.438167]}},{"properties":{"city":"Detroit","intersection or address":"25000 BLOCK CHERNICK RD","country":"United States","geo_score":0.403,"id":"a7907p6bdmot","geo_precision":"street","state":"MI"},"type":"Feature","geometry":{"type":"Point","coordinates":[-83.10828,42.434205]}},{"properties":{"city":"Detroit","intersection or address":"2600 BLOCK HOLLYWOOD","country":"United States","geo_score":0.551,"id":"a7907ozdrt5z","geo_precision":"street","state":"MI"},"type":"Feature","geometry":{"type":"Point","coordinates":[-83.021,42.432547]}},{"properties":{"city":"Detroit","intersection or address":"2100 BLOCK MICHIGAN","country":"United States","geo_score":0.693,"id":"a7907p9iij3g","geo_precision":"range","state":"MI"},"type":"Feature","geometry":{"type":"Point","coordinates":[-83.076473,42.331347]}},{"properties":{"city":"Detroit","intersection or address":"6100 BLOCK APPOLINE","country":"United States","geo_score":0.519,"id":"a7907p11g5o9","geo_precision":"street","state":"MI"},"type":"Feature","geometry":{"type":"Point","coordinates":[-83.168543,42.352315]}},{"properties":{"city":"Detroit","intersection or address":"SIXTH/FORT","country":"United States","geo_score":0.5,"id":"a7907pddf8hb","geo_precision":"street","state":"MI"},"type":"Feature","geometry":{"type":"Point","coordinates":[-83.057897,42.326189]}},{"properties":{"city":"Detroit","intersection or address":"6TH AND LAFAYETTE","country":"United States","geo_score":0.589,"id":"a7907oz5yekf","geo_precision":"street","state":"MI"},"type":"Feature","geometry":{"type":"Point","coordinates":[-83.050502,42.330543]}},{"properties":{"city":"Detroit","intersection or address":"600 BLOCK MONROE (ST MARY CHURCH)","country":"United States","geo_score":0.536,"id":"a7907p78wq9g","geo_precision":"street","state":"MI"},"type":"Feature","geometry":{"type":"Point","coordinates":[-83.046869,42.331668]}},{"properties":{"city":"Detroit","intersection or address":"18200 BLOCK FITZPATRICK","country":"United States","geo_score":0.747,"id":"a7907p3jprpy","geo_precision":"range","state":"MI"},"type":"Feature","geometry":{"type":"Point","coordinates":[-83.218657,42.365018]}},{"properties":{"city":"Detroit","intersection or address":"9800 BLOCK HARTEL","country":"United States","geo_score":0.415,"id":"a7907p8fscwl","geo_precision":"street","state":"MI"},"type":"Feature","geometry":{"type":"Point","coordinates":[-83.10828,42.434205]}},{"properties":{"city":"Detroit","intersection or address":"42400 BLOCK GRAND RIVER AVE","country":"United States","geo_score":0.599,"id":"a7907p45nx4o","geo_precision":"street","state":"MI"},"type":"Feature","geometry":{"type":"Point","coordinates":[-83.287207,42.428554]}},{"properties":{"city":"Detroit","intersection or address":"8800 BLOCK GREENFIELD","country":"United States","geo_score":0.738,"id":"a7907pbtlor7","geo_precision":"range","state":"MI"},"type":"Feature","geometry":{"type":"Point","coordinates":[-83.197113,42.360537]}},{"properties":{"city":"Detroit","intersection or address":"5400 BLOCK SCHAEFER","country":"United States","geo_score":0.401,"id":"a7907pa9lunb","geo_precision":"street","state":"MI"},"type":"Feature","geometry":{"type":"Point","coordinates":[-83.10828,42.434205]}},{"properties":{"city":"Detroit","intersection or address":"14400 BLOCK SHELDON RD","country":"United States","geo_score":0.482,"id":"a7907pebvoo4","geo_precision":"street","state":"MI"},"type":"Feature","geometry":{"type":"Point","coordinates":[-82.877896,42.434571]}},{"properties":{"city":"Detroit","intersection or address":"5500 BLOCK DREXEL","country":"United States","geo_score":0.415,"id":"a7907p3r9xbt","geo_precision":"street","state":"MI"},"type":"Feature","geometry":{"type":"Point","coordinates":[-83.10828,42.434205]}}],"is_temporal":false,"author":{"url":"","metadata":"","contact_name":"","contact_address":"","source":"","contact_phone":""},"source":"","pagination":{"sort":null,"start":0,"total":487,"limit":1000000},"state":"complete","tags":"","published":"2014-08-14T17:35:20-04:00","id":261976}