{"type":"FeatureCollection","data_type":"Dataset","url_type":null,"permissions":[{"permissions":{"download":true,"view":true},"group_id":"everyone"}],"classification":null,"title":"Armentrout2012 Campaign Finance","count":93,"stream_id":264100,"contributor":{"url":"http://geocommons.com/users/11255","name":"Dave Askins"},"data_attributes":null,"calculation_params":null,"icon_link":null,"link":"http://geocommons.com/overlays/264100.json","extent":[-87.8328,42.2542,-83.3809,45.0256],"geometry_types":["point"],"unique_name":null,"name":"Armentrout2012 Campaign Finance","feature_count":93,"description":"","next_feature":null,"is_raster":false,"short_classification":"Y","stats":{"latitude":{"max":45.025586,"variance":0.0824064857445919,"mean":42.3141374086022,"stdev":0.287065298746804,"min":42.25416,"median":42.279013},"amount":{"max":500,"variance":14739.2589995325,"mean":122.043010752688,"stdev":121.405349962563,"min":20,"median":100},"longitude":{"max":-83.380944,"variance":0.224603221938304,"mean":-83.805372688172,"stdev":0.473923223674789,"min":-87.832799,"median":-83.747552}},"features":[{"properties":{"city":"Ann Arbor","latitude":42.261225,"zip":"48105","amount":100,"donor (first)":"Peter","longitude":-83.711779,"id":"a7gddf608p6f","donor (last)":"Eckstein","address":"2561 Londonderry Road","state":"MI"},"type":"Feature","geometry":{"type":"Point","coordinates":[-83.711779,42.261225]}},{"properties":{"city":"Ann Arbor","latitude":42.277116,"zip":"48104","amount":250,"donor (first)":"Thomas","longitude":-83.746328,"id":"a7gddf1e6ozo","donor (last)":"Whitaker","address":"444 S. Fifth Ave","state":"MI"},"type":"Feature","geometry":{"type":"Point","coordinates":[-83.746328,42.277116]}},{"properties":{"city":"Ann Arbor","latitude":42.295468,"zip":"48103","amount":200,"donor (first)":"Vivienne","longitude":-83.759861,"id":"a7gddf2c57gl","donor (last)":"Armentrout","address":"920 Vesper Road","state":"MI"},"type":"Feature","geometry":{"type":"Point","coordinates":[-83.759861,42.295468]}},{"properties":{"city":"Ann Arbor","latitude":42.259163,"zip":"48104","amount":250,"donor (first)":"Luanne","longitude":-83.724524,"id":"a7gddf01eshe","donor (last)":"Bullington","address":"1801 S. Blvd","state":"MI"},"type":"Feature","geometry":{"type":"Point","coordinates":[-83.724524,42.259163]}},{"properties":{"city":"Ann Arbor","latitude":42.288124,"zip":"48105","amount":200,"donor (first)":"Leslie","longitude":-83.702228,"id":"a7gddeu4gple","donor (last)":"Morris","address":"1023 Young Place","state":"MI"},"type":"Feature","geometry":{"type":"Point","coordinates":[-83.702228,42.288124]}},{"properties":{"city":"Ann Arbor","latitude":42.289653,"zip":"48103","amount":25,"donor (first)":"Peter","longitude":-83.774738,"id":"a7gddf61w149","donor (last)":"Zetlin","address":"803 Duncan","state":"MI"},"type":"Feature","geometry":{"type":"Point","coordinates":[-83.774738,42.289653]}},{"properties":{"city":"Ann Arbor","latitude":42.276781,"zip":"48103","amount":100,"donor (first)":"Vincent","longitude":-83.770005,"id":"a7gddest32zr","donor (last)":"Caruso","address":"556 Glendale Circle","state":"MI"},"type":"Feature","geometry":{"type":"Point","coordinates":[-83.770005,42.276781]}},{"properties":{"city":"Ann Arbor","latitude":42.27486,"zip":"48103","amount":100,"donor (first)":"Mary","longitude":-83.764112,"id":"a7gddeve87gw","donor (last)":"Hathaway","address":"1407 Wakefield Ave","state":"MI"},"type":"Feature","geometry":{"type":"Point","coordinates":[-83.764112,42.27486]}},{"properties":{"city":"Ann Arbor","latitude":42.269523,"zip":"48104","amount":300,"donor (first)":"Gwen","longitude":-83.73153,"id":"a7gddexaw65u","donor (last)":"Nystuen","address":"1016 Olivia","state":"MI"},"type":"Feature","geometry":{"type":"Point","coordinates":[-83.73153,42.269523]}},{"properties":{"city":"Ann Arbor","latitude":42.278247,"zip":"48103","amount":500,"donor (first)":"Susan","longitude":-83.768087,"id":"a7gddeqhyi2f","donor (last)":"Perry","address":"1708 Fair Street","state":"MI"},"type":"Feature","geometry":{"type":"Point","coordinates":[-83.768087,42.278247]}},{"properties":{"city":"Ann Arbor","latitude":42.278943,"zip":"48103","amount":50,"donor (first)":"Anna","longitude":-83.752347,"id":"a7gddezrtmm5","donor (last)":"Schnitzer","address":"315 2nd Street","state":"MI"},"type":"Feature","geometry":{"type":"Point","coordinates":[-83.752347,42.278943]}},{"properties":{"city":"Ann Arbor","latitude":42.267676,"zip":"48104","amount":100,"donor (first)":"Nancy","longitude":-83.70172,"id":"a7gdderoq012","donor (last)":"Kaplan","address":"3085 Hunting Valley Dr","state":"MI"},"type":"Feature","geometry":{"type":"Point","coordinates":[-83.70172,42.267676]}},{"properties":{"city":"Ann Arbor","latitude":42.292496,"zip":"48103","amount":100,"donor (first)":"Bill","longitude":-83.76828,"id":"a7gddf5w75rb","donor (last)":"Nace","address":"1216 Morningside Drive","state":"MI"},"type":"Feature","geometry":{"type":"Point","coordinates":[-83.76828,42.292496]}},{"properties":{"city":"Ann Arbor","latitude":42.281099,"zip":"48103","amount":100,"donor (first)":"Karen","longitude":-83.775888,"id":"a7gddeyqd9dl","donor (last)":"Sidney","address":"100 Longman","state":"MI"},"type":"Feature","geometry":{"type":"Point","coordinates":[-83.775888,42.281099]}},{"properties":{"city":"Ann Arbor","latitude":42.255233,"zip":"48104","amount":100,"donor (first)":"Eric","longitude":-83.730657,"id":"a7gddf2hmdk5","donor (last)":"Lipson","address":"1318 Rosewood St.","state":"MI"},"type":"Feature","geometry":{"type":"Point","coordinates":[-83.730657,42.255233]}},{"properties":{"city":"Ann Arbor","latitude":42.277358,"zip":"48104","amount":400,"donor (first)":"Theodore","longitude":-83.748725,"id":"a7gddeyl2gww","donor (last)":"Annis","address":"414 S. Main # 808","state":"MI"},"type":"Feature","geometry":{"type":"Point","coordinates":[-83.748725,42.277358]}},{"properties":{"city":"Ann Arbor","latitude":42.27978,"zip":"48103","amount":25,"donor (first)":"Lynn","longitude":-83.767558,"id":"a7gddeqvch49","donor (last)":"Borset","address":"322 Virginia","state":"MI"},"type":"Feature","geometry":{"type":"Point","coordinates":[-83.767558,42.27978]}},{"properties":{"city":"Ann Arbor","latitude":42.275056,"zip":"48103","amount":100,"donor (first)":"Michael","longitude":-83.751041,"id":"a7gddf2u5k7z","donor (last)":"Anglin","address":"549 S. First St","state":"MI"},"type":"Feature","geometry":{"type":"Point","coordinates":[-83.751041,42.275056]}},{"properties":{"city":"Ann Arbor","latitude":42.284769,"zip":"48103","amount":40,"donor (first)":"Patricia","longitude":-83.767668,"id":"a7gddf4r2cz1","donor (last)":"Ryan","address":"303 Wildwood","state":"MI"},"type":"Feature","geometry":{"type":"Point","coordinates":[-83.767668,42.284769]}},{"properties":{"city":"Ann Arbor","latitude":42.275606,"zip":"48103","amount":50,"donor (first)":"Ethel","longitude":-83.760591,"id":"a7gddf1yj7h9","donor (last)":"Potts","address":"1014 Elder","state":"MI"},"type":"Feature","geometry":{"type":"Point","coordinates":[-83.760591,42.275606]}},{"properties":{"city":"Ann Arbor","latitude":42.25416,"zip":"48103","amount":75,"donor (first)":"Alan","longitude":-83.769503,"id":"a7gddesuvt7g","donor (last)":"Goldsmith","address":"2280 Amesbury Dr","state":"MI"},"type":"Feature","geometry":{"type":"Point","coordinates":[-83.769503,42.25416]}},{"properties":{"city":"Ann Arbor","latitude":42.321055,"zip":"48105","amount":50,"donor (first)":"Sumangala","longitude":-83.713868,"id":"a7gddevb2gx2","donor (last)":"Kailasapathy","address":"2530 Mallard Ct","state":"MI"},"type":"Feature","geometry":{"type":"Point","coordinates":[-83.713868,42.321055]}},{"properties":{"city":"Ann Arbor","latitude":42.282068,"zip":"48104","amount":50,"donor (first)":"Susan","longitude":-83.740732,"id":"a7gddetgxq36","donor (last)":"Wineberg","address":"712 E. Ann St","state":"MI"},"type":"Feature","geometry":{"type":"Point","coordinates":[-83.740732,42.282068]}},{"properties":{"city":"Ann Arbor","latitude":42.279102,"zip":"48103","amount":50,"donor (first)":"Katheryn","longitude":-83.768269,"id":"a7gddesgu2at","donor (last)":"Boris","address":"1726 Charlton","state":"MI"},"type":"Feature","geometry":{"type":"Point","coordinates":[-83.768269,42.279102]}},{"properties":{"city":"Ann Arbor","latitude":42.279408,"zip":"48103","amount":100,"donor (first)":"Harriet","longitude":-83.794577,"id":"a7gddf1cw9b8","donor (last)":"Parsons","address":"295 Parson Place","state":"MI"},"type":"Feature","geometry":{"type":"Point","coordinates":[-83.794577,42.279408]}},{"properties":{"city":"Ann Arbor","latitude":42.281751,"zip":"48103","amount":75,"donor (first)":"Mona","longitude":-83.837172,"id":"a7gddet3xi9f","donor (last)":"Walz","address":"331 Scio Village Ct # 176","state":"MI"},"type":"Feature","geometry":{"type":"Point","coordinates":[-83.837172,42.281751]}},{"properties":{"city":"Ann Arbor","latitude":42.307187,"zip":"48103","amount":100,"donor (first)":"Thomas","longitude":-83.76608,"id":"a7gddepxxa8m","donor (last)":"Wieder","address":"2445 Newport Road","state":"MI"},"type":"Feature","geometry":{"type":"Point","coordinates":[-83.76608,42.307187]}},{"properties":{"city":"Ann Arbor","latitude":42.294994,"zip":"48103","amount":50,"donor (first)":"Susan","longitude":-83.752465,"id":"a7gddezj2eab","donor (last)":"Greenberg","address":"1315 Culver Rd","state":"MI"},"type":"Feature","geometry":{"type":"Point","coordinates":[-83.752465,42.294994]}},{"properties":{"city":"Ann Arbor","latitude":42.284274,"zip":"48104","amount":50,"donor (first)":"Kent","longitude":-83.747182,"id":"a7gddeqh7n6c","donor (last)":"Burkhart","address":"409 1/2 N. Fourth Ave","state":"MI"},"type":"Feature","geometry":{"type":"Point","coordinates":[-83.747182,42.284274]}},{"properties":{"city":"Ann Arbor","latitude":42.279438,"zip":"48104","amount":500,"donor (first)":"Steven","longitude":-83.739632,"id":"a7gddew550hc","donor (last)":"Zarnowitz","address":"300 S. Thayer St","state":"MI"},"type":"Feature","geometry":{"type":"Point","coordinates":[-83.739632,42.279438]}},{"properties":{"city":"Ann Arbor","latitude":42.273385,"zip":"48103","amount":25,"donor (first)":"Judith","longitude":-83.78033,"id":"a7gddexiuimd","donor (last)":"Marks","address":"2509 W Liberty St","state":"MI"},"type":"Feature","geometry":{"type":"Point","coordinates":[-83.78033,42.273385]}},{"properties":{"city":"Ann Arbor","latitude":42.287299,"zip":"48104","amount":100,"donor (first)":"Margaret","longitude":-83.746481,"id":"a7gdderznpzd","donor (last)":"Schankler","address":"711 N. Fourth Ave","state":"MI"},"type":"Feature","geometry":{"type":"Point","coordinates":[-83.746481,42.287299]}},{"properties":{"city":"Ann Arbor","latitude":42.260522,"zip":"48103","amount":200,"donor (first)":"John","longitude":-83.777938,"id":"a7gddewkcqwp","donor (last)":"Eaton","address":"1606 Dicken","state":"MI"},"type":"Feature","geometry":{"type":"Point","coordinates":[-83.777938,42.260522]}},{"properties":{"city":"Ann Arbor","latitude":42.270538,"zip":"48104","amount":50,"donor (first)":"Ellen","longitude":-83.729693,"id":"a7gddf32ft7w","donor (last)":"Ramsburgh","address":"1503 Cambridge Road","state":"MI"},"type":"Feature","geometry":{"type":"Point","coordinates":[-83.729693,42.270538]}},{"properties":{"city":"Ann Arbor","latitude":42.313407,"zip":"48105","amount":100,"donor (first)":"Donald","longitude":-83.70122,"id":"a7gddewjf2ip","donor (last)":"Salberg","address":"3105 Lexington Drive","state":"MI"},"type":"Feature","geometry":{"type":"Point","coordinates":[-83.70122,42.313407]}},{"properties":{"city":"Ann Arbor","latitude":42.296558,"zip":"48103","amount":100,"donor (first)":"Robert","longitude":-83.752927,"id":"a7gddf5aqdz1","donor (last)":"Johnson","address":"1413 Culver Road","state":"MI"},"type":"Feature","geometry":{"type":"Point","coordinates":[-83.752927,42.296558]}},{"properties":{"city":"Ann Arbor","latitude":42.263351,"zip":"48104","amount":150,"donor (first)":"Jane","longitude":-83.698379,"id":"a7gddf0hgjkl","donor (last)":"Lumm","address":"3075 Overridge","state":"MI"},"type":"Feature","geometry":{"type":"Point","coordinates":[-83.698379,42.263351]}},{"properties":{"city":"Ann Arbor","latitude":42.275339,"zip":"48105","amount":100,"donor (first)":"Agnes","longitude":-83.689208,"id":"a7gddey845ot","donor (last)":"Reading","address":"161 Laurin Court","state":"MI"},"type":"Feature","geometry":{"type":"Point","coordinates":[-83.689208,42.275339]}},{"properties":{"city":"Ann Arbor","latitude":42.277037,"zip":"48104","amount":150,"donor (first)":"Piotr","longitude":-83.747552,"id":"a7gddexuaxpw","donor (last)":"Michalowski","address":"451 S. Fourth Ave","state":"MI"},"type":"Feature","geometry":{"type":"Point","coordinates":[-83.747552,42.277037]}},{"properties":{"city":"Ann Arbor","latitude":42.284769,"zip":"48103","amount":60,"donor (first)":"Patricia","longitude":-83.767668,"id":"a7gddf2zopsn","donor (last)":"Ryan","address":"303 Wildwood","state":"MI"},"type":"Feature","geometry":{"type":"Point","coordinates":[-83.767668,42.284769]}},{"properties":{"city":"Ann Arbor","latitude":42.272179,"zip":"48104","amount":75,"donor (first)":"Julia","longitude":-83.731253,"id":"a7gddf54fhjg","donor (last)":"Casa","address":"1410 Hill Street","state":"MI"},"type":"Feature","geometry":{"type":"Point","coordinates":[-83.731253,42.272179]}},{"properties":{"city":"Ann Arbor","latitude":42.277116,"zip":"48104","amount":250,"donor (first)":"Thomas","longitude":-83.746328,"id":"a7gddf1w2336","donor (last)":"Whitaker","address":"444 S. Fifth Ave","state":"MI"},"type":"Feature","geometry":{"type":"Point","coordinates":[-83.746328,42.277116]}},{"properties":{"city":"Farmington Hills","latitude":42.520974,"zip":"48331","amount":500,"donor (first)":"Jill","longitude":-83.380944,"id":"a7gddetwgd7b","donor (last)":"Margolick","address":"33482 Old Timber Rd","state":"MI"},"type":"Feature","geometry":{"type":"Point","coordinates":[-83.380944,42.520974]}},{"properties":{"city":"Ann Arbor","latitude":42.305566,"zip":"48103","amount":200,"donor (first)":"Ben","longitude":-83.768988,"id":"a7gddf4qkk5n","donor (last)":"Dahlmann","address":"1552 Newport Creek Drive","state":"MI"},"type":"Feature","geometry":{"type":"Point","coordinates":[-83.768988,42.305566]}},{"properties":{"city":"Ann Arbor","latitude":42.269523,"zip":"48104","amount":200,"donor (first)":"Gwen","longitude":-83.73153,"id":"a7gddev5ogqj","donor (last)":"Nystuen","address":"1016 Olivia","state":"MI"},"type":"Feature","geometry":{"type":"Point","coordinates":[-83.73153,42.269523]}},{"properties":{"city":"Ann Arbor","latitude":42.279438,"zip":"48104","amount":500,"donor (first)":"Dennis","longitude":-83.739632,"id":"a7gddf4lpsau","donor (last)":"Dahlmann","address":"300 S. Thayer","state":"MI"},"type":"Feature","geometry":{"type":"Point","coordinates":[-83.739632,42.279438]}},{"properties":{"city":"Ann Arbor","latitude":42.288124,"zip":"48105","amount":30,"donor (first)":"Leslie","longitude":-83.702228,"id":"a7gddf59k1cr","donor (last)":"Morris","address":"1023 Young Place","state":"MI"},"type":"Feature","geometry":{"type":"Point","coordinates":[-83.702228,42.288124]}},{"properties":{"city":"Ann Arbor","latitude":42.326104,"zip":"48103","amount":500,"donor (first)":"Peter","longitude":-83.802777,"id":"a7gddeqtxwlc","donor (last)":"Heydon","address":"3562 West Huron River Drive","state":"MI"},"type":"Feature","geometry":{"type":"Point","coordinates":[-83.802777,42.326104]}},{"properties":{"city":"Lake Bluff","latitude":42.282729,"zip":"60044","amount":500,"donor (first)":"Neil","longitude":-87.832799,"id":"a7gddeqfpa4b","donor (last)":"Dahlmann","address":"711 Bluff Road","state":"IL"},"type":"Feature","geometry":{"type":"Point","coordinates":[-87.832799,42.282729]}},{"properties":{"city":"Ann Arbor","latitude":42.283321,"zip":"48103","amount":20,"donor (first)":"Ava","longitude":-83.758911,"id":"a7gddf5uzuys","donor (last)":"Butzu","address":"224 N 7th Street","state":"MI"},"type":"Feature","geometry":{"type":"Point","coordinates":[-83.758911,42.283321]}},{"properties":{"city":"Ann Arbor","latitude":42.286858,"zip":"48103","amount":35,"donor (first)":"Thomas","longitude":-83.789702,"id":"a7gddex842tx","donor (last)":"Hill","address":"373 Pinewood St","state":"MI"},"type":"Feature","geometry":{"type":"Point","coordinates":[-83.789702,42.286858]}},{"properties":{"city":"Ann Arbor","latitude":42.289626,"zip":"48103","amount":50,"donor (first)":"Robert","longitude":-83.749581,"id":"a7gddety6fjj","donor (last)":"Elton","address":"860 Edward","state":"MI"},"type":"Feature","geometry":{"type":"Point","coordinates":[-83.749581,42.289626]}},{"properties":{"city":"Brighton","latitude":42.552212,"zip":"48116","amount":100,"donor (first)":"Michael","longitude":-83.835853,"id":"a7gddf3wbca2","donor (last)":"Harman","address":"5856 Pineridge Ln","state":"MI"},"type":"Feature","geometry":{"type":"Point","coordinates":[-83.835853,42.552212]}},{"properties":{"city":"Ann Arbor","latitude":42.279013,"zip":"48103","amount":50,"donor (first)":"Douglas","longitude":-83.75856,"id":"a7gddevujasv","donor (last)":"White","address":"330 S. Seventh St","state":"MI"},"type":"Feature","geometry":{"type":"Point","coordinates":[-83.75856,42.279013]}},{"properties":{"city":"Ann Arbor","latitude":42.270522,"zip":"48104","amount":100,"donor (first)":"Martin","longitude":-83.729511,"id":"a7gddevjh7kb","donor (last)":"Hurwitz","address":"1520 Cambridge","state":"MI"},"type":"Feature","geometry":{"type":"Point","coordinates":[-83.729511,42.270522]}},{"properties":{"city":"Ann Arbor","latitude":42.290585,"zip":"48105","amount":25,"donor (first)":"Ralph","longitude":-83.682333,"id":"a7gdder99y2u","donor (last)":"Beuhler","address":"1200 Earhart Rd Apt 553","state":"MI"},"type":"Feature","geometry":{"type":"Point","coordinates":[-83.682333,42.290585]}},{"properties":{"city":"Ann Arbor","latitude":42.254745,"zip":"48103","amount":100,"donor (first)":"Richard","longitude":-83.763245,"id":"a7gddf0f8rrs","donor (last)":"Hadler","address":"2121 Greenview","state":"MI"},"type":"Feature","geometry":{"type":"Point","coordinates":[-83.763245,42.254745]}},{"properties":{"city":"Ann Arbor","latitude":42.282253,"zip":"48105","amount":25,"donor (first)":"Ann","longitude":-83.683809,"id":"a7gddexu082z","donor (last)":"Meredith","address":"3985 Penberton Dr","state":"MI"},"type":"Feature","geometry":{"type":"Point","coordinates":[-83.683809,42.282253]}},{"properties":{"city":"Ann Arbor","latitude":42.259742,"zip":"48104","amount":40,"donor (first)":"Maureen","longitude":-83.708916,"id":"a7gdderh44ni","donor (last)":"Harding","address":"1790 Sheridan","state":"MI"},"type":"Feature","geometry":{"type":"Point","coordinates":[-83.708916,42.259742]}},{"properties":{"city":"Ann Arbor","latitude":42.277016,"zip":"48104","amount":50,"donor (first)":"John","longitude":-83.713215,"id":"a7gdder3rnd0","donor (last)":"Debbink","address":"317 Rock Creek Ct","state":"MI"},"type":"Feature","geometry":{"type":"Point","coordinates":[-83.713215,42.277016]}},{"properties":{"city":"Ann Arbor","latitude":42.256057,"zip":"48103","amount":50,"donor (first)":"Sophia","longitude":-83.760761,"id":"a7gddf1wjyan","donor (last)":"Ridha","address":"2038 S. Seventh St","state":"MI"},"type":"Feature","geometry":{"type":"Point","coordinates":[-83.760761,42.256057]}},{"properties":{"city":"Ann Arbor","latitude":42.263369,"zip":"48104","amount":100,"donor (first)":"Thomas","longitude":-83.698143,"id":"a7gddew0vcoh","donor (last)":"Klein","address":"3087 Overridge","state":"MI"},"type":"Feature","geometry":{"type":"Point","coordinates":[-83.698143,42.263369]}},{"properties":{"city":"Ann Arbor","latitude":42.279102,"zip":"48103","amount":25,"donor (first)":"Katheryn","longitude":-83.768269,"id":"a7gddeshnp3l","donor (last)":"Boris","address":"1726 Charlton","state":"MI"},"type":"Feature","geometry":{"type":"Point","coordinates":[-83.768269,42.279102]}},{"properties":{"city":"Ann Arbor","latitude":42.280272,"zip":"48104","amount":50,"donor (first)":"Edward","longitude":-83.74739,"id":"a7gddf4cy7j0","donor (last)":"Shaffran","address":"209 S. Fourth Ave Ste 1C","state":"MI"},"type":"Feature","geometry":{"type":"Point","coordinates":[-83.74739,42.280272]}},{"properties":{"city":"Ann Arbor","latitude":42.276689,"zip":"48105","amount":200,"donor (first)":"Stephen","longitude":-83.691937,"id":"a7gddf08emt2","donor (last)":"Dobson","address":"3350 Geddes","state":"MI"},"type":"Feature","geometry":{"type":"Point","coordinates":[-83.691937,42.276689]}},{"properties":{"city":"Ann Arbor","latitude":42.28123,"zip":"48104","amount":200,"donor (first)":"Charles","longitude":-83.742763,"id":"a7gddf5bzzzh","donor (last)":"Gelman","address":"505 East Huron #805","state":"MI"},"type":"Feature","geometry":{"type":"Point","coordinates":[-83.742763,42.28123]}},{"properties":{"city":"Ann Arbor","latitude":42.268987,"zip":"48104","amount":50,"donor (first)":"Milton","longitude":-83.71144,"id":"a7gddf3lgtly","donor (last)":"Hoefle","address":"1020 Belmont Rd","state":"MI"},"type":"Feature","geometry":{"type":"Point","coordinates":[-83.71144,42.268987]}},{"properties":{"city":"Ann Arbor","latitude":42.268987,"zip":"48104","amount":50,"donor (first)":"Milton","longitude":-83.71144,"id":"a7gddf2hair6","donor (last)":"Hoefle","address":"1020 Belmont Rd","state":"MI"},"type":"Feature","geometry":{"type":"Point","coordinates":[-83.71144,42.268987]}},{"properties":{"city":"Ann Arbor","latitude":42.27088,"zip":"48104","amount":100,"donor (first)":"Janet","longitude":-83.709746,"id":"a7gddf5dgnjf","donor (last)":"Neary","address":"846 Arlington","state":"MI"},"type":"Feature","geometry":{"type":"Point","coordinates":[-83.709746,42.27088]}},{"properties":{"city":"Ann Arbor","latitude":42.279013,"zip":"48103","amount":50,"donor (first)":"Douglas","longitude":-83.75856,"id":"a7gdder2kh69","donor (last)":"White","address":"330 S. Seventh St","state":"MI"},"type":"Feature","geometry":{"type":"Point","coordinates":[-83.75856,42.279013]}},{"properties":{"city":"Ann Arbor","latitude":42.267748,"zip":"48104","amount":100,"donor (first)":"Myra","longitude":-83.689416,"id":"a7gddf3be489","donor (last)":"Larson","address":"3575 E. Huron River Drive","state":"MI"},"type":"Feature","geometry":{"type":"Point","coordinates":[-83.689416,42.267748]}},{"properties":{"city":"Ann Arbor","latitude":42.271322,"zip":"48104","amount":100,"donor (first)":"Peter","longitude":-83.729883,"id":"a7gddeudsn55","donor (last)":"Nagourney","address":"914 Lincoln St","state":"MI"},"type":"Feature","geometry":{"type":"Point","coordinates":[-83.729883,42.271322]}},{"properties":{"city":"Ann Arbor","latitude":42.263107,"zip":"48104","amount":200,"donor (first)":"Edwin Jr.","longitude":-83.698905,"id":"a7gddev21vnq","donor (last)":"Amonsen","address":"3043 Overridge Dr","state":"MI"},"type":"Feature","geometry":{"type":"Point","coordinates":[-83.698905,42.263107]}},{"properties":{"city":"Ann Arbor","latitude":42.259682,"zip":"48104","amount":50,"donor (first)":"John","longitude":-83.733314,"id":"a7gddf5sl49w","donor (last)":"Fingerle","address":"1316 Iroquois Pl","state":"MI"},"type":"Feature","geometry":{"type":"Point","coordinates":[-83.733314,42.259682]}},{"properties":{"city":"Ann Arbor","latitude":42.27185,"zip":"48105","amount":50,"donor (first)":"Alice","longitude":-83.65914,"id":"a7gddeuyarff","donor (last)":"Landau","address":"1355 Stark Strasse","state":"MI"},"type":"Feature","geometry":{"type":"Point","coordinates":[-83.65914,42.27185]}},{"properties":{"city":"Ann Arbor","latitude":42.304148,"zip":"48103","amount":50,"donor (first)":"Donald","longitude":-83.763497,"id":"a7gddf55i98m","donor (last)":"Kenney","address":"2204 Applewood Ct","state":"MI"},"type":"Feature","geometry":{"type":"Point","coordinates":[-83.763497,42.304148]}},{"properties":{"city":"Ann Arbor","latitude":42.267471,"zip":"48104","amount":50,"donor (first)":"Judith","longitude":-83.717398,"id":"a7gddeysh7wg","donor (last)":"Maugh","address":"2158 Melrose Ave","state":"MI"},"type":"Feature","geometry":{"type":"Point","coordinates":[-83.717398,42.267471]}},{"properties":{"city":"Ann Arbor","latitude":42.288124,"zip":"48105","amount":100,"donor (first)":"Michael","longitude":-83.702228,"id":"a7gddeq32145","donor (last)":"Morris","address":"1023 Young Place","state":"MI"},"type":"Feature","geometry":{"type":"Point","coordinates":[-83.702228,42.288124]}},{"properties":{"city":"Ann Arbor","latitude":42.284769,"zip":"48103","amount":100,"donor (first)":"Patricia","longitude":-83.767668,"id":"a7gddeq9dkuf","donor (last)":"Ryan","address":"303 Wildwood Ave","state":"MI"},"type":"Feature","geometry":{"type":"Point","coordinates":[-83.767668,42.284769]}},{"properties":{"city":"Ann Arbor","latitude":42.290892,"zip":"48103","amount":50,"donor (first)":"Alan","longitude":-83.767048,"id":"a7gddf0vo6zn","donor (last)":"Connor","address":"1019 Pinetree Dr","state":"MI"},"type":"Feature","geometry":{"type":"Point","coordinates":[-83.767048,42.290892]}},{"properties":{"city":"Ann Arbor","latitude":42.271164,"zip":"48104","amount":50,"donor (first)":"Anne","longitude":-83.722399,"id":"a7gddewv0jrk","donor (last)":"Upton","address":"2000 Day Street","state":"MI"},"type":"Feature","geometry":{"type":"Point","coordinates":[-83.722399,42.271164]}},{"properties":{"city":"Ann Arbor","latitude":42.286257,"zip":"48103","amount":100,"donor (first)":"Joseph","longitude":-83.770949,"id":"a7gddeq0ae75","donor (last)":"Dohm","address":"415 Westwood","state":"MI"},"type":"Feature","geometry":{"type":"Point","coordinates":[-83.770949,42.286257]}},{"properties":{"city":"Leland","latitude":45.025586,"zip":"49654","amount":250,"donor (first)":"Stacey","longitude":-85.75982,"id":"a7gddew3fxbp","donor (last)":"Roberts","address":"P.O. Box 563","state":"MI"},"type":"Feature","geometry":{"type":"Point","coordinates":[-85.75982,45.025586]}},{"properties":{"city":"Ann Arbor","latitude":42.281533,"zip":"48103","amount":125,"donor (first)":"John","longitude":-83.799095,"id":"a7gddextlet4","donor (last)":"Satarino","address":"281 Rhea Road","state":"MI"},"type":"Feature","geometry":{"type":"Point","coordinates":[-83.799095,42.281533]}},{"properties":{"city":"Ann Arbor","latitude":42.260869,"zip":"48104","amount":50,"donor (first)":"Alice","longitude":-83.727275,"id":"a7gddf5xsiof","donor (last)":"Ralph","address":"1607 E. Stadium Blvd","state":"MI"},"type":"Feature","geometry":{"type":"Point","coordinates":[-83.727275,42.260869]}},{"properties":{"city":"Ann Arbor","latitude":42.28123,"zip":"48104","amount":100,"donor (first)":"Esther","longitude":-83.742763,"id":"a7gddesax8lq","donor (last)":"Floyd","address":"505 E. Huron","state":"MI"},"type":"Feature","geometry":{"type":"Point","coordinates":[-83.742763,42.28123]}},{"properties":{"city":"Ann Arbor","latitude":42.273208,"zip":"48104","amount":25,"donor (first)":"Adam","longitude":-83.710187,"id":"a7gddf4x6b51","donor (last)":"Kozma","address":"2996 Appleway","state":"MI"},"type":"Feature","geometry":{"type":"Point","coordinates":[-83.710187,42.273208]}},{"properties":{"city":"Ann Arbor","latitude":42.293292,"zip":"48103","amount":50,"donor (first)":"Peter","longitude":-83.76076,"id":"a7gddf193gik","donor (last)":"Bertocci","address":"1021 Robin Road","state":"MI"},"type":"Feature","geometry":{"type":"Point","coordinates":[-83.76076,42.293292]}},{"properties":{"city":"Ann Arbor","latitude":42.27486,"zip":"48103","amount":50,"donor (first)":"Mary","longitude":-83.764112,"id":"a7gddf3wnb9a","donor (last)":"Hathaway","address":"1407 Wakefield Ave","state":"MI"},"type":"Feature","geometry":{"type":"Point","coordinates":[-83.764112,42.27486]}},{"properties":{"city":"Ann Arbor","latitude":42.260513,"zip":"48104","amount":50,"donor (first)":"Constance","longitude":-83.695142,"id":"a7gddetcn6jk","donor (last)":"Cress","address":"1958 Boulder Drive","state":"MI"},"type":"Feature","geometry":{"type":"Point","coordinates":[-83.695142,42.260513]}},{"properties":{"city":"Ann Arbor","latitude":42.25416,"zip":"48103","amount":50,"donor (first)":"Alan","longitude":-83.769503,"id":"a7gddf0410oy","donor (last)":"Goldsmith","address":"2280 Amesbury Dr","state":"MI"},"type":"Feature","geometry":{"type":"Point","coordinates":[-83.769503,42.25416]}},{"properties":{"city":"Ann Arbor","latitude":42.281875,"zip":"48107","amount":50,"donor (first)":"Michael","longitude":-83.748479,"id":"a7gddeqsbij2","donor (last)":"Merrick","address":"P.O. Box 7255","state":"MI"},"type":"Feature","geometry":{"type":"Point","coordinates":[-83.748479,42.281875]}},{"properties":{"city":"Ann Arbor","latitude":42.325069,"zip":"48105","amount":100,"donor (first)":"Richard","longitude":-83.791572,"id":"a7gddetv7hnp","donor (last)":"Sarns","address":"3645 Daleview Dr","state":"MI"},"type":"Feature","geometry":{"type":"Point","coordinates":[-83.791572,42.325069]}}],"is_temporal":false,"author":{"url":"","metadata":"","contact_name":"","contact_address":"","source":"","contact_phone":""},"source":"","pagination":{"sort":null,"start":0,"total":93,"limit":1000000},"state":"complete","tags":"","published":"2014-08-14T20:34:19-04:00","id":264100}