{"type":"FeatureCollection","data_type":"Dataset","url_type":null,"permissions":[{"permissions":{"download":true,"view":true},"group_id":"everyone"}],"classification":null,"title":"REO Dist LND MTD JULY 30","count":165,"stream_id":264284,"contributor":{"url":"http://geocommons.com/users/39447","name":"sam.felipe"},"data_attributes":null,"calculation_params":null,"icon_link":null,"link":"http://geocommons.com/overlays/264284.json","extent":[-122.823,32.5619,-92.3581,48.096],"geometry_types":["point"],"unique_name":null,"name":"REO Dist LND MTD JULY 30","feature_count":165,"description":"","next_feature":null,"is_raster":false,"short_classification":"Y","stats":{"id":{"max":16566,"variance":456434.948632668,"mean":16052.1212121212,"stdev":675.599695554008,"min":11160,"median":16157}},"features":[{"properties":{"city":"Clovis","createddate":"4/3/2012 13:12","iscurativefile":"FALSE","zip":"93611","openeddate":"7/5/2012 0:00","referringcustomerfilenumber":"11-0118560","outofstatestatus":"Not Applicable","task completed date":"7/5/2012","region":"Central California","countyname":"Fresno","closeddate":"7/23/2012 0:00","isclosed":"FALSE","geo_score":0.902,"id":"a7i9qnoqqaml","filenumber":"480365","filetransactiontype":"Escrow Only","escrowofficername":"Stacey Giguiere","titleunit":"LandSafe Title","referringcustomer":"LandSafe_CA","primarycurativetech":"Unassigned","contract in task":"Contract In Tasks","secondarycurativetech":"Unassigned","branchoffice":"Fresno","isescalated":"FALSE","address":"15 Fowler Ave","propertyaddressline2":null,"filenotes":"old file # 457721\r\nDEAL- CASH","geo_precision":"range","state":"California"},"type":"Feature","geometry":{"type":"Point","coordinates":[-119.681889,36.830287]}},{"properties":{"city":"Escondido","createddate":"4/18/2012 11:35","iscurativefile":"FALSE","zip":"92026","openeddate":"7/6/2012 0:00","referringcustomerfilenumber":"11-0078178","outofstatestatus":"Not Applicable","task completed date":"7/6/2012","region":"Inland Empire","countyname":"San Diego","closeddate":"7/9/2012 0:00","isclosed":"FALSE","geo_score":0.902,"id":"a7i9qnd2ttvi","filenumber":"480565","filetransactiontype":"Escrow Only","escrowofficername":"(Beth) Elizabeth D'Andrea","titleunit":"LandSafe Title","referringcustomer":"LandSafe_CA","primarycurativetech":"Unassigned","contract in task":"Contract In Tasks","secondarycurativetech":"Unassigned","branchoffice":"Murrieta","isescalated":"FALSE","address":"862 Ball Ave","propertyaddressline2":null,"filenotes":"old file # 461448","geo_precision":"range","state":"California"},"type":"Feature","geometry":{"type":"Point","coordinates":[-117.07702,33.14129]}},{"properties":{"city":"Modesto","createddate":"5/8/2012 12:19","iscurativefile":"FALSE","zip":"95351","openeddate":"5/8/2012 0:00","referringcustomerfilenumber":"12-0007794","outofstatestatus":"Not Applicable","task completed date":"7/10/2012","region":"South Northern California","countyname":"Stanislaus","closeddate":"7/19/2012 0:00","isclosed":"TRUE","geo_score":0.902,"id":"a7i9qnridxxs","filenumber":"481380","filetransactiontype":"Escrow Only","escrowofficername":"Diane Oliveira-Medina","titleunit":"LandSafe Title","referringcustomer":"LandSafe_CA","primarycurativetech":"Unassigned","contract in task":"Contract In Tasks","secondarycurativetech":"Unassigned","branchoffice":"Turlock","isescalated":"FALSE","address":"201 Rio Grande Ave","propertyaddressline2":null,"filenotes":"old file # 465949","geo_precision":"range","state":"California"},"type":"Feature","geometry":{"type":"Point","coordinates":[-120.99035,37.610301]}},{"properties":{"city":"Sasnger","createddate":"5/8/2012 14:58","iscurativefile":"FALSE","zip":"93657","openeddate":"7/11/2012 0:00","referringcustomerfilenumber":"11-0091224","outofstatestatus":"Not Applicable","task completed date":"7/11/2012","region":"Central California","countyname":"Fresno","closeddate":"7/26/2012 0:00","isclosed":"TRUE","geo_score":0.809,"id":"a7i9qnkdjaqe","filenumber":"481750","filetransactiontype":"Escrow Only","escrowofficername":"Stacey Giguiere","titleunit":"LandSafe Title","referringcustomer":"LandSafe_CA","primarycurativetech":"Unassigned","contract in task":"Contract In Tasks","secondarycurativetech":"Unassigned","branchoffice":"Fresno","isescalated":"FALSE","address":"2510 Webster Ave","propertyaddressline2":null,"filenotes":"old file # 466117","geo_precision":"range","state":"California"},"type":"Feature","geometry":{"type":"Point","coordinates":[-119.572886,36.705056]}},{"properties":{"city":"Guadalupe","createddate":"5/10/2012 10:23","iscurativefile":"FALSE","zip":"93434","openeddate":"7/3/2012 0:00","referringcustomerfilenumber":"12-0022543","outofstatestatus":"Not Applicable","task completed date":"7/3/2012","region":"Central California","countyname":"Santa Barbara","closeddate":"8/10/2012 0:00","isclosed":"TRUE","geo_score":0.902,"id":"a7i9qnhln7oh","filenumber":"480182","filetransactiontype":"Escrow Only","escrowofficername":"Cindy Kohler","titleunit":"LandSafe Title","referringcustomer":"LandSafe_CA","primarycurativetech":"Unassigned","contract in task":"Contract In Tasks","secondarycurativetech":"Unassigned","branchoffice":"Bakersfield","isescalated":"FALSE","address":"5196 Surf Bird Ln","propertyaddressline2":null,"filenotes":"old file # 466666\r\nDEAL-MTG","geo_precision":"range","state":"California"},"type":"Feature","geometry":{"type":"Point","coordinates":[-120.586115,34.960207]}},{"properties":{"city":"Antioch","createddate":"5/18/2012 13:54","iscurativefile":"FALSE","zip":"94531","openeddate":"7/5/2012 0:00","referringcustomerfilenumber":"12-0043983","outofstatestatus":"Not Applicable","task completed date":"7/5/2012","region":"North Northern California","countyname":"Contra Costa","closeddate":"8/25/2012 0:00","isclosed":"FALSE","geo_score":0.902,"id":"a7i9qnfkwfhm","filenumber":"480479","filetransactiontype":"Escrow Only","escrowofficername":"Margaret Basques","titleunit":"LandSafe Title","referringcustomer":"LandSafe_CA","primarycurativetech":"Unassigned","contract in task":"Contract In Tasks","secondarycurativetech":"Unassigned","branchoffice":"Santa Rosa","isescalated":"FALSE","address":"4941 Eureka Mine Ct","propertyaddressline2":null,"filenotes":"old file# 468928\r\nDEAL-MTG","geo_precision":"range","state":"California"},"type":"Feature","geometry":{"type":"Point","coordinates":[-121.806575,37.966079]}},{"properties":{"city":"Whittier","createddate":"5/24/2012 15:56","iscurativefile":"FALSE","zip":"90605","openeddate":"7/6/2012 0:00","referringcustomerfilenumber":"12-0029152","outofstatestatus":"Not Applicable","task completed date":"7/6/2012","region":"Los Angeles - Ventura California","countyname":"Los Angeles","closeddate":"7/27/2012 0:00","isclosed":"TRUE","geo_score":0.902,"id":"a7i9qnf43fg9","filenumber":"480588","filetransactiontype":"Escrow Only","escrowofficername":"Martha Gonzales","titleunit":"LandSafe Title","referringcustomer":"LandSafe_CA","primarycurativetech":"Unassigned","contract in task":"Contract In Tasks","secondarycurativetech":"Unassigned","branchoffice":"Glendale","isescalated":"FALSE","address":"13925 Oval Dr","propertyaddressline2":null,"filenotes":"old file # 470498","geo_precision":"range","state":"California"},"type":"Feature","geometry":{"type":"Point","coordinates":[-118.029597,33.94772]}},{"properties":{"city":"Palmdale","createddate":"6/12/2012 12:01","iscurativefile":"FALSE","zip":"93551","openeddate":"7/6/2012 0:00","referringcustomerfilenumber":"11-0135054","outofstatestatus":"Not Applicable","task completed date":"7/6/2012","region":"Los Angeles - Ventura California","countyname":"Los Angeles","closeddate":"7/25/2012 0:00","isclosed":"TRUE","geo_score":0.902,"id":"a7i9qnd0ke32","filenumber":"480568","filetransactiontype":"Escrow Only","escrowofficername":"Julie Mayorga","titleunit":"LandSafe Title","referringcustomer":"LandSafe_CA","primarycurativetech":"Unassigned","contract in task":"Contract In Tasks","secondarycurativetech":"Unassigned","branchoffice":"City of Industry","isescalated":"FALSE","address":"2603 Redington St","propertyaddressline2":null,"filenotes":"old file # 474571","geo_precision":"range","state":"California"},"type":"Feature","geometry":{"type":"Point","coordinates":[-118.176596,34.587047]}},{"properties":{"city":"Sacramento","createddate":"6/12/2012 12:04","iscurativefile":"FALSE","zip":"95820","openeddate":"6/12/2012 0:00","referringcustomerfilenumber":"01445-1912","outofstatestatus":"Not Applicable","task completed date":"7/6/2012","region":"North Northern California","countyname":"Sacramento","closeddate":"7/5/2012 0:00","isclosed":"TRUE","geo_score":0.819,"id":"a7i9qndaaq8y","filenumber":"01445-1912","filetransactiontype":"Escrow Only","escrowofficername":"Dawn Vincent","titleunit":"LandSafe Title","referringcustomer":"LandSafe_CA","primarycurativetech":"Unassigned","contract in task":"Contract In Tasks","secondarycurativetech":"Unassigned","branchoffice":"AMSAC-Fair Oaks","isescalated":"FALSE","address":"3905 65th St","propertyaddressline2":null,"filenotes":"DEAL- CASH","geo_precision":"range","state":"California"},"type":"Feature","geometry":{"type":"Point","coordinates":[-121.428527,38.538441]}},{"properties":{"city":"Oxnard","createddate":"6/20/2012 10:00","iscurativefile":"FALSE","zip":"93035","openeddate":"7/11/2012 0:00","referringcustomerfilenumber":"12-0000267","outofstatestatus":"Not Applicable","task completed date":"7/11/2012","region":"Los Angeles - Ventura California","countyname":"Ventura","closeddate":"8/17/2012 0:00","isclosed":"FALSE","geo_score":0.902,"id":"a7i9qngch9ly","filenumber":"481764","filetransactiontype":"Escrow Only","escrowofficername":"Araceli De Lara-Michel","titleunit":"LandSafe Title","referringcustomer":"LandSafe_CA","primarycurativetech":"Unassigned","contract in task":"Contract In Tasks","secondarycurativetech":"Unassigned","branchoffice":"Ventura","isescalated":"FALSE","address":"912 Ontario St","propertyaddressline2":null,"filenotes":"DEAL-MTG\r\n\r\nOld file # 476920","geo_precision":"range","state":"California"},"type":"Feature","geometry":{"type":"Point","coordinates":[-119.196084,34.190502]}},{"properties":{"city":"Johnson Valley","createddate":"7/2/2012 11:08","iscurativefile":"FALSE","zip":"92285","openeddate":"7/2/2012 0:00","referringcustomerfilenumber":"11-0123652","outofstatestatus":"Not Applicable","task completed date":"7/2/2012","region":"Inland Empire","countyname":"San Bernardino","closeddate":"7/20/2012 0:00","isclosed":"TRUE","geo_score":0.815,"id":"a7i9qnd3pkym","filenumber":"479590","filetransactiontype":"Escrow Only","escrowofficername":"Julie Kruger","titleunit":"LandSafe Title","referringcustomer":"LandSafe_CA","primarycurativetech":"Unassigned","contract in task":"Contract In Tasks","secondarycurativetech":"Unassigned","branchoffice":"Victorville","isescalated":"FALSE","address":"51436 Cholla Ave","propertyaddressline2":null,"filenotes":"DEAL- CASH","geo_precision":"range","state":"California"},"type":"Feature","geometry":{"type":"Point","coordinates":[-116.544903,34.339794]}},{"properties":{"city":"Murrieta","createddate":"7/2/2012 11:25","iscurativefile":"FALSE","zip":"92563","openeddate":"7/2/2012 0:00","referringcustomerfilenumber":"11-0078458","outofstatestatus":"Not Applicable","task completed date":"7/2/2012","region":"Inland Empire","countyname":"Riverside","closeddate":"8/10/2012 0:00","isclosed":"FALSE","geo_score":0.577,"id":"a7i9qnm76o18","filenumber":"479597","filetransactiontype":"Escrow Only","escrowofficername":"(Loreen) Dorothy Hope","titleunit":"LandSafe Title","referringcustomer":"LandSafe_CA","primarycurativetech":"Unassigned","contract in task":"Contract In Tasks","secondarycurativetech":"Unassigned","branchoffice":"Murrieta","isescalated":"FALSE","address":"37974 Pereza Ct","propertyaddressline2":null,"filenotes":"DEAL- CASH","geo_precision":"street","state":"California"},"type":"Feature","geometry":{"type":"Point","coordinates":[-117.1131,33.594581]}},{"properties":{"city":"Stockton","createddate":"7/2/2012 11:28","iscurativefile":"FALSE","zip":"95215","openeddate":"7/2/2012 0:00","referringcustomerfilenumber":"12-0049497","outofstatestatus":"Not Applicable","task completed date":"7/2/2012","region":"South Northern California","countyname":"San Joaquin","closeddate":"7/20/2012 0:00","isclosed":"TRUE","geo_score":0.488,"id":"a7i9qnmiu38g","filenumber":"479575","filetransactiontype":"Escrow Only","escrowofficername":"Patti Atkinson-Utz","titleunit":"LandSafe Title","referringcustomer":"LandSafe_CA","primarycurativetech":"Unassigned","contract in task":"Contract In Tasks","secondarycurativetech":"Unassigned","branchoffice":"Turlock","isescalated":"FALSE","address":"327 S Wagner Ave","propertyaddressline2":null,"filenotes":"DEAL- CASH","geo_precision":"zip","state":"California"},"type":"Feature","geometry":{"type":"Point","coordinates":[-121.128903,37.964123]}},{"properties":{"city":"Stockton","createddate":"7/2/2012 11:35","iscurativefile":"FALSE","zip":"95209","openeddate":"7/2/2012 0:00","referringcustomerfilenumber":"11-0138356","outofstatestatus":"Not Applicable","task completed date":"7/2/2012","region":"South Northern California","countyname":"San Joaquin","closeddate":"7/13/2012 0:00","isclosed":"FALSE","geo_score":0.902,"id":"a7i9qncp03q7","filenumber":"479579","filetransactiontype":"Escrow Only","escrowofficername":"Debra Greene","titleunit":"LandSafe Title","referringcustomer":"LandSafe_CA","primarycurativetech":"Unassigned","contract in task":"Contract In Tasks","secondarycurativetech":"Unassigned","branchoffice":"Modesto","isescalated":"FALSE","address":"3825 Oak Shores Dr","propertyaddressline2":null,"filenotes":"DEAL- CASH","geo_precision":"range","state":"California"},"type":"Feature","geometry":{"type":"Point","coordinates":[-121.364862,38.048907]}},{"properties":{"city":"Sylmar","createddate":"7/2/2012 11:42","iscurativefile":"FALSE","zip":"91342","openeddate":"7/2/2012 0:00","referringcustomerfilenumber":"11-0078190","outofstatestatus":"Not Applicable","task completed date":"7/2/2012","region":"Los Angeles - Ventura California","countyname":"Los Angeles","closeddate":"7/27/2012 0:00","isclosed":"TRUE","geo_score":0.902,"id":"a7i9qnl6vuwk","filenumber":"479609","filetransactiontype":"Escrow Only","escrowofficername":"Mary Schenuk","titleunit":"LandSafe Title","referringcustomer":"LandSafe_CA","primarycurativetech":"Unassigned","contract in task":"Contract In Tasks","secondarycurativetech":"Unassigned","branchoffice":"Glendale","isescalated":"FALSE","address":"14984 Astoria St","propertyaddressline2":null,"filenotes":"DEAL- CASH","geo_precision":"range","state":"California"},"type":"Feature","geometry":{"type":"Point","coordinates":[-118.455869,34.296114]}},{"properties":{"city":"Redlands","createddate":"7/2/2012 11:52","iscurativefile":"FALSE","zip":"92373","openeddate":"7/2/2012 0:00","referringcustomerfilenumber":"11-0110259","outofstatestatus":"Not Applicable","task completed date":"7/2/2012","region":"Inland Empire","countyname":"San Bernardino","closeddate":"8/3/2012 0:00","isclosed":"FALSE","geo_score":0.488,"id":"a7i9qnr5rlln","filenumber":"479580","filetransactiontype":"Escrow Only","escrowofficername":"Patti Black","titleunit":"LandSafe Title","referringcustomer":"LandSafe_CA","primarycurativetech":"Unassigned","contract in task":"Contract In Tasks","secondarycurativetech":"Unassigned","branchoffice":"Redlands","isescalated":"FALSE","address":"1537 Rebecca Crest","propertyaddressline2":null,"filenotes":"DEAL-MTG","geo_precision":"zip","state":"California"},"type":"Feature","geometry":{"type":"Point","coordinates":[-117.24143,34.077791]}},{"properties":{"city":"Winnetka","createddate":"7/2/2012 11:55","iscurativefile":"FALSE","zip":"91306","openeddate":"7/2/2012 0:00","referringcustomerfilenumber":"12-0029150","outofstatestatus":"Not Applicable","task completed date":"7/2/2012","region":"Los Angeles - Ventura California","countyname":"Los Angeles","closeddate":"7/13/2012 0:00","isclosed":"FALSE","geo_score":0.415,"id":"a7i9qncv8ho9","filenumber":"479619","filetransactiontype":"Escrow Only","escrowofficername":"Julie Mayorga","titleunit":"LandSafe Title","referringcustomer":"LandSafe_CA","primarycurativetech":"Unassigned","contract in task":"Contract In Tasks","secondarycurativetech":"Unassigned","branchoffice":"City of Industry","isescalated":"FALSE","address":"7515 Winnetka Ave, 111","propertyaddressline2":null,"filenotes":"DEAL-MTG","geo_precision":"street","state":"California"},"type":"Feature","geometry":{"type":"Point","coordinates":[-118.570953,34.185694]}},{"properties":{"city":"Santa Maria","createddate":"7/2/2012 11:56","iscurativefile":"FALSE","zip":"93454","openeddate":"7/2/2012 0:00","referringcustomerfilenumber":"12-0022580","outofstatestatus":"Not Applicable","task completed date":"7/2/2012","region":"Central California","countyname":"Santa Barbara","closeddate":"7/17/2012 0:00","isclosed":"TRUE","geo_score":0.902,"id":"a7i9qnk46q0b","filenumber":"479589","filetransactiontype":"Escrow Only","escrowofficername":"Cindy Kohler","titleunit":"LandSafe Title","referringcustomer":"LandSafe_CA","primarycurativetech":"Unassigned","contract in task":"Contract In Tasks","secondarycurativetech":"Unassigned","branchoffice":"Bakersfield","isescalated":"FALSE","address":"732 E Fesler St","propertyaddressline2":null,"filenotes":"DEAL- CASH","geo_precision":"range","state":"California"},"type":"Feature","geometry":{"type":"Point","coordinates":[-120.425018,34.956659]}},{"properties":{"city":"San Bernardino","createddate":"7/2/2012 11:59","iscurativefile":"FALSE","zip":"92408","openeddate":"7/2/2012 0:00","referringcustomerfilenumber":"11-0077553","outofstatestatus":"Not Applicable","task completed date":"7/2/2012","region":"Inland Empire","countyname":"San Bernardino","closeddate":"7/13/2012 0:00","isclosed":"FALSE","geo_score":0.844,"id":"a7i9qnl62xl5","filenumber":"479593","filetransactiontype":"Escrow Only","escrowofficername":"Pamela San Millan","titleunit":"LandSafe Title","referringcustomer":"LandSafe_CA","primarycurativetech":"Unassigned","contract in task":"Contract In Tasks","secondarycurativetech":"Unassigned","branchoffice":"Victorville","isescalated":"FALSE","address":"722 Foisy St","propertyaddressline2":null,"filenotes":"DEAL- CASH","geo_precision":"range","state":"California"},"type":"Feature","geometry":{"type":"Point","coordinates":[-117.276116,34.087893]}},{"properties":{"city":"Roseville","createddate":"7/2/2012 12:02","iscurativefile":"FALSE","zip":"95678","openeddate":"7/2/2012 0:00","referringcustomerfilenumber":"12-0036410","outofstatestatus":"Not Applicable","task completed date":"7/2/2012","region":"South Northern California","countyname":"Out of State","closeddate":"7/13/2012 0:00","isclosed":"FALSE","geo_score":0.837,"id":"a7i9qnghdna3","filenumber":"479611","filetransactiontype":"Escrow Only","escrowofficername":"Heather Walker","titleunit":"LandSafe Title","referringcustomer":"LandSafe_CA","primarycurativetech":"Unassigned","contract in task":"Contract In Tasks","secondarycurativetech":"Unassigned","branchoffice":"Turlock","isescalated":"FALSE","address":"208 Branch Ct","propertyaddressline2":null,"filenotes":"DEAL- CASH","geo_precision":"range","state":"California"},"type":"Feature","geometry":{"type":"Point","coordinates":[-121.278249,38.546904]}},{"properties":{"city":"Modesto","createddate":"7/2/2012 12:18","iscurativefile":"FALSE","zip":"95358","openeddate":"7/2/2012 0:00","referringcustomerfilenumber":"12-0045449","outofstatestatus":"Not Applicable","task completed date":"7/2/2012","region":"South Northern California","countyname":"Stanislaus","closeddate":"7/17/2012 0:00","isclosed":"TRUE","geo_score":0.902,"id":"a7i9qnqkampd","filenumber":"479644","filetransactiontype":"Escrow Only","escrowofficername":"Debbi Johnson (Apodaca)","titleunit":"LandSafe Title","referringcustomer":"LandSafe_CA","primarycurativetech":"Unassigned","contract in task":"Contract In Tasks","secondarycurativetech":"Unassigned","branchoffice":"Modesto","isescalated":"FALSE","address":"1616 Boise Ave","propertyaddressline2":null,"filenotes":"DEAL- CASH","geo_precision":"range","state":"California"},"type":"Feature","geometry":{"type":"Point","coordinates":[-121.007016,37.60711]}},{"properties":{"city":"Vacaville","createddate":"7/2/2012 12:47","iscurativefile":"FALSE","zip":"95688","openeddate":"7/2/2012 0:00","referringcustomerfilenumber":"12-0017362","outofstatestatus":"Not Applicable","task completed date":"7/2/2012","region":"North Northern California","countyname":"Solano","closeddate":"7/11/2012 0:00","isclosed":"FALSE","geo_score":0.634,"id":"a7i9qnod7fkh","filenumber":"479670","filetransactiontype":"Escrow Only","escrowofficername":"Patti Billing","titleunit":"LandSafe Title","referringcustomer":"LandSafe_CA","primarycurativetech":"Unassigned","contract in task":"Contract In Tasks","secondarycurativetech":"Unassigned","branchoffice":"Santa Rosa","isescalated":"FALSE","address":"125 Dewberry Dr","propertyaddressline2":null,"filenotes":"DEAL- CASH","geo_precision":"street","state":"California"},"type":"Feature","geometry":{"type":"Point","coordinates":[-121.374031,38.448427]}},{"properties":{"city":"Santa Ana","createddate":"7/2/2012 15:08","iscurativefile":"FALSE","zip":"92706","openeddate":"7/3/2012 0:00","referringcustomerfilenumber":"12-0022570","outofstatestatus":"Not Applicable","task completed date":"7/2/2012","region":"So. California","countyname":"Orange","closeddate":"8/8/2012 0:00","isclosed":"FALSE","geo_score":0.849,"id":"a7i9qnn6v93t","filenumber":"479741","filetransactiontype":"Escrow Only","escrowofficername":"Michelle Huynh","titleunit":"LandSafe Title","referringcustomer":"LandSafe_CA","primarycurativetech":"Unassigned","contract in task":"Contract In Tasks","secondarycurativetech":"Unassigned","branchoffice":"Irvine","isescalated":"FALSE","address":"934 West Sharon Rd","propertyaddressline2":null,"filenotes":"DEAL-MTG","geo_precision":"range","state":"California"},"type":"Feature","geometry":{"type":"Point","coordinates":[-117.881988,33.770839]}},{"properties":{"city":"Downey","createddate":"7/3/2012 10:01","iscurativefile":"FALSE","zip":"90242","openeddate":"7/3/2012 0:00","referringcustomerfilenumber":"11-0097072","outofstatestatus":"Not Applicable","task completed date":"7/3/2012","region":"Los Angeles - Ventura California","countyname":"Los Angeles","closeddate":"7/27/2012 0:00","isclosed":"TRUE","geo_score":0.902,"id":"a7i9qnh0t701","filenumber":"479931","filetransactiontype":"Escrow Only","escrowofficername":"Angela Hum","titleunit":"LandSafe Title","referringcustomer":"LandSafe_CA","primarycurativetech":"Unassigned","contract in task":"Contract In Tasks","secondarycurativetech":"Unassigned","branchoffice":"Glendale","isescalated":"FALSE","address":"9659 Belcher St","propertyaddressline2":null,"filenotes":"DEAL- CASH","geo_precision":"range","state":"California"},"type":"Feature","geometry":{"type":"Point","coordinates":[-118.126181,33.910759]}},{"properties":{"city":"Tracy","createddate":"7/3/2012 10:18","iscurativefile":"FALSE","zip":"95376","openeddate":"7/3/2012 0:00","referringcustomerfilenumber":"12-0017344","outofstatestatus":"Not Applicable","task completed date":"7/3/2012","region":"South Northern California","countyname":"San Joaquin","closeddate":"7/13/2012 0:00","isclosed":"TRUE","geo_score":0.902,"id":"a7i9qnqua79i","filenumber":"479936","filetransactiontype":"Escrow Only","escrowofficername":"Patti Atkinson-Utz","titleunit":"LandSafe Title","referringcustomer":"LandSafe_CA","primarycurativetech":"Unassigned","contract in task":"Contract In Tasks","secondarycurativetech":"Unassigned","branchoffice":"Turlock","isescalated":"FALSE","address":"1183 Sultana Drive","propertyaddressline2":null,"filenotes":"DEAL- CASH","geo_precision":"range","state":"California"},"type":"Feature","geometry":{"type":"Point","coordinates":[-121.421317,37.721805]}},{"properties":{"city":"Winchester","createddate":"7/3/2012 10:29","iscurativefile":"FALSE","zip":"92596","openeddate":"7/3/2012 0:00","referringcustomerfilenumber":"12-0058047","outofstatestatus":"Not Applicable","task completed date":"7/3/2012","region":"Inland Empire","countyname":"Riverside","closeddate":"8/1/2012 0:00","isclosed":"FALSE","geo_score":0.585,"id":"a7i9qninhgts","filenumber":"479944","filetransactiontype":"Escrow Only","escrowofficername":"Nyna Ensign","titleunit":"LandSafe Title","referringcustomer":"LandSafe_CA","primarycurativetech":"Unassigned","contract in task":"Contract In Tasks","secondarycurativetech":"Unassigned","branchoffice":"Riverside","isescalated":"FALSE","address":"35379 Date Palm St","propertyaddressline2":null,"filenotes":"DEAL-MTG","geo_precision":"street","state":"California"},"type":"Feature","geometry":{"type":"Point","coordinates":[-117.150784,33.549997]}},{"properties":{"city":"Hanford","createddate":"7/3/2012 10:50","iscurativefile":"FALSE","zip":"93230","openeddate":"7/3/2012 0:00","referringcustomerfilenumber":"11-0078170","outofstatestatus":"Not Applicable","task completed date":"7/3/2012","region":"Central California","countyname":"Kings","closeddate":"7/27/2012 0:00","isclosed":"TRUE","geo_score":0.477,"id":"a7i9qnm09dli","filenumber":"479950","filetransactiontype":"Title &amp; Escrow","escrowofficername":"Cheryl Amos","titleunit":"CA CPU Title-Kevin","referringcustomer":"LandSafe_CA","primarycurativetech":"Unassigned","contract in task":"Contract In Tasks","secondarycurativetech":"Unassigned","branchoffice":"Hanford","isescalated":"FALSE","address":"140 West Magnolia Ave","propertyaddressline2":null,"filenotes":"DEAL- CASH","geo_precision":"street","state":"California"},"type":"Feature","geometry":{"type":"Point","coordinates":[-119.48286,35.885833]}},{"properties":{"city":"Salinas","createddate":"7/3/2012 13:11","iscurativefile":"FALSE","zip":"93908","openeddate":"7/3/2012 0:00","referringcustomerfilenumber":"11-0047551","outofstatestatus":"Not Applicable","task completed date":"7/3/2012","region":"South Northern California","countyname":"Monterey","closeddate":"7/26/2012 0:00","isclosed":"TRUE","geo_score":0.809,"id":"a7i9qnety5h9","filenumber":"479953","filetransactiontype":"Title &amp; Escrow","escrowofficername":"Mary Reyna","titleunit":"CA CPU Title-Kevin","referringcustomer":"LandSafe_CA","primarycurativetech":"Unassigned","contract in task":"Contract In Tasks","secondarycurativetech":"Unassigned","branchoffice":"Los Gatos","isescalated":"FALSE","address":"126 San Benancio Canyon Rd","propertyaddressline2":null,"filenotes":"DEAL- CASH","geo_precision":"range","state":"California"},"type":"Feature","geometry":{"type":"Point","coordinates":[-121.706563,36.567089]}},{"properties":{"city":"Coalinga","createddate":"7/3/2012 13:19","iscurativefile":"FALSE","zip":"93210","openeddate":"7/3/2012 0:00","referringcustomerfilenumber":"11-0110264","outofstatestatus":"Not Applicable","task completed date":"7/3/2012","region":"Central California","countyname":"Fresno","closeddate":"7/25/2012 0:00","isclosed":"TRUE","geo_score":0.902,"id":"a7i9qnpbk1yo","filenumber":"479941","filetransactiontype":"Escrow Only","escrowofficername":"Claudia Froelich","titleunit":"LandSafe Title","referringcustomer":"LandSafe_CA","primarycurativetech":"Unassigned","contract in task":"Contract In Tasks","secondarycurativetech":"Unassigned","branchoffice":"Fresno","isescalated":"FALSE","address":"629-631 E Elm Ave","propertyaddressline2":null,"filenotes":"DEAL- CASH","geo_precision":"range","state":"California"},"type":"Feature","geometry":{"type":"Point","coordinates":[-120.355043,36.145335]}},{"properties":{"city":"Escondido","createddate":"7/3/2012 13:25","iscurativefile":"FALSE","zip":"92026","openeddate":"7/3/2012 0:00","referringcustomerfilenumber":"11-0135681","outofstatestatus":"Not Applicable","task completed date":"7/3/2012","region":"So. California","countyname":"San Diego","closeddate":"8/8/2012 0:00","isclosed":"FALSE","geo_score":0.902,"id":"a7i9qnsy9o91","filenumber":"480076","filetransactiontype":"Escrow Only","escrowofficername":"Melissa Lovato","titleunit":"LandSafe Title","referringcustomer":"LandSafe_CA","primarycurativetech":"Unassigned","contract in task":"Contract In Tasks","secondarycurativetech":"Unassigned","branchoffice":"Mission Valley","isescalated":"FALSE","address":"25758 Forest Dr","propertyaddressline2":null,"filenotes":"DEAL- CASH","geo_precision":"range","state":"California"},"type":"Feature","geometry":{"type":"Point","coordinates":[-117.07921,33.178812]}},{"properties":{"city":"Los Angeles","createddate":"7/5/2012 12:04","iscurativefile":"FALSE","zip":"91342","openeddate":"7/5/2012 0:00","referringcustomerfilenumber":"12-0010997","outofstatestatus":"Not Applicable","task completed date":"7/5/2012","region":"Los Angeles - Ventura California","countyname":"Los Angeles","closeddate":"8/3/2012 0:00","isclosed":"FALSE","geo_score":0.755,"id":"a7i9qnmghjcq","filenumber":"480343","filetransactiontype":"Escrow Only","escrowofficername":"Angela Hum","titleunit":"LandSafe Title","referringcustomer":"LandSafe_CA","primarycurativetech":"Unassigned","contract in task":"Contract In Tasks","secondarycurativetech":"Unassigned","branchoffice":"Glendale","isescalated":"FALSE","address":"13413 Lochrin St","propertyaddressline2":null,"filenotes":"OLD FILE # 462341\r\nDEAL- CASH","geo_precision":"range","state":"California"},"type":"Feature","geometry":{"type":"Point","coordinates":[-118.424139,34.328263]}},{"properties":{"city":"Modesto","createddate":"7/5/2012 12:21","iscurativefile":"FALSE","zip":"95355","openeddate":"7/5/2012 0:00","referringcustomerfilenumber":"12-0086163","outofstatestatus":"Not Applicable","task completed date":"7/5/2012","region":"South Northern California","countyname":"Stanislaus","closeddate":"7/12/2012 0:00","isclosed":"TRUE","geo_score":0.902,"id":"a7i9qno5lsh7","filenumber":"480289","filetransactiontype":"Escrow Only","escrowofficername":"Vicki Gardea","titleunit":"LandSafe Title","referringcustomer":"LandSafe_CA","primarycurativetech":"Unassigned","contract in task":"Contract In Tasks","secondarycurativetech":"Unassigned","branchoffice":"Modesto","isescalated":"FALSE","address":"3321 Cardinal Flower Ave","propertyaddressline2":null,"filenotes":"DEAL- CASH","geo_precision":"range","state":"California"},"type":"Feature","geometry":{"type":"Point","coordinates":[-120.951549,37.687247]}},{"properties":{"city":"Daly City","createddate":"7/5/2012 12:25","iscurativefile":"FALSE","zip":"94014","openeddate":"7/5/2012 0:00","referringcustomerfilenumber":"11-0113464","outofstatestatus":"Not Applicable","task completed date":"7/5/2012","region":"South Northern California","countyname":"San Mateo","closeddate":"7/13/2012 0:00","isclosed":"TRUE","geo_score":0.902,"id":"a7i9qnfeee3n","filenumber":"480303","filetransactiontype":"Escrow Only","escrowofficername":"Vickie Stermer","titleunit":"LandSafe Title","referringcustomer":"LandSafe_CA","primarycurativetech":"Unassigned","contract in task":"Contract In Tasks","secondarycurativetech":"Unassigned","branchoffice":"Los Gatos","isescalated":"FALSE","address":"151 Evergreen Ave","propertyaddressline2":null,"filenotes":"DEAL- CASH","geo_precision":"range","state":"California"},"type":"Feature","geometry":{"type":"Point","coordinates":[-122.456107,37.706488]}},{"properties":{"city":"Los Angeles","createddate":"7/5/2012 12:31","iscurativefile":"FALSE","zip":"91364","openeddate":"7/5/2012 0:00","referringcustomerfilenumber":"11-0107786","outofstatestatus":"Not Applicable","task completed date":"7/5/2012","region":"Los Angeles - Ventura California","countyname":"Los Angeles","closeddate":"8/10/2012 0:00","isclosed":"FALSE","geo_score":0.84,"id":"a7i9qnp03b8y","filenumber":"480313","filetransactiontype":"Escrow Only","escrowofficername":"Mary Schenuk","titleunit":"LandSafe Title","referringcustomer":"LandSafe_CA","primarycurativetech":"Unassigned","contract in task":"Contract In Tasks","secondarycurativetech":"Unassigned","branchoffice":"Glendale","isescalated":"FALSE","address":"4935 Medina Dr","propertyaddressline2":null,"filenotes":"DEAL-MTG","geo_precision":"range","state":"California"},"type":"Feature","geometry":{"type":"Point","coordinates":[-118.601909,34.15912]}},{"properties":{"city":"Los Angeles","createddate":"7/5/2012 12:36","iscurativefile":"FALSE","zip":"90731","openeddate":"7/5/2012 0:00","referringcustomerfilenumber":"11-0087590","outofstatestatus":"Not Applicable","task completed date":"7/5/2012","region":"Los Angeles - Ventura California","countyname":"Los Angeles","closeddate":"7/27/2012 0:00","isclosed":"TRUE","geo_score":0.758,"id":"a7i9qnpjibsh","filenumber":"480342","filetransactiontype":"Escrow Only","escrowofficername":"Julie Mayorga","titleunit":"LandSafe Title","referringcustomer":"LandSafe_CA","primarycurativetech":"Unassigned","contract in task":"Contract In Tasks","secondarycurativetech":"Unassigned","branchoffice":"City of Industry","isescalated":"FALSE","address":"670 W 5th St","propertyaddressline2":null,"filenotes":"DEAL- CASH","geo_precision":"range","state":"California"},"type":"Feature","geometry":{"type":"Point","coordinates":[-118.291012,33.739748]}},{"properties":{"city":"Santa Barbara","createddate":"7/5/2012 12:46","iscurativefile":"FALSE","zip":"93111","openeddate":"7/5/2012 0:00","referringcustomerfilenumber":"11-0129127","outofstatestatus":"Not Applicable","task completed date":"7/5/2012","region":"Central California","countyname":"Santa Barbara","closeddate":"8/17/2012 0:00","isclosed":"FALSE","geo_score":0.902,"id":"a7i9qnddm2sj","filenumber":"480329","filetransactiontype":"Escrow Only","escrowofficername":"Mary Curry","titleunit":"LandSafe Title","referringcustomer":"LandSafe_CA","primarycurativetech":"Unassigned","contract in task":"Contract In Tasks","secondarycurativetech":"Unassigned","branchoffice":"Bakersfield","isescalated":"FALSE","address":"5054 Santa Susana Ave","propertyaddressline2":null,"filenotes":"DEAL-MTG","geo_precision":"range","state":"California"},"type":"Feature","geometry":{"type":"Point","coordinates":[-119.79965,34.439478]}},{"properties":{"city":"San Pablo","createddate":"7/5/2012 17:30","iscurativefile":"FALSE","zip":"94806","openeddate":"7/5/2012 0:00","referringcustomerfilenumber":"12-0041158","outofstatestatus":"Not Applicable","task completed date":"7/5/2012","region":"North Northern California","countyname":"Contra Costa","closeddate":"7/5/2012 0:00","isclosed":"FALSE","geo_score":0.735,"id":"a7i9qnmmwe25","filenumber":"480480","filetransactiontype":"Escrow Only","escrowofficername":"Arlene VanCraeynest","titleunit":"LandSafe Title","referringcustomer":"LandSafe_CA","primarycurativetech":"Unassigned","contract in task":"Contract In Tasks","secondarycurativetech":"Unassigned","branchoffice":"Mill Valley","isescalated":"FALSE","address":"2825 North 20th St","propertyaddressline2":null,"filenotes":null,"geo_precision":"range","state":"California"},"type":"Feature","geometry":{"type":"Point","coordinates":[-122.344817,37.971988]}},{"properties":{"city":"Stockton","createddate":"7/6/2012 13:24","iscurativefile":"FALSE","zip":"95207","openeddate":"7/6/2012 0:00","referringcustomerfilenumber":"11-0133139","outofstatestatus":"Not Applicable","task completed date":"7/6/2012","region":"South Northern California","countyname":"San Joaquin","closeddate":"7/20/2012 0:00","isclosed":"FALSE","geo_score":0.61,"id":"a7i9qnrix1r0","filenumber":"480566","filetransactiontype":"Escrow Only","escrowofficername":"Patti Atkinson-Utz","titleunit":"LandSafe Title","referringcustomer":"LandSafe_CA","primarycurativetech":"Unassigned","contract in task":"Contract In Tasks","secondarycurativetech":"Unassigned","branchoffice":"Turlock","isescalated":"FALSE","address":"5626 &amp; 5628 Brush Creek Dr","propertyaddressline2":null,"filenotes":null,"geo_precision":"range","state":"California"},"type":"Feature","geometry":{"type":"Point","coordinates":[-121.34569,37.993647]}},{"properties":{"city":"Idyllwild","createddate":"7/6/2012 13:27","iscurativefile":"FALSE","zip":"92549","openeddate":"7/6/2012 0:00","referringcustomerfilenumber":"12-0032760","outofstatestatus":"Not Applicable","task completed date":"7/6/2012","region":"Inland Empire","countyname":"Riverside","closeddate":"9/3/2012 0:00","isclosed":"FALSE","geo_score":0.548,"id":"a7i9qnfyr83c","filenumber":"480575","filetransactiontype":"Escrow Only","escrowofficername":"Colleen Yost","titleunit":"LandSafe Title","referringcustomer":"LandSafe_CA","primarycurativetech":"Unassigned","contract in task":"Contract In Tasks","secondarycurativetech":"Unassigned","branchoffice":"Palm Desert","isescalated":"FALSE","address":"25585 Big Rock Dr","propertyaddressline2":null,"filenotes":null,"geo_precision":"street","state":"California"},"type":"Feature","geometry":{"type":"Point","coordinates":[-116.988231,33.554534]}},{"properties":{"city":"Lakewood","createddate":"7/6/2012 13:29","iscurativefile":"FALSE","zip":"90715","openeddate":"7/6/2012 0:00","referringcustomerfilenumber":"12-0077291","outofstatestatus":"Not Applicable","task completed date":"7/6/2012","region":"Los Angeles - Ventura California","countyname":"Los Angeles","closeddate":"7/20/2012 0:00","isclosed":"TRUE","geo_score":0.902,"id":"a7i9qnp1lpe5","filenumber":"480579","filetransactiontype":"Escrow Only","escrowofficername":"Adriana Ponce","titleunit":"LandSafe Title","referringcustomer":"LandSafe_CA","primarycurativetech":"Unassigned","contract in task":"Contract In Tasks","secondarycurativetech":"Unassigned","branchoffice":"City of Industry","isescalated":"FALSE","address":"21536 Roseton Ave","propertyaddressline2":null,"filenotes":null,"geo_precision":"range","state":"California"},"type":"Feature","geometry":{"type":"Point","coordinates":[-118.086149,33.833281]}},{"properties":{"city":"Fresno","createddate":"7/6/2012 13:37","iscurativefile":"FALSE","zip":"93725","openeddate":"7/6/2012 0:00","referringcustomerfilenumber":"12-0051046","outofstatestatus":"Not Applicable","task completed date":"7/6/2012","region":"Central California","countyname":"Fresno","closeddate":"7/26/2012 0:00","isclosed":"TRUE","geo_score":0.902,"id":"a7i9qnjxp9hw","filenumber":"480658","filetransactiontype":"Escrow Only","escrowofficername":"Claudia Froelich","titleunit":"LandSafe Title","referringcustomer":"LandSafe_CA","primarycurativetech":"Unassigned","contract in task":"Contract In Tasks","secondarycurativetech":"Unassigned","branchoffice":"Fresno","isescalated":"FALSE","address":"10259 South Peach Ave","propertyaddressline2":null,"filenotes":null,"geo_precision":"range","state":"California"},"type":"Feature","geometry":{"type":"Point","coordinates":[-119.71847,36.586005]}},{"properties":{"city":"Ladera Ranch Area","createddate":"7/6/2012 14:58","iscurativefile":"FALSE","zip":"92694","openeddate":"7/6/2012 0:00","referringcustomerfilenumber":"11-0110235","outofstatestatus":"Not Applicable","task completed date":"7/6/2012","region":"So. California","countyname":"Orange","closeddate":"8/17/2012 0:00","isclosed":"FALSE","geo_score":0.521,"id":"a7i9qnn1h9kz","filenumber":"480690","filetransactiontype":"Escrow Only","escrowofficername":"Michelle Huynh","titleunit":"LandSafe Title","referringcustomer":"LandSafe_CA","primarycurativetech":"Unassigned","contract in task":"Contract In Tasks","secondarycurativetech":"Unassigned","branchoffice":"Irvine","isescalated":"FALSE","address":"24 Fox Hole Rd","propertyaddressline2":null,"filenotes":null,"geo_precision":"street","state":"California"},"type":"Feature","geometry":{"type":"Point","coordinates":[-117.95142,33.67519]}},{"properties":{"city":"Indio","createddate":"7/6/2012 15:49","iscurativefile":"FALSE","zip":"92201","openeddate":"7/6/2012 0:00","referringcustomerfilenumber":"11-0092083","outofstatestatus":"Not Applicable","task completed date":"7/6/2012","region":"Inland Empire","countyname":"Riverside","closeddate":"7/23/2012 0:00","isclosed":"FALSE","geo_score":0.902,"id":"a7i9qnpgpd74","filenumber":"480697","filetransactiontype":"Escrow Only","escrowofficername":"Vicki Petersen","titleunit":"LandSafe Title","referringcustomer":"LandSafe_CA","primarycurativetech":"Unassigned","contract in task":"Contract In Tasks","secondarycurativetech":"Unassigned","branchoffice":"Murrieta","isescalated":"FALSE","address":"81696 San Cristobal Ave","propertyaddressline2":null,"filenotes":null,"geo_precision":"range","state":"California"},"type":"Feature","geometry":{"type":"Point","coordinates":[-116.241407,33.700524]}},{"properties":{"city":"Citrus Heights","createddate":"7/6/2012 15:53","iscurativefile":"FALSE","zip":"95621","openeddate":"7/6/2012 0:00","referringcustomerfilenumber":"12-0055647","outofstatestatus":"Not Applicable","task completed date":"7/6/2012","region":"South Northern California","countyname":"Sacramento","closeddate":"8/9/2012 0:00","isclosed":"FALSE","geo_score":0.902,"id":"a7i9qnjvhy2a","filenumber":"480698","filetransactiontype":"Escrow Only","escrowofficername":"Denise Fall","titleunit":"LandSafe Title","referringcustomer":"LandSafe_CA","primarycurativetech":"Unassigned","contract in task":"Contract In Tasks","secondarycurativetech":"Unassigned","branchoffice":"Modesto","isescalated":"FALSE","address":"7200 Baranga Dr","propertyaddressline2":null,"filenotes":null,"geo_precision":"range","state":"California"},"type":"Feature","geometry":{"type":"Point","coordinates":[-121.302711,38.696733]}},{"properties":{"city":"Los Angeles","createddate":"7/6/2012 16:54","iscurativefile":"FALSE","zip":"91402","openeddate":"7/6/2012 0:00","referringcustomerfilenumber":"11-0082945","outofstatestatus":"Not Applicable","task completed date":"7/6/2012","region":"Los Angeles - Ventura California","countyname":"Los Angeles","closeddate":"8/6/2012 0:00","isclosed":"FALSE","geo_score":0.812,"id":"a7i9qnryk5jn","filenumber":"480740","filetransactiontype":"Escrow Only","escrowofficername":"Angela Hum","titleunit":"LandSafe Title","referringcustomer":"LandSafe_CA","primarycurativetech":"Unassigned","contract in task":"Contract In Tasks","secondarycurativetech":"Unassigned","branchoffice":"Glendale","isescalated":"FALSE","address":"8012 Cantaloupe Ave","propertyaddressline2":null,"filenotes":null,"geo_precision":"range","state":"California"},"type":"Feature","geometry":{"type":"Point","coordinates":[-118.433669,34.216673]}},{"properties":{"city":"Fillmore","createddate":"7/9/2012 11:19","iscurativefile":"FALSE","zip":"93015","openeddate":"7/9/2012 0:00","referringcustomerfilenumber":"12-0018888","outofstatestatus":"Not Applicable","task completed date":"7/9/2012","region":"Los Angeles - Ventura California","countyname":"Ventura","closeddate":"7/23/2012 0:00","isclosed":"TRUE","geo_score":0.902,"id":"a7i9qnj06yjv","filenumber":"480954","filetransactiontype":"Escrow Only","escrowofficername":"Araceli De Lara-Michel","titleunit":"LandSafe Title","referringcustomer":"LandSafe_CA","primarycurativetech":"Unassigned","contract in task":"Contract In Tasks","secondarycurativetech":"Unassigned","branchoffice":"Ventura","isescalated":"FALSE","address":"626 Elkins Ln","propertyaddressline2":null,"filenotes":null,"geo_precision":"range","state":"California"},"type":"Feature","geometry":{"type":"Point","coordinates":[-118.908827,34.406042]}},{"properties":{"city":"Carmichael","createddate":"7/9/2012 12:20","iscurativefile":"FALSE","zip":"95608","openeddate":"7/9/2012 0:00","referringcustomerfilenumber":"12-0002544","outofstatestatus":"Not Applicable","task completed date":"7/9/2012","region":"South Northern California","countyname":"Sacramento","closeddate":"7/27/2012 0:00","isclosed":"TRUE","geo_score":0.902,"id":"a7i9qnkt4fqc","filenumber":"480988","filetransactiontype":"Escrow Only","escrowofficername":"Debra Greene","titleunit":"LandSafe Title","referringcustomer":"LandSafe_CA","primarycurativetech":"Unassigned","contract in task":"Contract In Tasks","secondarycurativetech":"Unassigned","branchoffice":"Modesto","isescalated":"FALSE","address":"5903 Casa Alegre","propertyaddressline2":null,"filenotes":null,"geo_precision":"range","state":"California"},"type":"Feature","geometry":{"type":"Point","coordinates":[-121.325865,38.667992]}},{"properties":{"city":"Corona","createddate":"7/9/2012 16:55","iscurativefile":"FALSE","zip":"92883","openeddate":"7/9/2012 0:00","referringcustomerfilenumber":"11-0080327","outofstatestatus":"Not Applicable","task completed date":"7/9/2012","region":"Inland Empire","countyname":"Riverside","closeddate":"7/26/2012 0:00","isclosed":"TRUE","geo_score":0.532,"id":"a7i9qnkkfyij","filenumber":"481173","filetransactiontype":"Escrow Only","escrowofficername":"(Patti) Patricia Carver","titleunit":"LandSafe Title","referringcustomer":"LandSafe_CA","primarycurativetech":"Unassigned","contract in task":"Contract In Tasks","secondarycurativetech":"Unassigned","branchoffice":"Murrieta","isescalated":"FALSE","address":"26760 Black Horse Cir","propertyaddressline2":null,"filenotes":null,"geo_precision":"street","state":"California"},"type":"Feature","geometry":{"type":"Point","coordinates":[-117.84242,33.91021]}},{"properties":{"city":"Irvine","createddate":"7/9/2012 17:02","iscurativefile":"FALSE","zip":"92612","openeddate":"7/9/2012 0:00","referringcustomerfilenumber":"11-0126069","outofstatestatus":"Not Applicable","task completed date":"7/9/2012","region":"So. California","countyname":"Orange","closeddate":"8/7/2012 0:00","isclosed":"FALSE","geo_score":0.488,"id":"a7i9qnhywm9h","filenumber":"481177","filetransactiontype":"Escrow Only","escrowofficername":"Michelle Huynh","titleunit":"LandSafe Title","referringcustomer":"LandSafe_CA","primarycurativetech":"Unassigned","contract in task":"Contract In Tasks","secondarycurativetech":"Unassigned","branchoffice":"Irvine","isescalated":"FALSE","address":"3365 Watermarke Pl","propertyaddressline2":null,"filenotes":null,"geo_precision":"zip","state":"California"},"type":"Feature","geometry":{"type":"Point","coordinates":[-117.782805,33.615525]}},{"properties":{"city":"Northridge","createddate":"7/9/2012 17:29","iscurativefile":"FALSE","zip":"91325","openeddate":"7/6/2012 0:00","referringcustomerfilenumber":null,"outofstatestatus":"Not Applicable","task completed date":"7/9/2012","region":"Los Angeles - Ventura California","countyname":"Los Angeles","closeddate":"12/6/2012 0:00","isclosed":"FALSE","geo_score":0.902,"id":"a7i9qnq15ff8","filenumber":"T987653","filetransactiontype":"Title &amp; Escrow","escrowofficername":"Angela Hum","titleunit":"LandSafe Title","referringcustomer":"LandSafe_CA","primarycurativetech":"Unassigned","contract in task":"Contract In Tasks","secondarycurativetech":"Unassigned","branchoffice":"Glendale","isescalated":"FALSE","address":"17640 Lassen St.","propertyaddressline2":null,"filenotes":"Opened - Sam Felipe\r\nDeal-MTG","geo_precision":"range","state":"California"},"type":"Feature","geometry":{"type":"Point","coordinates":[-118.518699,34.250286]}},{"properties":{"city":"Azusa","createddate":"7/10/2012 10:25","iscurativefile":"FALSE","zip":"91702","openeddate":"7/10/2012 0:00","referringcustomerfilenumber":"12-0012776","outofstatestatus":"Not Applicable","task completed date":"7/10/2012","region":"Los Angeles - Ventura California","countyname":"Los Angeles","closeddate":"8/3/2012 0:00","isclosed":"FALSE","geo_score":0.417,"id":"a7i9qnk1u2zv","filenumber":"481315","filetransactiontype":"Escrow Only","escrowofficername":"Mary Schenuk","titleunit":"LandSafe Title","referringcustomer":"LandSafe_CA","primarycurativetech":"Unassigned","contract in task":"Contract In Tasks","secondarycurativetech":"Unassigned","branchoffice":"Glendale","isescalated":"FALSE","address":"877 West 13th St, #4","propertyaddressline2":null,"filenotes":null,"geo_precision":"street","state":"California"},"type":"Feature","geometry":{"type":"Point","coordinates":[-117.906237,34.14436]}},{"properties":{"city":"San Bernardino","createddate":"7/10/2012 11:06","iscurativefile":"FALSE","zip":"92404","openeddate":"7/10/2012 0:00","referringcustomerfilenumber":"12-0007805","outofstatestatus":"Not Applicable","task completed date":"7/10/2012","region":"Inland Empire","countyname":"San Bernardino","closeddate":"8/10/2012 0:00","isclosed":"FALSE","geo_score":0.709,"id":"a7i9qnfl4lmd","filenumber":"481339","filetransactiontype":"Escrow Only","escrowofficername":"Pamela San Millan","titleunit":"LandSafe Title","referringcustomer":"LandSafe_CA","primarycurativetech":"Unassigned","contract in task":"Contract In Tasks","secondarycurativetech":"Unassigned","branchoffice":"Victorville","isescalated":"FALSE","address":"3910 La Hacienda Dr","propertyaddressline2":null,"filenotes":null,"geo_precision":"street","state":"California"},"type":"Feature","geometry":{"type":"Point","coordinates":[-117.254696,34.156007]}},{"properties":{"city":"Manteca","createddate":"7/10/2012 11:48","iscurativefile":"FALSE","zip":"95336","openeddate":"7/10/2012 0:00","referringcustomerfilenumber":"12-0077316","outofstatestatus":"Not Applicable","task completed date":"7/10/2012","region":"South Northern California","countyname":"San Joaquin","closeddate":"9/4/2012 0:00","isclosed":"FALSE","geo_score":0.902,"id":"a7i9qnq6cn0h","filenumber":"481359","filetransactiontype":"Escrow Only","escrowofficername":"Diane Oliveira-Medina","titleunit":"LandSafe Title","referringcustomer":"LandSafe_CA","primarycurativetech":"Unassigned","contract in task":"Contract In Tasks","secondarycurativetech":"Unassigned","branchoffice":"Turlock","isescalated":"FALSE","address":"1688 Komenich Dr","propertyaddressline2":null,"filenotes":null,"geo_precision":"range","state":"California"},"type":"Feature","geometry":{"type":"Point","coordinates":[-121.245972,37.823277]}},{"properties":{"city":"Valencia","createddate":"7/10/2012 12:17","iscurativefile":"FALSE","zip":"91381","openeddate":"7/10/2012 0:00","referringcustomerfilenumber":"11-0114959","outofstatestatus":"Not Applicable","task completed date":"7/10/2012","region":"Los Angeles - Ventura California","countyname":"Los Angeles","closeddate":"8/17/2012 0:00","isclosed":"FALSE","geo_score":0.683,"id":"a7i9qnhjzka9","filenumber":"481372","filetransactiontype":"Escrow Only","escrowofficername":"Julie Mayorga","titleunit":"LandSafe Title","referringcustomer":"LandSafe_CA","primarycurativetech":"Unassigned","contract in task":"Contract In Tasks","secondarycurativetech":"Unassigned","branchoffice":"City of Industry","isescalated":"FALSE","address":"26814 Greenleaf Ct","propertyaddressline2":null,"filenotes":null,"geo_precision":"street","state":"California"},"type":"Feature","geometry":{"type":"Point","coordinates":[-118.515697,34.158533]}},{"properties":{"city":"Rescue","createddate":"7/10/2012 14:06","iscurativefile":"FALSE","zip":"95672","openeddate":"7/10/2012 0:00","referringcustomerfilenumber":"10-4-513534","outofstatestatus":"Not Applicable","task completed date":"7/17/2012","region":"South Northern California","countyname":"El Dorado","closeddate":"7/27/2012 0:00","isclosed":"TRUE","geo_score":0.902,"id":"a7i9qnkj00gw","filenumber":"481436","filetransactiontype":"Title &amp; Escrow","escrowofficername":"Denise Fall","titleunit":"CA CPU Title-Kevin","referringcustomer":"LandSafe_CA","primarycurativetech":"Unassigned","contract in task":"Contract In Tasks","secondarycurativetech":"Unassigned","branchoffice":"Modesto","isescalated":"FALSE","address":"3210 Bentley Dr","propertyaddressline2":null,"filenotes":null,"geo_precision":"range","state":"California"},"type":"Feature","geometry":{"type":"Point","coordinates":[-120.992425,38.700238]}},{"properties":{"city":"Los Angeles","createddate":"7/11/2012 11:11","iscurativefile":"FALSE","zip":"90016","openeddate":"7/11/2012 0:00","referringcustomerfilenumber":"12-0014677","outofstatestatus":"Not Applicable","task completed date":"7/11/2012","region":"#N/A","countyname":"Los Angeles","closeddate":"7/24/2013 0:00","isclosed":"FALSE","geo_score":0.415,"id":"a7i9qnesmrr0","filenumber":"481707","filetransactiontype":"Escrow Only","escrowofficername":"Angela Hum","titleunit":"LandSafe Title","referringcustomer":"LandSafe_CA","primarycurativetech":"Unassigned","contract in task":"Contract In Tasks","secondarycurativetech":"Unassigned","branchoffice":"Not Applicable","isescalated":"FALSE","address":"3039 3041 3041.5 Hillcrest","propertyaddressline2":null,"filenotes":null,"geo_precision":"street","state":"California"},"type":"Feature","geometry":{"type":"Point","coordinates":[-118.340206,34.036108]}},{"properties":{"city":"Tulare","createddate":"7/11/2012 11:14","iscurativefile":"FALSE","zip":"93274","openeddate":"7/11/2012 0:00","referringcustomerfilenumber":"12-0086168","outofstatestatus":"Not Applicable","task completed date":"7/11/2012","region":"Central California","countyname":"Tulare","closeddate":"9/4/2012 0:00","isclosed":"FALSE","geo_score":0.902,"id":"a7i9qno0vlhn","filenumber":"481694","filetransactiontype":"Escrow Only","escrowofficername":"Karen Sigda","titleunit":"LandSafe Title","referringcustomer":"LandSafe_CA","primarycurativetech":"Unassigned","contract in task":"Contract In Tasks","secondarycurativetech":"Unassigned","branchoffice":"Visalia","isescalated":"FALSE","address":"1786 Plymouth Ave","propertyaddressline2":null,"filenotes":null,"geo_precision":"range","state":"California"},"type":"Feature","geometry":{"type":"Point","coordinates":[-119.319255,36.223053]}},{"properties":{"city":"Los Angeles","createddate":"7/11/2012 11:17","iscurativefile":"FALSE","zip":"90044","openeddate":"7/11/2012 0:00","referringcustomerfilenumber":"12-0022575","outofstatestatus":"Not Applicable","task completed date":"7/11/2012","region":"Los Angeles - Ventura California","countyname":"Los Angeles","closeddate":"8/10/2012 0:00","isclosed":"FALSE","geo_score":0.902,"id":"a7i9qnpke9uu","filenumber":"481685","filetransactiontype":"Escrow Only","escrowofficername":"Mary Schenuk","titleunit":"LandSafe Title","referringcustomer":"LandSafe_CA","primarycurativetech":"Unassigned","contract in task":"Contract In Tasks","secondarycurativetech":"Unassigned","branchoffice":"Glendale","isescalated":"FALSE","address":"9132 S Hoover St","propertyaddressline2":null,"filenotes":null,"geo_precision":"range","state":"California"},"type":"Feature","geometry":{"type":"Point","coordinates":[-118.286877,33.953253]}},{"properties":{"city":"Mission Viejo","createddate":"7/11/2012 12:19","iscurativefile":"FALSE","zip":"92692","openeddate":"7/11/2012 0:00","referringcustomerfilenumber":"12-0018474","outofstatestatus":"Not Applicable","task completed date":"7/11/2012","region":"So. California","countyname":"Orange","closeddate":"8/15/2012 0:00","isclosed":"FALSE","geo_score":0.796,"id":"a7i9qnr6drnj","filenumber":"481763","filetransactiontype":"Escrow Only","escrowofficername":"Michelle Huynh","titleunit":"LandSafe Title","referringcustomer":"LandSafe_CA","primarycurativetech":"Unassigned","contract in task":"Contract In Tasks","secondarycurativetech":"Unassigned","branchoffice":"Irvine","isescalated":"FALSE","address":"27857 Mazagon 108","propertyaddressline2":null,"filenotes":null,"geo_precision":"range","state":"California"},"type":"Feature","geometry":{"type":"Point","coordinates":[-117.643197,33.625757]}},{"properties":{"city":"Ramona","createddate":"7/11/2012 13:00","iscurativefile":"FALSE","zip":"92065","openeddate":"7/11/2012 0:00","referringcustomerfilenumber":"11-0077103","outofstatestatus":"Not Applicable","task completed date":"7/11/2012","region":"So. California","countyname":"San Diego","closeddate":"8/24/2012 0:00","isclosed":"FALSE","geo_score":0.902,"id":"a7i9qnn68wy5","filenumber":"481780","filetransactiontype":"Escrow Only","escrowofficername":"Irene Casey","titleunit":"LandSafe Title","referringcustomer":"LandSafe_CA","primarycurativetech":"Unassigned","contract in task":"Contract In Tasks","secondarycurativetech":"Unassigned","branchoffice":"Carlsbad","isescalated":"FALSE","address":"2053 Pamo Rd","propertyaddressline2":null,"filenotes":null,"geo_precision":"range","state":"California"},"type":"Feature","geometry":{"type":"Point","coordinates":[-116.85913,33.0784]}},{"properties":{"city":"Los Angeles","createddate":"7/11/2012 14:54","iscurativefile":"FALSE","zip":"90006","openeddate":"7/11/2012 0:00","referringcustomerfilenumber":"11-0129030","outofstatestatus":"Not Applicable","task completed date":"7/11/2012","region":"Los Angeles - Ventura California","countyname":"Los Angeles","closeddate":"8/1/2012 0:00","isclosed":"FALSE","geo_score":0.902,"id":"a7i9qnsz1q86","filenumber":"481851","filetransactiontype":"Escrow Only","escrowofficername":"Mary Schenuk","titleunit":"LandSafe Title","referringcustomer":"LandSafe_CA","primarycurativetech":"Unassigned","contract in task":"Contract In Tasks","secondarycurativetech":"Unassigned","branchoffice":"Glendale","isescalated":"FALSE","address":"1409 S Hobart Blvd","propertyaddressline2":null,"filenotes":null,"geo_precision":"range","state":"California"},"type":"Feature","geometry":{"type":"Point","coordinates":[-118.305364,34.045457]}},{"properties":{"city":"Santa Rosa","createddate":"7/11/2012 14:57","iscurativefile":"FALSE","zip":"95406","openeddate":"7/11/2012 0:00","referringcustomerfilenumber":"12-0040404","outofstatestatus":"Not Applicable","task completed date":"7/11/2012","region":"North Northern California","countyname":"Sonoma","closeddate":"8/16/2012 0:00","isclosed":"FALSE","geo_score":0.902,"id":"a7i9qnglx38b","filenumber":"481800","filetransactiontype":"Escrow Only","escrowofficername":"Margaret Basques","titleunit":"LandSafe Title","referringcustomer":"LandSafe_CA","primarycurativetech":"Unassigned","contract in task":"Contract In Tasks","secondarycurativetech":"Unassigned","branchoffice":"Santa Rosa","isescalated":"FALSE","address":"4725 Montgomery Dr","propertyaddressline2":null,"filenotes":null,"geo_precision":"range","state":"California"},"type":"Feature","geometry":{"type":"Point","coordinates":[-122.665557,38.460576]}},{"properties":{"city":"San Diego","createddate":"7/11/2012 15:59","iscurativefile":"FALSE","zip":"92173","openeddate":"7/11/2012 0:00","referringcustomerfilenumber":"11-0078533","outofstatestatus":"Not Applicable","task completed date":"7/11/2012","region":"So. California","countyname":"San Diego","closeddate":"8/14/2012 0:00","isclosed":"FALSE","geo_score":0.863,"id":"a7i9qnl0rkyk","filenumber":"481865","filetransactiontype":"Escrow Only","escrowofficername":"Melissa Lovato","titleunit":"LandSafe Title","referringcustomer":"LandSafe_CA","primarycurativetech":"Unassigned","contract in task":"Contract In Tasks","secondarycurativetech":"Unassigned","branchoffice":"Mission Valley","isescalated":"FALSE","address":"1939 Isla Del Carmen Way","propertyaddressline2":null,"filenotes":null,"geo_precision":"range","state":"California"},"type":"Feature","geometry":{"type":"Point","coordinates":[-117.06545,32.561889]}},{"properties":{"city":"Boulder Creek","createddate":"7/11/2012 16:27","iscurativefile":"FALSE","zip":"95006","openeddate":"7/11/2012 0:00","referringcustomerfilenumber":"12-0025859","outofstatestatus":"Not Applicable","task completed date":"7/11/2012","region":"South Northern California","countyname":"Santa Cruz","closeddate":"8/17/2012 0:00","isclosed":"FALSE","geo_score":0.902,"id":"a7i9qnouyx2p","filenumber":"481898","filetransactiontype":"Escrow Only","escrowofficername":"Cher'e Rich","titleunit":"LandSafe Title","referringcustomer":"LandSafe_CA","primarycurativetech":"Unassigned","contract in task":"Contract In Tasks","secondarycurativetech":"Unassigned","branchoffice":"Capitola","isescalated":"FALSE","address":"18150 Highway 9","propertyaddressline2":null,"filenotes":null,"geo_precision":"range","state":"California"},"type":"Feature","geometry":{"type":"Point","coordinates":[-122.141448,37.185144]}},{"properties":{"city":"Pittsburg","createddate":"7/11/2012 18:41","iscurativefile":"FALSE","zip":"94565","openeddate":"7/11/2012 0:00","referringcustomerfilenumber":"12-0002537","outofstatestatus":"Not Applicable","task completed date":"7/11/2012","region":"South Northern California","countyname":"Contra Costa","closeddate":"8/14/2012 0:00","isclosed":"FALSE","geo_score":0.654,"id":"a7i9qndkbpnh","filenumber":"482003","filetransactiontype":"Escrow Only","escrowofficername":"Patti Atkinson-Utz","titleunit":"LandSafe Title","referringcustomer":"LandSafe_CA","primarycurativetech":"Unassigned","contract in task":"Contract In Tasks","secondarycurativetech":"Unassigned","branchoffice":"Turlock","isescalated":"FALSE","address":"456 Windwood Dr","propertyaddressline2":null,"filenotes":null,"geo_precision":"street","state":"California"},"type":"Feature","geometry":{"type":"Point","coordinates":[-122.094112,37.993894]}},{"properties":{"city":"Fresno","createddate":"7/12/2012 9:51","iscurativefile":"FALSE","zip":"93702","openeddate":"7/12/2012 0:00","referringcustomerfilenumber":"12-0007755","outofstatestatus":"Not Applicable","task completed date":"7/12/2012","region":"Central California","countyname":"Fresno","closeddate":"8/15/2012 0:00","isclosed":"FALSE","geo_score":0.902,"id":"a7i9qnmqm0xk","filenumber":"482062","filetransactiontype":"Escrow Only","escrowofficername":"Claudia Froelich","titleunit":"LandSafe Title","referringcustomer":"LandSafe_CA","primarycurativetech":"Unassigned","contract in task":"Contract In Tasks","secondarycurativetech":"Unassigned","branchoffice":"Fresno","isescalated":"FALSE","address":"3309 East Grant Ave","propertyaddressline2":null,"filenotes":null,"geo_precision":"range","state":"California"},"type":"Feature","geometry":{"type":"Point","coordinates":[-119.767696,36.748706]}},{"properties":{"city":"Victorville","createddate":"7/12/2012 10:10","iscurativefile":"FALSE","zip":"92392","openeddate":"7/12/2012 0:00","referringcustomerfilenumber":"12-0086164","outofstatestatus":"Not Applicable","task completed date":"7/12/2012","region":"Inland Empire","countyname":"San Bernardino","closeddate":"8/15/2012 0:00","isclosed":"FALSE","geo_score":0.902,"id":"a7i9qnoosfjn","filenumber":"482063","filetransactiontype":"Escrow Only","escrowofficername":"Pamela San Millan","titleunit":"LandSafe Title","referringcustomer":"LandSafe_CA","primarycurativetech":"Unassigned","contract in task":"Contract In Tasks","secondarycurativetech":"Unassigned","branchoffice":"Victorville","isescalated":"FALSE","address":"13446 Solitude Circle","propertyaddressline2":null,"filenotes":null,"geo_precision":"range","state":"California"},"type":"Feature","geometry":{"type":"Point","coordinates":[-117.369709,34.476858]}},{"properties":{"city":"Los Angeles","createddate":"7/12/2012 10:40","iscurativefile":"FALSE","zip":"90067","openeddate":"7/12/2012 0:00","referringcustomerfilenumber":"11-0120209","outofstatestatus":"Not Applicable","task completed date":"7/12/2012","region":"Los Angeles - Ventura California","countyname":"Los Angeles","closeddate":"8/15/2012 0:00","isclosed":"FALSE","geo_score":0.796,"id":"a7i9qne82lo1","filenumber":"482087","filetransactiontype":"Escrow Only","escrowofficername":"Angela Hum","titleunit":"LandSafe Title","referringcustomer":"LandSafe_CA","primarycurativetech":"Unassigned","contract in task":"Contract In Tasks","secondarycurativetech":"Unassigned","branchoffice":"Glendale","isescalated":"FALSE","address":"2170 Century Park Easy 2008","propertyaddressline2":null,"filenotes":null,"geo_precision":"range","state":"California"},"type":"Feature","geometry":{"type":"Point","coordinates":[-118.406882,34.053557]}},{"properties":{"city":"Fullerton","createddate":"7/12/2012 11:05","iscurativefile":"FALSE","zip":"92833","openeddate":"7/12/2012 0:00","referringcustomerfilenumber":"11-0097073","outofstatestatus":"Not Applicable","task completed date":"7/12/2012","region":"So. California","countyname":"Orange","closeddate":"7/17/2012 0:00","isclosed":"TRUE","geo_score":0.902,"id":"a7i9qnnwqbgo","filenumber":"482106","filetransactiontype":"Escrow Only","escrowofficername":"Michelle Huynh","titleunit":"LandSafe Title","referringcustomer":"LandSafe_CA","primarycurativetech":"Unassigned","contract in task":"Contract In Tasks","secondarycurativetech":"Unassigned","branchoffice":"Irvine","isescalated":"FALSE","address":"2128 West Ash Ave","propertyaddressline2":null,"filenotes":"old file # 460503","geo_precision":"range","state":"California"},"type":"Feature","geometry":{"type":"Point","coordinates":[-117.964913,33.864928]}},{"properties":{"city":"Vallejo","createddate":"7/12/2012 11:19","iscurativefile":"FALSE","zip":"94591","openeddate":"7/12/2012 0:00","referringcustomerfilenumber":"12-0036380","outofstatestatus":"Not Applicable","task completed date":"7/12/2012","region":"North Northern California","countyname":"Solano","closeddate":"7/25/2012 0:00","isclosed":"TRUE","geo_score":0.902,"id":"a7i9qnna8irs","filenumber":"482111","filetransactiontype":"Escrow Only","escrowofficername":"Margaret Basques","titleunit":"LandSafe Title","referringcustomer":"LandSafe_CA","primarycurativetech":"Unassigned","contract in task":"Contract In Tasks","secondarycurativetech":"Unassigned","branchoffice":"Santa Rosa","isescalated":"FALSE","address":"109 Navone St","propertyaddressline2":null,"filenotes":null,"geo_precision":"range","state":"California"},"type":"Feature","geometry":{"type":"Point","coordinates":[-122.230416,38.078505]}},{"properties":{"city":"Yucaipa","createddate":"7/12/2012 11:31","iscurativefile":"FALSE","zip":"92399","openeddate":"7/12/2012 0:00","referringcustomerfilenumber":"12-0045469","outofstatestatus":"Not Applicable","task completed date":"7/12/2012","region":"Inland Empire","countyname":"San Bernardino","closeddate":"8/2/2012 0:00","isclosed":"FALSE","geo_score":0.902,"id":"a7i9qnk0gu66","filenumber":"482118","filetransactiontype":"Escrow Only","escrowofficername":"Patti Black","titleunit":"LandSafe Title","referringcustomer":"LandSafe_CA","primarycurativetech":"Unassigned","contract in task":"Contract In Tasks","secondarycurativetech":"Unassigned","branchoffice":"Redlands","isescalated":"FALSE","address":"12812 Douglas St","propertyaddressline2":null,"filenotes":null,"geo_precision":"range","state":"California"},"type":"Feature","geometry":{"type":"Point","coordinates":[-117.030085,34.023301]}},{"properties":{"city":"Moorpark","createddate":"7/12/2012 14:17","iscurativefile":"FALSE","zip":"93021","openeddate":"7/12/2012 0:00","referringcustomerfilenumber":"11-0114950","outofstatestatus":"Not Applicable","task completed date":"7/12/2012","region":"Los Angeles - Ventura California","countyname":"Ventura","closeddate":"8/1/2012 0:00","isclosed":"FALSE","geo_score":0.471,"id":"a7i9qnch0ds7","filenumber":"482217","filetransactiontype":"Escrow Only","escrowofficername":"Araceli De Lara-Michel","titleunit":"LandSafe Title","referringcustomer":"LandSafe_CA","primarycurativetech":"Unassigned","contract in task":"Contract In Tasks","secondarycurativetech":"Unassigned","branchoffice":"Ventura","isescalated":"FALSE","address":"14930 Reedley St, D","propertyaddressline2":null,"filenotes":null,"geo_precision":"street","state":"California"},"type":"Feature","geometry":{"type":"Point","coordinates":[-118.853852,34.296814]}},{"properties":{"city":"San Jose","createddate":"7/12/2012 15:01","iscurativefile":"FALSE","zip":"95124","openeddate":"7/12/2012 0:00","referringcustomerfilenumber":"11-0082974","outofstatestatus":"Not Applicable","task completed date":"7/12/2012","region":"South Northern California","countyname":"Santa Clara","closeddate":"8/1/2012 0:00","isclosed":"FALSE","geo_score":0.902,"id":"a7i9qnrholn9","filenumber":"482238","filetransactiontype":"Escrow Only","escrowofficername":"Mary Reyna","titleunit":"LandSafe Title","referringcustomer":"LandSafe_CA","primarycurativetech":"Unassigned","contract in task":"Contract In Tasks","secondarycurativetech":"Unassigned","branchoffice":"Los Gatos","isescalated":"FALSE","address":"1637 Jacob Ave","propertyaddressline2":null,"filenotes":"old file # 478674","geo_precision":"range","state":"California"},"type":"Feature","geometry":{"type":"Point","coordinates":[-121.905899,37.26165]}},{"properties":{"city":"Poway","createddate":"7/13/2012 10:40","iscurativefile":"FALSE","zip":"92064","openeddate":"7/13/2012 0:00","referringcustomerfilenumber":"11-0110232","outofstatestatus":"Not Applicable","task completed date":"7/14/2012","region":"Inland Empire","countyname":"San Diego","closeddate":"7/23/2012 0:00","isclosed":"TRUE","geo_score":0.902,"id":"a7i9qngp3dp3","filenumber":"482412","filetransactiontype":"Escrow Only","escrowofficername":"(Patti) Patricia Carver","titleunit":"LandSafe Title","referringcustomer":"LandSafe_CA","primarycurativetech":"Unassigned","contract in task":"Contract In Tasks","secondarycurativetech":"Unassigned","branchoffice":"Murrieta","isescalated":"FALSE","address":"13125 Tobiasson Rd","propertyaddressline2":null,"filenotes":"old file # 482412","geo_precision":"range","state":"California"},"type":"Feature","geometry":{"type":"Point","coordinates":[-117.059686,32.954576]}},{"properties":{"city":"Sylmar","createddate":"7/13/2012 10:59","iscurativefile":"FALSE","zip":"91342","openeddate":"7/13/2012 0:00","referringcustomerfilenumber":"12-0017366","outofstatestatus":"Not Applicable","task completed date":"7/13/2012","region":"Los Angeles - Ventura California","countyname":"Los Angeles","closeddate":"8/16/2012 0:00","isclosed":"FALSE","geo_score":0.415,"id":"a7i9qnsxyufe","filenumber":"482421","filetransactiontype":"Escrow Only","escrowofficername":"Julie Mayorga","titleunit":"LandSafe Title","referringcustomer":"LandSafe_CA","primarycurativetech":"Unassigned","contract in task":"Contract In Tasks","secondarycurativetech":"Unassigned","branchoffice":"City of Industry","isescalated":"FALSE","address":"11300 Foothill Blvd, 48","propertyaddressline2":null,"filenotes":null,"geo_precision":"street","state":"California"},"type":"Feature","geometry":{"type":"Point","coordinates":[-118.345958,34.272999]}},{"properties":{"city":"Felton","createddate":"7/13/2012 11:44","iscurativefile":"FALSE","zip":"95018","openeddate":"7/13/2012 0:00","referringcustomerfilenumber":"12-0077289","outofstatestatus":"Not Applicable","task completed date":"7/13/2012","region":"South Northern California","countyname":"Santa Cruz","closeddate":"7/26/2012 0:00","isclosed":"TRUE","geo_score":0.902,"id":"a7i9qnqf2gr2","filenumber":"482408","filetransactiontype":"Escrow Only","escrowofficername":"Lupe Sandoval","titleunit":"LandSafe Title","referringcustomer":"LandSafe_CA","primarycurativetech":"Unassigned","contract in task":"Contract In Tasks","secondarycurativetech":"Unassigned","branchoffice":"Santa Cruz","isescalated":"FALSE","address":"12519 Coleman Ave","propertyaddressline2":null,"filenotes":null,"geo_precision":"range","state":"California"},"type":"Feature","geometry":{"type":"Point","coordinates":[-122.048415,37.109611]}},{"properties":{"city":"Corona","createddate":"7/13/2012 11:47","iscurativefile":"FALSE","zip":"92881","openeddate":"7/13/2012 0:00","referringcustomerfilenumber":"120094682","outofstatestatus":"Not Applicable","task completed date":"7/13/2012","region":"Inland Empire","countyname":"Riverside","closeddate":"7/24/2012 0:00","isclosed":"FALSE","geo_score":0.902,"id":"a7i9qnri4e41","filenumber":"482423","filetransactiontype":"Escrow Only","escrowofficername":"Vicki Petersen","titleunit":"LandSafe Title","referringcustomer":"LandSafe_CA","primarycurativetech":"Unassigned","contract in task":"Contract In Tasks","secondarycurativetech":"Unassigned","branchoffice":"Riverside","isescalated":"FALSE","address":"1452 Roadrunner Dr","propertyaddressline2":null,"filenotes":null,"geo_precision":"range","state":"California"},"type":"Feature","geometry":{"type":"Point","coordinates":[-117.551427,33.828924]}},{"properties":{"city":"Santa Maria","createddate":"7/13/2012 11:50","iscurativefile":"FALSE","zip":"93454","openeddate":"7/13/2012 0:00","referringcustomerfilenumber":"11-0131039","outofstatestatus":"Not Applicable","task completed date":"7/13/2012","region":"Central California","countyname":"Santa Barbara","closeddate":"7/27/2012 0:00","isclosed":"FALSE","geo_score":0.902,"id":"a7i9qnntegbn","filenumber":"482428","filetransactiontype":"Escrow Only","escrowofficername":"Cindy Kohler","titleunit":"LandSafe Title","referringcustomer":"LandSafe_CA","primarycurativetech":"Unassigned","contract in task":"Contract In Tasks","secondarycurativetech":"Unassigned","branchoffice":"Bakersfield","isescalated":"FALSE","address":"525 E Fesler St","propertyaddressline2":null,"filenotes":null,"geo_precision":"range","state":"California"},"type":"Feature","geometry":{"type":"Point","coordinates":[-120.428897,34.956575]}},{"properties":{"city":"Lake Elsinore","createddate":"7/13/2012 11:51","iscurativefile":"FALSE","zip":"92532","openeddate":"7/13/2012 0:00","referringcustomerfilenumber":"12-0011982","outofstatestatus":"Not Applicable","task completed date":"7/13/2012","region":"Inland Empire","countyname":"Riverside","closeddate":"7/15/2012 0:00","isclosed":"FALSE","geo_score":0.551,"id":"a7i9qnii5aam","filenumber":"482450","filetransactiontype":"Escrow Only","escrowofficername":"Nyna Ensign","titleunit":"LandSafe Title","referringcustomer":"LandSafe_CA","primarycurativetech":"Unassigned","contract in task":"Contract In Tasks","secondarycurativetech":"Unassigned","branchoffice":"Riverside","isescalated":"FALSE","address":"53032 Cressidsa St","propertyaddressline2":null,"filenotes":null,"geo_precision":"street","state":"California"},"type":"Feature","geometry":{"type":"Point","coordinates":[-117.338468,33.925751]}},{"properties":{"city":"Felton","createddate":"7/13/2012 12:34","iscurativefile":"FALSE","zip":"95018","openeddate":"7/13/2012 0:00","referringcustomerfilenumber":"12-0018347","outofstatestatus":"Not Applicable","task completed date":"7/13/2012","region":"South Northern California","countyname":"Santa Cruz","closeddate":"8/16/2012 0:00","isclosed":"FALSE","geo_score":0.902,"id":"a7i9qnms2gvj","filenumber":"482435","filetransactiontype":"Escrow Only","escrowofficername":"Karen Talbot","titleunit":"LandSafe Title","referringcustomer":"LandSafe_CA","primarycurativetech":"Unassigned","contract in task":"Contract In Tasks","secondarycurativetech":"Unassigned","branchoffice":"Santa Cruz","isescalated":"FALSE","address":"10550 Creekwood Dr","propertyaddressline2":null,"filenotes":null,"geo_precision":"range","state":"California"},"type":"Feature","geometry":{"type":"Point","coordinates":[-122.051087,37.102476]}},{"properties":{"city":"Scotts Valley","createddate":"7/13/2012 12:38","iscurativefile":"FALSE","zip":"95066","openeddate":"7/13/2012 0:00","referringcustomerfilenumber":"12-0033744","outofstatestatus":"Not Applicable","task completed date":"7/13/2012","region":"South Northern California","countyname":"Santa Cruz","closeddate":"9/7/2012 0:00","isclosed":"FALSE","geo_score":0.416,"id":"a7i9qnfdhwar","filenumber":"482465","filetransactiontype":"Escrow Only","escrowofficername":"Joyce Avila","titleunit":"LandSafe Title","referringcustomer":"LandSafe_CA","primarycurativetech":"Unassigned","contract in task":"Contract In Tasks","secondarycurativetech":"Unassigned","branchoffice":"Santa Cruz","isescalated":"FALSE","address":"5525 Scotts Valley Dr #10","propertyaddressline2":null,"filenotes":null,"geo_precision":"street","state":"California"},"type":"Feature","geometry":{"type":"Point","coordinates":[-121.991947,37.0737]}},{"properties":{"city":"Fairfield","createddate":"7/13/2012 12:47","iscurativefile":"FALSE","zip":"94534","openeddate":"7/13/2012 0:00","referringcustomerfilenumber":null,"outofstatestatus":"Not Applicable","task completed date":"7/13/2012","region":"North Northern California","countyname":"Solano","closeddate":"8/8/2012 0:00","isclosed":"FALSE","geo_score":0.488,"id":"a7i9qneymluo","filenumber":"482477","filetransactiontype":"Escrow Only","escrowofficername":"Margaret Basques","titleunit":"LandSafe Title","referringcustomer":"LandSafe_CA","primarycurativetech":"Unassigned","contract in task":"Contract In Tasks","secondarycurativetech":"Unassigned","branchoffice":"Santa Rosa","isescalated":"FALSE","address":"2356 Sanctuary Dr","propertyaddressline2":null,"filenotes":null,"geo_precision":"zip","state":"California"},"type":"Feature","geometry":{"type":"Point","coordinates":[-122.264316,38.107945]}},{"properties":{"city":"Bakersfield","createddate":"7/13/2012 13:25","iscurativefile":"FALSE","zip":"93307","openeddate":"7/13/2012 0:00","referringcustomerfilenumber":null,"outofstatestatus":"Not Applicable","task completed date":"7/13/2012","region":"Central California","countyname":"Kern","closeddate":"7/27/2012 0:00","isclosed":"TRUE","geo_score":0.902,"id":"a7i9qnpbipu7","filenumber":"482486","filetransactiontype":"Escrow Only","escrowofficername":"Jennifer Navarro","titleunit":"LandSafe Title","referringcustomer":"LandSafe_CA","primarycurativetech":"Unassigned","contract in task":"Contract In Tasks","secondarycurativetech":"Unassigned","branchoffice":"Bakersfield","isescalated":"FALSE","address":"1004 Bradshaw St","propertyaddressline2":null,"filenotes":null,"geo_precision":"range","state":"California"},"type":"Feature","geometry":{"type":"Point","coordinates":[-118.98792,35.334297]}},{"properties":{"city":"Temecula","createddate":"7/13/2012 15:17","iscurativefile":"FALSE","zip":"92592","openeddate":"7/13/2012 0:00","referringcustomerfilenumber":"11-0106638","outofstatestatus":"Not Applicable","task completed date":"7/13/2012","region":"Inland Empire","countyname":"Riverside","closeddate":"8/16/2012 0:00","isclosed":"FALSE","geo_score":0.902,"id":"a7i9qni1zmm7","filenumber":"482567","filetransactiontype":"Escrow Only","escrowofficername":"(Loreen) Dorothy Hope","titleunit":"LandSafe Title","referringcustomer":"LandSafe_CA","primarycurativetech":"Unassigned","contract in task":"Contract In Tasks","secondarycurativetech":"Unassigned","branchoffice":"Murrieta","isescalated":"FALSE","address":"41260 Los Ranchos Cir","propertyaddressline2":null,"filenotes":null,"geo_precision":"range","state":"California"},"type":"Feature","geometry":{"type":"Point","coordinates":[-116.995971,33.548073]}},{"properties":{"city":"Shasta Lake","createddate":"7/13/2012 15:49","iscurativefile":"FALSE","zip":"96019","openeddate":"7/13/2012 0:00","referringcustomerfilenumber":"11-0012583","outofstatestatus":"Not Applicable","task completed date":"7/13/2012","region":"South Northern California","countyname":"Shasta","closeddate":"7/20/2012 0:00","isclosed":"FALSE","geo_score":0.894,"id":"a7i9qncks76b","filenumber":"482586","filetransactiontype":"Title &amp; Escrow","escrowofficername":"Debra Greene","titleunit":"CA CPU Title-Kevin","referringcustomer":"LandSafe_CA","primarycurativetech":"Unassigned","contract in task":"Contract In Tasks","secondarycurativetech":"Unassigned","branchoffice":"Modesto","isescalated":"FALSE","address":"1865 Parallel Street","propertyaddressline2":null,"filenotes":null,"geo_precision":"range","state":"California"},"type":"Feature","geometry":{"type":"Point","coordinates":[-122.350842,40.677538]}},{"properties":{"city":"Hayward","createddate":"7/13/2012 16:20","iscurativefile":"FALSE","zip":"94541","openeddate":"7/13/2012 0:00","referringcustomerfilenumber":"11-0080388","outofstatestatus":"Not Applicable","task completed date":"7/13/2012","region":"North Northern California","countyname":"Alameda","closeddate":"8/8/2012 0:00","isclosed":"FALSE","geo_score":0.902,"id":"a7i9qnkjm0qw","filenumber":"482573","filetransactiontype":"Escrow Only","escrowofficername":"Patti Billing","titleunit":"LandSafe Title","referringcustomer":"LandSafe_CA","primarycurativetech":"Unassigned","contract in task":"Contract In Tasks","secondarycurativetech":"Unassigned","branchoffice":"Santa Rosa","isescalated":"FALSE","address":"22212 Montgomery St","propertyaddressline2":null,"filenotes":null,"geo_precision":"range","state":"California"},"type":"Feature","geometry":{"type":"Point","coordinates":[-122.089216,37.674076]}},{"properties":{"city":"Visalia","createddate":"7/13/2012 16:28","iscurativefile":"FALSE","zip":"93291","openeddate":"7/13/2012 0:00","referringcustomerfilenumber":"12-0030102","outofstatestatus":"Not Applicable","task completed date":"7/13/2012","region":"Central California","countyname":"Tulare","closeddate":"8/7/2012 0:00","isclosed":"FALSE","geo_score":0.666,"id":"a7i9qnoiua9p","filenumber":"482557","filetransactiontype":"Escrow Only","escrowofficername":"Karen Sigda","titleunit":"LandSafe Title","referringcustomer":"LandSafe_CA","primarycurativetech":"Unassigned","contract in task":"Contract In Tasks","secondarycurativetech":"Unassigned","branchoffice":"Visalia","isescalated":"FALSE","address":"2622 W Oakridge Ave","propertyaddressline2":null,"filenotes":null,"geo_precision":"street","state":"California"},"type":"Feature","geometry":{"type":"Point","coordinates":[-119.350735,36.351251]}},{"properties":{"city":"Anaheim","createddate":"7/16/2012 10:11","iscurativefile":"FALSE","zip":"92805","openeddate":"7/16/2012 0:00","referringcustomerfilenumber":"12-0011931","outofstatestatus":"Not Applicable","task completed date":"7/16/2012","region":"So. California","countyname":"Orange","closeddate":"8/3/2012 0:00","isclosed":"FALSE","geo_score":0.902,"id":"a7i9qnnv4wkt","filenumber":"482761","filetransactiontype":"Escrow Only","escrowofficername":"Michelle Huynh","titleunit":"LandSafe Title","referringcustomer":"LandSafe_CA","primarycurativetech":"Unassigned","contract in task":"Contract In Tasks","secondarycurativetech":"Unassigned","branchoffice":"Irvine","isescalated":"FALSE","address":"549 SOuth Dorchester St","propertyaddressline2":null,"filenotes":null,"geo_precision":"range","state":"California"},"type":"Feature","geometry":{"type":"Point","coordinates":[-117.892552,33.834025]}},{"properties":{"city":"South Gate","createddate":"7/16/2012 10:20","iscurativefile":"FALSE","zip":"90280","openeddate":"7/16/2012 0:00","referringcustomerfilenumber":"11-0129044","outofstatestatus":"Not Applicable","task completed date":"7/16/2012","region":"Los Angeles - Ventura California","countyname":"Los Angeles","closeddate":"8/17/2012 0:00","isclosed":"FALSE","geo_score":0.902,"id":"a7i9qnhegh02","filenumber":"482774","filetransactiontype":"Escrow Only","escrowofficername":"Mary Schenuk","titleunit":"LandSafe Title","referringcustomer":"LandSafe_CA","primarycurativetech":"Unassigned","contract in task":"Contract In Tasks","secondarycurativetech":"Unassigned","branchoffice":"Glendale","isescalated":"FALSE","address":"2627 Missouri Ave","propertyaddressline2":null,"filenotes":null,"geo_precision":"range","state":"California"},"type":"Feature","geometry":{"type":"Point","coordinates":[-118.220458,33.948202]}},{"properties":{"city":"Colton","createddate":"7/16/2012 10:34","iscurativefile":"FALSE","zip":"92324","openeddate":"7/16/2012 0:00","referringcustomerfilenumber":"11-0092120","outofstatestatus":"Not Applicable","task completed date":"7/16/2012","region":"Inland Empire","countyname":"San Bernardino","closeddate":"7/27/2012 0:00","isclosed":"TRUE","geo_score":0.857,"id":"a7i9qnpbpako","filenumber":"482779","filetransactiontype":"Escrow Only","escrowofficername":"Patti Black","titleunit":"LandSafe Title","referringcustomer":"LandSafe_CA","primarycurativetech":"Unassigned","contract in task":"Contract In Tasks","secondarycurativetech":"Unassigned","branchoffice":"Redlands","isescalated":"FALSE","address":"1401 Jennifer Ct","propertyaddressline2":null,"filenotes":null,"geo_precision":"range","state":"California"},"type":"Feature","geometry":{"type":"Point","coordinates":[-117.343381,34.082823]}},{"properties":{"city":"Carlsbad","createddate":"7/16/2012 11:29","iscurativefile":"FALSE","zip":"92008","openeddate":"7/16/2012 0:00","referringcustomerfilenumber":"11-0110198","outofstatestatus":"Not Applicable","task completed date":"7/16/2012","region":"So. California","countyname":"San Diego","closeddate":"8/3/2012 0:00","isclosed":"FALSE","geo_score":0.488,"id":"a7i9qnoypbp8","filenumber":"482770","filetransactiontype":"Escrow Only","escrowofficername":"Irene Casey","titleunit":"LandSafe Title","referringcustomer":"LandSafe_CA","primarycurativetech":"Unassigned","contract in task":"Contract In Tasks","secondarycurativetech":"Unassigned","branchoffice":"Carlsbad","isescalated":"FALSE","address":"5616 Foxtail Loop","propertyaddressline2":null,"filenotes":null,"geo_precision":"zip","state":"California"},"type":"Feature","geometry":{"type":"Point","coordinates":[-116.846046,33.016928]}},{"properties":{"city":"Oakland","createddate":"7/16/2012 11:32","iscurativefile":"FALSE","zip":"94605","openeddate":"7/16/2012 0:00","referringcustomerfilenumber":"12-0018882","outofstatestatus":"Not Applicable","task completed date":"7/16/2012","region":"South Northern California","countyname":"Alameda","closeddate":"7/16/2013 0:00","isclosed":"FALSE","geo_score":0.902,"id":"a7i9qnsuirr9","filenumber":"482778","filetransactiontype":"Escrow Only","escrowofficername":"Denise Fall","titleunit":"LandSafe Title","referringcustomer":"LandSafe_CA","primarycurativetech":"Unassigned","contract in task":"Contract In Tasks","secondarycurativetech":"Unassigned","branchoffice":"Modesto","isescalated":"FALSE","address":"8350 Golf Links Rd","propertyaddressline2":null,"filenotes":null,"geo_precision":"range","state":"California"},"type":"Feature","geometry":{"type":"Point","coordinates":[-122.161856,37.762195]}},{"properties":{"city":"Moreno Valley","createddate":"7/16/2012 11:50","iscurativefile":"FALSE","zip":"92553","openeddate":"7/16/2012 0:00","referringcustomerfilenumber":"12-0001298","outofstatestatus":"Not Applicable","task completed date":"7/16/2012","region":"Inland Empire","countyname":"Riverside","closeddate":"8/3/2012 0:00","isclosed":"FALSE","geo_score":0.902,"id":"a7i9qnmwbzh7","filenumber":"482821","filetransactiontype":"Escrow Only","escrowofficername":"(Loreen) Dorothy Hope","titleunit":"LandSafe Title","referringcustomer":"LandSafe_CA","primarycurativetech":"Unassigned","contract in task":"Contract In Tasks","secondarycurativetech":"Unassigned","branchoffice":"Murrieta","isescalated":"FALSE","address":"28099 Morrey Ln","propertyaddressline2":null,"filenotes":"old file # 474564","geo_precision":"range","state":"California"},"type":"Feature","geometry":{"type":"Point","coordinates":[-117.171923,33.955984]}},{"properties":{"city":"Boulder Creek","createddate":"7/16/2012 16:07","iscurativefile":"FALSE","zip":"95006","openeddate":"7/16/2012 0:00","referringcustomerfilenumber":null,"outofstatestatus":"Not Applicable","task completed date":"7/16/2012","region":"South Northern California","countyname":"Non_Stewart-Non file","closeddate":"8/16/2012 0:00","isclosed":"FALSE","geo_score":0.902,"id":"a7i9qneodx9b","filenumber":"482441","filetransactiontype":"Escrow Only","escrowofficername":"Karen Talbot","titleunit":"Not Applicable","referringcustomer":"LandSafe_CA","primarycurativetech":"Unassigned","contract in task":"Contract In Tasks","secondarycurativetech":"Unassigned","branchoffice":"Santa Cruz","isescalated":"FALSE","address":"13404 Highway 9","propertyaddressline2":null,"filenotes":null,"geo_precision":"range","state":"California"},"type":"Feature","geometry":{"type":"Point","coordinates":[-122.122929,37.128405]}},{"properties":{"city":"Antelope","createddate":"7/17/2012 10:58","iscurativefile":"FALSE","zip":"95843","openeddate":"7/17/2012 0:00","referringcustomerfilenumber":"11-0131036","outofstatestatus":"Not Applicable","task completed date":"7/17/2012","region":"North Northern California","countyname":"Sacramento","closeddate":"7/24/2012 0:00","isclosed":"FALSE","geo_score":0.709,"id":"a7i9qngl0qxx","filenumber":"01445-2041","filetransactiontype":"Escrow Only","escrowofficername":"Dawn Vincent","titleunit":"LandSafe Title","referringcustomer":"LandSafe_CA","primarycurativetech":"Unassigned","contract in task":"Contract In Tasks","secondarycurativetech":"Unassigned","branchoffice":"AMSAC-Fair Oaks","isescalated":"FALSE","address":"4513 Winje Dr","propertyaddressline2":null,"filenotes":null,"geo_precision":"street","state":"California"},"type":"Feature","geometry":{"type":"Point","coordinates":[-121.360278,38.708793]}},{"properties":{"city":"Sacramento","createddate":"7/17/2012 11:02","iscurativefile":"FALSE","zip":"95842","openeddate":"7/17/2012 0:00","referringcustomerfilenumber":"11-0118570","outofstatestatus":"Not Applicable","task completed date":"7/17/2012","region":"South Northern California","countyname":"Sacramento","closeddate":"7/13/2013 0:00","isclosed":"FALSE","geo_score":0.551,"id":"a7i9qnsxpq1o","filenumber":"483113","filetransactiontype":"Escrow Only","escrowofficername":"Diane Oliveira-Medina","titleunit":"LandSafe Title","referringcustomer":"LandSafe_CA","primarycurativetech":"Unassigned","contract in task":"Contract In Tasks","secondarycurativetech":"Unassigned","branchoffice":"Turlock","isescalated":"FALSE","address":"5045 Saint Dixier Ct","propertyaddressline2":null,"filenotes":null,"geo_precision":"street","state":"California"},"type":"Feature","geometry":{"type":"Point","coordinates":[-121.358378,38.460639]}},{"properties":{"city":"Stockton","createddate":"7/17/2012 11:06","iscurativefile":"FALSE","zip":"95206","openeddate":"7/17/2012 0:00","referringcustomerfilenumber":"12-0086166","outofstatestatus":"Not Applicable","task completed date":"7/17/2012","region":"South Northern California","countyname":"San Joaquin","closeddate":"8/3/2012 0:00","isclosed":"FALSE","geo_score":0.675,"id":"a7i9qnfsypvj","filenumber":"483118","filetransactiontype":"Escrow Only","escrowofficername":"Holly Weston","titleunit":"LandSafe Title","referringcustomer":"LandSafe_CA","primarycurativetech":"Unassigned","contract in task":"Contract In Tasks","secondarycurativetech":"Unassigned","branchoffice":"Turlock","isescalated":"FALSE","address":"2105 Phleps St","propertyaddressline2":null,"filenotes":null,"geo_precision":"street","state":"California"},"type":"Feature","geometry":{"type":"Point","coordinates":[-121.260933,37.920366]}},{"properties":{"city":"Lake Elsinore","createddate":"7/17/2012 11:10","iscurativefile":"FALSE","zip":"92530","openeddate":"7/17/2012 0:00","referringcustomerfilenumber":"12-0000263","outofstatestatus":"Not Applicable","task completed date":"7/17/2012","region":"Inland Empire","countyname":"Riverside","closeddate":"8/8/2013 0:00","isclosed":"FALSE","geo_score":0.854,"id":"a7i9qni015vc","filenumber":"483120","filetransactiontype":"Escrow Only","escrowofficername":"Vicki Petersen","titleunit":"LandSafe Title","referringcustomer":"LandSafe_CA","primarycurativetech":"Unassigned","contract in task":"Contract In Tasks","secondarycurativetech":"Unassigned","branchoffice":"Murrieta","isescalated":"FALSE","address":"15165 Spinnaker Dr","propertyaddressline2":null,"filenotes":null,"geo_precision":"range","state":"California"},"type":"Feature","geometry":{"type":"Point","coordinates":[-117.372473,33.652927]}},{"properties":{"city":"Livermore","createddate":"7/17/2012 11:14","iscurativefile":"FALSE","zip":"94551","openeddate":"7/17/2012 0:00","referringcustomerfilenumber":"12-0086181","outofstatestatus":"Not Applicable","task completed date":"7/17/2012","region":"South Northern California","countyname":"Alameda","closeddate":"9/3/2012 0:00","isclosed":"FALSE","geo_score":0.488,"id":"a7i9qnqszgr5","filenumber":"483127","filetransactiontype":"Escrow Only","escrowofficername":"Denise Fall","titleunit":"LandSafe Title","referringcustomer":"LandSafe_CA","primarycurativetech":"Unassigned","contract in task":"Contract In Tasks","secondarycurativetech":"Unassigned","branchoffice":"Modesto","isescalated":"FALSE","address":"675 Berthal Pl","propertyaddressline2":null,"filenotes":null,"geo_precision":"zip","state":"California"},"type":"Feature","geometry":{"type":"Point","coordinates":[-121.921498,37.680181]}},{"properties":{"city":"Fresno","createddate":"7/17/2012 11:52","iscurativefile":"FALSE","zip":"93703","openeddate":"7/17/2012 0:00","referringcustomerfilenumber":"12-0003920","outofstatestatus":"Not Applicable","task completed date":"7/17/2012","region":"Central California","countyname":"Fresno","closeddate":"8/13/2012 0:00","isclosed":"FALSE","geo_score":0.902,"id":"a7i9qnfgr4qs","filenumber":"483167","filetransactiontype":"Escrow Only","escrowofficername":"Claudia Froelich","titleunit":"LandSafe Title","referringcustomer":"LandSafe_CA","primarycurativetech":"Unassigned","contract in task":"Contract In Tasks","secondarycurativetech":"Unassigned","branchoffice":"Fresno","isescalated":"FALSE","address":"2203 Norris Drive West","propertyaddressline2":null,"filenotes":null,"geo_precision":"range","state":"California"},"type":"Feature","geometry":{"type":"Point","coordinates":[-119.769693,36.770648]}},{"properties":{"city":"Hemet","createddate":"7/17/2012 11:55","iscurativefile":"FALSE","zip":"92544","openeddate":"7/17/2012 0:00","referringcustomerfilenumber":"11-0120911","outofstatestatus":"Not Applicable","task completed date":"7/17/2012","region":"Inland Empire","countyname":"Riverside","closeddate":"8/13/2012 0:00","isclosed":"FALSE","geo_score":0.902,"id":"a7i9qnd0sxjk","filenumber":"483157","filetransactiontype":"Escrow Only","escrowofficername":"Mary Hudson","titleunit":"LandSafe Title","referringcustomer":"LandSafe_CA","primarycurativetech":"Unassigned","contract in task":"Contract In Tasks","secondarycurativetech":"Unassigned","branchoffice":"Riverside","isescalated":"FALSE","address":"26335 Investors Pl","propertyaddressline2":null,"filenotes":null,"geo_precision":"range","state":"California"},"type":"Feature","geometry":{"type":"Point","coordinates":[-116.957029,33.739907]}},{"properties":{"city":"Antioch","createddate":"7/17/2012 12:11","iscurativefile":"FALSE","zip":"94509","openeddate":"7/17/2012 0:00","referringcustomerfilenumber":"11-0126701","outofstatestatus":"Not Applicable","task completed date":"7/17/2012","region":"North Northern California","countyname":"Contra Costa","closeddate":"8/10/2012 0:00","isclosed":"FALSE","geo_score":0.902,"id":"a7i9qnrnxpvt","filenumber":"483182","filetransactiontype":"Escrow Only","escrowofficername":"Arlene VanCraeynest","titleunit":"LandSafe Title","referringcustomer":"LandSafe_CA","primarycurativetech":"Unassigned","contract in task":"Contract In Tasks","secondarycurativetech":"Unassigned","branchoffice":"Mill Valley","isescalated":"FALSE","address":"2901 Sunset Ln","propertyaddressline2":null,"filenotes":null,"geo_precision":"range","state":"California"},"type":"Feature","geometry":{"type":"Point","coordinates":[-121.803581,37.992025]}},{"properties":{"city":"Granada Hills","createddate":"7/17/2012 18:01","iscurativefile":"FALSE","zip":"91344","openeddate":"7/17/2012 0:00","referringcustomerfilenumber":"11-0099754","outofstatestatus":"Not Applicable","task completed date":"7/17/2012","region":"Los Angeles - Ventura California","countyname":"Los Angeles","closeddate":"8/2/2012 0:00","isclosed":"FALSE","geo_score":0.902,"id":"a7i9qnnnmyn9","filenumber":"483367","filetransactiontype":"Escrow Only","escrowofficername":"Julie Mayorga","titleunit":"LandSafe Title","referringcustomer":"LandSafe_CA","primarycurativetech":"Unassigned","contract in task":"Contract In Tasks","secondarycurativetech":"Unassigned","branchoffice":"City of Industry","isescalated":"FALSE","address":"10417 Genesta Ave","propertyaddressline2":null,"filenotes":null,"geo_precision":"range","state":"California"},"type":"Feature","geometry":{"type":"Point","coordinates":[-118.504567,34.260117]}},{"properties":{"city":"Claremont","createddate":"7/17/2012 18:15","iscurativefile":"FALSE","zip":"91711","openeddate":"7/17/2012 0:00","referringcustomerfilenumber":"12 0007828","outofstatestatus":"Not Applicable","task completed date":"7/17/2012","region":"Los Angeles - Ventura California","countyname":"Los Angeles","closeddate":"8/3/2012 0:00","isclosed":"FALSE","geo_score":0.902,"id":"a7i9qnomq5h5","filenumber":"483395","filetransactiontype":"Escrow Only","escrowofficername":"Martha Gonzales","titleunit":"LandSafe Title","referringcustomer":"LandSafe_CA","primarycurativetech":"Unassigned","contract in task":"Contract In Tasks","secondarycurativetech":"Unassigned","branchoffice":"Glendale","isescalated":"FALSE","address":"3327 Duke Ave","propertyaddressline2":null,"filenotes":null,"geo_precision":"range","state":"California"},"type":"Feature","geometry":{"type":"Point","coordinates":[-117.735675,34.105471]}},{"properties":{"city":"Newark","createddate":"7/18/2012 10:36","iscurativefile":"FALSE","zip":"94560","openeddate":"7/18/2012 0:00","referringcustomerfilenumber":"12-0086157","outofstatestatus":"Not Applicable","task completed date":"7/18/2012","region":"North Northern California","countyname":"Alameda","closeddate":"8/12/2012 0:00","isclosed":"FALSE","geo_score":0.582,"id":"a7i9qnhfat8m","filenumber":"483493","filetransactiontype":"Escrow Only","escrowofficername":"Arlene VanCraeynest","titleunit":"LandSafe Title","referringcustomer":"LandSafe_CA","primarycurativetech":"Unassigned","contract in task":"Contract In Tasks","secondarycurativetech":"Unassigned","branchoffice":"Mill Valley","isescalated":"FALSE","address":"6304 Buena Vista Drive, Unit C","propertyaddressline2":null,"filenotes":"old file # 479929","geo_precision":"street","state":"California"},"type":"Feature","geometry":{"type":"Point","coordinates":[-121.996702,37.516422]}},{"properties":{"city":"Duarte","createddate":"7/18/2012 11:05","iscurativefile":"FALSE","zip":"91010","openeddate":"7/18/2012 0:00","referringcustomerfilenumber":"11-0091229","outofstatestatus":"Not Applicable","task completed date":"7/18/2012","region":"Los Angeles - Ventura California","countyname":"Los Angeles","closeddate":"8/10/2012 0:00","isclosed":"FALSE","geo_score":0.902,"id":"a7i9qnk2js3b","filenumber":"483503","filetransactiontype":"Escrow Only","escrowofficername":"Adriana Ponce","titleunit":"LandSafe Title","referringcustomer":"LandSafe_CA","primarycurativetech":"Unassigned","contract in task":"Contract In Tasks","secondarycurativetech":"Unassigned","branchoffice":"City of Industry","isescalated":"FALSE","address":"1336 Royal Oaks Dr","propertyaddressline2":null,"filenotes":null,"geo_precision":"range","state":"California"},"type":"Feature","geometry":{"type":"Point","coordinates":[-117.976048,34.143174]}},{"properties":{"city":"Bakersfield","createddate":"7/18/2012 11:18","iscurativefile":"FALSE","zip":"93312","openeddate":"7/18/2012 0:00","referringcustomerfilenumber":"12-0006248","outofstatestatus":"Not Applicable","task completed date":"7/18/2012","region":"Central California","countyname":"Kern","closeddate":"8/17/2012 0:00","isclosed":"FALSE","geo_score":0.561,"id":"a7i9qnkqkh12","filenumber":"483519","filetransactiontype":"Escrow Only","escrowofficername":"Cindy Kohler","titleunit":"LandSafe Title","referringcustomer":"LandSafe_CA","primarycurativetech":"Unassigned","contract in task":"Contract In Tasks","secondarycurativetech":"Unassigned","branchoffice":"Bakersfield","isescalated":"FALSE","address":"12007 Dakota Hills Ave","propertyaddressline2":null,"filenotes":null,"geo_precision":"street","state":"California"},"type":"Feature","geometry":{"type":"Point","coordinates":[-119.114044,35.406922]}},{"properties":{"city":"Mountain House","createddate":"7/18/2012 12:00","iscurativefile":"FALSE","zip":"95391","openeddate":"7/18/2012 0:00","referringcustomerfilenumber":"12-0100993","outofstatestatus":"Not Applicable","task completed date":"7/18/2012","region":"South Northern California","countyname":"San Joaquin","closeddate":"7/27/2012 0:00","isclosed":"FALSE","geo_score":0.605,"id":"a7i9qnpnkn6t","filenumber":"483512","filetransactiontype":"Escrow Only","escrowofficername":"Heather Walker","titleunit":"LandSafe Title","referringcustomer":"LandSafe_CA","primarycurativetech":"Unassigned","contract in task":"Contract In Tasks","secondarycurativetech":"Unassigned","branchoffice":"Turlock","isescalated":"FALSE","address":"380 W Fauna Ave","propertyaddressline2":null,"filenotes":null,"geo_precision":"range","state":"California"},"type":"Feature","geometry":{"type":"Point","coordinates":[-92.358091,36.39056]}},{"properties":{"city":"Santa Barbara","createddate":"7/18/2012 12:04","iscurativefile":"FALSE","zip":"93105","openeddate":"7/18/2012 0:00","referringcustomerfilenumber":"12-0103621","outofstatestatus":"Not Applicable","task completed date":"7/18/2012","region":"Central California","countyname":"Santa Barbara","closeddate":"8/24/2012 0:00","isclosed":"FALSE","geo_score":0.878,"id":"a7i9qnsmwu6k","filenumber":"483518","filetransactiontype":"Escrow Only","escrowofficername":"Cindy Kohler","titleunit":"LandSafe Title","referringcustomer":"LandSafe_CA","primarycurativetech":"Unassigned","contract in task":"Contract In Tasks","secondarycurativetech":"Unassigned","branchoffice":"Bakersfield","isescalated":"FALSE","address":"203 E Alamar Ave","propertyaddressline2":null,"filenotes":null,"geo_precision":"range","state":"California"},"type":"Feature","geometry":{"type":"Point","coordinates":[-119.72553,34.434971]}},{"properties":{"city":"Sacramento","createddate":"7/18/2012 12:08","iscurativefile":"FALSE","zip":"95608","openeddate":"7/18/2012 0:00","referringcustomerfilenumber":null,"outofstatestatus":"Not Applicable","task completed date":"7/18/2012","region":"North Northern California","countyname":"Sacramento","closeddate":"7/20/2012 0:00","isclosed":"FALSE","geo_score":0.488,"id":"a7i9qnpn98m3","filenumber":"01445-2048","filetransactiontype":"Escrow Only","escrowofficername":"Dawn Vincent","titleunit":"LandSafe Title","referringcustomer":"LandSafe_CA","primarycurativetech":"Unassigned","contract in task":"Contract In Tasks","secondarycurativetech":"Unassigned","branchoffice":"AMSAC-Fair Oaks","isescalated":"FALSE","address":"4760 Hixon Cir","propertyaddressline2":null,"filenotes":null,"geo_precision":"zip","state":"California"},"type":"Feature","geometry":{"type":"Point","coordinates":[-121.332191,38.62136]}},{"properties":{"city":"Escondido","createddate":"7/18/2012 14:54","iscurativefile":"FALSE","zip":"92029","openeddate":"7/18/2012 0:00","referringcustomerfilenumber":"12-0036409","outofstatestatus":"Not Applicable","task completed date":"7/18/2012","region":"So. California","countyname":"San Diego","closeddate":"8/3/2012 0:00","isclosed":"FALSE","geo_score":0.902,"id":"a7i9qnq6ok65","filenumber":"483625","filetransactiontype":"Escrow Only","escrowofficername":"Irene Casey","titleunit":"LandSafe Title","referringcustomer":"LandSafe_CA","primarycurativetech":"Unassigned","contract in task":"Contract In Tasks","secondarycurativetech":"Unassigned","branchoffice":"Carlsbad","isescalated":"FALSE","address":"9043 Harmony Grove Rd","propertyaddressline2":null,"filenotes":null,"geo_precision":"range","state":"California"},"type":"Feature","geometry":{"type":"Point","coordinates":[-117.153079,33.085752]}},{"properties":{"city":"Fresno","createddate":"7/19/2012 9:58","iscurativefile":"FALSE","zip":"93730","openeddate":"7/19/2012 0:00","referringcustomerfilenumber":"12-0030962","outofstatestatus":"Not Applicable","task completed date":"7/19/2012","region":"Central California","countyname":"Fresno","closeddate":"8/17/2012 0:00","isclosed":"FALSE","geo_score":0.902,"id":"a7i9qnhpbdjq","filenumber":"483828","filetransactiontype":"Escrow Only","escrowofficername":"Stacey Giguiere","titleunit":"LandSafe Title","referringcustomer":"LandSafe_CA","primarycurativetech":"Unassigned","contract in task":"Contract In Tasks","secondarycurativetech":"Unassigned","branchoffice":"Fresno","isescalated":"FALSE","address":"10184 North Rowell Ave","propertyaddressline2":null,"filenotes":null,"geo_precision":"range","state":"California"},"type":"Feature","geometry":{"type":"Point","coordinates":[-119.752878,36.884064]}},{"properties":{"city":"Hayward","createddate":"7/19/2012 10:15","iscurativefile":"FALSE","zip":"94544","openeddate":"7/19/2012 0:00","referringcustomerfilenumber":"11-0134420","outofstatestatus":"Not Applicable","task completed date":"7/19/2012","region":"North Northern California","countyname":"Alameda","closeddate":"8/17/2012 0:00","isclosed":"FALSE","geo_score":0.902,"id":"a7i9qnclm3s4","filenumber":"483829","filetransactiontype":"Escrow Only","escrowofficername":"Rheanna Gieseking","titleunit":"LandSafe Title","referringcustomer":"LandSafe_CA","primarycurativetech":"Unassigned","contract in task":"Contract In Tasks","secondarycurativetech":"Unassigned","branchoffice":"Danville","isescalated":"FALSE","address":"30516 Carroll Ave","propertyaddressline2":null,"filenotes":null,"geo_precision":"range","state":"California"},"type":"Feature","geometry":{"type":"Point","coordinates":[-122.045244,37.619558]}},{"properties":{"city":"San Francisco","createddate":"7/19/2012 10:23","iscurativefile":"FALSE","zip":"94132","openeddate":"7/19/2012 0:00","referringcustomerfilenumber":"12-0091472","outofstatestatus":"Not Applicable","task completed date":"7/19/2012","region":"North Northern California","countyname":"San Francisco","closeddate":"8/13/2012 0:00","isclosed":"FALSE","geo_score":0.488,"id":"a7i9qnrogaut","filenumber":"483836","filetransactiontype":"Escrow Only","escrowofficername":"Arlene VanCraeynest","titleunit":"LandSafe Title","referringcustomer":"LandSafe_CA","primarycurativetech":"Unassigned","contract in task":"Contract In Tasks","secondarycurativetech":"Unassigned","branchoffice":"Mill Valley","isescalated":"FALSE","address":"8300 Oceanview Terr, #408","propertyaddressline2":null,"filenotes":null,"geo_precision":"zip","state":"California"},"type":"Feature","geometry":{"type":"Point","coordinates":[-122.482483,37.722631]}},{"properties":{"city":"Boulder Creek","createddate":"7/19/2012 11:12","iscurativefile":"FALSE","zip":"95006","openeddate":"7/19/2012 0:00","referringcustomerfilenumber":"12-0028227","outofstatestatus":"Not Applicable","task completed date":"7/19/2012","region":"South Northern California","countyname":"Santa Cruz","closeddate":"8/22/2012 0:00","isclosed":"FALSE","geo_score":0.902,"id":"a7i9qnn4b0fy","filenumber":"483830","filetransactiontype":"Escrow Only","escrowofficername":"Lupe Sandoval","titleunit":"LandSafe Title","referringcustomer":"LandSafe_CA","primarycurativetech":"Unassigned","contract in task":"Contract In Tasks","secondarycurativetech":"Unassigned","branchoffice":"Capitola","isescalated":"FALSE","address":"111 Culligan Ct","propertyaddressline2":null,"filenotes":null,"geo_precision":"range","state":"California"},"type":"Feature","geometry":{"type":"Point","coordinates":[-122.157426,37.15108]}},{"properties":{"city":"Sylmar","createddate":"7/19/2012 11:17","iscurativefile":"FALSE","zip":"91342","openeddate":"7/19/2012 0:00","referringcustomerfilenumber":"11-0098751","outofstatestatus":"Not Applicable","task completed date":"7/19/2012","region":"Los Angeles - Ventura California","countyname":"Los Angeles","closeddate":"8/20/2012 0:00","isclosed":"FALSE","geo_score":0.488,"id":"a7i9qnpo23pq","filenumber":"483838","filetransactiontype":"Escrow Only","escrowofficername":"Angela Hum","titleunit":"LandSafe Title","referringcustomer":"LandSafe_CA","primarycurativetech":"Unassigned","contract in task":"Contract In Tasks","secondarycurativetech":"Unassigned","branchoffice":"Glendale","isescalated":"FALSE","address":"13675 Woodcock Ave","propertyaddressline2":null,"filenotes":null,"geo_precision":"zip","state":"California"},"type":"Feature","geometry":{"type":"Point","coordinates":[-118.298662,33.786594]}},{"properties":{"city":"Wasco","createddate":"7/19/2012 12:16","iscurativefile":"FALSE","zip":"93280","openeddate":"7/19/2012 0:00","referringcustomerfilenumber":"11-0104748","outofstatestatus":"Not Applicable","task completed date":"7/19/2012","region":"Central California","countyname":"Kern","closeddate":"8/8/2012 0:00","isclosed":"FALSE","geo_score":0.805,"id":"a7i9qnskoxuz","filenumber":"483896","filetransactiontype":"Escrow Only","escrowofficername":"Mary Curry","titleunit":"LandSafe Title","referringcustomer":"LandSafe_CA","primarycurativetech":"Unassigned","contract in task":"Contract In Tasks","secondarycurativetech":"Unassigned","branchoffice":"Bakersfield","isescalated":"FALSE","address":"1602 3rd St","propertyaddressline2":null,"filenotes":null,"geo_precision":"range","state":"California"},"type":"Feature","geometry":{"type":"Point","coordinates":[-119.343861,35.598895]}},{"properties":{"city":"Rocklin","createddate":"7/19/2012 17:00","iscurativefile":"FALSE","zip":"95677","openeddate":"7/19/2012 0:00","referringcustomerfilenumber":"11-0120213","outofstatestatus":"Not Applicable","task completed date":"7/19/2012","region":"South Northern California","countyname":"Placer","closeddate":"8/10/2012 0:00","isclosed":"FALSE","geo_score":0.902,"id":"a7i9qnpvyi0l","filenumber":"484041","filetransactiontype":"Escrow Only","escrowofficername":"Denise Fall","titleunit":"LandSafe Title","referringcustomer":"LandSafe_CA","primarycurativetech":"Unassigned","contract in task":"Contract In Tasks","secondarycurativetech":"Unassigned","branchoffice":"Modesto","isescalated":"FALSE","address":"5090 Topaz Ave","propertyaddressline2":null,"filenotes":null,"geo_precision":"range","state":"California"},"type":"Feature","geometry":{"type":"Point","coordinates":[-121.254804,38.795576]}},{"properties":{"city":"Modesto","createddate":"7/19/2012 18:38","iscurativefile":"FALSE","zip":"95354","openeddate":"7/19/2012 0:00","referringcustomerfilenumber":"12-0017329","outofstatestatus":"Not Applicable","task completed date":"7/19/2012","region":"South Northern California","countyname":"Stanislaus","closeddate":"7/30/2012 0:00","isclosed":"FALSE","geo_score":0.902,"id":"a7i9qnosam2m","filenumber":"484095","filetransactiontype":"Escrow Only","escrowofficername":"Heather Walker","titleunit":"LandSafe Title","referringcustomer":"LandSafe_CA","primarycurativetech":"Unassigned","contract in task":"Contract In Tasks","secondarycurativetech":"Unassigned","branchoffice":"Turlock","isescalated":"FALSE","address":"150 Sabrina Lane","propertyaddressline2":null,"filenotes":null,"geo_precision":"range","state":"California"},"type":"Feature","geometry":{"type":"Point","coordinates":[-120.939523,37.640284]}},{"properties":{"city":"Irvine","createddate":"7/19/2012 18:41","iscurativefile":"FALSE","zip":"92602","openeddate":"7/19/2012 0:00","referringcustomerfilenumber":"11-0097074","outofstatestatus":"Not Applicable","task completed date":"7/19/2012","region":"So. California","countyname":"Orange","closeddate":"8/24/2012 0:00","isclosed":"FALSE","geo_score":0.902,"id":"a7i9qnfdgukv","filenumber":"484110","filetransactiontype":"Escrow Only","escrowofficername":"Michelle Huynh","titleunit":"LandSafe Title","referringcustomer":"LandSafe_CA","primarycurativetech":"Unassigned","contract in task":"Contract In Tasks","secondarycurativetech":"Unassigned","branchoffice":"Irvine","isescalated":"FALSE","address":"5 Bowie Pl","propertyaddressline2":null,"filenotes":null,"geo_precision":"range","state":"California"},"type":"Feature","geometry":{"type":"Point","coordinates":[-117.775179,33.733833]}},{"properties":{"city":"Santa Rosa","createddate":"7/20/2012 9:59","iscurativefile":"FALSE","zip":"95403","openeddate":"7/20/2012 0:00","referringcustomerfilenumber":"12-0022562","outofstatestatus":"Not Applicable","task completed date":"7/20/2012","region":"North Northern California","countyname":"Sonoma","closeddate":"8/24/2012 0:00","isclosed":"FALSE","geo_score":0.902,"id":"a7i9qnoncz32","filenumber":"484169","filetransactiontype":"Escrow Only","escrowofficername":"Margaret Basques","titleunit":"LandSafe Title","referringcustomer":"LandSafe_CA","primarycurativetech":"Unassigned","contract in task":"Contract In Tasks","secondarycurativetech":"Unassigned","branchoffice":"Santa Rosa","isescalated":"FALSE","address":"3609 Sumatra Drive","propertyaddressline2":null,"filenotes":"old file # 466691","geo_precision":"range","state":"California"},"type":"Feature","geometry":{"type":"Point","coordinates":[-122.751259,38.479266]}},{"properties":{"city":"Castro Valley","createddate":"7/20/2012 10:18","iscurativefile":"FALSE","zip":"94546","openeddate":"7/20/2012 0:00","referringcustomerfilenumber":"12-0016141","outofstatestatus":"Not Applicable","task completed date":"7/20/2012","region":"North Northern California","countyname":"Alameda","closeddate":"7/31/2012 0:00","isclosed":"FALSE","geo_score":0.902,"id":"a7i9qnp1ez7f","filenumber":"484172","filetransactiontype":"Escrow Only","escrowofficername":"Arlene VanCraeynest","titleunit":"LandSafe Title","referringcustomer":"LandSafe_CA","primarycurativetech":"Unassigned","contract in task":"Contract In Tasks","secondarycurativetech":"Unassigned","branchoffice":"Mill Valley","isescalated":"FALSE","address":"19550 Redwood Rd","propertyaddressline2":null,"filenotes":null,"geo_precision":"range","state":"California"},"type":"Feature","geometry":{"type":"Point","coordinates":[-122.074012,37.704331]}},{"properties":{"city":"Santa Barbara","createddate":"7/20/2012 10:55","iscurativefile":"FALSE","zip":"93101","openeddate":"7/20/2012 0:00","referringcustomerfilenumber":"12-0067100","outofstatestatus":"Not Applicable","task completed date":"7/20/2012","region":"Central California","countyname":"Santa Barbara","closeddate":"8/24/2012 0:00","isclosed":"FALSE","geo_score":0.84,"id":"a7i9qnm3n9ri","filenumber":"484173","filetransactiontype":"Escrow Only","escrowofficername":"Jennifer Navarro","titleunit":"LandSafe Title","referringcustomer":"LandSafe_CA","primarycurativetech":"Unassigned","contract in task":"Contract In Tasks","secondarycurativetech":"Unassigned","branchoffice":"Bakersfield","isescalated":"FALSE","address":"809 W Pedregosa","propertyaddressline2":null,"filenotes":null,"geo_precision":"range","state":"California"},"type":"Feature","geometry":{"type":"Point","coordinates":[-119.723387,34.420445]}},{"properties":{"city":"Watsonville","createddate":"7/20/2012 13:26","iscurativefile":"FALSE","zip":"95076","openeddate":"7/20/2012 0:00","referringcustomerfilenumber":"11-0117319","outofstatestatus":"Not Applicable","task completed date":"7/20/2012","region":"South Northern California","countyname":"Monterey","closeddate":"8/24/2012 0:00","isclosed":"FALSE","geo_score":0.902,"id":"a7i9qnngyt7n","filenumber":"484267","filetransactiontype":"Title &amp; Escrow","escrowofficername":"Gina Gemma","titleunit":"CA CPU Title-Kevin","referringcustomer":"LandSafe_CA","primarycurativetech":"Unassigned","contract in task":"Contract In Tasks","secondarycurativetech":"Unassigned","branchoffice":"Los Gatos","isescalated":"FALSE","address":"28 Live Oak Rd","propertyaddressline2":null,"filenotes":null,"geo_precision":"range","state":"California"},"type":"Feature","geometry":{"type":"Point","coordinates":[-121.704023,36.853606]}},{"properties":{"city":"La Mesa","createddate":"7/20/2012 14:46","iscurativefile":"FALSE","zip":"91942","openeddate":"7/20/2012 0:00","referringcustomerfilenumber":"12-0086174","outofstatestatus":"Not Applicable","task completed date":"7/20/2012","region":"So. California","countyname":"San Diego","closeddate":"8/17/2012 0:00","isclosed":"FALSE","geo_score":0.902,"id":"a7i9qnp19lp5","filenumber":"484308","filetransactiontype":"Escrow Only","escrowofficername":"(Cindy) Cynthia Furphy","titleunit":"LandSafe Title","referringcustomer":"LandSafe_CA","primarycurativetech":"Unassigned","contract in task":"Contract In Tasks","secondarycurativetech":"Unassigned","branchoffice":"La Mesa","isescalated":"FALSE","address":"8470 Zeta St","propertyaddressline2":null,"filenotes":null,"geo_precision":"range","state":"California"},"type":"Feature","geometry":{"type":"Point","coordinates":[-117.016235,32.783797]}},{"properties":{"city":"Richmond","createddate":"7/20/2012 16:45","iscurativefile":"FALSE","zip":"94806","openeddate":"7/20/2012 0:00","referringcustomerfilenumber":"11-0075621","outofstatestatus":"Not Applicable","task completed date":"7/20/2012","region":"North Northern California","countyname":"Contra Costa","closeddate":"8/24/2012 0:00","isclosed":"FALSE","geo_score":0.799,"id":"a7i9qnpwzqi7","filenumber":"484346","filetransactiontype":"Escrow Only","escrowofficername":"Rheanna Gieseking","titleunit":"LandSafe Title","referringcustomer":"LandSafe_CA","primarycurativetech":"Unassigned","contract in task":"Contract In Tasks","secondarycurativetech":"Unassigned","branchoffice":"Danville","isescalated":"FALSE","address":"2629 Meadow Crest Ct","propertyaddressline2":null,"filenotes":null,"geo_precision":"range","state":"California"},"type":"Feature","geometry":{"type":"Point","coordinates":[-122.335944,37.97989]}},{"properties":{"city":"Los Angeles","createddate":"7/20/2012 16:49","iscurativefile":"FALSE","zip":"90016","openeddate":"7/20/2012 0:00","referringcustomerfilenumber":"12-0018901","outofstatestatus":"Not Applicable","task completed date":"7/20/2012","region":"Los Angeles - Ventura California","countyname":"Los Angeles","closeddate":"8/3/2012 0:00","isclosed":"FALSE","geo_score":0.902,"id":"a7i9qngvarg5","filenumber":"484349","filetransactiontype":"Escrow Only","escrowofficername":"Angela Hum","titleunit":"LandSafe Title","referringcustomer":"LandSafe_CA","primarycurativetech":"Unassigned","contract in task":"Contract In Tasks","secondarycurativetech":"Unassigned","branchoffice":"Glendale","isescalated":"FALSE","address":"2320 S Genesee Ave","propertyaddressline2":null,"filenotes":null,"geo_precision":"range","state":"California"},"type":"Feature","geometry":{"type":"Point","coordinates":[-118.368155,34.038154]}},{"properties":{"city":"Ventura","createddate":"7/20/2012 16:53","iscurativefile":"FALSE","zip":"93004","openeddate":"7/20/2012 0:00","referringcustomerfilenumber":"12-0015281","outofstatestatus":"Not Applicable","task completed date":"7/20/2012","region":"Los Angeles - Ventura California","countyname":"Ventura","closeddate":"9/7/2012 0:00","isclosed":"FALSE","geo_score":0.488,"id":"a7i9qngb2y5n","filenumber":"484354","filetransactiontype":"Escrow Only","escrowofficername":"Araceli De Lara-Michel","titleunit":"LandSafe Title","referringcustomer":"LandSafe_CA","primarycurativetech":"Unassigned","contract in task":"Contract In Tasks","secondarycurativetech":"Unassigned","branchoffice":"Ventura","isescalated":"FALSE","address":"1371 Bluebonnet Ave","propertyaddressline2":null,"filenotes":null,"geo_precision":"zip","state":"California"},"type":"Feature","geometry":{"type":"Point","coordinates":[-119.16509,34.278752]}},{"properties":{"city":"Tehachapi","createddate":"7/20/2012 18:05","iscurativefile":"FALSE","zip":"93561","openeddate":"7/20/2012 0:00","referringcustomerfilenumber":"12-0073375","outofstatestatus":"Not Applicable","task completed date":"7/20/2012","region":"Central California","countyname":"Kern","closeddate":"9/14/2012 0:00","isclosed":"FALSE","geo_score":0.78,"id":"a7i9qni79vbj","filenumber":"484401","filetransactiontype":"Escrow Only","escrowofficername":"Cindy Kohler","titleunit":"LandSafe Title","referringcustomer":"LandSafe_CA","primarycurativetech":"Unassigned","contract in task":"Contract In Tasks","secondarycurativetech":"Unassigned","branchoffice":"Bakersfield","isescalated":"FALSE","address":"18247 Alps Dr","propertyaddressline2":null,"filenotes":null,"geo_precision":"range","state":"California"},"type":"Feature","geometry":{"type":"Point","coordinates":[-118.54093,35.088165]}},{"properties":{"city":"Los Angeles","createddate":"7/20/2012 18:08","iscurativefile":"FALSE","zip":"91606","openeddate":"7/20/2012 0:00","referringcustomerfilenumber":"12-0010287","outofstatestatus":"Not Applicable","task completed date":"7/20/2012","region":"Los Angeles - Ventura California","countyname":"Los Angeles","closeddate":"7/27/2012 0:00","isclosed":"FALSE","geo_score":0.111,"id":"a7i9qnj6epgv","filenumber":"484413","filetransactiontype":"Escrow Only","escrowofficername":"Martha Gonzales","titleunit":"LandSafe Title","referringcustomer":"LandSafe_CA","primarycurativetech":"Unassigned","contract in task":"Contract In Tasks","secondarycurativetech":"Unassigned","branchoffice":"Glendale","isescalated":"FALSE","address":"6610 Clybourn Ave #11","propertyaddressline2":null,"filenotes":null,"geo_precision":"street","state":"California"},"type":"Feature","geometry":{"type":"Point","coordinates":[-118.358947,34.180026]}},{"properties":{"city":"Watsonville","createddate":"7/20/2012 18:11","iscurativefile":"FALSE","zip":"95076","openeddate":"7/20/2012 0:00","referringcustomerfilenumber":"12-0039492","outofstatestatus":"Not Applicable","task completed date":"7/20/2012","region":"South Northern California","countyname":"Santa Cruz","closeddate":"8/6/2012 0:00","isclosed":"FALSE","geo_score":0.902,"id":"a7i9qnpkcwpt","filenumber":"484418","filetransactiontype":"Escrow Only","escrowofficername":"Cher'e Rich","titleunit":"LandSafe Title","referringcustomer":"LandSafe_CA","primarycurativetech":"Unassigned","contract in task":"Contract In Tasks","secondarycurativetech":"Unassigned","branchoffice":"Capitola","isescalated":"FALSE","address":"239 Las Lomas Dr","propertyaddressline2":null,"filenotes":null,"geo_precision":"range","state":"California"},"type":"Feature","geometry":{"type":"Point","coordinates":[-121.734994,36.87674]}},{"properties":{"city":"Concord","createddate":"7/20/2012 18:38","iscurativefile":"FALSE","zip":"94518","openeddate":"7/20/2012 0:00","referringcustomerfilenumber":"11-0135676","outofstatestatus":"Not Applicable","task completed date":"7/20/2012","region":"North Northern California","countyname":"Contra Costa","closeddate":"7/20/2013 0:00","isclosed":"FALSE","geo_score":0.902,"id":"a7i9qnpc8za6","filenumber":"484435","filetransactiontype":"Escrow Only","escrowofficername":"Rheanna Gieseking","titleunit":"LandSafe Title","referringcustomer":"LandSafe_CA","primarycurativetech":"Unassigned","contract in task":"Contract In Tasks","secondarycurativetech":"Unassigned","branchoffice":"Danville","isescalated":"FALSE","address":"100 Homewood Dr","propertyaddressline2":null,"filenotes":null,"geo_precision":"range","state":"California"},"type":"Feature","geometry":{"type":"Point","coordinates":[-122.024058,37.957358]}},{"properties":{"city":"San Bernardino","createddate":"7/23/2012 9:56","iscurativefile":"FALSE","zip":"92407","openeddate":"7/23/2012 0:00","referringcustomerfilenumber":"11-0125128","outofstatestatus":"Not Applicable","task completed date":"7/23/2012","region":"Inland Empire","countyname":"San Bernardino","closeddate":"8/3/2012 0:00","isclosed":"FALSE","geo_score":0.88,"id":"a7i9qnrkzjmq","filenumber":"484463","filetransactiontype":"Escrow Only","escrowofficername":"Patti Black","titleunit":"LandSafe Title","referringcustomer":"LandSafe_CA","primarycurativetech":"Unassigned","contract in task":"Contract In Tasks","secondarycurativetech":"Unassigned","branchoffice":"Redlands","isescalated":"FALSE","address":"3674 Ridge Line Dr","propertyaddressline2":null,"filenotes":null,"geo_precision":"range","state":"California"},"type":"Feature","geometry":{"type":"Point","coordinates":[-117.301748,34.159359]}},{"properties":{"city":"Vacaville","createddate":"7/23/2012 10:06","iscurativefile":"FALSE","zip":"95687","openeddate":"7/23/2012 0:00","referringcustomerfilenumber":"12-0102574","outofstatestatus":"Not Applicable","task completed date":"7/23/2012","region":"North Northern California","countyname":"Solano","closeddate":"8/10/2012 0:00","isclosed":"FALSE","geo_score":0.902,"id":"a7i9qne1q9v2","filenumber":"484467","filetransactiontype":"Escrow Only","escrowofficername":"Rheanna Gieseking","titleunit":"LandSafe Title","referringcustomer":"LandSafe_CA","primarycurativetech":"Unassigned","contract in task":"Contract In Tasks","secondarycurativetech":"Unassigned","branchoffice":"Danville","isescalated":"FALSE","address":"326 Ponderosa Dr","propertyaddressline2":null,"filenotes":null,"geo_precision":"range","state":"California"},"type":"Feature","geometry":{"type":"Point","coordinates":[-121.944849,38.364052]}},{"properties":{"city":"South San Francisco","createddate":"7/23/2012 10:16","iscurativefile":"FALSE","zip":"94080","openeddate":"7/23/2012 0:00","referringcustomerfilenumber":"12-0023909","outofstatestatus":"Not Applicable","task completed date":"7/23/2012","region":"South Northern California","countyname":"San Mateo","closeddate":"8/10/2012 0:00","isclosed":"FALSE","geo_score":0.902,"id":"a7i9qnhv1kta","filenumber":"484469","filetransactiontype":"Escrow Only","escrowofficername":"Gina Gemma","titleunit":"LandSafe Title","referringcustomer":"LandSafe_CA","primarycurativetech":"Unassigned","contract in task":"Contract In Tasks","secondarycurativetech":"Unassigned","branchoffice":"Los Gatos","isescalated":"FALSE","address":"100 Randolph Ave","propertyaddressline2":null,"filenotes":null,"geo_precision":"range","state":"California"},"type":"Feature","geometry":{"type":"Point","coordinates":[-122.404261,37.6651]}},{"properties":{"city":"Encinitas","createddate":"7/23/2012 12:10","iscurativefile":"FALSE","zip":"92024","openeddate":"7/23/2012 0:00","referringcustomerfilenumber":"11-0110258","outofstatestatus":"Not Applicable","task completed date":"7/23/2012","region":"So. California","countyname":"San Diego","closeddate":"8/7/2012 0:00","isclosed":"FALSE","geo_score":0.717,"id":"a7i9qnk2696c","filenumber":"484536","filetransactiontype":"Escrow Only","escrowofficername":"Irene Casey","titleunit":"LandSafe Title","referringcustomer":"LandSafe_CA","primarycurativetech":"Unassigned","contract in task":"Contract In Tasks","secondarycurativetech":"Unassigned","branchoffice":"Carlsbad","isescalated":"FALSE","address":"197 Pacific View Lane","propertyaddressline2":null,"filenotes":null,"geo_precision":"street","state":"California"},"type":"Feature","geometry":{"type":"Point","coordinates":[-117.281745,33.052158]}},{"properties":{"city":"Guadalupe","createddate":"7/23/2012 13:25","iscurativefile":"FALSE","zip":"93434","openeddate":"7/23/2012 0:00","referringcustomerfilenumber":null,"outofstatestatus":"Not Applicable","task completed date":"7/23/2012","region":"Central California","countyname":"Santa Barbara","closeddate":"8/28/2012 0:00","isclosed":"FALSE","geo_score":0.902,"id":"a7i9qnl72t0q","filenumber":"484585","filetransactiontype":"Escrow Only","escrowofficername":"Cindy Kohler","titleunit":"LandSafe Title","referringcustomer":"LandSafe_CA","primarycurativetech":"Unassigned","contract in task":"Contract In Tasks","secondarycurativetech":"Unassigned","branchoffice":"Bakersfield","isescalated":"FALSE","address":"5196 Surf Bird Ln","propertyaddressline2":null,"filenotes":null,"geo_precision":"range","state":"California"},"type":"Feature","geometry":{"type":"Point","coordinates":[-120.586115,34.960207]}},{"properties":{"city":"Los Angeles","createddate":"7/24/2012 10:17","iscurativefile":"FALSE","zip":"90042","openeddate":"7/24/2012 0:00","referringcustomerfilenumber":"12-0006735","outofstatestatus":"Not Applicable","task completed date":"7/24/2012","region":"Los Angeles - Ventura California","countyname":"Los Angeles","closeddate":"8/10/2012 0:00","isclosed":"FALSE","geo_score":0.902,"id":"a7i9qnea8wub","filenumber":"484829","filetransactiontype":"Escrow Only","escrowofficername":"Mary Schenuk","titleunit":"LandSafe Title","referringcustomer":"LandSafe_CA","primarycurativetech":"Unassigned","contract in task":"Contract In Tasks","secondarycurativetech":"Unassigned","branchoffice":"Glendale","isescalated":"FALSE","address":"6238 Aldama St","propertyaddressline2":null,"filenotes":null,"geo_precision":"range","state":"California"},"type":"Feature","geometry":{"type":"Point","coordinates":[-118.188867,34.119323]}},{"properties":{"city":"Discovery Bay","createddate":"7/24/2012 12:47","iscurativefile":"FALSE","zip":"94505","openeddate":"7/24/2012 0:00","referringcustomerfilenumber":"12-0000243","outofstatestatus":"Not Applicable","task completed date":"7/24/2012","region":"North Northern California","countyname":"Contra Costa","closeddate":"8/20/2012 0:00","isclosed":"FALSE","geo_score":0.557,"id":"a7i9qnif04h1","filenumber":"484895","filetransactiontype":"Escrow Only","escrowofficername":"Rheanna Gieseking","titleunit":"LandSafe Title","referringcustomer":"LandSafe_CA","primarycurativetech":"Unassigned","contract in task":"Contract In Tasks","secondarycurativetech":"Unassigned","branchoffice":"Danville","isescalated":"FALSE","address":"5615 Arcadia Circle","propertyaddressline2":null,"filenotes":null,"geo_precision":"street","state":"California"},"type":"Feature","geometry":{"type":"Point","coordinates":[-122.822521,48.096032]}},{"properties":{"city":"Riverside","createddate":"7/25/2012 9:05","iscurativefile":"FALSE","zip":"92501","openeddate":"7/25/2012 0:00","referringcustomerfilenumber":"11-0102166","outofstatestatus":"Not Applicable","task completed date":"7/25/2012","region":"Inland Empire","countyname":"Riverside","closeddate":"8/10/2012 0:00","isclosed":"FALSE","geo_score":0.902,"id":"a7i9qnj1flk5","filenumber":"485136","filetransactiontype":"Escrow Only","escrowofficername":"Nyna Ensign","titleunit":"LandSafe Title","referringcustomer":"LandSafe_CA","primarycurativetech":"Unassigned","contract in task":"Contract In Tasks","secondarycurativetech":"Unassigned","branchoffice":"Riverside","isescalated":"FALSE","address":"4162 University Ave","propertyaddressline2":null,"filenotes":null,"geo_precision":"range","state":"California"},"type":"Feature","geometry":{"type":"Point","coordinates":[-117.379734,33.984255]}},{"properties":{"city":"San Dimas","createddate":"7/25/2012 9:18","iscurativefile":"FALSE","zip":"91773","openeddate":"7/25/2012 0:00","referringcustomerfilenumber":"12-0022547","outofstatestatus":"Not Applicable","task completed date":"7/25/2012","region":"Los Angeles - Ventura California","countyname":"Los Angeles","closeddate":"9/6/2012 0:00","isclosed":"FALSE","geo_score":0.902,"id":"a7i9qnihhk3a","filenumber":"485137","filetransactiontype":"Escrow Only","escrowofficername":"Julie Mayorga","titleunit":"LandSafe Title","referringcustomer":"LandSafe_CA","primarycurativetech":"Unassigned","contract in task":"Contract In Tasks","secondarycurativetech":"Unassigned","branchoffice":"City of Industry","isescalated":"FALSE","address":"744 North Northcape Ave","propertyaddressline2":null,"filenotes":null,"geo_precision":"range","state":"California"},"type":"Feature","geometry":{"type":"Point","coordinates":[-117.801108,34.115123]}},{"properties":{"city":"Victorville","createddate":"7/25/2012 10:00","iscurativefile":"FALSE","zip":"92395","openeddate":"7/25/2012 0:00","referringcustomerfilenumber":"12-0096666","outofstatestatus":"Not Applicable","task completed date":"7/25/2012","region":"Inland Empire","countyname":"San Bernardino","closeddate":"8/16/2012 0:00","isclosed":"FALSE","geo_score":0.503,"id":"a7i9qnqhm6w9","filenumber":"485140","filetransactiontype":"Escrow Only","escrowofficername":"Diana Price","titleunit":"LandSafe Title","referringcustomer":"LandSafe_CA","primarycurativetech":"Unassigned","contract in task":"Contract In Tasks","secondarycurativetech":"Unassigned","branchoffice":"Victorville","isescalated":"FALSE","address":"16322 Cabrillo Dr","propertyaddressline2":null,"filenotes":null,"geo_precision":"street","state":"California"},"type":"Feature","geometry":{"type":"Point","coordinates":[-117.364321,34.452318]}},{"properties":{"city":"Chula Vista","createddate":"7/25/2012 10:33","iscurativefile":"FALSE","zip":"91914","openeddate":"7/25/2012 0:00","referringcustomerfilenumber":"11-0121716","outofstatestatus":"Not Applicable","task completed date":"7/25/2012","region":"So. California","countyname":"San Diego","closeddate":"8/27/2012 0:00","isclosed":"FALSE","geo_score":0.555,"id":"a7i9qnowpuov","filenumber":"485142","filetransactiontype":"Escrow Only","escrowofficername":"Christine Waider","titleunit":"LandSafe Title","referringcustomer":"LandSafe_CA","primarycurativetech":"Unassigned","contract in task":"Contract In Tasks","secondarycurativetech":"Unassigned","branchoffice":"Mission Valley","isescalated":"FALSE","address":"2509 Trail Marker Pl","propertyaddressline2":null,"filenotes":null,"geo_precision":"range","state":"California"},"type":"Feature","geometry":{"type":"Point","coordinates":[-117.045141,32.735098]}},{"properties":{"city":"Hayward","createddate":"7/25/2012 10:43","iscurativefile":"FALSE","zip":"94541","openeddate":"7/25/2012 0:00","referringcustomerfilenumber":"11-0104736","outofstatestatus":"Not Applicable","task completed date":"7/25/2012","region":"North Northern California","countyname":"Alameda","closeddate":"8/23/2012 0:00","isclosed":"FALSE","geo_score":0.902,"id":"a7i9qnf6vjg0","filenumber":"485180","filetransactiontype":"Escrow Only","escrowofficername":"Rheanna Gieseking","titleunit":"LandSafe Title","referringcustomer":"LandSafe_CA","primarycurativetech":"Unassigned","contract in task":"Contract In Tasks","secondarycurativetech":"Unassigned","branchoffice":"Danville","isescalated":"FALSE","address":"153-155 Poplar Ave","propertyaddressline2":null,"filenotes":null,"geo_precision":"range","state":"California"},"type":"Feature","geometry":{"type":"Point","coordinates":[-122.099959,37.671493]}},{"properties":{"city":"Long Beach","createddate":"7/25/2012 11:43","iscurativefile":"FALSE","zip":"90815","openeddate":"7/25/2012 0:00","referringcustomerfilenumber":"12-0102573","outofstatestatus":"Not Applicable","task completed date":"7/25/2012","region":"Los Angeles - Ventura California","countyname":"Los Angeles","closeddate":"8/27/2012 0:00","isclosed":"FALSE","geo_score":0.464,"id":"a7i9qngz8vou","filenumber":"485223","filetransactiontype":"Escrow Only","escrowofficername":"Angela Hum","titleunit":"LandSafe Title","referringcustomer":"LandSafe_CA","primarycurativetech":"Unassigned","contract in task":"Contract In Tasks","secondarycurativetech":"Unassigned","branchoffice":"Glendale","isescalated":"FALSE","address":"4161 Hathaway Ave, Unit 40","propertyaddressline2":null,"filenotes":null,"geo_precision":"street","state":"California"},"type":"Feature","geometry":{"type":"Point","coordinates":[-118.149439,33.795092]}},{"properties":{"city":"Indio","createddate":"7/25/2012 16:22","iscurativefile":"FALSE","zip":"92201","openeddate":"7/25/2012 0:00","referringcustomerfilenumber":"12-0008660","outofstatestatus":"Not Applicable","task completed date":"7/25/2012","region":"Inland Empire","countyname":"Riverside","closeddate":"8/24/2012 0:00","isclosed":"FALSE","geo_score":0.902,"id":"a7i9qncihzaw","filenumber":"485358","filetransactiontype":"Escrow Only","escrowofficername":"Cindy (Cynthia) Solomon (Goodgion)","titleunit":"LandSafe Title","referringcustomer":"LandSafe_CA","primarycurativetech":"Unassigned","contract in task":"Contract In Tasks","secondarycurativetech":"Unassigned","branchoffice":"Palm Desert","isescalated":"FALSE","address":"81591 San Luis Ct","propertyaddressline2":null,"filenotes":null,"geo_precision":"range","state":"California"},"type":"Feature","geometry":{"type":"Point","coordinates":[-116.241117,33.717184]}},{"properties":{"city":"Moreno Valley","createddate":"7/26/2012 9:25","iscurativefile":"FALSE","zip":"92555","openeddate":"7/26/2012 0:00","referringcustomerfilenumber":"12-0079743","outofstatestatus":"Not Applicable","task completed date":"7/26/2012","region":"Inland Empire","countyname":"Riverside","closeddate":"8/16/2012 0:00","isclosed":"FALSE","geo_score":0.429,"id":"a7i9qnq32i59","filenumber":"485514","filetransactiontype":"Escrow Only","escrowofficername":"Nicoloa Ames","titleunit":"LandSafe Title","referringcustomer":"LandSafe_CA","primarycurativetech":"Unassigned","contract in task":"Contract In Tasks","secondarycurativetech":"Unassigned","branchoffice":"Riverside","isescalated":"FALSE","address":"27880 John F Kennedy Drive, C","propertyaddressline2":null,"filenotes":null,"geo_precision":"street","state":"California"},"type":"Feature","geometry":{"type":"Point","coordinates":[-117.208891,33.902826]}},{"properties":{"city":"Lakewood","createddate":"7/26/2012 9:43","iscurativefile":"FALSE","zip":"90712","openeddate":"7/26/2012 0:00","referringcustomerfilenumber":"11-0110143","outofstatestatus":"Not Applicable","task completed date":"7/26/2012","region":"Los Angeles - Ventura California","countyname":"Los Angeles","closeddate":"8/24/2012 0:00","isclosed":"FALSE","geo_score":0.902,"id":"a7i9qnlmitun","filenumber":"485516","filetransactiontype":"Escrow Only","escrowofficername":"Angela Hum","titleunit":"LandSafe Title","referringcustomer":"LandSafe_CA","primarycurativetech":"Unassigned","contract in task":"Contract In Tasks","secondarycurativetech":"Unassigned","branchoffice":"Glendale","isescalated":"FALSE","address":"2717 Dashwood St","propertyaddressline2":null,"filenotes":null,"geo_precision":"range","state":"California"},"type":"Feature","geometry":{"type":"Point","coordinates":[-118.156767,33.851682]}},{"properties":{"city":"Carson","createddate":"7/26/2012 10:01","iscurativefile":"FALSE","zip":"90746","openeddate":"7/26/2012 0:00","referringcustomerfilenumber":"11-0117331","outofstatestatus":"Not Applicable","task completed date":"7/26/2012","region":"Los Angeles - Ventura California","countyname":"Los Angeles","closeddate":"8/20/2012 0:00","isclosed":"FALSE","geo_score":0.902,"id":"a7i9qndii9er","filenumber":"485517","filetransactiontype":"Escrow Only","escrowofficername":"Adriana Ponce","titleunit":"LandSafe Title","referringcustomer":"LandSafe_CA","primarycurativetech":"Unassigned","contract in task":"Contract In Tasks","secondarycurativetech":"Unassigned","branchoffice":"City of Industry","isescalated":"FALSE","address":"19315 Dunbrooke Ave","propertyaddressline2":null,"filenotes":null,"geo_precision":"range","state":"California"},"type":"Feature","geometry":{"type":"Point","coordinates":[-118.265032,33.854356]}},{"properties":{"city":"Loma Linda","createddate":"7/26/2012 10:11","iscurativefile":"FALSE","zip":"92354","openeddate":"7/26/2012 0:00","referringcustomerfilenumber":"12-0031057","outofstatestatus":"Not Applicable","task completed date":"7/26/2012","region":"Inland Empire","countyname":"San Bernardino","closeddate":"8/31/2012 0:00","isclosed":"FALSE","geo_score":0.902,"id":"a7i9qnri5l9u","filenumber":"485519","filetransactiontype":"Escrow Only","escrowofficername":"Patti Black","titleunit":"LandSafe Title","referringcustomer":"LandSafe_CA","primarycurativetech":"Unassigned","contract in task":"Contract In Tasks","secondarycurativetech":"Unassigned","branchoffice":"Redlands","isescalated":"FALSE","address":"11811 Columbia Ct","propertyaddressline2":null,"filenotes":null,"geo_precision":"range","state":"California"},"type":"Feature","geometry":{"type":"Point","coordinates":[-117.221421,34.038277]}},{"properties":{"city":"Victorville","createddate":"7/26/2012 10:30","iscurativefile":"FALSE","zip":"92394","openeddate":"7/26/2012 0:00","referringcustomerfilenumber":"12-0032751","outofstatestatus":"Not Applicable","task completed date":"7/26/2012","region":"Inland Empire","countyname":"San Bernardino","closeddate":"7/13/2012 0:00","isclosed":"FALSE","geo_score":0.634,"id":"a7i9qnkubdv2","filenumber":"485536","filetransactiontype":"Escrow Only","escrowofficername":"Julie Kruger","titleunit":"LandSafe Title","referringcustomer":"LandSafe_CA","primarycurativetech":"Unassigned","contract in task":"Contract In Tasks","secondarycurativetech":"Unassigned","branchoffice":"Victorville","isescalated":"FALSE","address":"14574 Adobe Pl","propertyaddressline2":null,"filenotes":null,"geo_precision":"street","state":"California"},"type":"Feature","geometry":{"type":"Point","coordinates":[-117.277417,34.405101]}},{"properties":{"city":"Paradise","createddate":"7/26/2012 10:42","iscurativefile":"FALSE","zip":"95969","openeddate":"7/26/2012 0:00","referringcustomerfilenumber":"11-0055887","outofstatestatus":"Not Applicable","task completed date":"7/26/2012","region":"South Northern California","countyname":"Butte","closeddate":"8/20/2012 0:00","isclosed":"FALSE","geo_score":0.902,"id":"a7i9qnpfnzux","filenumber":"485538","filetransactiontype":"Title &amp; Escrow","escrowofficername":"Diane Oliveira-Medina","titleunit":"CA CPU Title-Kevin","referringcustomer":"LandSafe_CA","primarycurativetech":"Unassigned","contract in task":"Contract In Tasks","secondarycurativetech":"Unassigned","branchoffice":"Turlock","isescalated":"FALSE","address":"5613 Gramercy Pl","propertyaddressline2":null,"filenotes":null,"geo_precision":"range","state":"California"},"type":"Feature","geometry":{"type":"Point","coordinates":[-121.606568,39.750881]}},{"properties":{"city":"Bakersfield","createddate":"7/26/2012 11:44","iscurativefile":"FALSE","zip":"93308","openeddate":"7/26/2012 0:00","referringcustomerfilenumber":"12-0031057","outofstatestatus":"Not Applicable","task completed date":"7/26/2012","region":"Central California","countyname":"Kern","closeddate":"9/15/2012 0:00","isclosed":"FALSE","geo_score":0.902,"id":"a7i9qnjf5ivr","filenumber":"485565","filetransactiontype":"Escrow Only","escrowofficername":"Jennifer Navarro","titleunit":"LandSafe Title","referringcustomer":"LandSafe_CA","primarycurativetech":"Unassigned","contract in task":"Contract In Tasks","secondarycurativetech":"Unassigned","branchoffice":"Bakersfield","isescalated":"FALSE","address":"207 Oildale Dr","propertyaddressline2":null,"filenotes":null,"geo_precision":"range","state":"California"},"type":"Feature","geometry":{"type":"Point","coordinates":[-119.030001,35.408534]}},{"properties":{"city":"Santa Barbara","createddate":"7/26/2012 14:30","iscurativefile":"FALSE","zip":"93101","openeddate":"7/26/2012 0:00","referringcustomerfilenumber":"11-0104736","outofstatestatus":"Not Applicable","task completed date":"7/26/2012","region":"Central California","countyname":"Santa Barbara","closeddate":"8/24/2012 0:00","isclosed":"FALSE","geo_score":0.902,"id":"a7i9qnnlro4y","filenumber":"485629","filetransactiontype":"Escrow Only","escrowofficername":"Mary Curry","titleunit":"LandSafe Title","referringcustomer":"LandSafe_CA","primarycurativetech":"Unassigned","contract in task":"Contract In Tasks","secondarycurativetech":"Unassigned","branchoffice":"Bakersfield","isescalated":"FALSE","address":"1816 Chino St","propertyaddressline2":null,"filenotes":null,"geo_precision":"range","state":"California"},"type":"Feature","geometry":{"type":"Point","coordinates":[-119.722176,34.421363]}},{"properties":{"city":"Windsor","createddate":"7/26/2012 14:48","iscurativefile":"FALSE","zip":"95492","openeddate":"7/26/2012 0:00","referringcustomerfilenumber":"12-0008660","outofstatestatus":"Not Applicable","task completed date":"7/26/2012","region":"North Northern California","countyname":"Sonoma","closeddate":"9/7/2012 0:00","isclosed":"FALSE","geo_score":0.902,"id":"a7i9qnkexuh2","filenumber":"485641","filetransactiontype":"Escrow Only","escrowofficername":"Margaret Basques","titleunit":"LandSafe Title","referringcustomer":"LandSafe_CA","primarycurativetech":"Unassigned","contract in task":"Contract In Tasks","secondarycurativetech":"Unassigned","branchoffice":"Santa Rosa","isescalated":"FALSE","address":"9833 Blasi Dr","propertyaddressline2":null,"filenotes":null,"geo_precision":"range","state":"California"},"type":"Feature","geometry":{"type":"Point","coordinates":[-122.817204,38.557071]}},{"properties":{"city":"Fresno","createddate":"7/26/2012 15:12","iscurativefile":"FALSE","zip":"93703","openeddate":"7/26/2012 0:00","referringcustomerfilenumber":"11-0117331","outofstatestatus":"Not Applicable","task completed date":"7/26/2012","region":"Central California","countyname":"Fresno","closeddate":"8/10/2012 0:00","isclosed":"FALSE","geo_score":0.902,"id":"a7i9qnrepkrv","filenumber":"485644","filetransactiontype":"Escrow Only","escrowofficername":"Claudia Froelich","titleunit":"LandSafe Title","referringcustomer":"LandSafe_CA","primarycurativetech":"Unassigned","contract in task":"Contract In Tasks","secondarycurativetech":"Unassigned","branchoffice":"Fresno","isescalated":"FALSE","address":"2936 North Rowell Ave","propertyaddressline2":null,"filenotes":null,"geo_precision":"range","state":"California"},"type":"Feature","geometry":{"type":"Point","coordinates":[-119.751582,36.776519]}},{"properties":{"city":"Los Angeles","createddate":"7/26/2012 16:52","iscurativefile":"FALSE","zip":"90047","openeddate":"7/26/2012 0:00","referringcustomerfilenumber":"11-0055887","outofstatestatus":"Not Applicable","task completed date":"7/26/2012","region":"Los Angeles - Ventura California","countyname":"Los Angeles","closeddate":"9/10/2012 0:00","isclosed":"FALSE","geo_score":0.902,"id":"a7i9qno75sp3","filenumber":"485659","filetransactiontype":"Escrow Only","escrowofficername":"Julie Mayorga","titleunit":"LandSafe Title","referringcustomer":"LandSafe_CA","primarycurativetech":"Unassigned","contract in task":"Contract In Tasks","secondarycurativetech":"Unassigned","branchoffice":"City of Industry","isescalated":"FALSE","address":"1436 West 106th St","propertyaddressline2":null,"filenotes":null,"geo_precision":"range","state":"California"},"type":"Feature","geometry":{"type":"Point","coordinates":[-118.303991,33.939964]}},{"properties":{"city":"Escondido","createddate":"7/26/2012 17:05","iscurativefile":"FALSE","zip":"92027","openeddate":"7/26/2012 0:00","referringcustomerfilenumber":"12-0032751","outofstatestatus":"Not Applicable","task completed date":"7/26/2012","region":"So. California","countyname":"San Diego","closeddate":"8/15/2012 0:00","isclosed":"FALSE","geo_score":0.902,"id":"a7i9qnq1h6jp","filenumber":"485692","filetransactiontype":"Escrow Only","escrowofficername":"Irene Casey","titleunit":"LandSafe Title","referringcustomer":"LandSafe_CA","primarycurativetech":"Unassigned","contract in task":"Contract In Tasks","secondarycurativetech":"Unassigned","branchoffice":"Carlsbad","isescalated":"FALSE","address":"1050 Erica St","propertyaddressline2":null,"filenotes":null,"geo_precision":"range","state":"California"},"type":"Feature","geometry":{"type":"Point","coordinates":[-117.062677,33.148121]}},{"properties":{"city":"Chula Vista","createddate":"7/27/2012 10:48","iscurativefile":"FALSE","zip":"91913","openeddate":"7/27/2012 0:00","referringcustomerfilenumber":"12-0079743","outofstatestatus":"Not Applicable","task completed date":"7/27/2012","region":"So. California","countyname":"San Diego","closeddate":"9/24/2012 0:00","isclosed":"FALSE","geo_score":0.571,"id":"a7i9qnpaq7m1","filenumber":"485828","filetransactiontype":"Escrow Only","escrowofficername":"Christine Waider","titleunit":"LandSafe Title","referringcustomer":"LandSafe_CA","primarycurativetech":"Unassigned","contract in task":"Contract In Tasks","secondarycurativetech":"Unassigned","branchoffice":"Mission Valley","isescalated":"FALSE","address":"1380 Vista Sonrisa Ave","propertyaddressline2":null,"filenotes":null,"geo_precision":"street","state":"California"},"type":"Feature","geometry":{"type":"Point","coordinates":[-116.982392,32.629672]}},{"properties":{"city":"Oakland","createddate":"7/27/2012 11:07","iscurativefile":"FALSE","zip":"94601","openeddate":"7/27/2012 0:00","referringcustomerfilenumber":"12-0023944","outofstatestatus":"Not Applicable","task completed date":"7/27/2012","region":"North Northern California","countyname":"Alameda","closeddate":"8/24/2012 0:00","isclosed":"FALSE","geo_score":0.829,"id":"a7i9qngnblp2","filenumber":"485839","filetransactiontype":"Escrow Only","escrowofficername":"Rheanna Gieseking","titleunit":"LandSafe Title","referringcustomer":"LandSafe_CA","primarycurativetech":"Unassigned","contract in task":"Contract In Tasks","secondarycurativetech":"Unassigned","branchoffice":"Danville","isescalated":"FALSE","address":"1238 50th Ave","propertyaddressline2":null,"filenotes":null,"geo_precision":"range","state":"California"},"type":"Feature","geometry":{"type":"Point","coordinates":[-122.209049,37.768969]}},{"properties":{"city":"Sacramento","createddate":"7/27/2012 11:42","iscurativefile":"FALSE","zip":"95823","openeddate":"7/27/2012 0:00","referringcustomerfilenumber":"12-0102568","outofstatestatus":"Not Applicable","task completed date":"7/27/2012","region":"South Northern California","countyname":"Sacramento","closeddate":"8/24/2012 0:00","isclosed":"FALSE","geo_score":0.415,"id":"a7i9qnsz0892","filenumber":"485844","filetransactiontype":"Escrow Only","escrowofficername":"Denise Fall","titleunit":"LandSafe Title","referringcustomer":"LandSafe_CA","primarycurativetech":"Unassigned","contract in task":"Contract In Tasks","secondarycurativetech":"Unassigned","branchoffice":"Modesto","isescalated":"FALSE","address":"8268 Center Parkway, 108","propertyaddressline2":null,"filenotes":null,"geo_precision":"street","state":"California"},"type":"Feature","geometry":{"type":"Point","coordinates":[-121.452233,38.492342]}},{"properties":{"city":"Woodland","createddate":"7/27/2012 12:40","iscurativefile":"FALSE","zip":"95776","openeddate":"7/27/2012 0:00","referringcustomerfilenumber":"12-0102573","outofstatestatus":"Not Applicable","task completed date":"7/27/2012","region":"South Northern California","countyname":"Yolo","closeddate":"9/14/2012 0:00","isclosed":"FALSE","geo_score":0.902,"id":"a7i9qnmi6rru","filenumber":"485855","filetransactiontype":"Title &amp; Escrow","escrowofficername":"Holly Weston","titleunit":"CA CPU Title-Kevin","referringcustomer":"LandSafe_CA","primarycurativetech":"Unassigned","contract in task":"Contract In Tasks","secondarycurativetech":"Unassigned","branchoffice":"Turlock","isescalated":"FALSE","address":"923 Matmor Rd","propertyaddressline2":null,"filenotes":null,"geo_precision":"range","state":"California"},"type":"Feature","geometry":{"type":"Point","coordinates":[-121.75634,38.666273]}},{"properties":{"city":"Simi Valley","createddate":"7/27/2012 14:42","iscurativefile":"FALSE","zip":"93065","openeddate":"7/27/2012 0:00","referringcustomerfilenumber":"11-0114241","outofstatestatus":"Not Applicable","task completed date":"7/27/2012","region":"Los Angeles - Ventura California","countyname":"Ventura","closeddate":"8/23/2012 0:00","isclosed":"FALSE","geo_score":0.902,"id":"a7i9qnp116yl","filenumber":"485946","filetransactiontype":"Escrow Only","escrowofficername":"Araceli De Lara-Michel","titleunit":"LandSafe Title","referringcustomer":"LandSafe_CA","primarycurativetech":"Unassigned","contract in task":"Contract In Tasks","secondarycurativetech":"Unassigned","branchoffice":"Ventura","isescalated":"FALSE","address":"1249 El Monte Dr","propertyaddressline2":null,"filenotes":null,"geo_precision":"range","state":"California"},"type":"Feature","geometry":{"type":"Point","coordinates":[-118.785074,34.261765]}},{"properties":{"city":"Rancho Cordova","createddate":"7/27/2012 16:46","iscurativefile":"FALSE","zip":"95670","openeddate":"7/27/2012 0:00","referringcustomerfilenumber":"12-0006235","outofstatestatus":"Not Applicable","task completed date":"7/27/2012","region":"South Northern California","countyname":"Sacramento","closeddate":"9/12/2012 0:00","isclosed":"FALSE","geo_score":0.861,"id":"a7i9qnsm4w02","filenumber":"485994","filetransactiontype":"Escrow Only","escrowofficername":"Holly Weston","titleunit":"LandSafe Title","referringcustomer":"LandSafe_CA","primarycurativetech":"Unassigned","contract in task":"Contract In Tasks","secondarycurativetech":"Unassigned","branchoffice":"Turlock","isescalated":"FALSE","address":"11184 Kings River Ct","propertyaddressline2":null,"filenotes":null,"geo_precision":"range","state":"California"},"type":"Feature","geometry":{"type":"Point","coordinates":[-121.269776,38.626305]}},{"properties":{"city":"Los Angeles","createddate":"7/27/2012 16:58","iscurativefile":"FALSE","zip":"90022","openeddate":"7/27/2012 0:00","referringcustomerfilenumber":"11-0102701","outofstatestatus":"Not Applicable","task completed date":"7/27/2012","region":"Los Angeles - Ventura California","countyname":"Los Angeles","closeddate":"7/26/2012 0:00","isclosed":"FALSE","geo_score":0.902,"id":"a7i9qnncevxe","filenumber":"485997","filetransactiontype":"Escrow Only","escrowofficername":"Adriana Ponce","titleunit":"LandSafe Title","referringcustomer":"LandSafe_CA","primarycurativetech":"Unassigned","contract in task":"Contract In Tasks","secondarycurativetech":"Unassigned","branchoffice":"City of Industry","isescalated":"FALSE","address":"412 Fraser Ave","propertyaddressline2":null,"filenotes":null,"geo_precision":"range","state":"California"},"type":"Feature","geometry":{"type":"Point","coordinates":[-118.158944,34.028196]}}],"is_temporal":false,"author":{"url":null,"metadata":null,"contact_name":null,"contact_address":null,"source":null,"contact_phone":null},"source":null,"pagination":{"sort":null,"start":0,"total":165,"limit":1000000},"state":"complete","tags":"","published":"2014-08-14T20:50:02-04:00","id":264284}