{"type":"FeatureCollection","data_type":"Dataset","url_type":null,"permissions":[{"permissions":{"download":true,"view":true},"group_id":"everyone"}],"classification":null,"title":"FIXED Addresses of ICE Authorized over 72 hour Facilities List 2012 07 16","count":162,"stream_id":264276,"contributor":{"url":"http://geocommons.com/users/9945","name":"immigrantjustice"},"data_attributes":null,"calculation_params":null,"icon_link":null,"link":"http://geocommons.com/overlays/264276.json","extent":[-149.883,24.5755,-70.3137,61.3031],"geometry_types":["point"],"unique_name":null,"name":"FIXED Addresses of ICE Authorized over 72 hour Facilities List 2012 07 16","feature_count":162,"description":"","next_feature":null,"is_raster":false,"short_classification":"Y","stats":{"fy12 mc adp":{"max":1701,"variance":93540.341691588,"mean":195.864197530864,"stdev":305.843655634032,"min":0,"median":59}},"features":[{"properties":{"name":"ANCHORAGE CORRECTIONAL COMPLEX","city":"ANCHORAGE","st":"AK","zip":"99501","over/under 72":"OVER 72","aor":"SEA","type":"IGSA","fy12 mc adp":1,"geo_score":0.476,"detloc":"ANCHOAK","pbnds/nds":"NDS","id":"a7i9cc2fhr1u","address":"1400 E. 4TH AVE","geo_precision":"street"},"type":"Feature","geometry":{"type":"Point","coordinates":[-149.883275,61.218552]}},{"properties":{"name":"HILAND MOUNTAIN CORRECTIONAL CENTER","city":"EAGLE RIVER","st":"AK","zip":"99577","over/under 72":"OVER 72","aor":"SEA","type":"IGSA","fy12 mc adp":0,"geo_score":0.488,"detloc":"AKHIGHL","pbnds/nds":"NDS","id":"a7i9ccd2d14t","address":"9101 HESTERBERG ROAD","geo_precision":"zip"},"type":"Feature","geometry":{"type":"Point","coordinates":[-149.424518,61.303131]}},{"properties":{"name":"ETOWAH COUNTY JAIL (ALABAMA)","city":"GADSDEN","st":"AL","zip":"35901","over/under 72":"OVER 72","aor":"NOL","type":"IGSA","fy12 mc adp":313,"geo_score":0.902,"detloc":"ETOWAAL","pbnds/nds":"NDS","id":"a7i9cbwpmgqk","address":"827 FORREST AVENUE","geo_precision":"range"},"type":"Feature","geometry":{"type":"Point","coordinates":[-86.012632,34.016152]}},{"properties":{"name":"DEKALB COUNTY DETENTION CENTER","city":"FORT PAYNE","st":"AL","zip":"35968","over/under 72":"OVER 72","aor":"NOL","type":"IGSA","fy12 mc adp":44,"geo_score":0.577,"detloc":"DEKALAL","pbnds/nds":"NDS","id":"a7i9cc1qq84s","address":"2801 JORDAN ROAD","geo_precision":"street"},"type":"Feature","geometry":{"type":"Point","coordinates":[-86.022294,33.928059]}},{"properties":{"name":"ELOY FEDERAL CONTRACT FACILITY","city":"ELOY","st":"AZ","zip":"85131","over/under 72":"OVER 72","aor":"PHO","type":"IGSA","fy12 mc adp":1495,"geo_score":0.0,"detloc":"EAZ","pbnds/nds":"PBNDS","id":"a7i9ccc7q70p","address":null,"geo_precision":"unmatched"},"type":"Feature","geometry":null},{"properties":{"name":"PINAL COUNTY JAIL","city":"FLORENCE","st":"AZ","zip":"85132","over/under 72":"OVER 72","aor":"PHO","type":"IGSA","fy12 mc adp":455,"geo_score":0.0,"detloc":"PINALAZ","pbnds/nds":"NDS","id":"a7i9cc0ynmcd","address":null,"geo_precision":"unmatched"},"type":"Feature","geometry":null},{"properties":{"name":"FLORENCE SERVICE PROCESSING CENTER","city":"FLORENCE","st":"AZ","zip":"85132","over/under 72":"OVER 72","aor":"PHO","type":"SPC","fy12 mc adp":389,"geo_score":0.0,"detloc":"FLO","pbnds/nds":"PBNDS","id":"a7i9cc0yednh","address":null,"geo_precision":"unmatched"},"type":"Feature","geometry":null},{"properties":{"name":"CCA, FLORENCE CORRECTIONAL CENTER","city":"FLORENCE","st":"AZ","zip":"85132","over/under 72":"OVER 72","aor":"PHO","type":"IGSA","fy12 mc adp":205,"geo_score":0.0,"detloc":"CCAFLAZ","pbnds/nds":"PBNDS","id":"a7i9cc1a7dxq","address":null,"geo_precision":"unmatched"},"type":"Feature","geometry":null},{"properties":{"name":"CCA CENTRAL ARIZONA DETENTION CENTER","city":"FLORENCE","st":"AZ","zip":"85132","over/under 72":"OVER 72","aor":"PHO","type":"IGSA","fy12 mc adp":73,"geo_score":0.0,"detloc":"CCADCAZ","pbnds/nds":"PBNDS","id":"a7i9cc3k593l","address":null,"geo_precision":"unmatched"},"type":"Feature","geometry":null},{"properties":{"name":"MIRA LOMA DETENTION CENTER","city":"LANCASTER","st":"CA","zip":"93536","over/under 72":"OVER 72","aor":"LOS","type":"IGSA","fy12 mc adp":737,"geo_score":0.837,"detloc":"LANCACA","pbnds/nds":"NDS","id":"a7i9cc2rru53","address":"45100 60TH STREET WEST","geo_precision":"range"},"type":"Feature","geometry":{"type":"Point","coordinates":[-118.2366,34.702871]}},{"properties":{"name":"SAN DIEGO CONTRACT DETENTION FACILITY","city":"SAN DIEGO","st":"CA","zip":"92143","over/under 72":"OVER 72","aor":"SND","type":"CDF","fy12 mc adp":665,"geo_score":0.805,"detloc":"CCASDCA","pbnds/nds":"PBNDS","id":"a7i9cc0h0c9f","address":"446 ALTA ROAD","geo_precision":"range"},"type":"Feature","geometry":{"type":"Point","coordinates":[-116.919161,32.571094]}},{"properties":{"name":"ADELANTO CORRECTIONAL FACILITY","city":"ADELANTO","st":"CA","zip":"93301","over/under 72":"OVER 72","aor":"LOS","type":"IGSA","fy12 mc adp":538,"geo_score":0.545,"detloc":"ADLNTCA","pbnds/nds":"PBNDS","id":"a7i9cc33um60","address":"10400 RANCHO ROAD","geo_precision":"street"},"type":"Feature","geometry":{"type":"Point","coordinates":[-119.050614,35.419613]}},{"properties":{"name":"THEO LACY FACILITY","city":"ORANGE","st":"CA","zip":"92868","over/under 72":"OVER 72","aor":"LOS","type":"IGSA","fy12 mc adp":448,"geo_score":0.902,"detloc":"TLACYCA","pbnds/nds":"PBNDS","id":"a7i9cc2t4udd","address":"501 THE CITY DRIVE SOUTH","geo_precision":"range"},"type":"Feature","geometry":{"type":"Point","coordinates":[-117.888709,33.780195]}},{"properties":{"name":"EL CENTRO SERVICE PROCESSING CENTER","city":"EL CENTRO","st":"CA","zip":"92243","over/under 72":"OVER 72","aor":"SND","type":"SPC","fy12 mc adp":392,"geo_score":0.902,"detloc":"ECC","pbnds/nds":"PBNDS","id":"a7i9cc3ng09f","address":"1115 NORTH IMPERIAL AVENUE","geo_precision":"range"},"type":"Feature","geometry":{"type":"Point","coordinates":[-115.569801,32.801638]}},{"properties":{"name":"JAMES MUSICK FACILITY","city":"IRVINE","st":"CA","zip":"92618","over/under 72":"OVER 72","aor":"LOS","type":"IGSA","fy12 mc adp":281,"geo_score":0.415,"detloc":"MUSIKCA","pbnds/nds":"PBNDS","id":"a7i9ccao82rz","address":"13502 MUSICK ROAD","geo_precision":"street"},"type":"Feature","geometry":{"type":"Point","coordinates":[-117.73572,33.574799]}},{"properties":{"name":"YUBA COUNTY JAIL","city":"MARYSVILLE","st":"CA","zip":"95901","over/under 72":"OVER 72","aor":"SFR","type":"IGSA","fy12 mc adp":224,"geo_score":0.805,"detloc":"YUBAJCA","pbnds/nds":"NDS","id":"a7i9cc6wbklf","address":"215 5TH STREET","geo_precision":"range"},"type":"Feature","geometry":{"type":"Point","coordinates":[-121.587463,39.140546]}},{"properties":{"name":"SANTA ANA CITY JAIL","city":"SANTA ANA","st":"CA","zip":"92701","over/under 72":"OVER 72","aor":"LOS","type":"IGSA","fy12 mc adp":190,"geo_score":0.469,"detloc":"SACITCA","pbnds/nds":"NDS","id":"a7i9cc0mirq2","address":"62 CIVIC CENTER PLAZA","geo_precision":"street"},"type":"Feature","geometry":{"type":"Point","coordinates":[-117.89813,33.74462]}},{"properties":{"name":"SACRAMENTO COUNTY JAIL","city":"SACRAMENTO","st":"CA","zip":"95814","over/under 72":"OVER 72","aor":"SFR","type":"IGSA","fy12 mc adp":120,"geo_score":0.902,"detloc":"SACRACA","pbnds/nds":"NDS","id":"a7i9ccbkchl9","address":"651 I STREET","geo_precision":"range"},"type":"Feature","geometry":{"type":"Point","coordinates":[-121.497485,38.582716]}},{"properties":{"name":"CALIFORNIA CITY CORRECTIONAL CENTER","city":"CALIFORNIA CITY","st":"CA","zip":"93505","over/under 72":"OVER 72","aor":"SFR","type":"IGSA","fy12 mc adp":120,"geo_score":0.902,"detloc":"CACTYCA","pbnds/nds":"PBNDS","id":"a7i9cbx4hqs2","address":"22844 VIRGINIA BOULEVARD","geo_precision":"range"},"type":"Feature","geometry":{"type":"Point","coordinates":[-117.862118,35.161227]}},{"properties":{"name":"CONTRA COSTA COUNTY JAIL WEST","city":"RICHMOND","st":"CA","zip":"94806","over/under 72":"OVER 72","aor":"SFR","type":"IGSA","fy12 mc adp":118,"geo_score":0.84,"detloc":"CONWECA","pbnds/nds":"PBNDS","id":"a7i9cc3l7w8k","address":"5555 GIANT HIGHWAY","geo_precision":"range"},"type":"Feature","geometry":{"type":"Point","coordinates":[-122.353749,37.992055]}},{"properties":{"name":"DENVER CONTRACT DETENTION FACILITY","city":"AURORA","st":"CO","zip":"80010","over/under 72":"OVER 72","aor":"DEN","type":"CDF","fy12 mc adp":397,"geo_score":0.844,"detloc":"DENICDF","pbnds/nds":"PBNDS","id":"a7i9cc9g8zn7","address":"11901 EAST 30TH AVENUE","geo_precision":"range"},"type":"Feature","geometry":{"type":"Point","coordinates":[-104.847934,39.759268]}},{"properties":{"name":"EL PASO COUNTY JAIL (COLORADO)","city":"COLORADO SPRING","st":"CO","zip":"80906","over/under 72":"OVER 72","aor":"DEN","type":"IGSA","fy12 mc adp":56,"geo_score":0.834,"detloc":"ELPASCO","pbnds/nds":"NDS","id":"a7i9cbxorsbb","address":"2739 EAST LAS VEGAS","geo_precision":"range"},"type":"Feature","geometry":{"type":"Point","coordinates":[-104.776558,38.787578]}},{"properties":{"name":"TELLER COUNTY JAIL","city":"DIVIDE","st":"CO","zip":"80814","over/under 72":"OVER 72","aor":"DEN","type":"IGSA","fy12 mc adp":10,"geo_score":0.902,"detloc":"TELLECO","pbnds/nds":"NDS","id":"a7i9cc6tz8z8","address":"288 WEAVERVILLE ROAD","geo_precision":"range"},"type":"Feature","geometry":{"type":"Point","coordinates":[-105.153696,38.942728]}},{"properties":{"name":"PARK COUNTY JAIL","city":"FAIRPLAY","st":"CO","zip":"80440","over/under 72":"OVER 72","aor":"DEN","type":"IGSA","fy12 mc adp":8,"geo_score":0.902,"detloc":"PARKJCO","pbnds/nds":"NDS","id":"a7i9cc1yz76o","address":"1180 COUNTY ROAD 16","geo_precision":"range"},"type":"Feature","geometry":{"type":"Point","coordinates":[-105.983433,39.220741]}},{"properties":{"name":"DENVER COUNTY JAIL","city":"DENVER","st":"CO","zip":"80239","over/under 72":"OVER 72","aor":"DEN","type":"IGSA","fy12 mc adp":0,"geo_score":0.746,"detloc":"DENVECO","pbnds/nds":"NDS","id":"a7i9cbywt13o","address":"10500 EAST SMITH ROAD","geo_precision":"range"},"type":"Feature","geometry":{"type":"Point","coordinates":[-104.856531,39.767818]}},{"properties":{"name":"BROWARD TRANSITIONAL CENTER","city":"POMPANO BEACH","st":"FL","zip":"33073","over/under 72":"OVER 72","aor":"MIA","type":"CDF","fy12 mc adp":643,"geo_score":0.902,"detloc":"WCCPBFL","pbnds/nds":"PBNDS","id":"a7i9cc338mod","address":"3900 NORTH POWERLINE ROAD","geo_precision":"range"},"type":"Feature","geometry":{"type":"Point","coordinates":[-80.151988,26.276014]}},{"properties":{"name":"KROME NORTH SERVICE PROCESSING CENTER","city":"MIAMI","st":"FL","zip":"33194","over/under 72":"OVER 72","aor":"MIA","type":"SPC","fy12 mc adp":575,"geo_score":0.72,"detloc":"KRO","pbnds/nds":"PBNDS","id":"a7i9cbxotnt0","address":"18201 SOUTHWEST 12TH STREET","geo_precision":"range"},"type":"Feature","geometry":{"type":"Point","coordinates":[-80.489775,25.75349]}},{"properties":{"name":"GLADES COUNTY DETENTION CENTER","city":"MOORE HAVEN","st":"FL","zip":"33471","over/under 72":"OVER 72","aor":"MIA","type":"IGSA","fy12 mc adp":415,"geo_score":0.61,"detloc":"GLADEFL","pbnds/nds":"NDS","id":"a7i9cc4s7x1b","address":"1279 EAST SR 78","geo_precision":"range"},"type":"Feature","geometry":{"type":"Point","coordinates":[-81.074019,26.997572]}},{"properties":{"name":"BAKER COUNTY SHERIFF DEPARTMENT","city":"MACCLENNY","st":"FL","zip":"32063","over/under 72":"OVER 72","aor":"MIA","type":"IGSA","fy12 mc adp":244,"geo_score":0.5,"detloc":"BAKERFL","pbnds/nds":"NDS","id":"a7i9cc38ldhe","address":"56 N. SECOND ST.","geo_precision":"street"},"type":"Feature","geometry":{"type":"Point","coordinates":[-82.117133,30.281309]}},{"properties":{"name":"WAKULLA COUNTY JAIL","city":"CRAWFORDVILLE","st":"FL","zip":"32327","over/under 72":"OVER 72","aor":"MIA","type":"IGSA","fy12 mc adp":96,"geo_score":0.902,"detloc":"WAKULFL","pbnds/nds":"PBNDS","id":"a7i9cccl8y31","address":"15 OAK STREET","geo_precision":"range"},"type":"Feature","geometry":{"type":"Point","coordinates":[-84.377121,30.196064]}},{"properties":{"name":"MONROE COUNTY JAIL","city":"KEY WEST","st":"FL","zip":"33040","over/under 72":"OVER 72","aor":"MIA","type":"IGSA","fy12 mc adp":86,"geo_score":0.902,"detloc":"MONROFL","pbnds/nds":"NDS","id":"a7i9cc5tpt59","address":"5501 COLLEGE ROAD","geo_precision":"range"},"type":"Feature","geometry":{"type":"Point","coordinates":[-81.749789,24.57551]}},{"properties":{"name":"COLLIER COUNTY NAPLES JAIL CENTER","city":"NAPLES","st":"FL","zip":"34112","over/under 72":"OVER 72","aor":"MIA","type":"IGSA","fy12 mc adp":8,"geo_score":0.857,"detloc":"COLLIFL","pbnds/nds":"NDS","id":"a7i9cbwwwn1e","address":"3301 TAMIAMI TRAIL EAST","geo_precision":"range"},"type":"Feature","geometry":{"type":"Point","coordinates":[-81.762836,26.123549]}},{"properties":{"name":"STEWART DETENTION CENTER","city":"LUMPKIN","st":"GA","zip":"31815","over/under 72":"OVER 72","aor":"ATL","type":"IGSA","fy12 mc adp":1685,"geo_score":0.467,"detloc":"STWRTGA","pbnds/nds":"PBNDS","id":"a7i9cbzr2c93","address":"146 CCA ROAD","geo_precision":"street"},"type":"Feature","geometry":{"type":"Point","coordinates":[-84.904782,32.617598]}},{"properties":{"name":"IRWIN COUNTY DETENTION CENTER","city":"OCILLA","st":"GA","zip":"31772","over/under 72":"OVER 72","aor":"ATL","type":"IGSA","fy12 mc adp":344,"geo_score":0.805,"detloc":"IRWINGA","pbnds/nds":"PBNDS","id":"a7i9cc2b8mkk","address":"132 COTTON DRIVE","geo_precision":"range"},"type":"Feature","geometry":{"type":"Point","coordinates":[-83.252498,31.578474]}},{"properties":{"name":"NORTH GEORGIA DETENTION CENTER","city":"GAINESVILLE","st":"GA","zip":"30501","over/under 72":"OVER 72","aor":"ATL","type":"IGSA","fy12 mc adp":341,"geo_score":0.902,"detloc":"NGDCTGA","pbnds/nds":"PBNDS","id":"a7i9ccay4wjl","address":"622 MAIN STREET SOUTHWEST","geo_precision":"range"},"type":"Feature","geometry":{"type":"Point","coordinates":[-83.824466,34.29523]}},{"properties":{"name":"ATLANTA CITY DETENTION CENTER","city":"ATLANTA","st":"GA","zip":"30303","over/under 72":"OVER 72","aor":"ATL","type":"IGSA","fy12 mc adp":58,"geo_score":0.902,"detloc":"ATLANGA","pbnds/nds":"NDS","id":"a7i9ccbjt03o","address":"254 PEACHTREE STREET SOUTHWEST","geo_precision":"range"},"type":"Feature","geometry":{"type":"Point","coordinates":[-84.395665,33.747607]}},{"properties":{"name":"HARDIN COUNTY JAIL","city":"ELDORA","st":"IA","zip":"50627","over/under 72":"OVER 72","aor":"SPM","type":"IGSA","fy12 mc adp":55,"geo_score":0.829,"detloc":"HARDJIA","pbnds/nds":"NDS","id":"a7i9cc26ri5a","address":"1116 14TH AVENUE","geo_precision":"range"},"type":"Feature","geometry":{"type":"Point","coordinates":[-93.098151,42.359846]}},{"properties":{"name":"POLK COUNTY JAIL","city":"DES MOINES","st":"IA","zip":"50313","over/under 72":"OVER 72","aor":"SPM","type":"IGSA","fy12 mc adp":48,"geo_score":0.561,"detloc":"POLKJIA","pbnds/nds":"NDS","id":"a7i9ccbdd1dk","address":"1985 NE 51ST","geo_precision":"street"},"type":"Feature","geometry":{"type":"Point","coordinates":[-93.612708,41.65361]}},{"properties":{"name":"POTTAWATTAMIE COUNTY JAIL","city":"COUNCIL BLUFFS","st":"IA","zip":"51501","over/under 72":"OVER 72","aor":"SPM","type":"IGSA","fy12 mc adp":19,"geo_score":0.902,"detloc":"POTTAIA","pbnds/nds":"NDS","id":"a7i9cbzkfrrg","address":"1400 BIG LAKE ROAD","geo_precision":"range"},"type":"Feature","geometry":{"type":"Point","coordinates":[-95.863942,41.284248]}},{"properties":{"name":"MARSHALL COUNTY JAIL","city":"MARSHALLTOWN","st":"IA","zip":"50158","over/under 72":"OVER 72","aor":"SPM","type":"IGSA","fy12 mc adp":16,"geo_score":0.78,"detloc":"MARSHIA","pbnds/nds":"NDS","id":"a7i9ccb19eif","address":"2369 JESSUP AVENUE","geo_precision":"range"},"type":"Feature","geometry":{"type":"Point","coordinates":[-93.058572,42.012176]}},{"properties":{"name":"LINN COUNTY JAIL","city":"CEDAR RAPIDS","st":"IA","zip":"52401","over/under 72":"OVER 72","aor":"SPM","type":"IGSA","fy12 mc adp":9,"geo_score":0.798,"detloc":"LINNJIA","pbnds/nds":"NDS","id":"a7i9cc1ujah9","address":"53 3RD AVENUE BRIDGE","geo_precision":"range"},"type":"Feature","geometry":{"type":"Point","coordinates":[-91.670005,41.975342]}},{"properties":{"name":"ELMORE COUNTY JAIL","city":"MOUNTAIN HOME","st":"ID","zip":"83647","over/under 72":"OVER 72","aor":"SLC","type":"IGSA","fy12 mc adp":10,"geo_score":0.49,"detloc":"ELMORID","pbnds/nds":"NDS","id":"a7i9cbzlq0wk","address":"2255 E. 8TH NORTH","geo_precision":"street"},"type":"Feature","geometry":{"type":"Point","coordinates":[-115.695679,43.137439]}},{"properties":{"name":"JEFFERSON COUNTY JAIL","city":"RIGBY","st":"ID","zip":"83442","over/under 72":"OVER 72","aor":"SLC","type":"IGSA","fy12 mc adp":5,"geo_score":0.902,"detloc":"JEFFEID","pbnds/nds":"NDS","id":"a7i9cca2jpg2","address":"219 EAST FREMONT AVE","geo_precision":"range"},"type":"Feature","geometry":{"type":"Point","coordinates":[-111.911745,43.673343]}},{"properties":{"name":"MINICASSIA DETENTION CENTER","city":"BURLEY","st":"ID","zip":"83318","over/under 72":"OVER 72","aor":"SLC","type":"IGSA","fy12 mc adp":3,"geo_score":0.902,"detloc":"MINICID","pbnds/nds":"NDS","id":"a7i9cc5xmz2l","address":"1415 ALBION AVENUE","geo_precision":"range"},"type":"Feature","geometry":{"type":"Point","coordinates":[-113.791849,42.534389]}},{"properties":{"name":"DALE G. HAILE DETENTION CENTER","city":"CALDWELL","st":"ID","zip":"83605","over/under 72":"OVER 72","aor":"SLC","type":"IGSA","fy12 mc adp":0,"geo_score":0.805,"detloc":"HAILEID","pbnds/nds":"NDS","id":"a7i9ccby0mtb","address":"1115 ALBANY","geo_precision":"range"},"type":"Feature","geometry":{"type":"Point","coordinates":[-116.682409,43.665248]}},{"properties":{"name":"MCHENRY COUNTY CORRECTIONAL FACILITY","city":"WOODSTOCK","st":"IL","zip":"60098","over/under 72":"OVER 72","aor":"CHI","type":"IGSA","fy12 mc adp":248,"geo_score":0.708,"detloc":"MCHENIL","pbnds/nds":"PBNDS","id":"a7i9cc29f7ts","address":"2200 NORTH SEMINARY AVENUE","geo_precision":"street"},"type":"Feature","geometry":{"type":"Point","coordinates":[-88.443163,42.33463]}},{"properties":{"name":"TRI-COUNTY JAIL","city":"ULLIN","st":"IL","zip":"62992","over/under 72":"OVER 72","aor":"CHI","type":"IGSA","fy12 mc adp":215,"geo_score":0.902,"detloc":"TRICOIL","pbnds/nds":"NDS","id":"a7i9cc6cetux","address":"1026 SHAWNEE COLLEGE ROAD","geo_precision":"range"},"type":"Feature","geometry":{"type":"Point","coordinates":[-89.158748,37.271667]}},{"properties":{"name":"JEFFERSON COUNTY JAIL","city":"MOUNT VERNON","st":"IL","zip":"62864","over/under 72":"OVER 72","aor":"CHI","type":"IGSA","fy12 mc adp":101,"geo_score":0.902,"detloc":"JEFFEIL","pbnds/nds":"NDS","id":"a7i9ccbf5mjp","address":"911 CASEY AVENUE","geo_precision":"range"},"type":"Feature","geometry":{"type":"Point","coordinates":[-88.903258,38.314559]}},{"properties":{"name":"CHASE COUNTY DETENTION FACILITY","city":"COTTONWOOD FALLS","st":"KS","zip":"66845","over/under 72":"OVER 72","aor":"CHI","type":"IGSA","fy12 mc adp":28,"geo_score":0.752,"detloc":"CHASEKS","pbnds/nds":"NDS","id":"a7i9cbzs51w2","address":"301 SOUTH WALNUT STREET","geo_precision":"street"},"type":"Feature","geometry":{"type":"Point","coordinates":[-96.539008,38.367521]}},{"properties":{"name":"RICE COUNTY DETENTION CENTER","city":"LYONS","st":"KS","zip":"67554","over/under 72":"OVER 72","aor":"CHI","type":"IGSA","fy12 mc adp":18,"geo_score":0.729,"detloc":"RICECKS","pbnds/nds":"NDS","id":"a7i9cbxwlpu8","address":"1482 WEST UNITED STATES HIGHWAY 56","geo_precision":"range"},"type":"Feature","geometry":{"type":"Point","coordinates":[-98.223345,38.347795]}},{"properties":{"name":"BUTLER COUNTY JAIL","city":"EL DORADO","st":"KS","zip":"67042","over/under 72":"OVER 72","aor":"CHI","type":"IGSA","fy12 mc adp":10,"geo_score":0.477,"detloc":"BUTLEKS","pbnds/nds":"NDS","id":"a7i9cc2qewn7","address":"701 SE STONE ROAD","geo_precision":"street"},"type":"Feature","geometry":{"type":"Point","coordinates":[-98.824535,37.511563]}},{"properties":{"name":"SHAWNEE COUNTY DEPARTMENT OF CORRECTIONS","city":"TOPEKA","st":"KS","zip":"66607","over/under 72":"OVER 72","aor":"CHI","type":"IGSA","fy12 mc adp":7,"geo_score":0.561,"detloc":"SHACOKS","pbnds/nds":"NDS","id":"a7i9cc4hmic5","address":"501 SOUTHEAST 8TH AVENUE","geo_precision":"street"},"type":"Feature","geometry":{"type":"Point","coordinates":[-95.61895,39.038508]}},{"properties":{"name":"BOONE COUNTY JAIL","city":"BURLINGTON","st":"KY","zip":"41005","over/under 72":"OVER 72","aor":"CHI","type":"IGSA","fy12 mc adp":128,"geo_score":0.709,"detloc":"BOONEKY","pbnds/nds":"NDS","id":"a7i9cc7tvs50","address":"3020 CONRAD LANE","geo_precision":"street"},"type":"Feature","geometry":{"type":"Point","coordinates":[-84.721916,39.037327]}},{"properties":{"name":"JENA/LASALLE DETENTION FACILITY","city":"JENA","st":"LA","zip":"71342","over/under 72":"OVER 72","aor":"NOL","type":"IGSA","fy12 mc adp":901,"geo_score":0.902,"detloc":"JENADLA","pbnds/nds":"PBNDS","id":"a7i9cc90izuy","address":"830 PINEHILL ROAD","geo_precision":"range"},"type":"Feature","geometry":{"type":"Point","coordinates":[-92.149925,31.709156]}},{"properties":{"name":"SOUTH LOUISIANA DETENTION CENTER","city":"BASILE","st":"LA","zip":"70515","over/under 72":"OVER 72","aor":"NOL","type":"IGSA","fy12 mc adp":357,"geo_score":0.849,"detloc":"BASILLA","pbnds/nds":"PBNDS","id":"a7i9ccbwzr1d","address":"3843 STAGG AVENUE","geo_precision":"range"},"type":"Feature","geometry":{"type":"Point","coordinates":[-92.585199,30.486416]}},{"properties":{"name":"TENSAS PARISH DETENTION CENTER","city":"WATERPROOF","st":"LA","zip":"71375","over/under 72":"OVER 72","aor":"NOL","type":"IGSA","fy12 mc adp":105,"geo_score":0.61,"detloc":"TENSALA","pbnds/nds":"NDS","id":"a7i9cc6ce837","address":"8606 HWY 65","geo_precision":"street"},"type":"Feature","geometry":{"type":"Point","coordinates":[-91.541192,31.614441]}},{"properties":{"name":"ORLEANS PARISH SHERIFF","city":"NEW ORLEANS","st":"LA","zip":"70119","over/under 72":"OVER 72","aor":"NOL","type":"IGSA","fy12 mc adp":6,"geo_score":0.902,"detloc":"ORPARLA","pbnds/nds":"NDS","id":"a7i9ccb1sm06","address":"2800 GRAVIER STREET","geo_precision":"range"},"type":"Feature","geometry":{"type":"Point","coordinates":[-90.094274,29.961921]}},{"properties":{"name":"PLYMOUTH COUNTY CORRECTIONAL FACILITY","city":"PLYMOUTH","st":"MA","zip":"02360","over/under 72":"OVER 72","aor":"BOS","type":"IGSA","fy12 mc adp":292,"geo_score":0.902,"detloc":"PLYMOMA","pbnds/nds":"NDS","id":"a7i9cc3lus8m","address":"26 LONG POND ROAD","geo_precision":"range"},"type":"Feature","geometry":{"type":"Point","coordinates":[-70.657826,41.929587]}},{"properties":{"name":"SUFFOLK COUNTY HOUSE OF CORRECTIONS","city":"BOSTON","st":"MA","zip":"02118","over/under 72":"OVER 72","aor":"BOS","type":"IGSA","fy12 mc adp":234,"geo_score":0.902,"detloc":"SUFFOMA","pbnds/nds":"NDS","id":"a7i9ccd254io","address":"20 BRADSTON STREET","geo_precision":"range"},"type":"Feature","geometry":{"type":"Point","coordinates":[-71.070075,42.333928]}},{"properties":{"name":"BRISTOL COUNTY DETENTION CENTER","city":"NORTH DARTMOUTH","st":"MA","zip":"02747","over/under 72":"OVER 72","aor":"BOS","type":"IGSA","fy12 mc adp":208,"geo_score":0.902,"detloc":"BRINDMA","pbnds/nds":"PBNDS","id":"a7i9cc44t95s","address":"400 FAUNCE CORNER ROAD","geo_precision":"range"},"type":"Feature","geometry":{"type":"Point","coordinates":[-70.989696,41.659078]}},{"properties":{"name":"FRANKLIN COUNTY HOUSE OF CORRECTIONS","city":"GREENFIELD","st":"MA","zip":"01301","over/under 72":"OVER 72","aor":"BOS","type":"IGSA","fy12 mc adp":30,"geo_score":0.902,"detloc":"GREENMA","pbnds/nds":"NDS","id":"a7i9ccauay3q","address":"160 ELM STREET","geo_precision":"range"},"type":"Feature","geometry":{"type":"Point","coordinates":[-72.611291,42.596151]}},{"properties":{"name":"NORFOLK COUNTY JAIL","city":"DEDHAM","st":"MA","zip":"02026","over/under 72":"OVER 72","aor":"BOS","type":"IGSA","fy12 mc adp":29,"geo_score":0.679,"detloc":"NORFOMA","pbnds/nds":"NDS","id":"a7i9cccuzgh1","address":"200 WEST STREET","geo_precision":"range"},"type":"Feature","geometry":{"type":"Point","coordinates":[-71.20777,42.265138]}},{"properties":{"name":"WORCESTER COUNTY JAIL","city":"SNOW HILL","st":"MD","zip":"21863","over/under 72":"OVER 72","aor":"BAL","type":"IGSA","fy12 mc adp":185,"geo_score":0.488,"detloc":"WORCEMD","pbnds/nds":"NDS","id":"a7i9cc9zpuy9","address":"5022 JOYNER ROAD","geo_precision":"zip"},"type":"Feature","geometry":{"type":"Point","coordinates":[-75.287415,38.149008]}},{"properties":{"name":"HOWARD COUNTY DETENTION CENTER","city":"JESSUP","st":"MD","zip":"20794","over/under 72":"OVER 72","aor":"BAL","type":"IGSA","fy12 mc adp":79,"geo_score":0.902,"detloc":"HOWARMD","pbnds/nds":"NDS","id":"a7i9cbwtm3xr","address":"7301 WATERLOO ROAD","geo_precision":"range"},"type":"Feature","geometry":{"type":"Point","coordinates":[-76.784861,39.171243]}},{"properties":{"name":"FREDERICK COUNTY DETENTION CENTER","city":"FREDERICK","st":"MD","zip":"21704","over/under 72":"OVER 72","aor":"BAL","type":"IGSA","fy12 mc adp":53,"geo_score":0.886,"detloc":"FREDEMD","pbnds/nds":"NDS","id":"a7i9cc43d70e","address":"7300 MARCIE'S CHOICE LANE","geo_precision":"range"},"type":"Feature","geometry":{"type":"Point","coordinates":[-77.413964,39.365107]}},{"properties":{"name":"DORCHESTER COUNTY DETENTION CENTER","city":"CAMBRIDGE","st":"MD","zip":"21613","over/under 72":"OVER 72","aor":"BAL","type":"IGSA","fy12 mc adp":21,"geo_score":0.902,"detloc":"DORCHMD","pbnds/nds":"NDS","id":"a7i9cbygis14","address":"829 FIELDCREST ROAD","geo_precision":"range"},"type":"Feature","geometry":{"type":"Point","coordinates":[-76.059876,38.547702]}},{"properties":{"name":"CARROLL COUNTY DETENTION CENTER","city":"WESTMINSTER","st":"MD","zip":"21157","over/under 72":"OVER 72","aor":"BAL","type":"IGSA","fy12 mc adp":4,"geo_score":0.815,"detloc":"CARROMD","pbnds/nds":"NDS","id":"a7i9cc2kvgme","address":"100 NORTH COURT STREET","geo_precision":"range"},"type":"Feature","geometry":{"type":"Point","coordinates":[-76.987592,39.571419]}},{"properties":{"name":"CUMBERLAND COUNTY JAIL","city":"PORTLAND","st":"ME","zip":"04102","over/under 72":"OVER 72","aor":"BOS","type":"IGSA","fy12 mc adp":3,"geo_score":0.698,"detloc":"CUMBEME","pbnds/nds":"NDS","id":"a7i9cc0lbc64","address":"50 COUNTY WAY","geo_precision":"range"},"type":"Feature","geometry":{"type":"Point","coordinates":[-70.313696,43.676607]}},{"properties":{"name":"CALHOUN COUNTY, BATTLE CREEK, MICHIGAN","city":"BATTLE CREEK","st":"MI","zip":"49014","over/under 72":"OVER 72","aor":"DET","type":"IGSA","fy12 mc adp":159,"geo_score":0.902,"detloc":"CALHOMI","pbnds/nds":"NDS","id":"a7i9cc55seyo","address":"185 EAST MICHIGAN AVENUE","geo_precision":"range"},"type":"Feature","geometry":{"type":"Point","coordinates":[-85.175708,42.315412]}},{"properties":{"name":"SAINT CLAIR COUNTY JAIL","city":"PORT HURON","st":"MI","zip":"48060","over/under 72":"OVER 72","aor":"DET","type":"IGSA","fy12 mc adp":43,"geo_score":0.78,"detloc":"STCLAMI","pbnds/nds":"NDS","id":"a7i9cc8ko1ut","address":"1170 MICHIGAN ROAD","geo_precision":"range"},"type":"Feature","geometry":{"type":"Point","coordinates":[-82.48147,42.942487]}},{"properties":{"name":"CHIPPEWA COUNTY SSM","city":"SAULT SAINTE MARIE","st":"MI","zip":"49783","over/under 72":"OVER 72","aor":"DET","type":"IGSA","fy12 mc adp":37,"geo_score":0.793,"detloc":"CHIPPMI","pbnds/nds":"NDS","id":"a7i9cc67aa2l","address":"325 COURT STREET","geo_precision":"range"},"type":"Feature","geometry":{"type":"Point","coordinates":[-84.345366,46.498423]}},{"properties":{"name":"MONROE COUNTY DORMITORY JAIL","city":"MONROE","st":"MI","zip":"48161","over/under 72":"OVER 72","aor":"DET","type":"IGSA","fy12 mc adp":0,"geo_score":0.488,"detloc":"MONROM2","pbnds/nds":"NDS","id":"a7i9cbz22p4f","address":"7000 EASTDUNBAR","geo_precision":"zip"},"type":"Feature","geometry":{"type":"Point","coordinates":[-83.39271,41.857268]}},{"properties":{"name":"SHERBURNE COUNTY JAIL","city":"ELK RIVER","st":"MN","zip":"55330","over/under 72":"OVER 72","aor":"SPM","type":"IGSA","fy12 mc adp":128,"geo_score":0.741,"detloc":"SHERBMN","pbnds/nds":"NDS","id":"a7i9cc1fpore","address":"13880 UNITED STATES HIGHWAY 10","geo_precision":"range"},"type":"Feature","geometry":{"type":"Point","coordinates":[-93.620578,45.306205]}},{"properties":{"name":"FREEBORN ADULT DETENTION CENTER","city":"ALBERT LEA","st":"MN","zip":"56007","over/under 72":"OVER 72","aor":"SPM","type":"IGSA","fy12 mc adp":71,"geo_score":0.902,"detloc":"FREEBMN","pbnds/nds":"NDS","id":"a7i9cbzgdl8b","address":"411 SOUTH BROADWAY AVENUE","geo_precision":"range"},"type":"Feature","geometry":{"type":"Point","coordinates":[-93.368695,43.645908]}},{"properties":{"name":"RAMSEY COUNTY ADULT DETENTION CENTER","city":"ST. PAUL","st":"MN","zip":"55101","over/under 72":"OVER 72","aor":"SPM","type":"IGSA","fy12 mc adp":52,"geo_score":0.863,"detloc":"RAADCMN","pbnds/nds":"NDS","id":"a7i9cc0bb01i","address":"425 GROVE STREET","geo_precision":"range"},"type":"Feature","geometry":{"type":"Point","coordinates":[-93.084962,44.955819]}},{"properties":{"name":"CARVER COUNTY JAIL","city":"CHASKA","st":"MN","zip":"55318","over/under 72":"OVER 72","aor":"SPM","type":"IGSA","fy12 mc adp":30,"geo_score":0.829,"detloc":"CARJAMN","pbnds/nds":"NDS","id":"a7i9cbzb47un","address":"600 EAST FOURTH ST.","geo_precision":"range"},"type":"Feature","geometry":{"type":"Point","coordinates":[-93.593767,44.788649]}},{"properties":{"name":"NOBLES COUNTY JAIL","city":"WORTHINGTON","st":"MN","zip":"56187","over/under 72":"OVER 72","aor":"SPM","type":"IGSA","fy12 mc adp":4,"geo_score":0.709,"detloc":"NOBLEMN","pbnds/nds":"NDS","id":"a7i9cc7flz8x","address":"1530 AIRPORT ROAD","geo_precision":"street"},"type":"Feature","geometry":{"type":"Point","coordinates":[-95.591459,43.648979]}},{"properties":{"name":"MORGAN COUNTY ADULT DETENTION CENTER","city":"VERSAILLES","st":"MO","zip":"65084","over/under 72":"OVER 72","aor":"CHI","type":"IGSA","fy12 mc adp":52,"geo_score":0.902,"detloc":"MORGNMO","pbnds/nds":"NDS","id":"a7i9cc87pnaq","address":"211 EAST NEWTON STREET","geo_precision":"range"},"type":"Feature","geometry":{"type":"Point","coordinates":[-92.840873,38.431658]}},{"properties":{"name":"CALDWELL COUNTY DETENTION CENTER","city":"KINGSTON","st":"MO","zip":"64650","over/under 72":"OVER 72","aor":"CHI","type":"IGSA","fy12 mc adp":35,"geo_score":0.902,"detloc":"CALDWMO","pbnds/nds":"PBNDS","id":"a7i9cc2krplq","address":"280 WEST MAIN STREET","geo_precision":"range"},"type":"Feature","geometry":{"type":"Point","coordinates":[-94.041882,39.642663]}},{"properties":{"name":"MONTGOMERY COUNTY JAIL","city":"MONTGOMERY CITY","st":"MO","zip":"63361","over/under 72":"OVER 72","aor":"CHI","type":"IGSA","fy12 mc adp":30,"geo_score":0.829,"detloc":"MONTGMO","pbnds/nds":"NDS","id":"a7i9cc41rerq","address":"211 EAST THIRD STREET","geo_precision":"range"},"type":"Feature","geometry":{"type":"Point","coordinates":[-91.503885,38.979386]}},{"properties":{"name":"MISSISSIPPI COUNTY DETENTION CENTER","city":"CHARLESTON","st":"MO","zip":"63834","over/under 72":"OVER 72","aor":"CHI","type":"IGSA","fy12 mc adp":21,"geo_score":0.902,"detloc":"MISCOMO","pbnds/nds":"NDS","id":"a7i9cc53gocb","address":"200 WEST COMMERCIAL STREET","geo_precision":"range"},"type":"Feature","geometry":{"type":"Point","coordinates":[-89.350844,36.923376]}},{"properties":{"name":"CHRISTIAN COUNTY JAIL","city":"OZARK","st":"MO","zip":"65721","over/under 72":"OVER 72","aor":"CHI","type":"IGSA","fy12 mc adp":21,"geo_score":0.793,"detloc":"CHRISMO","pbnds/nds":"NDS","id":"a7i9ccc8cthx","address":"110 WEST ELM","geo_precision":"range"},"type":"Feature","geometry":{"type":"Point","coordinates":[-93.205169,37.019872]}},{"properties":{"name":"LINCOLN COUNTY DETENTION CENTER","city":"TROY","st":"MO","zip":"63379","over/under 72":"OVER 72","aor":"CHI","type":"IGSA","fy12 mc adp":8,"geo_score":0.902,"detloc":"LINCOMO","pbnds/nds":"NDS","id":"a7i9cc9ukspb","address":"65 BUSINESS PARK DRIVE","geo_precision":"range"},"type":"Feature","geometry":{"type":"Point","coordinates":[-90.963267,38.97093]}},{"properties":{"name":"SCOTT COUNTY JAIL","city":"BENTON","st":"MO","zip":"63786","over/under 72":"OVER 72","aor":"CHI","type":"IGSA","fy12 mc adp":6,"geo_score":0.325,"detloc":"SCOTTMO","pbnds/nds":"NDS","id":"a7i9cbxvovf3","address":"211 S. NEW MADRID ST.","geo_precision":"street"},"type":"Feature","geometry":{"type":"Point","coordinates":[-89.507176,37.218181]}},{"properties":{"name":"CASCADE COUNTY JAIL (MONTANA)","city":"GREAT FALLS","st":"MT","zip":"59404","over/under 72":"OVER 72","aor":"SLC","type":"IGSA","fy12 mc adp":1,"geo_score":0.902,"detloc":"CASCAMT","pbnds/nds":"NDS","id":"a7i9cc8myjx0","address":"3800 ULM NORTH FRONTAGE ROAD","geo_precision":"range"},"type":"Feature","geometry":{"type":"Point","coordinates":[-111.37277,47.468949]}},{"properties":{"name":"ALAMANCE COUNTY DETENTION FACILITY","city":"GRAHAM","st":"NC","zip":"27253","over/under 72":"OVER 72","aor":"ATL","type":"IGSA","fy12 mc adp":32,"geo_score":0.902,"detloc":"ALAMCNC","pbnds/nds":"NDS","id":"a7i9cc02q4q6","address":"109 SOUTH MAPLE STREET","geo_precision":"range"},"type":"Feature","geometry":{"type":"Point","coordinates":[-79.402148,36.06889]}},{"properties":{"name":"HENDERSON COUNTY DETENTION FACILITY","city":"HENDERSONVILLE","st":"NC","zip":"28792","over/under 72":"OVER 72","aor":"ATL","type":"IGSA","fy12 mc adp":27,"geo_score":0.837,"detloc":"HENDENC","pbnds/nds":"NDS","id":"a7i9cc26yqyf","address":"375 1ST AVENUE EAST","geo_precision":"range"},"type":"Feature","geometry":{"type":"Point","coordinates":[-82.456818,35.314785]}},{"properties":{"name":"GRAND FORKS COUNTY CORRECTIONAL FACILITY","city":"GRAND FORKS","st":"ND","zip":"58206","over/under 72":"OVER 72","aor":"SPM","type":"IGSA","fy12 mc adp":17,"geo_score":0.805,"detloc":"GFCORND","pbnds/nds":"NDS","id":"a7i9cc23uf5k","address":"1701 NORTH WASHINGTON ST","geo_precision":"range"},"type":"Feature","geometry":{"type":"Point","coordinates":[-97.055983,47.935539]}},{"properties":{"name":"DOUGLAS COUNTY CORRECTIONS","city":"OMAHA","st":"NE","zip":"68102","over/under 72":"OVER 72","aor":"SPM","type":"IGSA","fy12 mc adp":114,"geo_score":0.837,"detloc":"DOCORNE","pbnds/nds":"PBNDS","id":"a7i9cca2qb3c","address":"710 SOUTH 17TH ST","geo_precision":"range"},"type":"Feature","geometry":{"type":"Point","coordinates":[-95.938234,41.253552]}},{"properties":{"name":"HALL COUNTY SHERIFF","city":"GRAND ISLAND","st":"NE","zip":"68801","over/under 72":"OVER 72","aor":"SPM","type":"IGSA","fy12 mc adp":66,"geo_score":0.488,"detloc":"HASHENE","pbnds/nds":"NDS","id":"a7i9cbxgx372","address":"110 PUBLIC SAFETY DRIVE","geo_precision":"zip"},"type":"Feature","geometry":{"type":"Point","coordinates":[-98.347562,40.90279]}},{"properties":{"name":"CASS COUNTY JAIL","city":"PLATTSMOUTH","st":"NE","zip":"68048","over/under 72":"OVER 72","aor":"SPM","type":"IGSA","fy12 mc adp":31,"geo_score":0.902,"detloc":"CASSCNE","pbnds/nds":"NDS","id":"a7i9cbywr4vl","address":"336 MAIN STREET","geo_precision":"range"},"type":"Feature","geometry":{"type":"Point","coordinates":[-95.88295,41.011239]}},{"properties":{"name":"PHELPS COUNTY JAIL","city":"HOLDREGE","st":"NE","zip":"68949","over/under 72":"OVER 72","aor":"SPM","type":"IGSA","fy12 mc adp":18,"geo_score":0.819,"detloc":"PHELPNE","pbnds/nds":"NDS","id":"a7i9ccapx0ie","address":"715 5TH AVENUE","geo_precision":"range"},"type":"Feature","geometry":{"type":"Point","coordinates":[-99.370778,40.439037]}},{"properties":{"name":"STRAFFORD COUNTY CORRECTIONS","city":"DOVER","st":"NH","zip":"03820","over/under 72":"OVER 72","aor":"BOS","type":"IGSA","fy12 mc adp":36,"geo_score":0.902,"detloc":"STRAFNH","pbnds/nds":"NDS","id":"a7i9cc6urfmt","address":"266 COUNTY FARM ROAD","geo_precision":"range"},"type":"Feature","geometry":{"type":"Point","coordinates":[-70.940167,43.219511]}},{"properties":{"name":"ESSEX COUNTY JAIL","city":"NEWARK","st":"NJ","zip":"07105","over/under 72":"OVER 72","aor":"NEW","type":"IGSA","fy12 mc adp":572,"geo_score":0.902,"detloc":"ESSEXNJ","pbnds/nds":"PBNDS","id":"a7i9ccb6zdt7","address":"324 DOREMUS AVENUE","geo_precision":"range"},"type":"Feature","geometry":{"type":"Point","coordinates":[-74.125146,40.721679]}},{"properties":{"name":"HUDSON COUNTY JAIL","city":"KEARNEY","st":"NJ","zip":"07032","over/under 72":"OVER 72","aor":"NYC","type":"IGSA","fy12 mc adp":424,"geo_score":0.488,"detloc":"HUDSONJ","pbnds/nds":"NDS","id":"a7i9cby58lx4","address":"30-35 HACKENSACK AVE.","geo_precision":"zip"},"type":"Feature","geometry":{"type":"Point","coordinates":[-74.138199,40.777601]}},{"properties":{"name":"DELANEY HALL DETENTION FACILITY","city":"NEWARK","st":"NJ","zip":"07105","over/under 72":"OVER 72","aor":"NEW","type":"IGSA","fy12 mc adp":330,"geo_score":0.902,"detloc":"DHDFNJ","pbnds/nds":"PBNDS","id":"a7i9cbwstcca","address":"451 DOREMUS AVENUE","geo_precision":"range"},"type":"Feature","geometry":{"type":"Point","coordinates":[-74.126056,40.720533]}},{"properties":{"name":"MONMOUTH COUNTY JAIL","city":"FREEHOLD","st":"NJ","zip":"07728","over/under 72":"OVER 72","aor":"NYC","type":"IGSA","fy12 mc adp":290,"geo_score":0.902,"detloc":"MONMONJ","pbnds/nds":"NDS","id":"a7i9cc8qtpzd","address":"1 WATERWORKS ROAD","geo_precision":"range"},"type":"Feature","geometry":{"type":"Point","coordinates":[-74.285791,40.268792]}},{"properties":{"name":"ELIZABETH CONTRACT DETENTION FACILITY","city":"ELIZABETH","st":"NJ","zip":"07201","over/under 72":"OVER 72","aor":"NEW","type":"CDF","fy12 mc adp":248,"geo_score":0.902,"detloc":"ELZICDF","pbnds/nds":"PBNDS","id":"a7i9cc4vi4et","address":"625 EVANS STREET","geo_precision":"range"},"type":"Feature","geometry":{"type":"Point","coordinates":[-74.188006,40.667642]}},{"properties":{"name":"BERGEN COUNTY JAIL","city":"HACKENSACK","st":"NJ","zip":"07601","over/under 72":"OVER 72","aor":"NYC","type":"IGSA","fy12 mc adp":106,"geo_score":0.844,"detloc":"BERGENJ","pbnds/nds":"NDS","id":"a7i9cc2kslbc","address":"160 SOUTH RIVER STREET","geo_precision":"range"},"type":"Feature","geometry":{"type":"Point","coordinates":[-74.039805,40.872664]}},{"properties":{"name":"KEOGH-DWYER CORRECTIONAL FACILITY","city":"NEWTON","st":"NJ","zip":"07860","over/under 72":"OVER 72","aor":"NYC","type":"IGSA","fy12 mc adp":23,"geo_score":0.548,"detloc":"SUSSENJ","pbnds/nds":"PBNDS","id":"a7i9ccc9ntqh","address":"410 HIGH STREET","geo_precision":"street"},"type":"Feature","geometry":{"type":"Point","coordinates":[-74.768985,41.113917]}},{"properties":{"name":"OTERO COUNTY PROCESSING CENTER","city":"CHAPARRAL","st":"NM","zip":"88081","over/under 72":"OVER 72","aor":"ELP","type":"IGSA","fy12 mc adp":711,"geo_score":0.0,"detloc":"OTRPCNM","pbnds/nds":"NDS","id":"a7i9cccdzuat","address":null,"geo_precision":"unmatched"},"type":"Feature","geometry":null},{"properties":{"name":"OTERO COUNTY PRISON FACILITY","city":"CHAPARRAL","st":"NM","zip":"88081","over/under 72":"OVER 72","aor":"ELP","type":"IGSA","fy12 mc adp":140,"geo_score":0.0,"detloc":"OTROPNM","pbnds/nds":"NDS","id":"a7i9cc2t19iy","address":null,"geo_precision":"unmatched"},"type":"Feature","geometry":null},{"properties":{"name":"HENDERSON DETENTION FACILITY","city":"HENDERSON","st":"NV","zip":"89015","over/under 72":"OVER 72","aor":"SLC","type":"IGSA","fy12 mc adp":248,"geo_score":0.902,"detloc":"HENDENV","pbnds/nds":"NDS","id":"a7i9cc919oz8","address":"18 E BASIC ROAD","geo_precision":"range"},"type":"Feature","geometry":{"type":"Point","coordinates":[-114.978455,36.030777]}},{"properties":{"name":"WASHOE COUNTY JAIL","city":"RENO","st":"NV","zip":"89512","over/under 72":"OVER 72","aor":"SLC","type":"IGSA","fy12 mc adp":14,"geo_score":0.902,"detloc":"WASHONV","pbnds/nds":"NDS","id":"a7i9cbx33y77","address":"911 PARR BOULEVARD","geo_precision":"range"},"type":"Feature","geometry":{"type":"Point","coordinates":[-119.810779,39.571044]}},{"properties":{"name":"BUFFALO (BATAVIA) SERVICE PROCESSING CENTER","city":"BATAVIA","st":"NY","zip":"14020","over/under 72":"OVER 72","aor":"BUF","type":"SPC","fy12 mc adp":437,"geo_score":0.902,"detloc":"BTV","pbnds/nds":"PBNDS","id":"a7i9ccccypd0","address":"4250 FEDERAL DRIVE","geo_precision":"range"},"type":"Feature","geometry":{"type":"Point","coordinates":[-78.197493,43.020924]}},{"properties":{"name":"ORANGE COUNTY JAIL","city":"GOSHEN","st":"NY","zip":"10924","over/under 72":"OVER 72","aor":"NYC","type":"IGSA","fy12 mc adp":108,"geo_score":0.902,"detloc":"ORANGNY","pbnds/nds":"PBNDS","id":"a7i9cbzohpjz","address":"110 WELLS FARM ROAD","geo_precision":"range"},"type":"Feature","geometry":{"type":"Point","coordinates":[-74.355781,41.40558]}},{"properties":{"name":"WAYNE COUNTY JAIL","city":"LYONS","st":"NY","zip":"14489","over/under 72":"OVER 72","aor":"BUF","type":"IGSA","fy12 mc adp":16,"geo_score":0.805,"detloc":"WAYNENY","pbnds/nds":"NDS","id":"a7i9cc0i80mg","address":"7368 STATE ROUTE 31","geo_precision":"street"},"type":"Feature","geometry":{"type":"Point","coordinates":[-77.032183,43.067471]}},{"properties":{"name":"ALLEGANY COUNTY JAIL","city":"BELMONT","st":"NY","zip":"14813","over/under 72":"OVER 72","aor":"BUF","type":"IGSA","fy12 mc adp":10,"geo_score":0.829,"detloc":"ALLEGNY","pbnds/nds":"NDS","id":"a7i9cbxyyhu2","address":"4884 STATE ROUTE 19","geo_precision":"range"},"type":"Feature","geometry":{"type":"Point","coordinates":[-78.011424,42.206739]}},{"properties":{"name":"CLINTON COUNTY JAIL","city":"PLATTSBURGH","st":"NY","zip":"12901","over/under 72":"OVER 72","aor":"BUF","type":"IGSA","fy12 mc adp":6,"geo_score":0.488,"detloc":"CLICONY","pbnds/nds":"NDS","id":"a7i9cbze9y1c","address":"25 MCCARTHY DRIVE","geo_precision":"zip"},"type":"Feature","geometry":{"type":"Point","coordinates":[-73.411801,44.722543]}},{"properties":{"name":"ALBANY COUNTY JAIL","city":"ALBANY","st":"NY","zip":"12211","over/under 72":"OVER 72","aor":"BUF","type":"IGSA","fy12 mc adp":4,"geo_score":0.709,"detloc":"ALBCONY","pbnds/nds":"NDS","id":"a7i9cbx1m6kj","address":"840 ALBANY SHAKER ROAD","geo_precision":"street"},"type":"Feature","geometry":{"type":"Point","coordinates":[-73.806981,42.735012]}},{"properties":{"name":"CHAUTAUQUA COUNTY JAIL","city":"MAYVILLE","st":"NY","zip":"14757","over/under 72":"OVER 72","aor":"BUF","type":"IGSA","fy12 mc adp":4,"geo_score":0.457,"detloc":"CHACONY","pbnds/nds":"NDS","id":"a7i9cc3c9czg","address":"15 E. CHAUTAUQUA STREET","geo_precision":"street"},"type":"Feature","geometry":{"type":"Point","coordinates":[-79.504956,42.254149]}},{"properties":{"name":"ONTARIO COUNTY JAIL","city":"CANANDAIGUA","st":"NY","zip":"14424","over/under 72":"OVER 72","aor":"BUF","type":"IGSA","fy12 mc adp":1,"geo_score":0.711,"detloc":"ONTARNY","pbnds/nds":"NDS","id":"a7i9cc0qan8g","address":"3045 COUNTY COMPLEX DRIVE","geo_precision":"street"},"type":"Feature","geometry":{"type":"Point","coordinates":[-77.215094,42.886095]}},{"properties":{"name":"ONONDAGA COUNTY JAIL","city":"SYRACUSE","st":"NY","zip":"13202","over/under 72":"OVER 72","aor":"BUF","type":"IGSA","fy12 mc adp":0,"geo_score":0.902,"detloc":"ONONDNY","pbnds/nds":"NDS","id":"a7i9cc48ka1l","address":"555 SOUTH STATE STREET","geo_precision":"range"},"type":"Feature","geometry":{"type":"Point","coordinates":[-76.147445,43.044468]}},{"properties":{"name":"MADISON COUNTY JAIL","city":"WAMPSVILLE","st":"NY","zip":"13163","over/under 72":"OVER 72","aor":"BUF","type":"IGSA","fy12 mc adp":0,"geo_score":0.815,"detloc":"MADISNY","pbnds/nds":"NDS","id":"a7i9cc98ttdv","address":"138 NORTH COURT STREET","geo_precision":"range"},"type":"Feature","geometry":{"type":"Point","coordinates":[-75.70742,43.081036]}},{"properties":{"name":"WASHINGTON COUNTY JAIL","city":"FORT EDWARD","st":"NY","zip":"12865","over/under 72":"OVER 72","aor":"BUF","type":"IGSA","fy12 mc adp":0,"geo_score":0.574,"detloc":"WASCONY","pbnds/nds":"NDS","id":"a7i9cccaoc9q","address":"339 BROADWAY","geo_precision":"street"},"type":"Feature","geometry":{"type":"Point","coordinates":[-73.317039,43.177198]}},{"properties":{"name":"BUTLER COUNTY JAIL","city":"HAMILTON","st":"OH","zip":"45011","over/under 72":"OVER 72","aor":"DET","type":"IGSA","fy12 mc adp":102,"geo_score":0.902,"detloc":"BUTLEOH","pbnds/nds":"NDS","id":"a7i9cc417fzu","address":"705 HANOVER STREET","geo_precision":"range"},"type":"Feature","geometry":{"type":"Point","coordinates":[-84.555673,39.389818]}},{"properties":{"name":"SENECA COUNTY JAIL","city":"TIFFIN","st":"OH","zip":"44883","over/under 72":"OVER 72","aor":"DET","type":"IGSA","fy12 mc adp":50,"geo_score":0.805,"detloc":"SENECOH","pbnds/nds":"NDS","id":"a7i9cc8z9tnw","address":"3040 SOUTH STATE HIGHWAY 100","geo_precision":"range"},"type":"Feature","geometry":{"type":"Point","coordinates":[-83.153131,41.080249]}},{"properties":{"name":"MORROW COUNTY CORRECTIONAL FACILITY","city":"MOUNT GILEAD","st":"OH","zip":"43338","over/under 72":"OVER 72","aor":"DET","type":"IGSA","fy12 mc adp":50,"geo_score":0.707,"detloc":"MOROWOH","pbnds/nds":"NDS","id":"a7i9cc23bn9w","address":"101 HOME ROAD","geo_precision":"street"},"type":"Feature","geometry":{"type":"Point","coordinates":[-82.805687,40.566859]}},{"properties":{"name":"BEDFORD HEIGHTS CITY","city":"BEDFORD HTS","st":"OH","zip":"44146","over/under 72":"OVER 72","aor":"DET","type":"IGSA","fy12 mc adp":47,"geo_score":0.876,"detloc":"BEDFOOH","pbnds/nds":"NDS","id":"a7i9cca3d18x","address":"5661 PERKINS ROAD","geo_precision":"range"},"type":"Feature","geometry":{"type":"Point","coordinates":[-81.498492,41.406074]}},{"properties":{"name":"TULSA COUNTY JAIL","city":"TULSA","st":"OK","zip":"74103","over/under 72":"OVER 72","aor":"DAL","type":"IGSA","fy12 mc adp":160,"geo_score":0.902,"detloc":"TULCOOK","pbnds/nds":"NDS","id":"a7i9cc71fq4l","address":"300 NORTH DENVER AVENUE","geo_precision":"range"},"type":"Feature","geometry":{"type":"Point","coordinates":[-95.998007,36.158583]}},{"properties":{"name":"JOSEPHINE COUNTY JAIL","city":"GRANTS PASS","st":"OR","zip":"97526","over/under 72":"OVER 72","aor":"SEA","type":"IGSA","fy12 mc adp":5,"geo_score":0.708,"detloc":"JOSEPOR","pbnds/nds":"NDS","id":"a7i9cc6pketl","address":"1901 NORTHEAST F STREET","geo_precision":"street"},"type":"Feature","geometry":{"type":"Point","coordinates":[-123.314836,42.43843]}},{"properties":{"name":"NORTHERN OREGON CORRECTIONAL FACILITY","city":"THE DALLES","st":"OR","zip":"97058","over/under 72":"OVER 72","aor":"SEA","type":"IGSA","fy12 mc adp":3,"geo_score":0.643,"detloc":"NORCOOR","pbnds/nds":"NDS","id":"a7i9cc6ozjt0","address":"211 WEBBER ROAD","geo_precision":"street"},"type":"Feature","geometry":{"type":"Point","coordinates":[-121.203622,45.608888]}},{"properties":{"name":"COLUMBIA COUNTY JAIL","city":"SAINT HELENS","st":"OR","zip":"97051","over/under 72":"OVER 72","aor":"SEA","type":"IGSA","fy12 mc adp":1,"geo_score":0.902,"detloc":"COLUMOR","pbnds/nds":"NDS","id":"a7i9cc80tmq2","address":"901 PORT AVENUE","geo_precision":"range"},"type":"Feature","geometry":{"type":"Point","coordinates":[-122.819718,45.847801]}},{"properties":{"name":"YORK COUNTY PRISON","city":"YORK","st":"PA","zip":"17402","over/under 72":"OVER 72","aor":"PHI","type":"IGSA","fy12 mc adp":774,"geo_score":0.902,"detloc":"YORCOPA","pbnds/nds":"PBNDS","id":"a7i9cc9ifvt0","address":"3401 CONCORD ROAD","geo_precision":"range"},"type":"Feature","geometry":{"type":"Point","coordinates":[-76.663206,39.986915]}},{"properties":{"name":"PIKE COUNTY CORRECTIONS","city":"LORDS VALLEY","st":"PA","zip":"18428","over/under 72":"OVER 72","aor":"PHI","type":"IGSA","fy12 mc adp":168,"geo_score":0.465,"detloc":"PIKCOPA","pbnds/nds":"PBNDS","id":"a7i9cc8l0tmw","address":"175 PIKE COUNTY BOULEVARD","geo_precision":"street"},"type":"Feature","geometry":{"type":"Point","coordinates":[-75.551,41.376892]}},{"properties":{"name":"CLINTON COUNTY CORRECTIONAL FACILITY","city":"LOCK HAVEN","st":"PA","zip":"17745","over/under 72":"OVER 72","aor":"PHI","type":"IGSA","fy12 mc adp":59,"geo_score":0.569,"detloc":"CLINTPA","pbnds/nds":"NDS","id":"a7i9cc78oazg","address":"419 SHOEMAKER ROAD","geo_precision":"street"},"type":"Feature","geometry":{"type":"Point","coordinates":[-76.699167,41.186962]}},{"properties":{"name":"CAMBRIA COUNTY JAIL","city":"EBENSBURG","st":"PA","zip":"15931","over/under 72":"OVER 72","aor":"PHI","type":"IGSA","fy12 mc adp":16,"geo_score":0.902,"detloc":"CAMBRPA","pbnds/nds":"NDS","id":"a7i9cc4u4j02","address":"425 MANOR DRIVE","geo_precision":"range"},"type":"Feature","geometry":{"type":"Point","coordinates":[-78.705324,40.488634]}},{"properties":{"name":"ALLEGHENY COUNTY JAIL","city":"PITTSBURGH","st":"PA","zip":"15219","over/under 72":"OVER 72","aor":"PHI","type":"IGSA","fy12 mc adp":7,"geo_score":0.624,"detloc":"ALLEGPA","pbnds/nds":"NDS","id":"a7i9cbza1beg","address":"950 SECOND AVENUE","geo_precision":"street"},"type":"Feature","geometry":{"type":"Point","coordinates":[-79.998059,40.437063]}},{"properties":{"name":"ERIE COUNTY JAIL","city":"ERIE","st":"PA","zip":"16503","over/under 72":"OVER 72","aor":"PHI","type":"IGSA","fy12 mc adp":5,"geo_score":0.902,"detloc":"ERICOPA","pbnds/nds":"NDS","id":"a7i9cc97egs0","address":"1618 ASH STREET","geo_precision":"range"},"type":"Feature","geometry":{"type":"Point","coordinates":[-80.064938,42.12344]}},{"properties":{"name":"LACKAWANNA COUNTY JAIL","city":"SCRANTON","st":"PA","zip":"18509","over/under 72":"OVER 72","aor":"PHI","type":"IGSA","fy12 mc adp":0,"geo_score":0.902,"detloc":"LACKAPA","pbnds/nds":"NDS","id":"a7i9cbzs5lov","address":"1371 NORTH WASHINGTON AVENUE","geo_precision":"range"},"type":"Feature","geometry":{"type":"Point","coordinates":[-75.648596,41.421459]}},{"properties":{"name":"YORK COUNTY DETENTION CENTER","city":"YORK","st":"SC","zip":"29745","over/under 72":"OVER 72","aor":"ATL","type":"IGSA","fy12 mc adp":33,"geo_score":0.78,"detloc":"YORCOSC","pbnds/nds":"NDS","id":"a7i9cc2c5vpi","address":"1675-3A YORK HWY","geo_precision":"range"},"type":"Feature","geometry":{"type":"Point","coordinates":[-81.198863,34.983866]}},{"properties":{"name":"CHARLESTON COUNTY DETENTION CENTER","city":"NORTH CHARLESTON","st":"SC","zip":"29405","over/under 72":"OVER 72","aor":"ATL","type":"IGSA","fy12 mc adp":28,"geo_score":0.902,"detloc":"CHARLSC","pbnds/nds":"NDS","id":"a7i9cc2q9sj5","address":"3841 LEEDS AVENUE","geo_precision":"range"},"type":"Feature","geometry":{"type":"Point","coordinates":[-80.014214,32.847212]}},{"properties":{"name":"PENNINGTON COUNTY JAIL (SOUTH DAKOTA)","city":"RAPID CITY","st":"SD","zip":"57701","over/under 72":"OVER 72","aor":"SPM","type":"IGSA","fy12 mc adp":1,"geo_score":0.473,"detloc":"PENNISD","pbnds/nds":"NDS","id":"a7i9cc5hfah0","address":"307 SAINT JOSEPH STREET","geo_precision":"street"},"type":"Feature","geometry":{"type":"Point","coordinates":[-103.28391,44.090329]}},{"properties":{"name":"DAVIDSON COUNTY SHERIFF","city":"NASHVILLE","st":"TN","zip":"37210","over/under 72":"OVER 72","aor":"NOL","type":"IGSA","fy12 mc adp":14,"geo_score":0.581,"detloc":"DAVIDTN","pbnds/nds":"NDS","id":"a7i9cc8ojpow","address":"448 2ND AVENUE","geo_precision":"street"},"type":"Feature","geometry":{"type":"Point","coordinates":[-86.771096,36.155626]}},{"properties":{"name":"WESTERN TENNESSEE DETENTION FACILITY","city":"MASON","st":"TN","zip":"38049","over/under 72":"OVER 72","aor":"NOL","type":"IGSA","fy12 mc adp":7,"geo_score":0.902,"detloc":"TNWESDF","pbnds/nds":"PBNDS","id":"a7i9cc3a5yph","address":"6299 FINDE NAIFEH DRIVE","geo_precision":"range"},"type":"Feature","geometry":{"type":"Point","coordinates":[-89.551063,35.40895]}},{"properties":{"name":"SOUTH TEXAS DETENTION COMPLEX","city":"PEARSALL","st":"TX","zip":"78061","over/under 72":"OVER 72","aor":"SNA","type":"CDF","fy12 mc adp":1701,"geo_score":0.488,"detloc":"STCDFTX","pbnds/nds":"PBNDS","id":"a7i9cc2x7sfo","address":"566 VETERAN DRIVE","geo_precision":"zip"},"type":"Feature","geometry":{"type":"Point","coordinates":[-99.302818,29.019411]}},{"properties":{"name":"PORT ISABEL","city":"LOS FRESNOS","st":"TX","zip":"78566","over/under 72":"OVER 72","aor":"SNA","type":"SPC","fy12 mc adp":1131,"geo_score":0.671,"detloc":"PIC","pbnds/nds":"PBNDS","id":"a7i9cca0e03c","address":"27991 BUENA VISTA BOULEVARD","geo_precision":"street"},"type":"Feature","geometry":{"type":"Point","coordinates":[-97.351098,26.152645]}},{"properties":{"name":"HOUSTON CONTRACT DETENTION FACILITY","city":"HOUSTON","st":"TX","zip":"77032","over/under 72":"OVER 72","aor":"HOU","type":"CDF","fy12 mc adp":882,"geo_score":0.488,"detloc":"HOUICDF","pbnds/nds":"PBNDS","id":"a7i9cc2f4fj6","address":"15850 EXPORT PLAZA DRIVE","geo_precision":"zip"},"type":"Feature","geometry":{"type":"Point","coordinates":[-95.434241,29.83399]}},{"properties":{"name":"POLK COUNTY ADULT DETENTION FACILITY","city":"LIVINGSTON","st":"TX","zip":"77351","over/under 72":"OVER 72","aor":"HOU","type":"IGSA","fy12 mc adp":784,"geo_score":0.488,"detloc":"POLKCTX","pbnds/nds":"NDS","id":"a7i9cbzs2aq0","address":"3400 FM 350 SOUTH","geo_precision":"zip"},"type":"Feature","geometry":{"type":"Point","coordinates":[-94.83132,30.592702]}},{"properties":{"name":"EL PASO SERVICE PROCESSING CENTER","city":"EL PASO","st":"TX","zip":"79925","over/under 72":"OVER 72","aor":"ELP","type":"SPC","fy12 mc adp":574,"geo_score":0.902,"detloc":"EPC","pbnds/nds":"NDS","id":"a7i9cc53m6m7","address":"8915 MONTANA AVE.","geo_precision":"range"},"type":"Feature","geometry":{"type":"Point","coordinates":[-106.370773,31.793165]}},{"properties":{"name":"ROLLING PLAINS DETENTION CENTER","city":"HASKELL","st":"TX","zip":"79521","over/under 72":"OVER 72","aor":"DAL","type":"IGSA","fy12 mc adp":502,"geo_score":0.707,"detloc":"HASKLTX","pbnds/nds":"NDS","id":"a7i9cc6jdwfp","address":"118 COUNTY ROAD 206","geo_precision":"street"},"type":"Feature","geometry":{"type":"Point","coordinates":[-99.719971,33.17848]}},{"properties":{"name":"JOE CORLEY DETENTION FACILITY","city":"CONROE","st":"TX","zip":"77301","over/under 72":"OVER 72","aor":"HOU","type":"IGSA","fy12 mc adp":451,"geo_score":0.902,"detloc":"MONTGTX","pbnds/nds":"PBNDS","id":"a7i9ccajgcsp","address":"500 HILBIG RD.","geo_precision":"range"},"type":"Feature","geometry":{"type":"Point","coordinates":[-95.444411,30.338131]}},{"properties":{"name":"LAREDO PROCESSING CENTER","city":"LAREDO","st":"TX","zip":"78041","over/under 72":"OVER 72","aor":"SNA","type":"IGSA","fy12 mc adp":320,"geo_score":0.902,"detloc":"LRDICDF","pbnds/nds":"PBNDS","id":"a7i9cc0oq06q","address":"4702 EAST SAUNDERS STREET","geo_precision":"range"},"type":"Feature","geometry":{"type":"Point","coordinates":[-99.446674,27.528423]}},{"properties":{"name":"KARNES COUNTY CORRECTIONAL CENTER","city":"KARNES CITY","st":"TX","zip":"78118","over/under 72":"OVER 72","aor":"SNA","type":"IGSA","fy12 mc adp":300,"geo_score":0.902,"detloc":"KARNETX","pbnds/nds":"NDS","id":"a7i9ccbw16ic","address":"810 COMMERCE STREET","geo_precision":"range"},"type":"Feature","geometry":{"type":"Point","coordinates":[-97.909106,28.88238]}},{"properties":{"name":"EAST HIDALGO DETENTION CENTER","city":"LA VILLA","st":"TX","zip":"78562","over/under 72":"OVER 72","aor":"SNA","type":"IGSA","fy12 mc adp":274,"geo_score":0.423,"detloc":"EHDLGTX","pbnds/nds":"NDS","id":"a7i9cc42agqr","address":"1330 HIGHWAY 107","geo_precision":"street"},"type":"Feature","geometry":{"type":"Point","coordinates":[-98.255793,26.314733]}},{"properties":{"name":"KARNES COUNTY CIVIL DETENTION CENTER","city":"KARNES CITY","st":"TX","zip":"78118","over/under 72":"OVER 72","aor":"SNA","type":"IGSA","fy12 mc adp":190,"geo_score":0.633,"detloc":"KCCDCTX","pbnds/nds":"PBNDS","id":"a7i9cc0nztu5","address":"FM 1144 AT US HIGHWAY 181","geo_precision":"street"},"type":"Feature","geometry":{"type":"Point","coordinates":[-97.908217,28.88195]}},{"properties":{"name":"JOHNSON COUNTY LAW ENFORCEMENT CENTER","city":"CLEBURNE","st":"TX","zip":"76031","over/under 72":"OVER 72","aor":"DAL","type":"IGSA","fy12 mc adp":188,"geo_score":0.902,"detloc":"JOHNSTX","pbnds/nds":"NDS","id":"a7i9cc2cyrw3","address":"1800 RIDGEMAR DRIVE","geo_precision":"range"},"type":"Feature","geometry":{"type":"Point","coordinates":[-97.389338,32.373457]}},{"properties":{"name":"LA SALLE COUNTY REGIONAL DETENTION CENTER","city":"ENCINAL","st":"TX","zip":"78019","over/under 72":"OVER 72","aor":"SNA","type":"IGSA","fy12 mc adp":102,"geo_score":0.488,"detloc":"LSRDCTX","pbnds/nds":"NDS","id":"a7i9cc8kqh03","address":"832 EAST TEXAS STATE HIGHWAY 44","geo_precision":"zip"},"type":"Feature","geometry":{"type":"Point","coordinates":[-99.356329,28.040526]}},{"properties":{"name":"JACK HARWELL DETENTION CENTER","city":"WACO","st":"TX","zip":"76705","over/under 72":"OVER 72","aor":"SNA","type":"IGSA","fy12 mc adp":69,"geo_score":0.585,"detloc":"JHRWLTX","pbnds/nds":"NDS","id":"a7i9cc31v361","address":"3101 MARLIN HWY","geo_precision":"street"},"type":"Feature","geometry":{"type":"Point","coordinates":[-97.105945,31.56704]}},{"properties":{"name":"WEST TEXAS DETENTION FACILITY","city":"SIERRA BLANCA","st":"TX","zip":"79851","over/under 72":"OVER 72","aor":"ELP","type":"IGSA","fy12 mc adp":5,"geo_score":0.714,"detloc":"WTXDFTX","pbnds/nds":"NDS","id":"a7i9ccci4fcn","address":"401 S. VAQUERO AVE.","geo_precision":"zip"},"type":"Feature","geometry":{"type":"Point","coordinates":[-105.412456,31.271237]}},{"properties":{"name":"CENTRAL TEXAS DETENTION  FACILITY","city":"SAN ANTONIO","st":"TX","zip":"78207","over/under 72":"OVER 72","aor":"SNA","type":"IGSA","fy12 mc adp":1,"geo_score":0.468,"detloc":"WACLATX","pbnds/nds":"NDS","id":"a7i9cc8zoxam","address":"218 S. LAREDO ST","geo_precision":"street"},"type":"Feature","geometry":{"type":"Point","coordinates":[-98.497372,29.425188]}},{"properties":{"name":"UTAH COUNTY JAIL","city":"SPANISH FORK","st":"UT","zip":"84660","over/under 72":"OVER 72","aor":"SLC","type":"IGSA","fy12 mc adp":187,"geo_score":0.902,"detloc":"UTAHCUT","pbnds/nds":"NDS","id":"a7i9ccbibjgt","address":"3075 NORTH MAIN STREET","geo_precision":"range"},"type":"Feature","geometry":{"type":"Point","coordinates":[-111.656808,40.148123]}},{"properties":{"name":"WASHINGTON COUNTY JAIL (PURGATORY CORRECTIONAL FACILITY)","city":"HURRICANE","st":"UT","zip":"84737","over/under 72":"OVER 72","aor":"SLC","type":"IGSA","fy12 mc adp":10,"geo_score":0.707,"detloc":"WASHCUT","pbnds/nds":"NDS","id":"a7i9cc86revj","address":"750 SOUTH 5400 WEST","geo_precision":"street"},"type":"Feature","geometry":{"type":"Point","coordinates":[-113.421969,37.123029]}},{"properties":{"name":"IMMIGRATION CENTERS OF AMERICA FARMVILLE","city":"FARMVILLE","st":"VA","zip":"23901","over/under 72":"OVER 72","aor":"WAS","type":"IGSA","fy12 mc adp":356,"geo_score":0.712,"detloc":"FRMVLVA","pbnds/nds":"PBNDS","id":"a7i9cc8j8hag","address":"508 WATERWORKS ROAD","geo_precision":"street"},"type":"Feature","geometry":{"type":"Point","coordinates":[-78.436185,37.323071]}},{"properties":{"name":"HAMPTON ROADS REGIONAL JAIL","city":"PORTSMOUTH","st":"VA","zip":"23701","over/under 72":"OVER 72","aor":"WAS","type":"IGSA","fy12 mc adp":331,"geo_score":0.902,"detloc":"HRREGVA","pbnds/nds":"NDS","id":"a7i9cbxxftr5","address":"2690 ELMHURST LANE","geo_precision":"range"},"type":"Feature","geometry":{"type":"Point","coordinates":[-76.361258,36.808576]}},{"properties":{"name":"RAPPAHANNOCK REGIONAL JAIL","city":"STAFFORD","st":"VA","zip":"22554","over/under 72":"OVER 72","aor":"WAS","type":"IGSA","fy12 mc adp":168,"geo_score":0.902,"detloc":"RAPPSVA","pbnds/nds":"NDS","id":"a7i9ccb65dxb","address":"1745 JEFFERSON DAVIS HIGHWAY","geo_precision":"range"},"type":"Feature","geometry":{"type":"Point","coordinates":[-77.417037,38.406727]}},{"properties":{"name":"NORTHWEST DETENTION CENTER","city":"TACOMA","st":"WA","zip":"98421","over/under 72":"OVER 72","aor":"SEA","type":"CDF","fy12 mc adp":1316,"geo_score":0.5,"detloc":"CSCNWWA","pbnds/nds":"PBNDS","id":"a7i9ccbla54v","address":"1623 E. J STREET","geo_precision":"street"},"type":"Feature","geometry":{"type":"Point","coordinates":[-122.422552,47.249205]}},{"properties":{"name":"DODGE COUNTY JAIL","city":"JUNEAU","st":"WI","zip":"53039","over/under 72":"OVER 72","aor":"CHI","type":"IGSA","fy12 mc adp":230,"geo_score":0.902,"detloc":"DODGEWI","pbnds/nds":"NDS","id":"a7i9cc33bhp2","address":"141 NORTH MAIN STREET","geo_precision":"range"},"type":"Feature","geometry":{"type":"Point","coordinates":[-88.704497,43.406082]}},{"properties":{"name":"KENOSHA COUNTY DETENTION CENTER","city":"KENOSHA","st":"WI","zip":"53144","over/under 72":"OVER 72","aor":"CHI","type":"IGSA","fy12 mc adp":190,"geo_score":0.829,"detloc":"KENOSWI","pbnds/nds":"NDS","id":"a7i9cbxdbnc7","address":"4777 88TH AVENUE","geo_precision":"range"},"type":"Feature","geometry":{"type":"Point","coordinates":[-87.914981,42.595541]}},{"properties":{"name":"KENOSHA COUNTY PRETRIAL FACILITY","city":"KENOSHA","st":"WI","zip":"53140","over/under 72":"OVER 72","aor":"CHI","type":"IGSA","fy12 mc adp":0,"geo_score":0.626,"detloc":"KENOSW2","pbnds/nds":"NDS","id":"a7i9cc2r1ism","address":"1000 55TH STREET","geo_precision":"street"},"type":"Feature","geometry":{"type":"Point","coordinates":[-87.825661,42.585103]}},{"properties":{"name":"SOUTH CENTRAL REGIONAL JAIL","city":"CHARLESTON","st":"WV","zip":"25309","over/under 72":"OVER 72","aor":"PHI","type":"IGSA","fy12 mc adp":6,"geo_score":0.488,"detloc":"WVSCENT","pbnds/nds":"NDS","id":"a7i9cc9xv3y9","address":"1001 CENTRE WAY","geo_precision":"zip"},"type":"Feature","geometry":{"type":"Point","coordinates":[-81.731237,38.35454]}},{"properties":{"name":"SWEETWATER COUNTY JAIL","city":"ROCK SPRINGS","st":"WY","zip":"82901","over/under 72":"OVER 72","aor":"DEN","type":"IGSA","fy12 mc adp":0,"geo_score":0.737,"detloc":"SWEETWY","pbnds/nds":"NDS","id":"a7i9cc4sje2l","address":"50140 UNITED STATES HIGHWAY 191 SOUTH","geo_precision":"range"},"type":"Feature","geometry":{"type":"Point","coordinates":[-109.295689,41.532957]}}],"is_temporal":false,"author":{"url":"","metadata":"","contact_name":"","contact_address":"","source":"","contact_phone":""},"source":"","pagination":{"sort":null,"start":0,"total":162,"limit":1000000},"state":"complete","tags":"","published":"2014-08-14T20:48:57-04:00","id":264276}