{"type":"FeatureCollection","data_type":"Dataset","url_type":null,"permissions":[{"permissions":{"download":true,"view":true},"group_id":"everyone"}],"classification":null,"title":"Stage 7 Hospitals","count":30,"stream_id":264790,"contributor":{"url":"http://geocommons.com/users/49880","name":"aaronberdofe"},"data_attributes":null,"calculation_params":null,"icon_link":null,"link":"http://geocommons.com/overlays/264790.json","extent":[-122.482,32.0035,-76.1204,44.0753],"geometry_types":["point"],"unique_name":null,"name":"Stage 7 Hospitals","feature_count":30,"description":"","next_feature":null,"is_raster":false,"short_classification":"Y","stats":{},"features":[{"properties":{"city":"Rochester","hospital":"Mayo Clinic","geo_score":0.714,"id":"a7jxyvkwil48","geo_precision":"city","state":"Minnesota"},"type":"Feature","geometry":{"type":"Point","coordinates":[-92.516916,44.075285]}},{"properties":{"city":"Madison","hospital":"University of Wisconsin Hospital &amp; Clinics","geo_score":0.571,"id":"a7jxyvjr2231","geo_precision":"city","state":"Madison"},"type":"Feature","geometry":{"type":"Point","coordinates":[-86.754233,34.651409]}},{"properties":{"city":"Stanford","hospital":"Stanford Hospital &amp; Clinics","geo_score":0.714,"id":"a7jxyvj77tv5","geo_precision":"city","state":"California"},"type":"Feature","geometry":{"type":"Point","coordinates":[-122.431045,39.28207]}},{"properties":{"city":"Columbus","hospital":"Ohio State University Hospital","geo_score":0.714,"id":"a7jxyvgkppie","geo_precision":"city","state":"Ohio"},"type":"Feature","geometry":{"type":"Point","coordinates":[-84.15053,40.97793]}},{"properties":{"city":"Boston","hospital":"Children's Hospital Boston","geo_score":0.571,"id":"a7jxyvs6ctnn","geo_precision":"city","state":"Massachussets"},"type":"Feature","geometry":{"type":"Point","coordinates":[-81.559563,41.263389]}},{"properties":{"city":"Dallas","hospital":"Children's Medical Center Dallas","geo_score":0.714,"id":"a7jxyvef1cll","geo_precision":"city","state":"Texas"},"type":"Feature","geometry":{"type":"Point","coordinates":[-96.240533,32.370699]}},{"properties":{"city":"Wilmington","hospital":"Nemours-Alfred I. duPont Hospital for Children","geo_score":0.571,"id":"a7jxyvkqyvgu","geo_precision":"city","state":"Deleware"},"type":"Feature","geometry":{"type":"Point","coordinates":[-80.973723,32.003548]}},{"properties":{"city":"Pittsburgh","hospital":"Children's Hospital of Pittsburgh of UPMC","geo_score":0.714,"id":"a7jxyvtk4j3h","geo_precision":"city","state":"Pennsylvania"},"type":"Feature","geometry":{"type":"Point","coordinates":[-80.024817,40.434436]}},{"properties":{"city":"San Diego","hospital":"UC San Diego Medical Center","geo_score":0.714,"id":"a7jxyvt96sb2","geo_precision":"city","state":"California"},"type":"Feature","geometry":{"type":"Point","coordinates":[-117.174366,32.7211]}},{"properties":{"city":"Phoenix","hospital":"Banner Good Samaritan Medical Center","geo_score":0.0,"id":"a7jxyvtd5gf8","geo_precision":"unmatched","state":"Arizona"},"type":"Feature","geometry":null},{"properties":{"city":"Evanston","hospital":"NorthShore Evanston Hospital","geo_score":0.714,"id":"a7jxyvt54xe1","geo_precision":"city","state":"Illinois"},"type":"Feature","geometry":{"type":"Point","coordinates":[-87.702155,42.049148]}},{"properties":{"city":"Norfolk","hospital":"Sentara Norfolk General Hospital","geo_score":0.714,"id":"a7jxyvrc7pir","geo_precision":"city","state":"Virginia"},"type":"Feature","geometry":{"type":"Point","coordinates":[-76.208521,36.895911]}},{"properties":{"city":"Los Angeles","hospital":"Kaiser Permanente Los Angeles Medical Center","geo_score":0.714,"id":"a7jxyvkzxv26","geo_precision":"city","state":"California"},"type":"Feature","geometry":{"type":"Point","coordinates":[-120.618608,38.052816]}},{"properties":{"city":"Columbus","hospital":"James Cancer Center and Solove Research Institute","geo_score":0.714,"id":"a7jxyvtwq5n3","geo_precision":"city","state":"Ohio"},"type":"Feature","geometry":{"type":"Point","coordinates":[-84.15053,40.97793]}},{"properties":{"city":"Woodland Hills","hospital":"Kaiser Permanente Woodland Hills Medical Center","geo_score":0.714,"id":"a7jxyvkrnzry","geo_precision":"city","state":"California"},"type":"Feature","geometry":{"type":"Point","coordinates":[-121.397892,39.08337]}},{"properties":{"city":"Glendale","hospital":"Banner Thunderbird Medical Center","geo_score":0.714,"id":"a7jxyvtdjutc","geo_precision":"city","state":"Arizona"},"type":"Feature","geometry":{"type":"Point","coordinates":[-112.18717,33.276539]}},{"properties":{"city":"Fontana","hospital":"Kaiser Permanente Fontana Medical Center","geo_score":0.714,"id":"a7jxyvo2dmz4","geo_precision":"city","state":"California"},"type":"Feature","geometry":{"type":"Point","coordinates":[-120.79861,40.02349]}},{"properties":{"city":"Greeley","hospital":"North Colorado Medical Center","geo_score":0.714,"id":"a7jxyvqr3bvd","geo_precision":"city","state":"Colorado"},"type":"Feature","geometry":{"type":"Point","coordinates":[-104.680631,40.384991]}},{"properties":{"city":"Mesa","hospital":"Banner Desert Medical Center","geo_score":0.714,"id":"a7jxyvhsq4nv","geo_precision":"city","state":"Arizona"},"type":"Feature","geometry":{"type":"Point","coordinates":[-111.856967,33.440695]}},{"properties":{"city":"Phoenix","hospital":"Banner Estrella Medical Center","geo_score":0.0,"id":"a7jxyvjiihnc","geo_precision":"unmatched","state":"Arizona"},"type":"Feature","geometry":null},{"properties":{"city":"Anaheim","hospital":"Kaiser Permanente Anaheim Medical Center","geo_score":0.714,"id":"a7jxyvoeqgve","geo_precision":"city","state":"California"},"type":"Feature","geometry":{"type":"Point","coordinates":[-117.769442,33.640302]}},{"properties":{"city":"Vallejo","hospital":"Kaiser Permanente Vallejo Medical Center","geo_score":0.714,"id":"a7jxyvg9sszj","geo_precision":"city","state":"California"},"type":"Feature","geometry":{"type":"Point","coordinates":[-122.264316,38.107945]}},{"properties":{"city":"Virginia Beach","hospital":"Sentara Virginia Beach General Hospital","geo_score":0.714,"id":"a7jxyvr019bt","geo_precision":"city","state":"Virginia"},"type":"Feature","geometry":{"type":"Point","coordinates":[-76.12036,36.844004]}},{"properties":{"city":"Clackamas","hospital":"Kaiser Permanente Sunnyside Medical Center","geo_score":0.0,"id":"a7jxyvgus4kj","geo_precision":"unmatched","state":"Oregon"},"type":"Feature","geometry":null},{"properties":{"city":"Sun City West","hospital":"Banner Del E. Webb Medical Center","geo_score":0.714,"id":"a7jxyvlufw4h","geo_precision":"city","state":"Arizona"},"type":"Feature","geometry":{"type":"Point","coordinates":[-112.18717,33.276539]}},{"properties":{"city":"Gilbert","hospital":"Banner Gateway Medical Center","geo_score":0.714,"id":"a7jxyvthf6ce","geo_precision":"city","state":"Arizona"},"type":"Feature","geometry":{"type":"Point","coordinates":[-111.815281,33.335401]}},{"properties":{"city":"Riverside","hospital":"Kaiser Permanente Riverside Medical Center","geo_score":0.714,"id":"a7jxyvjiaeco","geo_precision":"city","state":"California"},"type":"Feature","geometry":{"type":"Point","coordinates":[-122.143298,37.173834]}},{"properties":{"city":"San Jose","hospital":"Kaiser Permanente San Jose Medical Center","geo_score":0.714,"id":"a7jxyvolrntw","geo_precision":"city","state":"California"},"type":"Feature","geometry":{"type":"Point","coordinates":[-121.705327,37.189396]}},{"properties":{"city":"Walnut Creek","hospital":"Kaiser Permanente Walnut Creek Medical Center","geo_score":0.714,"id":"a7jxyvj68wfw","geo_precision":"city","state":"California"},"type":"Feature","geometry":{"type":"Point","coordinates":[-122.481647,38.517964]}},{"properties":{"city":"Norfolk","hospital":"Sentara Leigh Hospital","geo_score":0.714,"id":"a7jxyvhl98gp","geo_precision":"city","state":"Virginia"},"type":"Feature","geometry":{"type":"Point","coordinates":[-76.208521,36.895911]}}],"is_temporal":false,"author":{"url":"http://health.usnews.com/health-news/most-connected-hospitals/articles/2012/07/16/most-connected-hospitals-the-list","metadata":"","contact_name":"","contact_address":"","source":"US News and World Reports","contact_phone":""},"source":"http://health.usnews.com/health-news/most-connected-hospitals/articles/2012/07/16/most-connected-hospitals-the-list","pagination":{"sort":null,"start":0,"total":30,"limit":1000000},"state":"complete","tags":"","published":"2014-08-14T21:25:42-04:00","id":264790}