{"type":"FeatureCollection","data_type":"Dataset","url_type":null,"permissions":[{"permissions":{"download":true,"view":true},"group_id":"everyone"}],"classification":null,"title":"Stage 6 Hospitals","count":129,"stream_id":264792,"contributor":{"url":"http://geocommons.com/users/49880","name":"aaronberdofe"},"data_attributes":null,"calculation_params":null,"icon_link":null,"link":"http://geocommons.com/overlays/264792.json","extent":[-149.487,26.142,-68.8789,61.2876],"geometry_types":["point"],"unique_name":null,"name":"Stage 6 Hospitals","feature_count":129,"description":"","next_feature":null,"is_raster":false,"short_classification":"Y","stats":{},"features":[{"properties":{"city":"Nashville","hospital":"Vanderbilt University Medical Center","geo_score":0.714,"id":"a7jy0ayedhnh","geo_precision":"city","state":"Tennessee"},"type":"Feature","geometry":{"type":"Point","coordinates":[-86.778098,36.165688]}},{"properties":{"city":"Iowa City","hospital":"University of Iowa Hospitals and Clinics","geo_score":0.714,"id":"a7jy0b878fo8","geo_precision":"city","state":"Iowa"},"type":"Feature","geometry":{"type":"Point","coordinates":[-92.161281,43.198027]}},{"properties":{"city":"New York City","hospital":"Mount Sinai Medical Center","geo_score":0.714,"id":"a7jy0b7k1b2o","geo_precision":"city","state":"New York"},"type":"Feature","geometry":{"type":"Point","coordinates":[-74.005973,40.714269]}},{"properties":{"city":"New Haven","hospital":"Yale-New Haven Hospital","geo_score":0.571,"id":"a7jy0b95sf6j","geo_precision":"city","state":"Conneticut"},"type":"Feature","geometry":{"type":"Point","coordinates":[-87.75342,43.848328]}},{"properties":{"city":"Minneapolis","hospital":"University of Minnesota Medical Center","geo_score":0.714,"id":"a7jy0ayxye2l","geo_precision":"city","state":"Minnesota"},"type":"Feature","geometry":{"type":"Point","coordinates":[-93.273024,44.979265]}},{"properties":{"city":"Pittsburgh","hospital":"UPMC-University of Pittsburgh Medical Center","geo_score":0.714,"id":"a7jy0b1m5zg2","geo_precision":"city","state":"Pennsylvania"},"type":"Feature","geometry":{"type":"Point","coordinates":[-80.024817,40.434436]}},{"properties":{"city":"Chicago","hospital":"Rush University Medical Center","geo_score":0.714,"id":"a7jy0ayzs1c9","geo_precision":"city","state":"Illinois"},"type":"Feature","geometry":{"type":"Point","coordinates":[-87.68732,41.811929]}},{"properties":{"city":"Boston","hospital":"Brigham and Women's Hospital","geo_score":0.571,"id":"a7jy0b4i7129","geo_precision":"city","state":"Massachussets"},"type":"Feature","geometry":{"type":"Point","coordinates":[-81.559563,41.263389]}},{"properties":{"city":"Chicago","hospital":"Northwestern Memorial Hospital","geo_score":0.714,"id":"a7jy0az0ykvx","geo_precision":"city","state":"Illinois"},"type":"Feature","geometry":{"type":"Point","coordinates":[-87.68732,41.811929]}},{"properties":{"city":"Columbus","hospital":"Nationwide Children's Hospital","geo_score":0.714,"id":"a7jy0b9uiule","geo_precision":"city","state":"Ohio"},"type":"Feature","geometry":{"type":"Point","coordinates":[-84.15053,40.97793]}},{"properties":{"city":"Tampa","hospital":"Tampa General Hospital","geo_score":0.714,"id":"a7jy0b2vvpmm","geo_precision":"city","state":"Florida"},"type":"Feature","geometry":{"type":"Point","coordinates":[-82.582035,27.996097]}},{"properties":{"city":"Detroit","hospital":"Children's Hospital of Michigan","geo_score":0.714,"id":"a7jy0azkapv6","geo_precision":"city","state":"Michigan"},"type":"Feature","geometry":{"type":"Point","coordinates":[-83.150823,42.239933]}},{"properties":{"city":"Portland","hospital":"Oregon Health and Science University","geo_score":0.714,"id":"a7jy0b5d4nh5","geo_precision":"city","state":"Oregon"},"type":"Feature","geometry":{"type":"Point","coordinates":[-122.693157,45.498931]}},{"properties":{"city":"Minneapolis","hospital":"Abbott Northwestern Hospital","geo_score":0.714,"id":"a7jy0baf2sv5","geo_precision":"city","state":"Minnesota"},"type":"Feature","geometry":{"type":"Point","coordinates":[-93.273024,44.979265]}},{"properties":{"city":"Winston-Salem","hospital":"Wake Forest Baptist Medical Center","geo_score":0.714,"id":"a7jy0av6mmsc","geo_precision":"city","state":"North Carolina"},"type":"Feature","geometry":{"type":"Point","coordinates":[-80.28762,36.101817]}},{"properties":{"city":"Charleston","hospital":"Medical University of South Carolina","geo_score":0.714,"id":"a7jy0az17p48","geo_precision":"city","state":"South Carolina"},"type":"Feature","geometry":{"type":"Point","coordinates":[-79.970643,32.85712]}},{"properties":{"city":"Charlotte","hospital":"Carolinas Medical Center","geo_score":0.714,"id":"a7jy0b6yt4ln","geo_precision":"city","state":"North Carolina"},"type":"Feature","geometry":{"type":"Point","coordinates":[-80.804151,35.26002]}},{"properties":{"city":"Bronx","hospital":"Montefiore Medical Center","geo_score":0.0,"id":"a7jy0awbnykk","geo_precision":"unmatched","state":"New York"},"type":"Feature","geometry":null},{"properties":{"city":"Sacramento","hospital":"University of California, Davis Medical Center","geo_score":0.714,"id":"a7jy0b6ncey4","geo_precision":"city","state":"California"},"type":"Feature","geometry":{"type":"Point","coordinates":[-121.555406,38.380456]}},{"properties":{"city":"Atlanta","hospital":"Emory University Hospital","geo_score":0.714,"id":"a7jy0axa7b1m","geo_precision":"city","state":"Georgia"},"type":"Feature","geometry":{"type":"Point","coordinates":[-84.47405,33.844371]}},{"properties":{"city":"Oak Lawn","hospital":"Advocate Christ Medical Center","geo_score":0.714,"id":"a7jy0b8xjfxn","geo_precision":"city","state":"Illinois"},"type":"Feature","geometry":{"type":"Point","coordinates":[-88.517825,37.576438]}},{"properties":{"city":"Milwaukee","hospital":"Aurora St. Luke's Medical Center","geo_score":0.714,"id":"a7jy0b60si13","geo_precision":"city","state":"Wisconsin"},"type":"Feature","geometry":{"type":"Point","coordinates":[-87.958409,43.011264]}},{"properties":{"city":"Pittsburgh","hospital":"Magee-Womens Hospital of UPMC","geo_score":0.714,"id":"a7jy0b4xfcfn","geo_precision":"city","state":"Pennsylvania"},"type":"Feature","geometry":{"type":"Point","coordinates":[-80.024817,40.434436]}},{"properties":{"city":"Houston","hospital":"Memorial Hermann-Texas Medical Center","geo_score":0.714,"id":"a7jy0aup9tvi","geo_precision":"city","state":"Texas"},"type":"Feature","geometry":{"type":"Point","coordinates":[-96.919704,29.845783]}},{"properties":{"city":"South Weymouth","hospital":"South Shore Hospital","geo_score":0.571,"id":"a7jy0azcvka0","geo_precision":"city","state":"Massachussets"},"type":"Feature","geometry":{"type":"Point","coordinates":[-81.794299,41.18561]}},{"properties":{"city":"Springfield","hospital":"Baystate Medical Center","geo_score":0.571,"id":"a7jy0b9yq6kd","geo_precision":"city","state":"Massachussets"},"type":"Feature","geometry":{"type":"Point","coordinates":[-122.329813,45.519009]}},{"properties":{"city":"Detroit","hospital":"Harper University Hospital","geo_score":0.714,"id":"a7jy0b75onmp","geo_precision":"city","state":"Michigan"},"type":"Feature","geometry":{"type":"Point","coordinates":[-83.150823,42.239933]}},{"properties":{"city":"Burlington","hospital":"Fletcher Allen Health Care","geo_score":0.714,"id":"a7jy0ba5n5es","geo_precision":"city","state":"Vermont"},"type":"Feature","geometry":{"type":"Point","coordinates":[-73.151384,44.507404]}},{"properties":{"city":"Urbana","hospital":"Carle Foundation Hospital","geo_score":0.714,"id":"a7jy0b8vo3ev","geo_precision":"city","state":"Illinois"},"type":"Feature","geometry":{"type":"Point","coordinates":[-89.04063,37.974495]}},{"properties":{"city":"St. Paul","hospital":"United Hospital of St. Paul","geo_score":0.714,"id":"a7jy0b3o0nhz","geo_precision":"city","state":"Minnesota"},"type":"Feature","geometry":{"type":"Point","coordinates":[-92.259625,47.415205]}},{"properties":{"city":"Charlottesville","hospital":"University of Virginia Medical Center","geo_score":0.714,"id":"a7jy0b0au69g","geo_precision":"city","state":"Virginia"},"type":"Feature","geometry":{"type":"Point","coordinates":[-78.476678,38.029306]}},{"properties":{"city":"Dayton","hospital":"Miami Valley Hospital","geo_score":0.714,"id":"a7jy0b9rm579","geo_precision":"city","state":"Ohio"},"type":"Feature","geometry":{"type":"Point","coordinates":[-84.268593,39.750471]}},{"properties":{"city":"Columbia","hospital":"University of Missouri Health Care","geo_score":0.714,"id":"a7jy0b73uowp","geo_precision":"city","state":"Missouri"},"type":"Feature","geometry":{"type":"Point","coordinates":[-92.274145,38.894165]}},{"properties":{"city":"Buffalo","hospital":"Roswell Park Cancer Institute","geo_score":0.714,"id":"a7jy0b9iw5qq","geo_precision":"city","state":"New York"},"type":"Feature","geometry":{"type":"Point","coordinates":[-78.832706,42.929303]}},{"properties":{"city":"Philadelphia","hospital":"Albert Einstein Medical Center","geo_score":0.714,"id":"a7jy0b0jowjt","geo_precision":"city","state":"Pennsylvania"},"type":"Feature","geometry":{"type":"Point","coordinates":[-75.11787,40.001811]}},{"properties":{"city":"Houston","hospital":"TIRR Memorial Hermann","geo_score":0.714,"id":"a7jy0b86m36a","geo_precision":"city","state":"Texas"},"type":"Feature","geometry":{"type":"Point","coordinates":[-96.919704,29.845783]}},{"properties":{"city":"Atlanta","hospital":"Emory University Hospital Midtown","geo_score":0.714,"id":"a7jy0ay3z0md","geo_precision":"city","state":"Georgia"},"type":"Feature","geometry":{"type":"Point","coordinates":[-84.47405,33.844371]}},{"properties":{"city":"Morgantown","hospital":"West Virginia University Hospitals","geo_score":0.714,"id":"a7jy0b9nfd89","geo_precision":"city","state":"West Virginia"},"type":"Feature","geometry":{"type":"Point","coordinates":[-79.983141,39.609911]}},{"properties":{"city":"Savannah","hospital":"Memorial University Medical Center","geo_score":0.714,"id":"a7jy0avq8whs","geo_precision":"city","state":"Georgia"},"type":"Feature","geometry":{"type":"Point","coordinates":[-81.135618,32.072257]}},{"properties":{"city":"Chicago","hospital":"Advocate Illinois Masonic Medical Center","geo_score":0.714,"id":"a7jy0b9vy2o7","geo_precision":"city","state":"Illinois"},"type":"Feature","geometry":{"type":"Point","coordinates":[-87.68732,41.811929]}},{"properties":{"city":"Park Ridge","hospital":"Advocate Lutheran General Hospital","geo_score":0.714,"id":"a7jy0b0dqtxk","geo_precision":"city","state":"Illinois"},"type":"Feature","geometry":{"type":"Point","coordinates":[-87.843714,42.037228]}},{"properties":{"city":"Neptune","hospital":"Jersey Shore University Medical Center","geo_score":0.714,"id":"a7jy0b5pggh6","geo_precision":"city","state":"New Jersey"},"type":"Feature","geometry":{"type":"Point","coordinates":[-74.071351,40.209551]}},{"properties":{"city":"Downers Grove","hospital":"Advocate Good Samaritan Hospital","geo_score":0.714,"id":"a7jy0ay6pqwg","geo_precision":"city","state":"Illinois"},"type":"Feature","geometry":{"type":"Point","coordinates":[-88.012267,41.796279]}},{"properties":{"city":"Durham","hospital":"Durham Regional Hospital","geo_score":0.714,"id":"a7jy0av683vr","geo_precision":"city","state":"North Carolina"},"type":"Feature","geometry":{"type":"Point","coordinates":[-78.906933,35.981803]}},{"properties":{"city":"Edina","hospital":"Fairview Southdale Hospital","geo_score":0.714,"id":"a7jy0b7j259d","geo_precision":"city","state":"Minnesota"},"type":"Feature","geometry":{"type":"Point","coordinates":[-92.346836,43.602187]}},{"properties":{"city":"Coon Rapids","hospital":"Mercy Hospital","geo_score":0.714,"id":"a7jy0ayj071i","geo_precision":"city","state":"Minnesota"},"type":"Feature","geometry":{"type":"Point","coordinates":[-92.740216,47.512132]}},{"properties":{"city":"Spokane","hospital":"Providence Sacred Heart Medical Center and Children's Hospital","geo_score":0.714,"id":"a7jy0awgihi4","geo_precision":"city","state":"Washington"},"type":"Feature","geometry":{"type":"Point","coordinates":[-117.435997,47.66264]}},{"properties":{"city":"Detroit","hospital":"Sinai-Grace Hospital","geo_score":0.714,"id":"a7jy0b0jp8te","geo_precision":"city","state":"Michigan"},"type":"Feature","geometry":{"type":"Point","coordinates":[-83.150823,42.239933]}},{"properties":{"city":"Richmond","hospital":"Bon Secours St. Mary's Hospital","geo_score":0.714,"id":"a7jy0b05upzm","geo_precision":"city","state":"Virginia"},"type":"Feature","geometry":{"type":"Point","coordinates":[-76.83774,37.914858]}},{"properties":{"city":"Detroit","hospital":"DMC Detroit Receiving Hospital","geo_score":0.714,"id":"a7jy0b90lv1o","geo_precision":"city","state":"Michigan"},"type":"Feature","geometry":{"type":"Point","coordinates":[-83.150823,42.239933]}},{"properties":{"city":"Columbia","hospital":"Howard County General Hospital","geo_score":0.714,"id":"a7jy0b6kukig","geo_precision":"city","state":"Maryland"},"type":"Feature","geometry":{"type":"Point","coordinates":[-76.887905,39.206132]}},{"properties":{"city":"Baltimore","hospital":"Johns Hopkins Bayview Medical Center","geo_score":0.714,"id":"a7jy0azichwj","geo_precision":"city","state":"Maryland"},"type":"Feature","geometry":{"type":"Point","coordinates":[-75.844658,39.058168]}},{"properties":{"city":"Boise","hospital":"St. Alphonsus Regional Medical Center","geo_score":0.714,"id":"a7jy0ay8z7iq","geo_precision":"city","state":"Idaho"},"type":"Feature","geometry":{"type":"Point","coordinates":[-116.272921,43.603768]}},{"properties":{"city":"Chicago","hospital":"Swedish Covenant Hospital","geo_score":0.714,"id":"a7jy0b814bsb","geo_precision":"city","state":"Illinois"},"type":"Feature","geometry":{"type":"Point","coordinates":[-87.68732,41.811929]}},{"properties":{"city":"Commerce Township","hospital":"Huron Valley-Sinai Hospital","geo_score":0.714,"id":"a7jy0b45332s","geo_precision":"city","state":"Michigan"},"type":"Feature","geometry":{"type":"Point","coordinates":[-83.500878,42.583382]}},{"properties":{"city":"Wynnewood","hospital":"Lankenau Hospital","geo_score":0.714,"id":"a7jy0aw8fmay","geo_precision":"city","state":"Pennsylvania"},"type":"Feature","geometry":{"type":"Point","coordinates":[-75.164822,40.051411]}},{"properties":{"city":"Providence","hospital":"Miriam Hospital","geo_score":0.714,"id":"a7jy0awh7sl3","geo_precision":"city","state":"Rhode Island"},"type":"Feature","geometry":{"type":"Point","coordinates":[-71.414451,41.82275]}},{"properties":{"city":"Roanoke","hospital":"Carilion Roanoke Memorial Hospital","geo_score":0.714,"id":"a7jy0baid2pi","geo_precision":"city","state":"Virginia"},"type":"Feature","geometry":{"type":"Point","coordinates":[-79.95786,37.274175]}},{"properties":{"city":"Charlotte","hospital":"Carolinas Medical Center-Mercy","geo_score":0.714,"id":"a7jy0avii9la","geo_precision":"city","state":"North Carolina"},"type":"Feature","geometry":{"type":"Point","coordinates":[-80.804151,35.26002]}},{"properties":{"city":"Mission Viejo","hospital":"Mission Hospital","geo_score":0.0,"id":"a7jy0b8bjztk","geo_precision":"unmatched","state":"California"},"type":"Feature","geometry":null},{"properties":{"city":"Portland","hospital":"Providence Portland Medical Center","geo_score":0.714,"id":"a7jy0b39sbcn","geo_precision":"city","state":"Oregon"},"type":"Feature","geometry":{"type":"Point","coordinates":[-122.693157,45.498931]}},{"properties":{"city":"Fort Worth","hospital":"Texas Health Harris Methodist Hospital","geo_score":0.714,"id":"a7jy0b4xs4iv","geo_precision":"city","state":"Texas"},"type":"Feature","geometry":{"type":"Point","coordinates":[-98.399458,29.049969]}},{"properties":{"city":"Dallas","hospital":"Texas Health Presbyterian Hospital","geo_score":0.714,"id":"a7jy0b1x7abw","geo_precision":"city","state":"Texas"},"type":"Feature","geometry":{"type":"Point","coordinates":[-96.240533,32.370699]}},{"properties":{"city":"Hilsdale","hospital":"Adventist Hinsdale Hospital","geo_score":0.714,"id":"a7jy0b4vjmb9","geo_precision":"city","state":"Illinois"},"type":"Feature","geometry":{"type":"Point","coordinates":[-90.606468,41.501771]}},{"properties":{"city":"Muncie","hospital":"Ball Memorial Hospital","geo_score":0.714,"id":"a7jy0aw6c63g","geo_precision":"city","state":"Indiana"},"type":"Feature","geometry":{"type":"Point","coordinates":[-85.389874,40.142124]}},{"properties":{"city":"Burnsville","hospital":"Fairview Ridges Hospital","geo_score":0.714,"id":"a7jy0b8ln16h","geo_precision":"city","state":"Minnesota"},"type":"Feature","geometry":{"type":"Point","coordinates":[-93.221535,44.762208]}},{"properties":{"city":"Carmel","hospital":"Indiana University Health North Hospital","geo_score":0.714,"id":"a7jy0b5thoal","geo_precision":"city","state":"Indiana"},"type":"Feature","geometry":{"type":"Point","coordinates":[-86.117215,40.071102]}},{"properties":{"city":"Portland","hospital":"Maine Medical Center","geo_score":0.714,"id":"a7jy0b2vk4pi","geo_precision":"city","state":"Maine"},"type":"Feature","geometry":{"type":"Point","coordinates":[-70.262393,43.658784]}},{"properties":{"city":"Houston","hospital":"Memorial Hermann Northwest Hospital","geo_score":0.714,"id":"a7jy0b1zlxlh","geo_precision":"city","state":"Texas"},"type":"Feature","geometry":{"type":"Point","coordinates":[-96.919704,29.845783]}},{"properties":{"city":"Mechanicsville","hospital":"Memorial Regional Medical Center","geo_score":0.714,"id":"a7jy0axwkhf1","geo_precision":"city","state":"Virginia"},"type":"Feature","geometry":{"type":"Point","coordinates":[-78.7878,38.667895]}},{"properties":{"city":"Paoli","hospital":"Paoli Hospital","geo_score":0.714,"id":"a7jy0auz8pls","geo_precision":"city","state":"Pennsylvania"},"type":"Feature","geometry":{"type":"Point","coordinates":[-76.80292,40.639199]}},{"properties":{"city":"Fridley","hospital":"Unity Hospital","geo_score":0.714,"id":"a7jy0b6u2nfe","geo_precision":"city","state":"Minnesota"},"type":"Feature","geometry":{"type":"Point","coordinates":[-93.263282,45.086077]}},{"properties":{"city":"San Antonio","hospital":"University Hospital","geo_score":0.714,"id":"a7jy0bacrmka","geo_precision":"city","state":"Texas"},"type":"Feature","geometry":{"type":"Point","coordinates":[-102.192713,33.770506]}},{"properties":{"city":"Ridgewood","hospital":"Valley Hospital","geo_score":0.714,"id":"a7jy0b6ik8ss","geo_precision":"city","state":"New Jersey"},"type":"Feature","geometry":{"type":"Point","coordinates":[-74.11207,40.982247]}},{"properties":{"city":"Baltimore","hospital":"St. Agnes Hospital","geo_score":0.714,"id":"a7jy0b31fotw","geo_precision":"city","state":"Maryland"},"type":"Feature","geometry":{"type":"Point","coordinates":[-75.844658,39.058168]}},{"properties":{"city":"Grand Rapids","hospital":"St. Mary's Health Care","geo_score":0.714,"id":"a7jy0b2dvv15","geo_precision":"city","state":"Michigan"},"type":"Feature","geometry":{"type":"Point","coordinates":[-85.306756,46.158336]}},{"properties":{"city":"Plano","hospital":"Texas Health Presbyterian Hospital","geo_score":0.714,"id":"a7jy0b7xnmlo","geo_precision":"city","state":"Texas"},"type":"Feature","geometry":{"type":"Point","coordinates":[-96.053859,32.337922]}},{"properties":{"city":"Pittsburgh","hospital":"UPMC Passavant","geo_score":0.714,"id":"a7jy0b3l90hl","geo_precision":"city","state":"Pennsylvania"},"type":"Feature","geometry":{"type":"Point","coordinates":[-80.024817,40.434436]}},{"properties":{"city":"Lafayette","hospital":"Indiana Health Arnett Hospital","geo_score":0.714,"id":"a7jy0ays25tn","geo_precision":"city","state":"Indiana"},"type":"Feature","geometry":{"type":"Point","coordinates":[-86.830286,40.39905]}},{"properties":{"city":"Bryn Mawr","hospital":"Bryn Mawr Hospital","geo_score":0.714,"id":"a7jy0b3ba0kw","geo_precision":"city","state":"Pennsylvania"},"type":"Feature","geometry":{"type":"Point","coordinates":[-76.001602,40.523982]}},{"properties":{"city":"Avon","hospital":"Clarian West Medical Center","geo_score":0.714,"id":"a7jy0b9ngtef","geo_precision":"city","state":"Indiana"},"type":"Feature","geometry":{"type":"Point","coordinates":[-86.488881,39.721434]}},{"properties":{"city":"Dayton","hospital":"Good Samaritan Hospital and Health Center","geo_score":0.714,"id":"a7jy0b3evke3","geo_precision":"city","state":"Ohio"},"type":"Feature","geometry":{"type":"Point","coordinates":[-84.268593,39.750471]}},{"properties":{"city":"Minneapolis","hospital":"Hennepin County Medical Center","geo_score":0.714,"id":"a7jy0b6mmmsa","geo_precision":"city","state":"Minnesota"},"type":"Feature","geometry":{"type":"Point","coordinates":[-93.273024,44.979265]}},{"properties":{"city":"Mount Kisco","hospital":"Northern Westchester Hospital","geo_score":0.714,"id":"a7jy0b6rweqz","geo_precision":"city","state":"New York"},"type":"Feature","geometry":{"type":"Point","coordinates":[-73.72286,41.197329]}},{"properties":{"city":"Goshen","hospital":"Orange Regional Medical Center","geo_score":0.714,"id":"a7jy0b3omt4d","geo_precision":"city","state":"New York"},"type":"Feature","geometry":{"type":"Point","coordinates":[-74.210608,41.357428]}},{"properties":{"city":"Peoria","hospital":"OSF St. Francis Medical Center","geo_score":0.714,"id":"a7jy0b21x0u7","geo_precision":"city","state":"Illinois"},"type":"Feature","geometry":{"type":"Point","coordinates":[-89.589847,40.693137]}},{"properties":{"city":"Providence","hospital":"Rhode Island Hospital","geo_score":0.714,"id":"a7jy0b22rsep","geo_precision":"city","state":"Rhode Island"},"type":"Feature","geometry":{"type":"Point","coordinates":[-71.414451,41.82275]}},{"properties":{"city":"Newport News","hospital":"Riverside Regional Medical Center","geo_score":0.714,"id":"a7jy0awkfh91","geo_precision":"city","state":"Virginia"},"type":"Feature","geometry":{"type":"Point","coordinates":[-76.463471,37.058296]}},{"properties":{"city":"Pittsburgh","hospital":"UPMC St. Margaret","geo_score":0.714,"id":"a7jy0b3oray1","geo_precision":"city","state":"Pennsylvania"},"type":"Feature","geometry":{"type":"Point","coordinates":[-80.024817,40.434436]}},{"properties":{"city":"Victorville","hospital":"Desert Valley Hospital","geo_score":0.714,"id":"a7jy0b9v92b5","geo_precision":"city","state":"California"},"type":"Feature","geometry":{"type":"Point","coordinates":[-114.754916,34.491985]}},{"properties":{"city":"Edinburg","hospital":"Doctors Hospital at Renaissance","geo_score":0.714,"id":"a7jy0b8lt954","geo_precision":"city","state":"Texas"},"type":"Feature","geometry":{"type":"Point","coordinates":[-98.139672,26.328674]}},{"properties":{"city":"Bangor","hospital":"Eastern Maine Medical Center","geo_score":0.714,"id":"a7jy0b8io8in","geo_precision":"city","state":"Maine"},"type":"Feature","geometry":{"type":"Point","coordinates":[-68.878893,45.061744]}},{"properties":{"city":"Frederick","hospital":"Frederick Memorial Hospital","geo_score":0.714,"id":"a7jy0b4nw7zs","geo_precision":"city","state":"Maryland"},"type":"Feature","geometry":{"type":"Point","coordinates":[-75.883828,39.366223]}},{"properties":{"city":"Hays","hospital":"Hays Medical Center","geo_score":0.714,"id":"a7jy0b2m72lt","geo_precision":"city","state":"Kansas"},"type":"Feature","geometry":{"type":"Point","coordinates":[-99.334803,38.878202]}},{"properties":{"city":"Sioux City","hospital":"Mercy Medical Center-Sioux City","geo_score":0.714,"id":"a7jy0b50380l","geo_precision":"city","state":"Iowa"},"type":"Feature","geometry":{"type":"Point","coordinates":[-92.161281,43.198027]}},{"properties":{"city":"Naples","hospital":"Naples Community Hospital","geo_score":0.714,"id":"a7jy0avyejxr","geo_precision":"city","state":"Florida"},"type":"Feature","geometry":{"type":"Point","coordinates":[-81.79481,26.142036]}},{"properties":{"city":"Woodbridge","hospital":"Potomac Hospital","geo_score":0.714,"id":"a7jy0avheym9","geo_precision":"city","state":"Virginia"},"type":"Feature","geometry":{"type":"Point","coordinates":[-77.271644,38.625541]}},{"properties":{"city":"Red Bank","hospital":"Riverview Medical Center","geo_score":0.714,"id":"a7jy0b9n9mn9","geo_precision":"city","state":"New Jersey"},"type":"Feature","geometry":{"type":"Point","coordinates":[-74.068143,40.358409]}},{"properties":{"city":"Jackson","hospital":"St. Dominic-Jackson Memorial Hospital","geo_score":0.0,"id":"a7jy0az1k4is","geo_precision":"unmatched","state":"Mssissippi"},"type":"Feature","geometry":null},{"properties":{"city":"Fullerton","hospital":"St. Jude Medical Center","geo_score":0.714,"id":"a7jy0azqypv9","geo_precision":"city","state":"California"},"type":"Feature","geometry":{"type":"Point","coordinates":[-117.925338,33.870292]}},{"properties":{"city":"Madison","hospital":"St. Mary's Hospital","geo_score":0.714,"id":"a7jy0aubfakh","geo_precision":"city","state":"Wisconsin"},"type":"Feature","geometry":{"type":"Point","coordinates":[-89.423861,43.06956]}},{"properties":{"city":"Tacoma","hospital":"Tacoma General Hospital","geo_score":0.714,"id":"a7jy0awsogyt","geo_precision":"city","state":"Washington"},"type":"Feature","geometry":{"type":"Point","coordinates":[-122.444335,47.253671]}},{"properties":{"city":"Fullerton","hospital":"St. Jude Medical Center","geo_score":0.714,"id":"a7jy0ax4xbgb","geo_precision":"city","state":"California"},"type":"Feature","geometry":{"type":"Point","coordinates":[-117.925338,33.870292]}},{"properties":{"city":"Madison","hospital":"St. Mary's Hospital","geo_score":0.714,"id":"a7jy0ax17n44","geo_precision":"city","state":"Wisconsin"},"type":"Feature","geometry":{"type":"Point","coordinates":[-89.423861,43.06956]}},{"properties":{"city":"Tacoma","hospital":"Tacoma General Hospital","geo_score":0.714,"id":"a7jy0ax4yj3x","geo_precision":"city","state":"Washington"},"type":"Feature","geometry":{"type":"Point","coordinates":[-122.444335,47.253671]}},{"properties":{"city":"Arlington","hospital":"Texas Health Arlington Memorial Hospital","geo_score":0.714,"id":"a7jy0b9ynww1","geo_precision":"city","state":"Texas"},"type":"Feature","geometry":{"type":"Point","coordinates":[-97.291484,32.771419]}},{"properties":{"city":"Pittsburgh","hospital":"UPMC Mercy","geo_score":0.714,"id":"a7jy0b9tfcdb","geo_precision":"city","state":"Pennsylvania"},"type":"Feature","geometry":{"type":"Point","coordinates":[-80.024817,40.434436]}},{"properties":{"city":"White Plains","hospital":"White Plains Hospital Center","geo_score":0.714,"id":"a7jy0ax5gkx3","geo_precision":"city","state":"New York"},"type":"Feature","geometry":{"type":"Point","coordinates":[-73.769626,41.031397]}},{"properties":{"city":"La Grange","hospital":"Adventist La Grange Memorial Hospital","geo_score":0.714,"id":"a7jy0b73k006","geo_precision":"city","state":"Illinois"},"type":"Feature","geometry":{"type":"Point","coordinates":[-87.68732,41.811929]}},{"properties":{"city":"Libertyville","hospital":"Advocate Condell Medical Center","geo_score":0.714,"id":"a7jy0aw2ha5d","geo_precision":"city","state":"Illinois"},"type":"Feature","geometry":{"type":"Point","coordinates":[-87.957724,42.28947]}},{"properties":{"city":"Annapolis","hospital":"Anne Arundel Medical Center","geo_score":0.714,"id":"a7jy0b8j0qrt","geo_precision":"city","state":"Maryland"},"type":"Feature","geometry":{"type":"Point","coordinates":[-77.131648,39.281772]}},{"properties":{"city":"Inglewood","hospital":"Centinela Hospital Medical Center","geo_score":0.714,"id":"a7jy0az5ihzp","geo_precision":"city","state":"California"},"type":"Feature","geometry":{"type":"Point","coordinates":[-118.298662,33.786594]}},{"properties":{"city":"Webster","hospital":"Clear Lake Regional Medical Center","geo_score":0.714,"id":"a7jy0aykiyou","geo_precision":"city","state":"Texas"},"type":"Feature","geometry":{"type":"Point","coordinates":[-95.128758,29.550411]}},{"properties":{"city":"Sebring","hospital":"Florida Hospital Heartland","geo_score":0.714,"id":"a7jy0ax9pctc","geo_precision":"city","state":"Florida"},"type":"Feature","geometry":{"type":"Point","coordinates":[-81.373012,27.457947]}},{"properties":{"city":"Brockton","hospital":"Good Samaritan Medical Center","geo_score":0.571,"id":"a7jy0b1g9p1x","geo_precision":"city","state":"Massachussets"},"type":"Feature","geometry":{"type":"Point","coordinates":[-79.432622,42.316748]}},{"properties":{"city":"St. Joseph","hospital":"Heartland Regional Medical Center","geo_score":0.0,"id":"a7jy0b4ys2xz","geo_precision":"unmatched","state":"Missouri"},"type":"Feature","geometry":null},{"properties":{"city":"Katy","hospital":"Memorial Hermann Katy Hospital","geo_score":0.714,"id":"a7jy0b2vun5r","geo_precision":"city","state":"Texas"},"type":"Feature","geometry":{"type":"Point","coordinates":[-96.671371,31.38323]}},{"properties":{"city":"Houston","hospital":"Memorial Hermann Memorial City Medical Center","geo_score":0.714,"id":"a7jy0b0j05b8","geo_precision":"city","state":"Texas"},"type":"Feature","geometry":{"type":"Point","coordinates":[-96.919704,29.845783]}},{"properties":{"city":"Puyallup","hospital":"MultiCare Good Samaritan Hospital","geo_score":0.714,"id":"a7jy0b0bqqqw","geo_precision":"city","state":"Washington"},"type":"Feature","geometry":{"type":"Point","coordinates":[-122.317148,47.212822]}},{"properties":{"city":"Newport","hospital":"Newport Hospital","geo_score":0.714,"id":"a7jy0auvejma","geo_precision":"city","state":"Rhode Island"},"type":"Feature","geometry":{"type":"Point","coordinates":[-71.327084,41.487552]}},{"properties":{"city":"Norwalk","hospital":"Norwalk Hospital","geo_score":0.571,"id":"a7jy0b67whug","geo_precision":"city","state":"Conneticut"},"type":"Feature","geometry":{"type":"Point","coordinates":[-95.135017,45.283574]}},{"properties":{"city":"Brick Township","hospital":"Ocean Medical Center","geo_score":0.0,"id":"a7jy0awe8j57","geo_precision":"unmatched","state":"New Jersey"},"type":"Feature","geometry":null},{"properties":{"city":"Bloomington","hospital":"OSF St. Joseph Medical Center","geo_score":0.714,"id":"a7jy0b75nkxw","geo_precision":"city","state":"Illinois"},"type":"Feature","geometry":{"type":"Point","coordinates":[-89.033689,40.480592]}},{"properties":{"city":"Baton Rouge","hospital":"Our Lady of Lake Regional Medical Center","geo_score":0.714,"id":"a7jy0b7ptejv","geo_precision":"city","state":"Louisiana"},"type":"Feature","geometry":{"type":"Point","coordinates":[-92.176237,30.159092]}},{"properties":{"city":"Salisbury","hospital":"Peninsula Regional Medical Center","geo_score":0.714,"id":"a7jy0aukibyc","geo_precision":"city","state":"Maryland"},"type":"Feature","geometry":{"type":"Point","coordinates":[-75.633621,38.382445]}},{"properties":{"city":"Harrisburg","hospital":"PinnacleHealth Hospitals","geo_score":0.714,"id":"a7jy0b24uprd","geo_precision":"city","state":"Pennsylvania"},"type":"Feature","geometry":{"type":"Point","coordinates":[-76.869644,40.264589]}},{"properties":{"city":"Anchorage","hospital":"Providence Alaska Medical Center","geo_score":0.714,"id":"a7jy0b0imvsf","geo_precision":"city","state":"Alaska"},"type":"Feature","geometry":{"type":"Point","coordinates":[-149.486981,61.287624]}},{"properties":{"city":"Sleepy Hollow","hospital":"Phelps Memorial Hospital Center","geo_score":0.714,"id":"a7jy0b4pa4ku","geo_precision":"city","state":"New York"},"type":"Feature","geometry":{"type":"Point","coordinates":[-77.063876,42.796578]}},{"properties":{"city":"Lake St. Louis","hospital":"SSM St. Joseph Hospital West","geo_score":0.714,"id":"a7jy0b2of9wo","geo_precision":"city","state":"Missouri"},"type":"Feature","geometry":{"type":"Point","coordinates":[-94.255225,39.110283]}}],"is_temporal":false,"author":{"url":"http://health.usnews.com/health-news/most-connected-hospitals/articles/2012/07/16/most-connected-hospitals-the-list","metadata":"","contact_name":"","contact_address":"","source":"US News and World Reports","contact_phone":""},"source":"http://health.usnews.com/health-news/most-connected-hospitals/articles/2012/07/16/most-connected-hospitals-the-list","pagination":{"sort":null,"start":0,"total":129,"limit":1000000},"state":"complete","tags":"","published":"2014-08-14T21:25:44-04:00","id":264792}