{"type":"FeatureCollection","data_type":"Dataset","url_type":null,"permissions":[{"permissions":{"download":true,"view":true},"group_id":"everyone"}],"classification":null,"title":"Great Bear Geographic Reach","count":547,"stream_id":265338,"contributor":{"url":"http://geocommons.com/users/50011","name":"amandajenson"},"data_attributes":null,"calculation_params":null,"icon_link":null,"link":"http://geocommons.com/overlays/265338.json","extent":[-99.7262,41.0747,-93.7352,45.835],"geometry_types":["point"],"unique_name":null,"name":"Great Bear Geographic Reach","feature_count":547,"description":"","next_feature":null,"is_raster":false,"short_classification":"Y","stats":{},"features":[{"properties":{"city":"Fort Dodge","geo_score":0.857,"zip code":"50501","id":"a7lttpc10f6a","geo_precision":"zip","state":"IA"},"type":"Feature","geometry":{"type":"Point","coordinates":[-94.2958,42.500249]}},{"properties":{"city":"Albert City","geo_score":0.857,"zip code":"50510","id":"a7lttp5vdqco","geo_precision":"zip","state":"IA"},"type":"Feature","geometry":{"type":"Point","coordinates":[-95.151118,42.735002]}},{"properties":{"city":"Algona","geo_score":0.857,"zip code":"50511","id":"a7lttp9bm97t","geo_precision":"zip","state":"IA"},"type":"Feature","geometry":{"type":"Point","coordinates":[-94.064401,43.038022]}},{"properties":{"city":"Armstrong","geo_score":0.857,"zip code":"50514","id":"a7lttpcjd0m6","geo_precision":"zip","state":"IA"},"type":"Feature","geometry":{"type":"Point","coordinates":[-94.531703,43.407517]}},{"properties":{"city":"Ayrshire","geo_score":0.857,"zip code":"50515","id":"a7lttphbgh4u","geo_precision":"zip","state":"IA"},"type":"Feature","geometry":{"type":"Point","coordinates":[-94.855316,43.01825]}},{"properties":{"city":"Badger","geo_score":0.857,"zip code":"50516","id":"a7lttp4trfau","geo_precision":"zip","state":"IA"},"type":"Feature","geometry":{"type":"Point","coordinates":[-94.148103,42.601287]}},{"properties":{"city":"Bancroft","geo_score":0.857,"zip code":"50517","id":"a7lttpbfpkja","geo_precision":"zip","state":"IA"},"type":"Feature","geometry":{"type":"Point","coordinates":[-94.251434,43.306166]}},{"properties":{"city":"Barnum","geo_score":0.857,"zip code":"50518","id":"a7lttp8ou94m","geo_precision":"zip","state":"IA"},"type":"Feature","geometry":{"type":"Point","coordinates":[-94.369181,42.552043]}},{"properties":{"city":"Bode","geo_score":0.857,"zip code":"50519","id":"a7lttpfs1a7u","geo_precision":"zip","state":"IA"},"type":"Feature","geometry":{"type":"Point","coordinates":[-94.227185,42.913303]}},{"properties":{"city":"Bradgate","geo_score":0.857,"zip code":"50520","id":"a7lttp4l85st","geo_precision":"zip","state":"IA"},"type":"Feature","geometry":{"type":"Point","coordinates":[-94.358387,42.801126]}},{"properties":{"city":"Burnside","geo_score":0.857,"zip code":"50521","id":"a7lttpdhdjjk","geo_precision":"zip","state":"IA"},"type":"Feature","geometry":{"type":"Point","coordinates":[-94.116205,42.346605]}},{"properties":{"city":"Burt","geo_score":0.857,"zip code":"50522","id":"a7lttpasenlw","geo_precision":"zip","state":"IA"},"type":"Feature","geometry":{"type":"Point","coordinates":[-94.177422,43.183395]}},{"properties":{"city":"Callender","geo_score":0.857,"zip code":"50523","id":"a7lttp9945kg","geo_precision":"zip","state":"IA"},"type":"Feature","geometry":{"type":"Point","coordinates":[-94.280864,42.347134]}},{"properties":{"city":"Clare","geo_score":0.857,"zip code":"50524","id":"a7lttp68gw5w","geo_precision":"zip","state":"IA"},"type":"Feature","geometry":{"type":"Point","coordinates":[-94.212455,42.514307]}},{"properties":{"city":"Clarion","geo_score":0.857,"zip code":"50525","id":"a7lttp5t2vma","geo_precision":"zip","state":"IA"},"type":"Feature","geometry":{"type":"Point","coordinates":[-93.833831,42.739138]}},{"properties":{"city":"Clarion","geo_score":0.857,"zip code":"50526","id":"a7lttpb8vrf1","geo_precision":"zip","state":"IA"},"type":"Feature","geometry":{"type":"Point","coordinates":[-93.73523,42.733001]}},{"properties":{"city":"Curlew","geo_score":0.857,"zip code":"50527","id":"a7lttpg0qh2s","geo_precision":"zip","state":"IA"},"type":"Feature","geometry":{"type":"Point","coordinates":[-94.769596,42.970187]}},{"properties":{"city":"Cylinder","geo_score":0.857,"zip code":"50528","id":"a7lttp9ati57","geo_precision":"zip","state":"IA"},"type":"Feature","geometry":{"type":"Point","coordinates":[-94.542477,43.18413]}},{"properties":{"city":"Dakota City","geo_score":0.857,"zip code":"50529","id":"a7lttpi74g2r","geo_precision":"zip","state":"IA"},"type":"Feature","geometry":{"type":"Point","coordinates":[-94.243675,42.73695]}},{"properties":{"city":"Dayton","geo_score":0.857,"zip code":"50530","id":"a7lttp6w7my8","geo_precision":"zip","state":"IA"},"type":"Feature","geometry":{"type":"Point","coordinates":[-94.110777,42.281924]}},{"properties":{"city":"Dolliver","geo_score":0.857,"zip code":"50531","id":"a7lttpb7vl1k","geo_precision":"zip","state":"IA"},"type":"Feature","geometry":{"type":"Point","coordinates":[-94.610236,43.449975]}},{"properties":{"city":"Duncombe","geo_score":0.857,"zip code":"50532","id":"a7lttp7zaivr","geo_precision":"zip","state":"IA"},"type":"Feature","geometry":{"type":"Point","coordinates":[-94.01023,42.430804]}},{"properties":{"city":"Eagle Grove","geo_score":0.857,"zip code":"50533","id":"a7lttp4j4tln","geo_precision":"zip","state":"IA"},"type":"Feature","geometry":{"type":"Point","coordinates":[-93.882675,42.646337]}},{"properties":{"city":"Early","geo_score":0.857,"zip code":"50535","id":"a7lttp7vxbhs","geo_precision":"zip","state":"IA"},"type":"Feature","geometry":{"type":"Point","coordinates":[-95.16624,42.458243]}},{"properties":{"city":"Emmetsburg","geo_score":0.857,"zip code":"50536","id":"a7lttpgioji0","geo_precision":"zip","state":"IA"},"type":"Feature","geometry":{"type":"Point","coordinates":[-94.690755,43.118345]}},{"properties":{"city":"Farnhamville","geo_score":0.857,"zip code":"50538","id":"a7lttpf8qqw5","geo_precision":"zip","state":"IA"},"type":"Feature","geometry":{"type":"Point","coordinates":[-94.465144,42.279298]}},{"properties":{"city":"Fenton","geo_score":0.857,"zip code":"50539","id":"a7lttp6mo6xv","geo_precision":"zip","state":"IA"},"type":"Feature","geometry":{"type":"Point","coordinates":[-94.384458,43.241336]}},{"properties":{"city":"Fonda","geo_score":0.857,"zip code":"50540","id":"a7lttp8dev29","geo_precision":"zip","state":"IA"},"type":"Feature","geometry":{"type":"Point","coordinates":[-94.797046,42.646211]}},{"properties":{"city":"Gilmore City","geo_score":0.857,"zip code":"50541","id":"a7lttp6p5o75","geo_precision":"zip","state":"IA"},"type":"Feature","geometry":{"type":"Point","coordinates":[-94.39247,42.653862]}},{"properties":{"city":"Goldfield","geo_score":0.857,"zip code":"50542","id":"a7lttph0s8pe","geo_precision":"zip","state":"IA"},"type":"Feature","geometry":{"type":"Point","coordinates":[-93.91222,42.785534]}},{"properties":{"city":"Gowrie","geo_score":0.857,"zip code":"50543","id":"a7lttp4raksu","geo_precision":"zip","state":"IA"},"type":"Feature","geometry":{"type":"Point","coordinates":[-94.37858,42.341366]}},{"properties":{"city":"Harcourt","geo_score":0.857,"zip code":"50544","id":"a7lttpjru366","geo_precision":"zip","state":"IA"},"type":"Feature","geometry":{"type":"Point","coordinates":[-94.16463,42.260243]}},{"properties":{"city":"Hardy","geo_score":0.857,"zip code":"50545","id":"a7lttp7ih1h7","geo_precision":"zip","state":"IA"},"type":"Feature","geometry":{"type":"Point","coordinates":[-94.079932,42.797529]}},{"properties":{"city":"Havelock","geo_score":0.857,"zip code":"50546","id":"a7lttpe999w5","geo_precision":"zip","state":"IA"},"type":"Feature","geometry":{"type":"Point","coordinates":[-94.759149,42.790251]}},{"properties":{"city":"Humboldt","geo_score":0.857,"zip code":"50548","id":"a7lttpkgt6y7","geo_precision":"zip","state":"IA"},"type":"Feature","geometry":{"type":"Point","coordinates":[-94.207763,42.775833]}},{"properties":{"city":"Jolley","geo_score":0.857,"zip code":"50551","id":"a7lttpbzmkgp","geo_precision":"zip","state":"IA"},"type":"Feature","geometry":{"type":"Point","coordinates":[-94.756959,42.487057]}},{"properties":{"city":"Knierim","geo_score":0.857,"zip code":"50552","id":"a7lttphom4li","geo_precision":"zip","state":"IA"},"type":"Feature","geometry":{"type":"Point","coordinates":[-94.458642,42.42361]}},{"properties":{"city":"Laurens","geo_score":0.857,"zip code":"50554","id":"a7lttpe2xfxm","geo_precision":"zip","state":"IA"},"type":"Feature","geometry":{"type":"Point","coordinates":[-94.835889,42.821248]}},{"properties":{"city":"Ledyard","geo_score":0.857,"zip code":"50556","id":"a7lttp67kox5","geo_precision":"zip","state":"IA"},"type":"Feature","geometry":{"type":"Point","coordinates":[-94.187319,43.443079]}},{"properties":{"city":"Lehigh","geo_score":0.857,"zip code":"50557","id":"a7lttpglhfnw","geo_precision":"zip","state":"IA"},"type":"Feature","geometry":{"type":"Point","coordinates":[-94.048108,42.390452]}},{"properties":{"city":"Livermore","geo_score":0.857,"zip code":"50558","id":"a7lttp4zwjl0","geo_precision":"zip","state":"IA"},"type":"Feature","geometry":{"type":"Point","coordinates":[-94.163578,42.841534]}},{"properties":{"city":"Lone Rock","geo_score":0.857,"zip code":"50559","id":"a7lttpk4edi9","geo_precision":"zip","state":"IA"},"type":"Feature","geometry":{"type":"Point","coordinates":[-94.366359,43.156631]}},{"properties":{"city":"Lu Verne","geo_score":0.857,"zip code":"50560","id":"a7lttp5dhpu8","geo_precision":"zip","state":"IA"},"type":"Feature","geometry":{"type":"Point","coordinates":[-94.020788,42.949135]}},{"properties":{"city":"Lytton","geo_score":0.857,"zip code":"50561","id":"a7lttp5gs9nm","geo_precision":"zip","state":"IA"},"type":"Feature","geometry":{"type":"Point","coordinates":[-94.821328,42.421312]}},{"properties":{"city":"Mallard","geo_score":0.857,"zip code":"50562","id":"a7lttph3ua5w","geo_precision":"zip","state":"IA"},"type":"Feature","geometry":{"type":"Point","coordinates":[-94.644417,42.973755]}},{"properties":{"city":"Manson","geo_score":0.857,"zip code":"50563","id":"a7lttpbaw9ku","geo_precision":"zip","state":"IA"},"type":"Feature","geometry":{"type":"Point","coordinates":[-94.57695,42.50089]}},{"properties":{"city":"Marathon","geo_score":0.857,"zip code":"50565","id":"a7lttp4hoche","geo_precision":"zip","state":"IA"},"type":"Feature","geometry":{"type":"Point","coordinates":[-94.9984,42.858254]}},{"properties":{"city":"Moorland","geo_score":0.857,"zip code":"50566","id":"a7lttp6xao89","geo_precision":"zip","state":"IA"},"type":"Feature","geometry":{"type":"Point","coordinates":[-94.357469,42.413586]}},{"properties":{"city":"Nemaha","geo_score":0.857,"zip code":"50567","id":"a7lttpf9n690","geo_precision":"zip","state":"IA"},"type":"Feature","geometry":{"type":"Point","coordinates":[-95.104435,42.509655]}},{"properties":{"city":"Newell","geo_score":0.857,"zip code":"50568","id":"a7lttp4tyrtk","geo_precision":"zip","state":"IA"},"type":"Feature","geometry":{"type":"Point","coordinates":[-95.003782,42.705762]}},{"properties":{"city":"Otho","geo_score":0.857,"zip code":"50569","id":"a7lttp3ztcwr","geo_precision":"zip","state":"IA"},"type":"Feature","geometry":{"type":"Point","coordinates":[-94.131903,42.431082]}},{"properties":{"city":"Ottosen","geo_score":0.857,"zip code":"50570","id":"a7lttp43iesq","geo_precision":"zip","state":"IA"},"type":"Feature","geometry":{"type":"Point","coordinates":[-94.374343,42.841797]}},{"properties":{"city":"Palmer","geo_score":0.857,"zip code":"50571","id":"a7lttp4ss3zw","geo_precision":"zip","state":"IA"},"type":"Feature","geometry":{"type":"Point","coordinates":[-94.560735,42.645733]}},{"properties":{"city":"Plover","geo_score":0.857,"zip code":"50573","id":"a7lttp52821r","geo_precision":"zip","state":"IA"},"type":"Feature","geometry":{"type":"Point","coordinates":[-94.619745,42.864825]}},{"properties":{"city":"Pocahontas","geo_score":0.857,"zip code":"50574","id":"a7lttp4qrs83","geo_precision":"zip","state":"IA"},"type":"Feature","geometry":{"type":"Point","coordinates":[-94.650755,42.726507]}},{"properties":{"city":"Pomeroy","geo_score":0.857,"zip code":"50575","id":"a7lttpjwjv5k","geo_precision":"zip","state":"IA"},"type":"Feature","geometry":{"type":"Point","coordinates":[-94.678445,42.519205]}},{"properties":{"city":"Rembrandt","geo_score":0.857,"zip code":"50576","id":"a7lttpcjj0f9","geo_precision":"zip","state":"IA"},"type":"Feature","geometry":{"type":"Point","coordinates":[-95.141444,42.825241]}},{"properties":{"city":"Renwick","geo_score":0.857,"zip code":"50577","id":"a7lttpfi86td","geo_precision":"zip","state":"IA"},"type":"Feature","geometry":{"type":"Point","coordinates":[-94.1314,42.844755]}},{"properties":{"city":"Ringsted","geo_score":0.857,"zip code":"50578","id":"a7lttp5d8730","geo_precision":"zip","state":"IA"},"type":"Feature","geometry":{"type":"Point","coordinates":[-94.560669,43.31281]}},{"properties":{"city":"Rockwell City","geo_score":0.857,"zip code":"50579","id":"a7lttpiqe8a6","geo_precision":"zip","state":"IA"},"type":"Feature","geometry":{"type":"Point","coordinates":[-94.553587,42.36498]}},{"properties":{"city":"Rolfe","geo_score":0.857,"zip code":"50581","id":"a7lttp549f4d","geo_precision":"zip","state":"IA"},"type":"Feature","geometry":{"type":"Point","coordinates":[-94.642302,42.744133]}},{"properties":{"city":"Rutland","geo_score":0.857,"zip code":"50582","id":"a7lttpf6dpie","geo_precision":"zip","state":"IA"},"type":"Feature","geometry":{"type":"Point","coordinates":[-94.305614,42.79315]}},{"properties":{"city":"Sac City","geo_score":0.857,"zip code":"50583","id":"a7lttp6299ei","geo_precision":"zip","state":"IA"},"type":"Feature","geometry":{"type":"Point","coordinates":[-94.992967,42.439752]}},{"properties":{"city":"Sioux Rapids","geo_score":0.857,"zip code":"50585","id":"a7lttpbuwsnl","geo_precision":"zip","state":"IA"},"type":"Feature","geometry":{"type":"Point","coordinates":[-95.139993,42.944419]}},{"properties":{"city":"Somers","geo_score":0.857,"zip code":"50586","id":"a7lttpcvy2tk","geo_precision":"zip","state":"IA"},"type":"Feature","geometry":{"type":"Point","coordinates":[-94.454529,42.386479]}},{"properties":{"city":"Rinard","geo_score":0.857,"zip code":"50587","id":"a7lttpf13lui","geo_precision":"zip","state":"IA"},"type":"Feature","geometry":{"type":"Point","coordinates":[-94.488618,42.339118]}},{"properties":{"city":"Storm Lake","geo_score":0.857,"zip code":"50588","id":"a7lttpaukhsz","geo_precision":"zip","state":"IA"},"type":"Feature","geometry":{"type":"Point","coordinates":[-95.228607,42.624147]}},{"properties":{"city":"Swea City","geo_score":0.857,"zip code":"50590","id":"a7lttpjy02ri","geo_precision":"zip","state":"IA"},"type":"Feature","geometry":{"type":"Point","coordinates":[-94.295584,43.283285]}},{"properties":{"city":"Thor","geo_score":0.857,"zip code":"50591","id":"a7lttp8hcguu","geo_precision":"zip","state":"IA"},"type":"Feature","geometry":{"type":"Point","coordinates":[-94.059946,42.77609]}},{"properties":{"city":"Truesdale","geo_score":0.857,"zip code":"50592","id":"a7lttpfuf7s1","geo_precision":"zip","state":"IA"},"type":"Feature","geometry":{"type":"Point","coordinates":[-95.185325,42.726167]}},{"properties":{"city":"Varina","geo_score":0.857,"zip code":"50593","id":"a7lttpjrep3p","geo_precision":"zip","state":"IA"},"type":"Feature","geometry":{"type":"Point","coordinates":[-94.897858,42.659794]}},{"properties":{"city":"Vincent","geo_score":0.857,"zip code":"50594","id":"a7lttp69lgt9","geo_precision":"zip","state":"IA"},"type":"Feature","geometry":{"type":"Point","coordinates":[-94.030651,42.581749]}},{"properties":{"city":"Webster City","geo_score":0.857,"zip code":"50595","id":"a7lttp78xjbh","geo_precision":"zip","state":"IA"},"type":"Feature","geometry":{"type":"Point","coordinates":[-93.825581,42.434161]}},{"properties":{"city":"West Bend","geo_score":0.857,"zip code":"50597","id":"a7lttpji3chd","geo_precision":"zip","state":"IA"},"type":"Feature","geometry":{"type":"Point","coordinates":[-94.501553,43.002465]}},{"properties":{"city":"Whittemore","geo_score":0.857,"zip code":"50598","id":"a7lttp7c0dmu","geo_precision":"zip","state":"IA"},"type":"Feature","geometry":{"type":"Point","coordinates":[-94.389877,43.082501]}},{"properties":{"city":"Woolstock","geo_score":0.857,"zip code":"50599","id":"a7lttpacfyvc","geo_precision":"zip","state":"IA"},"type":"Feature","geometry":{"type":"Point","coordinates":[-93.794414,42.600976]}},{"properties":{"city":"Akron","geo_score":0.857,"zip code":"51001","id":"a7lttpdxd1rv","geo_precision":"zip","state":"IA"},"type":"Feature","geometry":{"type":"Point","coordinates":[-96.462952,42.822482]}},{"properties":{"city":"Alta","geo_score":0.857,"zip code":"51002","id":"a7lttpd18y0g","geo_precision":"zip","state":"IA"},"type":"Feature","geometry":{"type":"Point","coordinates":[-95.151121,42.735364]}},{"properties":{"city":"Alton","geo_score":0.857,"zip code":"51003","id":"a7lttpbtcv47","geo_precision":"zip","state":"IA"},"type":"Feature","geometry":{"type":"Point","coordinates":[-96.056964,42.92721]}},{"properties":{"city":"Anthon","geo_score":0.857,"zip code":"51004","id":"a7lttpcjxxec","geo_precision":"zip","state":"IA"},"type":"Feature","geometry":{"type":"Point","coordinates":[-95.962495,42.336668]}},{"properties":{"city":"Aurelia","geo_score":0.857,"zip code":"51005","id":"a7lttp8jyqox","geo_precision":"zip","state":"IA"},"type":"Feature","geometry":{"type":"Point","coordinates":[-95.534693,42.719513]}},{"properties":{"city":"Battle Creek","geo_score":0.857,"zip code":"51006","id":"a7lttpc9tnq0","geo_precision":"zip","state":"IA"},"type":"Feature","geometry":{"type":"Point","coordinates":[-95.546574,42.359052]}},{"properties":{"city":"Bronson","geo_score":0.857,"zip code":"51007","id":"a7lttpbdx5h5","geo_precision":"zip","state":"IA"},"type":"Feature","geometry":{"type":"Point","coordinates":[-96.165179,42.421334]}},{"properties":{"city":"Brunsville","geo_score":0.857,"zip code":"51008","id":"a7lttpfv9k6e","geo_precision":"zip","state":"IA"},"type":"Feature","geometry":{"type":"Point","coordinates":[-96.26257,42.809252]}},{"properties":{"city":"Calumet","geo_score":0.857,"zip code":"51009","id":"a7lttpek9cjr","geo_precision":"zip","state":"IA"},"type":"Feature","geometry":{"type":"Point","coordinates":[-95.570082,42.9552]}},{"properties":{"city":"Castana","geo_score":0.857,"zip code":"51010","id":"a7lttp7517bl","geo_precision":"zip","state":"IA"},"type":"Feature","geometry":{"type":"Point","coordinates":[-95.903339,42.080842]}},{"properties":{"city":"Chatsworth","geo_score":0.857,"zip code":"51011","id":"a7lttp73pjxd","geo_precision":"zip","state":"IA"},"type":"Feature","geometry":{"type":"Point","coordinates":[-96.494824,42.926468]}},{"properties":{"city":"Cherokee","geo_score":0.857,"zip code":"51012","id":"a7lttp5x3le6","geo_precision":"zip","state":"IA"},"type":"Feature","geometry":{"type":"Point","coordinates":[-95.574297,42.721535]}},{"properties":{"city":"Cleghorn","geo_score":0.857,"zip code":"51014","id":"a7lttpj38qyl","geo_precision":"zip","state":"IA"},"type":"Feature","geometry":{"type":"Point","coordinates":[-95.701743,42.779201]}},{"properties":{"city":"Climbing Hill","geo_score":0.857,"zip code":"51015","id":"a7lttph6iw8f","geo_precision":"zip","state":"IA"},"type":"Feature","geometry":{"type":"Point","coordinates":[-96.087523,42.345024]}},{"properties":{"city":"Correctionville","geo_score":0.857,"zip code":"51016","id":"a7lttpafvhth","geo_precision":"zip","state":"IA"},"type":"Feature","geometry":{"type":"Point","coordinates":[-95.969596,42.394029]}},{"properties":{"city":"Craig","geo_score":0.857,"zip code":"51017","id":"a7lttpdth2rg","geo_precision":"zip","state":"IA"},"type":"Feature","geometry":{"type":"Point","coordinates":[-96.309509,42.896225]}},{"properties":{"city":"Cushing","geo_score":0.857,"zip code":"51018","id":"a7lttp68blzi","geo_precision":"zip","state":"IA"},"type":"Feature","geometry":{"type":"Point","coordinates":[-96.015944,42.355069]}},{"properties":{"city":"Danbury","geo_score":0.857,"zip code":"51019","id":"a7lttpf66szh","geo_precision":"zip","state":"IA"},"type":"Feature","geometry":{"type":"Point","coordinates":[-96.016316,42.339186]}},{"properties":{"city":"Galva","geo_score":0.857,"zip code":"51020","id":"a7lttpbz0nm3","geo_precision":"zip","state":"IA"},"type":"Feature","geometry":{"type":"Point","coordinates":[-95.430208,42.487916]}},{"properties":{"city":"Granville","geo_score":0.857,"zip code":"51022","id":"a7lttpgmzba3","geo_precision":"zip","state":"IA"},"type":"Feature","geometry":{"type":"Point","coordinates":[-96.086114,42.974677]}},{"properties":{"city":"Hawarden","geo_score":0.857,"zip code":"51023","id":"a7lttp834o0o","geo_precision":"zip","state":"IA"},"type":"Feature","geometry":{"type":"Point","coordinates":[-96.263075,43.022799]}},{"properties":{"city":"Hinton","geo_score":0.857,"zip code":"51024","id":"a7lttp3z1sr8","geo_precision":"zip","state":"IA"},"type":"Feature","geometry":{"type":"Point","coordinates":[-96.156133,42.663602]}},{"properties":{"city":"Holstein","geo_score":0.857,"zip code":"51025","id":"a7lttp4fvv31","geo_precision":"zip","state":"IA"},"type":"Feature","geometry":{"type":"Point","coordinates":[-95.530596,42.443085]}},{"properties":{"city":"Hornick","geo_score":0.857,"zip code":"51026","id":"a7lttpcb18om","geo_precision":"zip","state":"IA"},"type":"Feature","geometry":{"type":"Point","coordinates":[-96.092119,42.300778]}},{"properties":{"city":"Ireton","geo_score":0.857,"zip code":"51027","id":"a7lttphtuv0z","geo_precision":"zip","state":"IA"},"type":"Feature","geometry":{"type":"Point","coordinates":[-96.390861,42.940544]}},{"properties":{"city":"Kingsley","geo_score":0.857,"zip code":"51028","id":"a7lttpar9nr2","geo_precision":"zip","state":"IA"},"type":"Feature","geometry":{"type":"Point","coordinates":[-96.077531,42.619263]}},{"properties":{"city":"Larrabee","geo_score":0.857,"zip code":"51029","id":"a7lttpcfkxum","geo_precision":"zip","state":"IA"},"type":"Feature","geometry":{"type":"Point","coordinates":[-95.565095,42.873445]}},{"properties":{"city":"Lawton","geo_score":0.857,"zip code":"51030","id":"a7lttphiez45","geo_precision":"zip","state":"IA"},"type":"Feature","geometry":{"type":"Point","coordinates":[-96.03323,42.475035]}},{"properties":{"city":"Le Mars","geo_score":0.857,"zip code":"51031","id":"a7lttpc8gjyt","geo_precision":"zip","state":"IA"},"type":"Feature","geometry":{"type":"Point","coordinates":[-96.058353,42.692491]}},{"properties":{"city":"Linn Grove","geo_score":0.857,"zip code":"51033","id":"a7lttp92tpdf","geo_precision":"zip","state":"IA"},"type":"Feature","geometry":{"type":"Point","coordinates":[-95.274623,42.865889]}},{"properties":{"city":"Mapleton","geo_score":0.857,"zip code":"51034","id":"a7lttp5o56l7","geo_precision":"zip","state":"IA"},"type":"Feature","geometry":{"type":"Point","coordinates":[-95.913273,42.137392]}},{"properties":{"city":"Marcus","geo_score":0.857,"zip code":"51035","id":"a7lttp9zz2f7","geo_precision":"zip","state":"IA"},"type":"Feature","geometry":{"type":"Point","coordinates":[-95.786406,42.76416]}},{"properties":{"city":"Maurice","geo_score":0.857,"zip code":"51036","id":"a7lttpgzzq97","geo_precision":"zip","state":"IA"},"type":"Feature","geometry":{"type":"Point","coordinates":[-96.307201,42.975118]}},{"properties":{"city":"Meriden","geo_score":0.857,"zip code":"51037","id":"a7lttp9dlj5i","geo_precision":"zip","state":"IA"},"type":"Feature","geometry":{"type":"Point","coordinates":[-95.642519,42.822577]}},{"properties":{"city":"Merrill","geo_score":0.857,"zip code":"51038","id":"a7lttpcj8xn9","geo_precision":"zip","state":"IA"},"type":"Feature","geometry":{"type":"Point","coordinates":[-96.354983,42.764455]}},{"properties":{"city":"Moville","geo_score":0.857,"zip code":"51039","id":"a7lttp43idjl","geo_precision":"zip","state":"IA"},"type":"Feature","geometry":{"type":"Point","coordinates":[-96.069377,42.444948]}},{"properties":{"city":"Onawa","geo_score":0.857,"zip code":"51040","id":"a7lttpegmb6u","geo_precision":"zip","state":"IA"},"type":"Feature","geometry":{"type":"Point","coordinates":[-96.129525,42.021131]}},{"properties":{"city":"Orange City","geo_score":0.857,"zip code":"51041","id":"a7lttp5dk89r","geo_precision":"zip","state":"IA"},"type":"Feature","geometry":{"type":"Point","coordinates":[-96.068909,43.113594]}},{"properties":{"city":"Oto","geo_score":0.857,"zip code":"51044","id":"a7lttpjxqpfq","geo_precision":"zip","state":"IA"},"type":"Feature","geometry":{"type":"Point","coordinates":[-95.972137,42.298397]}},{"properties":{"city":"Oyens","geo_score":0.857,"zip code":"51045","id":"a7lttp7m75bj","geo_precision":"zip","state":"IA"},"type":"Feature","geometry":{"type":"Point","coordinates":[-96.056556,42.8199]}},{"properties":{"city":"Paullina","geo_score":0.857,"zip code":"51046","id":"a7lttpdu6z87","geo_precision":"zip","state":"IA"},"type":"Feature","geometry":{"type":"Point","coordinates":[-95.69489,42.982521]}},{"properties":{"city":"Peterson","geo_score":0.857,"zip code":"51047","id":"a7lttpd6epfm","geo_precision":"zip","state":"IA"},"type":"Feature","geometry":{"type":"Point","coordinates":[-95.299649,43.004019]}},{"properties":{"city":"Pierson","geo_score":0.857,"zip code":"51048","id":"a7lttp50uvuo","geo_precision":"zip","state":"IA"},"type":"Feature","geometry":{"type":"Point","coordinates":[-96.017208,42.394713]}},{"properties":{"city":"Quimby","geo_score":0.857,"zip code":"51049","id":"a7lttp46mflt","geo_precision":"zip","state":"IA"},"type":"Feature","geometry":{"type":"Point","coordinates":[-95.70264,42.701397]}},{"properties":{"city":"Remsen","geo_score":0.857,"zip code":"51050","id":"a7lttpbi1fr5","geo_precision":"zip","state":"IA"},"type":"Feature","geometry":{"type":"Point","coordinates":[-96.207399,42.793867]}},{"properties":{"city":"Rodney","geo_score":0.857,"zip code":"51051","id":"a7lttpflbu6s","geo_precision":"zip","state":"IA"},"type":"Feature","geometry":{"type":"Point","coordinates":[-95.976865,42.197953]}},{"properties":{"city":"Salix","geo_score":0.857,"zip code":"51052","id":"a7lttpjmeruo","geo_precision":"zip","state":"IA"},"type":"Feature","geometry":{"type":"Point","coordinates":[-96.226413,42.339714]}},{"properties":{"city":"Schaller","geo_score":0.857,"zip code":"51053","id":"a7lttp4k3322","geo_precision":"zip","state":"IA"},"type":"Feature","geometry":{"type":"Point","coordinates":[-95.265117,42.480673]}},{"properties":{"city":"Sergeant Bluff","geo_score":0.857,"zip code":"51054","id":"a7lttpiz3yz4","geo_precision":"zip","state":"IA"},"type":"Feature","geometry":{"type":"Point","coordinates":[-96.335924,42.387867]}},{"properties":{"city":"Sloan","geo_score":0.857,"zip code":"51055","id":"a7lttp73a7c3","geo_precision":"zip","state":"IA"},"type":"Feature","geometry":{"type":"Point","coordinates":[-96.048349,42.345513]}},{"properties":{"city":"Smithland","geo_score":0.857,"zip code":"51056","id":"a7lttp6pccda","geo_precision":"zip","state":"IA"},"type":"Feature","geometry":{"type":"Point","coordinates":[-96.037409,42.347007]}},{"properties":{"city":"Struble","geo_score":0.857,"zip code":"51057","id":"a7lttpdseq7t","geo_precision":"zip","state":"IA"},"type":"Feature","geometry":{"type":"Point","coordinates":[-96.178616,42.837641]}},{"properties":{"city":"Sutherland","geo_score":0.857,"zip code":"51058","id":"a7lttp85jnjs","geo_precision":"zip","state":"IA"},"type":"Feature","geometry":{"type":"Point","coordinates":[-95.486296,42.997133]}},{"properties":{"city":"Turin","geo_score":0.857,"zip code":"51059","id":"a7lttp6oryyf","geo_precision":"zip","state":"IA"},"type":"Feature","geometry":{"type":"Point","coordinates":[-95.965126,42.033205]}},{"properties":{"city":"Ute","geo_score":0.857,"zip code":"51060","id":"a7lttpdyvaoi","geo_precision":"zip","state":"IA"},"type":"Feature","geometry":{"type":"Point","coordinates":[-95.720898,42.033712]}},{"properties":{"city":"Washta","geo_score":0.857,"zip code":"51061","id":"a7lttpiduuyj","geo_precision":"zip","state":"IA"},"type":"Feature","geometry":{"type":"Point","coordinates":[-95.628595,42.691698]}},{"properties":{"city":"Westfield","geo_score":0.857,"zip code":"51062","id":"a7lttpj8dhbn","geo_precision":"zip","state":"IA"},"type":"Feature","geometry":{"type":"Point","coordinates":[-96.404473,42.750826]}},{"properties":{"city":"Whiting","geo_score":0.857,"zip code":"51063","id":"a7lttpk0opgo","geo_precision":"zip","state":"IA"},"type":"Feature","geometry":{"type":"Point","coordinates":[-96.179563,42.149647]}},{"properties":{"city":"Windom","geo_score":0.857,"zip code":"56101","id":"a7lttphwdg17","geo_precision":"zip","state":"MN"},"type":"Feature","geometry":{"type":"Point","coordinates":[-94.994712,43.789957]}},{"properties":{"city":"Adrian","geo_score":0.857,"zip code":"56110","id":"a7lttpb9c1zx","geo_precision":"zip","state":"MN"},"type":"Feature","geometry":{"type":"Point","coordinates":[-95.953225,43.620754]}},{"properties":{"city":"Alpha","geo_score":0.857,"zip code":"56111","id":"a7lttp7z0o33","geo_precision":"zip","state":"MN"},"type":"Feature","geometry":{"type":"Point","coordinates":[-95.154494,43.674174]}},{"properties":{"city":"Arco","geo_score":0.857,"zip code":"56113","id":"a7lttpj4254y","geo_precision":"zip","state":"MN"},"type":"Feature","geometry":{"type":"Point","coordinates":[-96.1842,44.382668]}},{"properties":{"city":"Avoca","geo_score":0.857,"zip code":"56114","id":"a7lttp4hpalk","geo_precision":"zip","state":"MN"},"type":"Feature","geometry":{"type":"Point","coordinates":[-95.60317,43.960084]}},{"properties":{"city":"Balaton","geo_score":0.857,"zip code":"56115","id":"a7lttpif4m1w","geo_precision":"zip","state":"MN"},"type":"Feature","geometry":{"type":"Point","coordinates":[-95.990303,44.256076]}},{"properties":{"city":"Beaver Creek","geo_score":0.857,"zip code":"56116","id":"a7lttph24nh0","geo_precision":"zip","state":"MN"},"type":"Feature","geometry":{"type":"Point","coordinates":[-96.364663,43.612344]}},{"properties":{"city":"Bigelow","geo_score":0.857,"zip code":"56117","id":"a7lttpcave2b","geo_precision":"zip","state":"MN"},"type":"Feature","geometry":{"type":"Point","coordinates":[-95.687951,43.540643]}},{"properties":{"city":"Bingham Lake","geo_score":0.857,"zip code":"56118","id":"a7lttp9ispsm","geo_precision":"zip","state":"MN"},"type":"Feature","geometry":{"type":"Point","coordinates":[-95.048996,43.895565]}},{"properties":{"city":"Brewster","geo_score":0.857,"zip code":"56119","id":"a7lttped28tk","geo_precision":"zip","state":"MN"},"type":"Feature","geometry":{"type":"Point","coordinates":[-95.512519,43.732427]}},{"properties":{"city":"Butterfield","geo_score":0.857,"zip code":"56120","id":"a7lttp6rym5x","geo_precision":"zip","state":"MN"},"type":"Feature","geometry":{"type":"Point","coordinates":[-94.814932,44.002201]}},{"properties":{"city":"Ceylon","geo_score":0.857,"zip code":"56121","id":"a7lttp8zo5zm","geo_precision":"zip","state":"MN"},"type":"Feature","geometry":{"type":"Point","coordinates":[-94.606517,43.584995]}},{"properties":{"city":"Chandler","geo_score":0.857,"zip code":"56122","id":"a7lttp6zso7r","geo_precision":"zip","state":"MN"},"type":"Feature","geometry":{"type":"Point","coordinates":[-95.81997,43.92199]}},{"properties":{"city":"Currie","geo_score":0.857,"zip code":"56123","id":"a7lttp722kat","geo_precision":"zip","state":"MN"},"type":"Feature","geometry":{"type":"Point","coordinates":[-95.704397,44.048028]}},{"properties":{"city":"Dovray","geo_score":0.857,"zip code":"56125","id":"a7lttp70688t","geo_precision":"zip","state":"MN"},"type":"Feature","geometry":{"type":"Point","coordinates":[-95.549899,44.053323]}},{"properties":{"city":"Dunnell","geo_score":0.857,"zip code":"56127","id":"a7lttpkgch0d","geo_precision":"zip","state":"MN"},"type":"Feature","geometry":{"type":"Point","coordinates":[-94.550932,43.674184]}},{"properties":{"city":"Edgerton","geo_score":0.857,"zip code":"56128","id":"a7lttp7ekrs7","geo_precision":"zip","state":"MN"},"type":"Feature","geometry":{"type":"Point","coordinates":[-96.149676,43.930332]}},{"properties":{"city":"Ellsworth","geo_score":0.857,"zip code":"56129","id":"a7lttpec4017","geo_precision":"zip","state":"MN"},"type":"Feature","geometry":{"type":"Point","coordinates":[-95.983538,43.536342]}},{"properties":{"city":"Fulda","geo_score":0.857,"zip code":"56131","id":"a7lttpbwp6pb","geo_precision":"zip","state":"MN"},"type":"Feature","geometry":{"type":"Point","coordinates":[-95.561951,43.889685]}},{"properties":{"city":"Garvin","geo_score":0.857,"zip code":"56132","id":"a7lttp6en2uz","geo_precision":"zip","state":"MN"},"type":"Feature","geometry":{"type":"Point","coordinates":[-95.86177,44.305584]}},{"properties":{"city":"Hardwick","geo_score":0.857,"zip code":"56134","id":"a7lttpiprzts","geo_precision":"zip","state":"MN"},"type":"Feature","geometry":{"type":"Point","coordinates":[-96.218283,43.810378]}},{"properties":{"city":"Hendricks","geo_score":0.857,"zip code":"56136","id":"a7lttpc3dwk8","geo_precision":"zip","state":"MN"},"type":"Feature","geometry":{"type":"Point","coordinates":[-96.33771,44.460984]}},{"properties":{"city":"Heron Lake","geo_score":0.857,"zip code":"56137","id":"a7lttp94tbp8","geo_precision":"zip","state":"MN"},"type":"Feature","geometry":{"type":"Point","coordinates":[-95.320571,43.795977]}},{"properties":{"city":"Hills","geo_score":0.857,"zip code":"56138","id":"a7lttp448a1s","geo_precision":"zip","state":"MN"},"type":"Feature","geometry":{"type":"Point","coordinates":[-96.358365,43.525185]}},{"properties":{"city":"Holland","geo_score":0.857,"zip code":"56139","id":"a7lttpd3pgr3","geo_precision":"zip","state":"MN"},"type":"Feature","geometry":{"type":"Point","coordinates":[-96.188124,44.09239]}},{"properties":{"city":"Ihlen","geo_score":0.857,"zip code":"56140","id":"a7lttpczdrpe","geo_precision":"zip","state":"MN"},"type":"Feature","geometry":{"type":"Point","coordinates":[-96.364032,43.895464]}},{"properties":{"city":"Iona","geo_score":0.857,"zip code":"56141","id":"a7lttp9yshzu","geo_precision":"zip","state":"MN"},"type":"Feature","geometry":{"type":"Point","coordinates":[-95.784003,43.891474]}},{"properties":{"city":"Ivanhoe","geo_score":0.857,"zip code":"56142","id":"a7lttpabbbbf","geo_precision":"zip","state":"MN"},"type":"Feature","geometry":{"type":"Point","coordinates":[-96.23143,44.499686]}},{"properties":{"city":"Jackson","geo_score":0.857,"zip code":"56143","id":"a7lttp5v9jf8","geo_precision":"zip","state":"MN"},"type":"Feature","geometry":{"type":"Point","coordinates":[-94.918879,43.530236]}},{"properties":{"city":"Jasper","geo_score":0.857,"zip code":"56144","id":"a7lttpgc8zy3","geo_precision":"zip","state":"MN"},"type":"Feature","geometry":{"type":"Point","coordinates":[-96.342955,43.879857]}},{"properties":{"city":"Jeffers","geo_score":0.857,"zip code":"56145","id":"a7lttpbf4nlv","geo_precision":"zip","state":"MN"},"type":"Feature","geometry":{"type":"Point","coordinates":[-95.195219,44.055769]}},{"properties":{"city":"Kanaranzi","geo_score":0.857,"zip code":"56146","id":"a7lttph5s1kr","geo_precision":"zip","state":"MN"},"type":"Feature","geometry":{"type":"Point","coordinates":[-96.252794,43.674883]}},{"properties":{"city":"Kenneth","geo_score":0.857,"zip code":"56147","id":"a7lttp9tskiu","geo_precision":"zip","state":"MN"},"type":"Feature","geometry":{"type":"Point","coordinates":[-96.252794,43.674883]}},{"properties":{"city":"Lake Benton","geo_score":0.857,"zip code":"56149","id":"a7lttpgymovk","geo_precision":"zip","state":"MN"},"type":"Feature","geometry":{"type":"Point","coordinates":[-96.270936,44.294793]}},{"properties":{"city":"Lakefield","geo_score":0.857,"zip code":"56150","id":"a7lttp6dnqwf","geo_precision":"zip","state":"MN"},"type":"Feature","geometry":{"type":"Point","coordinates":[-95.171548,43.678125]}},{"properties":{"city":"Lake Wilson","geo_score":0.857,"zip code":"56151","id":"a7lttp5f3ixy","geo_precision":"zip","state":"MN"},"type":"Feature","geometry":{"type":"Point","coordinates":[-95.825082,44.00692]}},{"properties":{"city":"Lamberton","geo_score":0.857,"zip code":"56152","id":"a7lttp5dasbf","geo_precision":"zip","state":"MN"},"type":"Feature","geometry":{"type":"Point","coordinates":[-95.269338,44.282497]}},{"properties":{"city":"Leota","geo_score":0.857,"zip code":"56153","id":"a7lttpepufiv","geo_precision":"zip","state":"MN"},"type":"Feature","geometry":{"type":"Point","coordinates":[-96.012811,43.840423]}},{"properties":{"city":"Lismore","geo_score":0.857,"zip code":"56155","id":"a7lttpilyuce","geo_precision":"zip","state":"MN"},"type":"Feature","geometry":{"type":"Point","coordinates":[-95.942501,43.682995]}},{"properties":{"city":"Luverne","geo_score":0.857,"zip code":"56156","id":"a7lttpdfz2ma","geo_precision":"zip","state":"MN"},"type":"Feature","geometry":{"type":"Point","coordinates":[-96.163242,43.698546]}},{"properties":{"city":"Lynd","geo_score":0.857,"zip code":"56157","id":"a7lttpjygr0i","geo_precision":"zip","state":"MN"},"type":"Feature","geometry":{"type":"Point","coordinates":[-95.937984,44.399913]}},{"properties":{"city":"Magnolia","geo_score":0.857,"zip code":"56158","id":"a7lttp84cprb","geo_precision":"zip","state":"MN"},"type":"Feature","geometry":{"type":"Point","coordinates":[-96.07695,43.644047]}},{"properties":{"city":"Mountain Lake","geo_score":0.857,"zip code":"56159","id":"a7lttpb5c4zz","geo_precision":"zip","state":"MN"},"type":"Feature","geometry":{"type":"Point","coordinates":[-94.924319,43.939276]}},{"properties":{"city":"Odin","geo_score":0.857,"zip code":"56160","id":"a7lttpk7rwsa","geo_precision":"zip","state":"MN"},"type":"Feature","geometry":{"type":"Point","coordinates":[-94.742716,43.867848]}},{"properties":{"city":"Okabena","geo_score":0.857,"zip code":"56161","id":"a7lttp6kpatx","geo_precision":"zip","state":"MN"},"type":"Feature","geometry":{"type":"Point","coordinates":[-95.316815,43.738986]}},{"properties":{"city":"Ormsby","geo_score":0.857,"zip code":"56162","id":"a7lttpcbqqvy","geo_precision":"zip","state":"MN"},"type":"Feature","geometry":{"type":"Point","coordinates":[-94.663493,43.826503]}},{"properties":{"city":"Pipestone","geo_score":0.857,"zip code":"56164","id":"a7lttpdwopfo","geo_precision":"zip","state":"MN"},"type":"Feature","geometry":{"type":"Point","coordinates":[-96.265153,43.989267]}},{"properties":{"city":"Reading","geo_score":0.857,"zip code":"56165","id":"a7lttp68xzhc","geo_precision":"zip","state":"MN"},"type":"Feature","geometry":{"type":"Point","coordinates":[-95.703514,43.732304]}},{"properties":{"city":"Revere","geo_score":0.857,"zip code":"56166","id":"a7lttpb7l7h1","geo_precision":"zip","state":"MN"},"type":"Feature","geometry":{"type":"Point","coordinates":[-95.355744,44.23913]}},{"properties":{"city":"Round Lake","geo_score":0.857,"zip code":"56167","id":"a7lttp54lefl","geo_precision":"zip","state":"MN"},"type":"Feature","geometry":{"type":"Point","coordinates":[-95.640477,43.631841]}},{"properties":{"city":"Rushmore","geo_score":0.857,"zip code":"56168","id":"a7lttp7pcgrm","geo_precision":"zip","state":"MN"},"type":"Feature","geometry":{"type":"Point","coordinates":[-95.803869,43.623088]}},{"properties":{"city":"Russell","geo_score":0.857,"zip code":"56169","id":"a7lttpdojq2z","geo_precision":"zip","state":"MN"},"type":"Feature","geometry":{"type":"Point","coordinates":[-95.97804,44.335085]}},{"properties":{"city":"Ruthton","geo_score":0.857,"zip code":"56170","id":"a7lttp9sqjq5","geo_precision":"zip","state":"MN"},"type":"Feature","geometry":{"type":"Point","coordinates":[-96.275913,44.153916]}},{"properties":{"city":"Sherburn","geo_score":0.857,"zip code":"56171","id":"a7lttpe8yo5h","geo_precision":"zip","state":"MN"},"type":"Feature","geometry":{"type":"Point","coordinates":[-94.759431,43.667369]}},{"properties":{"city":"Slayton","geo_score":0.857,"zip code":"56172","id":"a7lttpco550q","geo_precision":"zip","state":"MN"},"type":"Feature","geometry":{"type":"Point","coordinates":[-95.763493,43.993479]}},{"properties":{"city":"Steen","geo_score":0.857,"zip code":"56173","id":"a7lttpej86mr","geo_precision":"zip","state":"MN"},"type":"Feature","geometry":{"type":"Point","coordinates":[-96.252794,43.674883]}},{"properties":{"city":"Storden","geo_score":0.857,"zip code":"56174","id":"a7lttpjj1kqd","geo_precision":"zip","state":"MN"},"type":"Feature","geometry":{"type":"Point","coordinates":[-95.319366,44.039624]}},{"properties":{"city":"Tracy","geo_score":0.857,"zip code":"56175","id":"a7lttpf9tgqp","geo_precision":"zip","state":"MN"},"type":"Feature","geometry":{"type":"Point","coordinates":[-95.773754,44.290092]}},{"properties":{"city":"Trimont","geo_score":0.857,"zip code":"56176","id":"a7lttpiodswc","geo_precision":"zip","state":"MN"},"type":"Feature","geometry":{"type":"Point","coordinates":[-94.713525,43.783229]}},{"properties":{"city":"Trosky","geo_score":0.857,"zip code":"56177","id":"a7lttpcmi2d1","geo_precision":"zip","state":"MN"},"type":"Feature","geometry":{"type":"Point","coordinates":[-96.260066,43.889477]}},{"properties":{"city":"Tyler","geo_score":0.857,"zip code":"56178","id":"a7lttpc124su","geo_precision":"zip","state":"MN"},"type":"Feature","geometry":{"type":"Point","coordinates":[-96.141967,44.275371]}},{"properties":{"city":"Walnut Grove","geo_score":0.857,"zip code":"56180","id":"a7lttpf8l1zu","geo_precision":"zip","state":"MN"},"type":"Feature","geometry":{"type":"Point","coordinates":[-95.48189,44.283007]}},{"properties":{"city":"Welcome","geo_score":0.857,"zip code":"56181","id":"a7lttpex0kvu","geo_precision":"zip","state":"MN"},"type":"Feature","geometry":{"type":"Point","coordinates":[-94.673433,43.66727]}},{"properties":{"city":"Westbrook","geo_score":0.857,"zip code":"56183","id":"a7lttp5na9n4","geo_precision":"zip","state":"MN"},"type":"Feature","geometry":{"type":"Point","coordinates":[-95.196562,44.007813]}},{"properties":{"city":"Wilmont","geo_score":0.857,"zip code":"56185","id":"a7lttp5vu8kz","geo_precision":"zip","state":"MN"},"type":"Feature","geometry":{"type":"Point","coordinates":[-95.871127,43.790243]}},{"properties":{"city":"Woodstock","geo_score":0.857,"zip code":"56186","id":"a7lttp9gri5p","geo_precision":"zip","state":"MN"},"type":"Feature","geometry":{"type":"Point","coordinates":[-96.09925,44.009283]}},{"properties":{"city":"Worthington","geo_score":0.857,"zip code":"56187","id":"a7lttp4qhd7v","geo_precision":"zip","state":"MN"},"type":"Feature","geometry":{"type":"Point","coordinates":[-95.371946,43.616073]}},{"properties":{"city":"Alcester","geo_score":0.857,"zip code":"57001","id":"a7lttpk2mih4","geo_precision":"zip","state":"SD"},"type":"Feature","geometry":{"type":"Point","coordinates":[-96.706984,42.939159]}},{"properties":{"city":"Aurora","geo_score":0.857,"zip code":"57002","id":"a7lttpb6q5d4","geo_precision":"zip","state":"SD"},"type":"Feature","geometry":{"type":"Point","coordinates":[-96.667977,44.304195]}},{"properties":{"city":"Baltic","geo_score":0.857,"zip code":"57003","id":"a7lttpg9o434","geo_precision":"zip","state":"SD"},"type":"Feature","geometry":{"type":"Point","coordinates":[-96.814589,43.64514]}},{"properties":{"city":"Beresford","geo_score":0.857,"zip code":"57004","id":"a7lttpacgo9j","geo_precision":"zip","state":"SD"},"type":"Feature","geometry":{"type":"Point","coordinates":[-96.805598,42.961104]}},{"properties":{"city":"Brandon","geo_score":0.857,"zip code":"57005","id":"a7lttp4spziy","geo_precision":"zip","state":"SD"},"type":"Feature","geometry":{"type":"Point","coordinates":[-96.571712,43.616363]}},{"properties":{"city":"Brookings","geo_score":0.857,"zip code":"57006","id":"a7lttpga2w2a","geo_precision":"zip","state":"SD"},"type":"Feature","geometry":{"type":"Point","coordinates":[-96.762102,44.355091]}},{"properties":{"city":"Brookings","geo_score":0.857,"zip code":"57007","id":"a7lttp6dt0d1","geo_precision":"zip","state":"SD"},"type":"Feature","geometry":{"type":"Point","coordinates":[-96.785332,44.34469]}},{"properties":{"city":"Burbank","geo_score":0.857,"zip code":"57010","id":"a7lttpjku8f5","geo_precision":"zip","state":"SD"},"type":"Feature","geometry":{"type":"Point","coordinates":[-96.847373,42.827796]}},{"properties":{"city":"Canistota","geo_score":0.857,"zip code":"57012","id":"a7lttpgct1ed","geo_precision":"zip","state":"SD"},"type":"Feature","geometry":{"type":"Point","coordinates":[-97.248418,43.572888]}},{"properties":{"city":"Canton","geo_score":0.857,"zip code":"57013","id":"a7lttpkbry3f","geo_precision":"zip","state":"SD"},"type":"Feature","geometry":{"type":"Point","coordinates":[-96.70718,43.29831]}},{"properties":{"city":"Centerville","geo_score":0.857,"zip code":"57014","id":"a7lttp8mg97i","geo_precision":"zip","state":"SD"},"type":"Feature","geometry":{"type":"Point","coordinates":[-96.904212,42.976937]}},{"properties":{"city":"Chancellor","geo_score":0.857,"zip code":"57015","id":"a7lttp6jafqs","geo_precision":"zip","state":"SD"},"type":"Feature","geometry":{"type":"Point","coordinates":[-96.983852,43.408226]}},{"properties":{"city":"Chester","geo_score":0.857,"zip code":"57016","id":"a7lttpcrk1mf","geo_precision":"zip","state":"SD"},"type":"Feature","geometry":{"type":"Point","coordinates":[-96.928024,43.895505]}},{"properties":{"city":"Colman","geo_score":0.857,"zip code":"57017","id":"a7lttphtlqsk","geo_precision":"zip","state":"SD"},"type":"Feature","geometry":{"type":"Point","coordinates":[-96.814237,43.984778]}},{"properties":{"city":"Colton","geo_score":0.857,"zip code":"57018","id":"a7lttpbwp1kz","geo_precision":"zip","state":"SD"},"type":"Feature","geometry":{"type":"Point","coordinates":[-96.930056,43.834141]}},{"properties":{"city":"Crooks","geo_score":0.857,"zip code":"57020","id":"a7lttpbj3kn6","geo_precision":"zip","state":"SD"},"type":"Feature","geometry":{"type":"Point","coordinates":[-96.822137,43.666894]}},{"properties":{"city":"Davis","geo_score":0.857,"zip code":"57021","id":"a7lttpcqmj90","geo_precision":"zip","state":"SD"},"type":"Feature","geometry":{"type":"Point","coordinates":[-96.983494,43.272502]}},{"properties":{"city":"Dell Rapids","geo_score":0.857,"zip code":"57022","id":"a7lttp4a3kke","geo_precision":"zip","state":"SD"},"type":"Feature","geometry":{"type":"Point","coordinates":[-96.699766,43.803585]}},{"properties":{"city":"Egan","geo_score":0.857,"zip code":"57024","id":"a7lttpbgitxk","geo_precision":"zip","state":"SD"},"type":"Feature","geometry":{"type":"Point","coordinates":[-96.729217,43.978861]}},{"properties":{"city":"Elk Point","geo_score":0.857,"zip code":"57025","id":"a7lttpcbiqgr","geo_precision":"zip","state":"SD"},"type":"Feature","geometry":{"type":"Point","coordinates":[-96.676742,42.76399]}},{"properties":{"city":"Elkton","geo_score":0.857,"zip code":"57026","id":"a7lttp4umrf6","geo_precision":"zip","state":"SD"},"type":"Feature","geometry":{"type":"Point","coordinates":[-96.540249,44.289677]}},{"properties":{"city":"Fairview","geo_score":0.857,"zip code":"57027","id":"a7lttpife9vb","geo_precision":"zip","state":"SD"},"type":"Feature","geometry":{"type":"Point","coordinates":[-96.513506,43.197041]}},{"properties":{"city":"Flandreau","geo_score":0.857,"zip code":"57028","id":"a7lttpk1vnss","geo_precision":"zip","state":"SD"},"type":"Feature","geometry":{"type":"Point","coordinates":[-96.616189,43.984004]}},{"properties":{"city":"Freeman","geo_score":0.857,"zip code":"57029","id":"a7lttphf4r38","geo_precision":"zip","state":"SD"},"type":"Feature","geometry":{"type":"Point","coordinates":[-97.547869,43.321384]}},{"properties":{"city":"Garretson","geo_score":0.857,"zip code":"57030","id":"a7lttpgb05w5","geo_precision":"zip","state":"SD"},"type":"Feature","geometry":{"type":"Point","coordinates":[-96.596379,43.747639]}},{"properties":{"city":"Gayville","geo_score":0.857,"zip code":"57031","id":"a7lttpbkssqb","geo_precision":"zip","state":"SD"},"type":"Feature","geometry":{"type":"Point","coordinates":[-97.209902,42.886136]}},{"properties":{"city":"Harrisburg","geo_score":0.857,"zip code":"57032","id":"a7lttp4k0ytw","geo_precision":"zip","state":"SD"},"type":"Feature","geometry":{"type":"Point","coordinates":[-96.659737,43.425258]}},{"properties":{"city":"Hartford","geo_score":0.857,"zip code":"57033","id":"a7lttpjpe1t5","geo_precision":"zip","state":"SD"},"type":"Feature","geometry":{"type":"Point","coordinates":[-96.814539,43.630545]}},{"properties":{"city":"Hudson","geo_score":0.857,"zip code":"57034","id":"a7lttp90syx5","geo_precision":"zip","state":"SD"},"type":"Feature","geometry":{"type":"Point","coordinates":[-96.580939,43.184976]}},{"properties":{"city":"Humboldt","geo_score":0.857,"zip code":"57035","id":"a7lttphiomop","geo_precision":"zip","state":"SD"},"type":"Feature","geometry":{"type":"Point","coordinates":[-97.088668,43.543312]}},{"properties":{"city":"Hurley","geo_score":0.857,"zip code":"57036","id":"a7lttpbb1knb","geo_precision":"zip","state":"SD"},"type":"Feature","geometry":{"type":"Point","coordinates":[-97.268946,43.204156]}},{"properties":{"city":"Irene","geo_score":0.857,"zip code":"57037","id":"a7lttp54rzml","geo_precision":"zip","state":"SD"},"type":"Feature","geometry":{"type":"Point","coordinates":[-97.318669,43.082494]}},{"properties":{"city":"Jefferson","geo_score":0.857,"zip code":"57038","id":"a7lttp58nttj","geo_precision":"zip","state":"SD"},"type":"Feature","geometry":{"type":"Point","coordinates":[-96.576256,42.580112]}},{"properties":{"city":"Lennox","geo_score":0.857,"zip code":"57039","id":"a7lttpjua17i","geo_precision":"zip","state":"SD"},"type":"Feature","geometry":{"type":"Point","coordinates":[-96.856021,43.298098]}},{"properties":{"city":"Lesterville","geo_score":0.857,"zip code":"57040","id":"a7lttpc09qtm","geo_precision":"zip","state":"SD"},"type":"Feature","geometry":{"type":"Point","coordinates":[-97.568901,43.06062]}},{"properties":{"city":"Lyons","geo_score":0.857,"zip code":"57041","id":"a7lttp9bqb62","geo_precision":"zip","state":"SD"},"type":"Feature","geometry":{"type":"Point","coordinates":[-96.870928,43.728488]}},{"properties":{"city":"Madison","geo_score":0.857,"zip code":"57042","id":"a7lttp6q6eg7","geo_precision":"zip","state":"SD"},"type":"Feature","geometry":{"type":"Point","coordinates":[-97.167562,44.006085]}},{"properties":{"city":"Marion","geo_score":0.857,"zip code":"57043","id":"a7lttpg11jjs","geo_precision":"zip","state":"SD"},"type":"Feature","geometry":{"type":"Point","coordinates":[-97.278318,43.292364]}},{"properties":{"city":"Meckling","geo_score":0.857,"zip code":"57044","id":"a7lttpff699s","geo_precision":"zip","state":"SD"},"type":"Feature","geometry":{"type":"Point","coordinates":[-97.091959,42.840984]}},{"properties":{"city":"Menno","geo_score":0.857,"zip code":"57045","id":"a7lttp9wm7uv","geo_precision":"zip","state":"SD"},"type":"Feature","geometry":{"type":"Point","coordinates":[-97.538733,43.248825]}},{"properties":{"city":"Mission Hill","geo_score":0.857,"zip code":"57046","id":"a7lttp9i3m27","geo_precision":"zip","state":"SD"},"type":"Feature","geometry":{"type":"Point","coordinates":[-97.297103,42.969251]}},{"properties":{"city":"Monroe","geo_score":0.857,"zip code":"57047","id":"a7lttp62ynsy","geo_precision":"zip","state":"SD"},"type":"Feature","geometry":{"type":"Point","coordinates":[-97.250932,43.489841]}},{"properties":{"city":"Montrose","geo_score":0.857,"zip code":"57048","id":"a7lttp8wj7ij","geo_precision":"zip","state":"SD"},"type":"Feature","geometry":{"type":"Point","coordinates":[-97.18593,43.696853]}},{"properties":{"city":"North Sioux City","geo_score":0.857,"zip code":"57049","id":"a7lttp55vahr","geo_precision":"zip","state":"SD"},"type":"Feature","geometry":{"type":"Point","coordinates":[-96.585026,42.587483]}},{"properties":{"city":"Nunda","geo_score":0.857,"zip code":"57050","id":"a7lttphcxfv3","geo_precision":"zip","state":"SD"},"type":"Feature","geometry":{"type":"Point","coordinates":[-97.129455,44.021983]}},{"properties":{"city":"Oldham","geo_score":0.857,"zip code":"57051","id":"a7lttpb1tgq8","geo_precision":"zip","state":"SD"},"type":"Feature","geometry":{"type":"Point","coordinates":[-97.32031,44.245942]}},{"properties":{"city":"Olivet","geo_score":0.857,"zip code":"57052","id":"a7lttp6cgheo","geo_precision":"zip","state":"SD"},"type":"Feature","geometry":{"type":"Point","coordinates":[-97.686178,43.370264]}},{"properties":{"city":"Parker","geo_score":0.857,"zip code":"57053","id":"a7lttpjhl01p","geo_precision":"zip","state":"SD"},"type":"Feature","geometry":{"type":"Point","coordinates":[-97.134211,43.399595]}},{"properties":{"city":"Ramona","geo_score":0.857,"zip code":"57054","id":"a7lttpj54qk1","geo_precision":"zip","state":"SD"},"type":"Feature","geometry":{"type":"Point","coordinates":[-97.215191,44.1186]}},{"properties":{"city":"Renner","geo_score":0.857,"zip code":"57055","id":"a7lttp3yxlac","geo_precision":"zip","state":"SD"},"type":"Feature","geometry":{"type":"Point","coordinates":[-96.760473,43.666979]}},{"properties":{"city":"Rowena","geo_score":0.857,"zip code":"57056","id":"a7lttpiqld31","geo_precision":"zip","state":"SD"},"type":"Feature","geometry":{"type":"Point","coordinates":[-96.558738,43.521559]}},{"properties":{"city":"Rutland","geo_score":0.857,"zip code":"57057","id":"a7lttp5sfphg","geo_precision":"zip","state":"SD"},"type":"Feature","geometry":{"type":"Point","coordinates":[-97.129455,44.021983]}},{"properties":{"city":"Salem","geo_score":0.857,"zip code":"57058","id":"a7lttpggvaqz","geo_precision":"zip","state":"SD"},"type":"Feature","geometry":{"type":"Point","coordinates":[-97.452566,43.801367]}},{"properties":{"city":"Scotland","geo_score":0.857,"zip code":"57059","id":"a7lttphemcbt","geo_precision":"zip","state":"SD"},"type":"Feature","geometry":{"type":"Point","coordinates":[-97.634511,43.182215]}},{"properties":{"city":"Sinai","geo_score":0.857,"zip code":"57061","id":"a7lttp7m421a","geo_precision":"zip","state":"SD"},"type":"Feature","geometry":{"type":"Point","coordinates":[-97.018205,44.242764]}},{"properties":{"city":"Springfield","geo_score":0.857,"zip code":"57062","id":"a7lttpfqalwb","geo_precision":"zip","state":"SD"},"type":"Feature","geometry":{"type":"Point","coordinates":[-98.010349,42.865554]}},{"properties":{"city":"Tabor","geo_score":0.857,"zip code":"57063","id":"a7lttpcb3ael","geo_precision":"zip","state":"SD"},"type":"Feature","geometry":{"type":"Point","coordinates":[-97.70701,42.864166]}},{"properties":{"city":"Tea","geo_score":0.857,"zip code":"57064","id":"a7lttp3zp2bf","geo_precision":"zip","state":"SD"},"type":"Feature","geometry":{"type":"Point","coordinates":[-96.842783,43.41434]}},{"properties":{"city":"Trent","geo_score":0.857,"zip code":"57065","id":"a7lttpevlfg4","geo_precision":"zip","state":"SD"},"type":"Feature","geometry":{"type":"Point","coordinates":[-96.653301,43.907616]}},{"properties":{"city":"Tyndall","geo_score":0.857,"zip code":"57066","id":"a7lttpatfjl7","geo_precision":"zip","state":"SD"},"type":"Feature","geometry":{"type":"Point","coordinates":[-97.931181,42.914442]}},{"properties":{"city":"Utica","geo_score":0.857,"zip code":"57067","id":"a7lttpd5rk8d","geo_precision":"zip","state":"SD"},"type":"Feature","geometry":{"type":"Point","coordinates":[-97.369385,43.016376]}},{"properties":{"city":"Valley Springs","geo_score":0.857,"zip code":"57068","id":"a7lttp8ckkkj","geo_precision":"zip","state":"SD"},"type":"Feature","geometry":{"type":"Point","coordinates":[-96.528511,43.594402]}},{"properties":{"city":"Vermillion","geo_score":0.857,"zip code":"57069","id":"a7lttp8sf654","geo_precision":"zip","state":"SD"},"type":"Feature","geometry":{"type":"Point","coordinates":[-96.904489,42.953605]}},{"properties":{"city":"Viborg","geo_score":0.857,"zip code":"57070","id":"a7lttpavmvi5","geo_precision":"zip","state":"SD"},"type":"Feature","geometry":{"type":"Point","coordinates":[-97.318392,43.169436]}},{"properties":{"city":"Volga","geo_score":0.857,"zip code":"57071","id":"a7lttp6rqiwy","geo_precision":"zip","state":"SD"},"type":"Feature","geometry":{"type":"Point","coordinates":[-96.790512,44.369694]}},{"properties":{"city":"Volin","geo_score":0.857,"zip code":"57072","id":"a7lttp8w9i8l","geo_precision":"zip","state":"SD"},"type":"Feature","geometry":{"type":"Point","coordinates":[-97.278943,42.967218]}},{"properties":{"city":"Wakonda","geo_score":0.857,"zip code":"57073","id":"a7lttp4gqf07","geo_precision":"zip","state":"SD"},"type":"Feature","geometry":{"type":"Point","coordinates":[-97.058654,42.996509]}},{"properties":{"city":"Ward","geo_score":0.857,"zip code":"57074","id":"a7lttpkfwlu8","geo_precision":"zip","state":"SD"},"type":"Feature","geometry":{"type":"Point","coordinates":[-96.671047,44.022188]}},{"properties":{"city":"Wentworth","geo_score":0.857,"zip code":"57075","id":"a7lttpiidl2t","geo_precision":"zip","state":"SD"},"type":"Feature","geometry":{"type":"Point","coordinates":[-96.967095,43.996979]}},{"properties":{"city":"Winfred","geo_score":0.857,"zip code":"57076","id":"a7lttp8di4fa","geo_precision":"zip","state":"SD"},"type":"Feature","geometry":{"type":"Point","coordinates":[-97.129455,44.021983]}},{"properties":{"city":"Worthing","geo_score":0.857,"zip code":"57077","id":"a7lttpialh2y","geo_precision":"zip","state":"SD"},"type":"Feature","geometry":{"type":"Point","coordinates":[-96.776784,43.286596]}},{"properties":{"city":"Yankton","geo_score":0.857,"zip code":"57078","id":"a7lttpc7k6nl","geo_precision":"zip","state":"SD"},"type":"Feature","geometry":{"type":"Point","coordinates":[-97.37689,42.94396]}},{"properties":{"city":"Yankton","geo_score":0.857,"zip code":"57079","id":"a7lttpewlb70","geo_precision":"zip","state":"SD"},"type":"Feature","geometry":{"type":"Point","coordinates":[-97.390268,42.867556]}},{"properties":{"city":"Sioux Falls","geo_score":0.857,"zip code":"57101","id":"a7lttp5317ph","geo_precision":"zip","state":"SD"},"type":"Feature","geometry":{"type":"Point","coordinates":[-96.69063,43.546358]}},{"properties":{"city":"Sioux Falls","geo_score":0.857,"zip code":"57103","id":"a7lttpjzs7jg","geo_precision":"zip","state":"SD"},"type":"Feature","geometry":{"type":"Point","coordinates":[-96.63871,43.548433]}},{"properties":{"city":"Sioux Falls","geo_score":0.857,"zip code":"57104","id":"a7lttp40y2qp","geo_precision":"zip","state":"SD"},"type":"Feature","geometry":{"type":"Point","coordinates":[-96.685294,43.589218]}},{"properties":{"city":"Sioux Falls","geo_score":0.857,"zip code":"57105","id":"a7lttpduyo2s","geo_precision":"zip","state":"SD"},"type":"Feature","geometry":{"type":"Point","coordinates":[-96.732266,43.518636]}},{"properties":{"city":"Sioux Falls","geo_score":0.857,"zip code":"57106","id":"a7lttp8c4i4i","geo_precision":"zip","state":"SD"},"type":"Feature","geometry":{"type":"Point","coordinates":[-96.780065,43.529244]}},{"properties":{"city":"Sioux Falls","geo_score":0.857,"zip code":"57107","id":"a7lttpc87wbd","geo_precision":"zip","state":"SD"},"type":"Feature","geometry":{"type":"Point","coordinates":[-96.830608,43.562476]}},{"properties":{"city":"Sioux Falls","geo_score":0.857,"zip code":"57108","id":"a7lttp4rczn3","geo_precision":"zip","state":"SD"},"type":"Feature","geometry":{"type":"Point","coordinates":[-96.696878,43.550404]}},{"properties":{"city":"Sioux Falls","geo_score":0.857,"zip code":"57109","id":"a7lttp9adnyl","geo_precision":"zip","state":"SD"},"type":"Feature","geometry":{"type":"Point","coordinates":[-96.79134,43.674582]}},{"properties":{"city":"Sioux Falls","geo_score":0.857,"zip code":"57110","id":"a7lttpjtixyi","geo_precision":"zip","state":"SD"},"type":"Feature","geometry":{"type":"Point","coordinates":[-96.633203,43.548613]}},{"properties":{"city":"Buffalo Ridge","geo_score":0.857,"zip code":"57115","id":"a7lttp5l4rid","geo_precision":"zip","state":"SD"},"type":"Feature","geometry":{"type":"Point","coordinates":[-96.868464,43.521895]}},{"properties":{"city":"Sioux Falls","geo_score":0.857,"zip code":"57117","id":"a7lttpc63uu1","geo_precision":"zip","state":"SD"},"type":"Feature","geometry":{"type":"Point","coordinates":[-96.79134,43.674582]}},{"properties":{"city":"Sioux Falls","geo_score":0.857,"zip code":"57118","id":"a7lttpchq4mn","geo_precision":"zip","state":"SD"},"type":"Feature","geometry":{"type":"Point","coordinates":[-96.79134,43.674582]}},{"properties":{"city":"Sioux Falls","geo_score":0.857,"zip code":"57188","id":"a7lttpbb0fxj","geo_precision":"zip","state":"SD"},"type":"Feature","geometry":{"type":"Point","coordinates":[-96.79134,43.674582]}},{"properties":{"city":"Sioux Falls","geo_score":0.857,"zip code":"57189","id":"a7lttpb2xlkv","geo_precision":"zip","state":"SD"},"type":"Feature","geometry":{"type":"Point","coordinates":[-96.79134,43.674582]}},{"properties":{"city":"Sioux Falls","geo_score":0.857,"zip code":"57192","id":"a7lttp5lq3zb","geo_precision":"zip","state":"SD"},"type":"Feature","geometry":{"type":"Point","coordinates":[-96.79134,43.674582]}},{"properties":{"city":"Sioux Falls","geo_score":0.857,"zip code":"57193","id":"a7lttp4luy2l","geo_precision":"zip","state":"SD"},"type":"Feature","geometry":{"type":"Point","coordinates":[-96.79134,43.674582]}},{"properties":{"city":"Sioux Falls","geo_score":0.857,"zip code":"57194","id":"a7lttp6e6q8z","geo_precision":"zip","state":"SD"},"type":"Feature","geometry":{"type":"Point","coordinates":[-96.79134,43.674582]}},{"properties":{"city":"Sioux Falls","geo_score":0.857,"zip code":"57195","id":"a7lttp4k52g6","geo_precision":"zip","state":"SD"},"type":"Feature","geometry":{"type":"Point","coordinates":[-96.79134,43.674582]}},{"properties":{"city":"Sioux Falls","geo_score":0.857,"zip code":"57196","id":"a7lttp4w90w4","geo_precision":"zip","state":"SD"},"type":"Feature","geometry":{"type":"Point","coordinates":[-96.79134,43.674582]}},{"properties":{"city":"Sioux Falls","geo_score":0.857,"zip code":"57197","id":"a7lttp4jgzra","geo_precision":"zip","state":"SD"},"type":"Feature","geometry":{"type":"Point","coordinates":[-96.79134,43.674582]}},{"properties":{"city":"Sioux Falls","geo_score":0.857,"zip code":"57198","id":"a7lttpicasyg","geo_precision":"zip","state":"SD"},"type":"Feature","geometry":{"type":"Point","coordinates":[-96.79134,43.674582]}},{"properties":{"city":"Watertown","geo_score":0.857,"zip code":"57201","id":"a7lttpbow0ym","geo_precision":"zip","state":"SD"},"type":"Feature","geometry":{"type":"Point","coordinates":[-97.268688,44.813853]}},{"properties":{"city":"Waverly","geo_score":0.857,"zip code":"57202","id":"a7lttp4tisy2","geo_precision":"zip","state":"SD"},"type":"Feature","geometry":{"type":"Point","coordinates":[-97.188372,44.977634]}},{"properties":{"city":"Arlington","geo_score":0.857,"zip code":"57212","id":"a7lttpcmcw3r","geo_precision":"zip","state":"SD"},"type":"Feature","geometry":{"type":"Point","coordinates":[-97.097845,44.533855]}},{"properties":{"city":"Astoria","geo_score":0.857,"zip code":"57213","id":"a7lttp5hz51e","geo_precision":"zip","state":"SD"},"type":"Feature","geometry":{"type":"Point","coordinates":[-96.591264,44.562302]}},{"properties":{"city":"Badger","geo_score":0.857,"zip code":"57214","id":"a7lttpiromdl","geo_precision":"zip","state":"SD"},"type":"Feature","geometry":{"type":"Point","coordinates":[-97.209173,44.484381]}},{"properties":{"city":"Big Stone City","geo_score":0.857,"zip code":"57216","id":"a7lttpez8xc8","geo_precision":"zip","state":"SD"},"type":"Feature","geometry":{"type":"Point","coordinates":[-96.534574,45.170552]}},{"properties":{"city":"Bradley","geo_score":0.857,"zip code":"57217","id":"a7lttp6u060y","geo_precision":"zip","state":"SD"},"type":"Feature","geometry":{"type":"Point","coordinates":[-97.708049,44.90626]}},{"properties":{"city":"Brandt","geo_score":0.857,"zip code":"57218","id":"a7lttp5tbw89","geo_precision":"zip","state":"SD"},"type":"Feature","geometry":{"type":"Point","coordinates":[-96.668424,44.76048]}},{"properties":{"city":"Bristol","geo_score":0.857,"zip code":"57219","id":"a7lttpf4v7x1","geo_precision":"zip","state":"SD"},"type":"Feature","geometry":{"type":"Point","coordinates":[-97.637812,45.319218]}},{"properties":{"city":"Bruce","geo_score":0.857,"zip code":"57220","id":"a7lttpbw1jdu","geo_precision":"zip","state":"SD"},"type":"Feature","geometry":{"type":"Point","coordinates":[-96.89302,44.456735]}},{"properties":{"city":"Bryant","geo_score":0.857,"zip code":"57221","id":"a7lttpiqap2y","geo_precision":"zip","state":"SD"},"type":"Feature","geometry":{"type":"Point","coordinates":[-97.466776,44.590094]}},{"properties":{"city":"Castlewood","geo_score":0.857,"zip code":"57223","id":"a7lttphs6hfp","geo_precision":"zip","state":"SD"},"type":"Feature","geometry":{"type":"Point","coordinates":[-97.059789,44.602188]}},{"properties":{"city":"Claire City","geo_score":0.857,"zip code":"57224","id":"a7lttp70g604","geo_precision":"zip","state":"SD"},"type":"Feature","geometry":{"type":"Point","coordinates":[-96.849416,45.616422]}},{"properties":{"city":"Clark","geo_score":0.857,"zip code":"57225","id":"a7lttp4oo0dl","geo_precision":"zip","state":"SD"},"type":"Feature","geometry":{"type":"Point","coordinates":[-97.832972,44.891983]}},{"properties":{"city":"Clear Lake","geo_score":0.857,"zip code":"57226","id":"a7lttpggwwq3","geo_precision":"zip","state":"SD"},"type":"Feature","geometry":{"type":"Point","coordinates":[-96.689504,44.839687]}},{"properties":{"city":"Corona","geo_score":0.857,"zip code":"57227","id":"a7lttpaxe966","geo_precision":"zip","state":"SD"},"type":"Feature","geometry":{"type":"Point","coordinates":[-96.849416,45.616422]}},{"properties":{"city":"De Smet","geo_score":0.857,"zip code":"57231","id":"a7lttp9euo3h","geo_precision":"zip","state":"SD"},"type":"Feature","geometry":{"type":"Point","coordinates":[-97.542049,44.369482]}},{"properties":{"city":"Eden","geo_score":0.857,"zip code":"57232","id":"a7lttpc4t6ek","geo_precision":"zip","state":"SD"},"type":"Feature","geometry":{"type":"Point","coordinates":[-97.40057,45.631054]}},{"properties":{"city":"Erwin","geo_score":0.857,"zip code":"57233","id":"a7lttp7k8gls","geo_precision":"zip","state":"SD"},"type":"Feature","geometry":{"type":"Point","coordinates":[-97.370412,44.470856]}},{"properties":{"city":"Estelline","geo_score":0.857,"zip code":"57234","id":"a7lttpa5n02v","geo_precision":"zip","state":"SD"},"type":"Feature","geometry":{"type":"Point","coordinates":[-97.188324,44.673762]}},{"properties":{"city":"Florence","geo_score":0.857,"zip code":"57235","id":"a7lttpfoeh24","geo_precision":"zip","state":"SD"},"type":"Feature","geometry":{"type":"Point","coordinates":[-97.306014,45.015481]}},{"properties":{"city":"Garden City","geo_score":0.857,"zip code":"57236","id":"a7lttp7olbvp","geo_precision":"zip","state":"SD"},"type":"Feature","geometry":{"type":"Point","coordinates":[-97.737227,44.848565]}},{"properties":{"city":"Gary","geo_score":0.857,"zip code":"57237","id":"a7lttpe248z0","geo_precision":"zip","state":"SD"},"type":"Feature","geometry":{"type":"Point","coordinates":[-96.45927,44.792302]}},{"properties":{"city":"Goodwin","geo_score":0.857,"zip code":"57238","id":"a7lttp9jx95n","geo_precision":"zip","state":"SD"},"type":"Feature","geometry":{"type":"Point","coordinates":[-96.848398,44.834965]}},{"properties":{"city":"Grenville","geo_score":0.857,"zip code":"57239","id":"a7lttp8409s6","geo_precision":"zip","state":"SD"},"type":"Feature","geometry":{"type":"Point","coordinates":[-97.603949,45.369855]}},{"properties":{"city":"Hayti","geo_score":0.857,"zip code":"57241","id":"a7lttpehpcek","geo_precision":"zip","state":"SD"},"type":"Feature","geometry":{"type":"Point","coordinates":[-97.20497,44.657338]}},{"properties":{"city":"Hazel","geo_score":0.857,"zip code":"57242","id":"a7lttp98mmgf","geo_precision":"zip","state":"SD"},"type":"Feature","geometry":{"type":"Point","coordinates":[-97.381575,44.759144]}},{"properties":{"city":"Henry","geo_score":0.857,"zip code":"57243","id":"a7lttpe9905g","geo_precision":"zip","state":"SD"},"type":"Feature","geometry":{"type":"Point","coordinates":[-97.391955,44.929255]}},{"properties":{"city":"Hetland","geo_score":0.857,"zip code":"57244","id":"a7lttp7ko8tl","geo_precision":"zip","state":"SD"},"type":"Feature","geometry":{"type":"Point","coordinates":[-97.289881,44.425409]}},{"properties":{"city":"Kranzburg","geo_score":0.857,"zip code":"57245","id":"a7lttp63f6yj","geo_precision":"zip","state":"SD"},"type":"Feature","geometry":{"type":"Point","coordinates":[-96.917412,44.892254]}},{"properties":{"city":"Labolt","geo_score":0.857,"zip code":"57246","id":"a7lttpi6b9s3","geo_precision":"zip","state":"SD"},"type":"Feature","geometry":{"type":"Point","coordinates":[-96.670622,45.115408]}},{"properties":{"city":"Lake City","geo_score":0.857,"zip code":"57247","id":"a7lttpiqo2al","geo_precision":"zip","state":"SD"},"type":"Feature","geometry":{"type":"Point","coordinates":[-97.470748,45.717904]}},{"properties":{"city":"Lake Norden","geo_score":0.857,"zip code":"57248","id":"a7lttp9murbb","geo_precision":"zip","state":"SD"},"type":"Feature","geometry":{"type":"Point","coordinates":[-97.128124,44.586633]}},{"properties":{"city":"Lake Preston","geo_score":0.857,"zip code":"57249","id":"a7lttpem5s4p","geo_precision":"zip","state":"SD"},"type":"Feature","geometry":{"type":"Point","coordinates":[-97.382824,44.369159]}},{"properties":{"city":"Marvin","geo_score":0.857,"zip code":"57251","id":"a7lttpamyd4m","geo_precision":"zip","state":"SD"},"type":"Feature","geometry":{"type":"Point","coordinates":[-96.942159,45.274296]}},{"properties":{"city":"Milbank","geo_score":0.857,"zip code":"57252","id":"a7lttp7vf1yk","geo_precision":"zip","state":"SD"},"type":"Feature","geometry":{"type":"Point","coordinates":[-96.629203,45.171617]}},{"properties":{"city":"Milbank","geo_score":0.857,"zip code":"57253","id":"a7lttp55y897","geo_precision":"zip","state":"SD"},"type":"Feature","geometry":{"type":"Point","coordinates":[-96.839235,45.151477]}},{"properties":{"city":"New Effington","geo_score":0.857,"zip code":"57255","id":"a7lttpc86vha","geo_precision":"zip","state":"SD"},"type":"Feature","geometry":{"type":"Point","coordinates":[-96.849416,45.616422]}},{"properties":{"city":"Ortley","geo_score":0.857,"zip code":"57256","id":"a7lttp6gf38u","geo_precision":"zip","state":"SD"},"type":"Feature","geometry":{"type":"Point","coordinates":[-96.849416,45.616422]}},{"properties":{"city":"Peever","geo_score":0.857,"zip code":"57257","id":"a7lttp9xup39","geo_precision":"zip","state":"SD"},"type":"Feature","geometry":{"type":"Point","coordinates":[-96.951675,45.542151]}},{"properties":{"city":"Raymond","geo_score":0.857,"zip code":"57258","id":"a7lttp5gg871","geo_precision":"zip","state":"SD"},"type":"Feature","geometry":{"type":"Point","coordinates":[-97.980368,44.789416]}},{"properties":{"city":"Revillo","geo_score":0.857,"zip code":"57259","id":"a7lttpc9pdjt","geo_precision":"zip","state":"SD"},"type":"Feature","geometry":{"type":"Point","coordinates":[-96.55339,45.052187]}},{"properties":{"city":"Rosholt","geo_score":0.857,"zip code":"57260","id":"a7lttpa5jwc4","geo_precision":"zip","state":"SD"},"type":"Feature","geometry":{"type":"Point","coordinates":[-96.849416,45.616422]}},{"properties":{"city":"Roslyn","geo_score":0.857,"zip code":"57261","id":"a7lttpfh2f2m","geo_precision":"zip","state":"SD"},"type":"Feature","geometry":{"type":"Point","coordinates":[-97.603949,45.369855]}},{"properties":{"city":"Sisseton","geo_score":0.857,"zip code":"57262","id":"a7lttpe5v099","geo_precision":"zip","state":"SD"},"type":"Feature","geometry":{"type":"Point","coordinates":[-96.970202,45.541443]}},{"properties":{"city":"South Shore","geo_score":0.857,"zip code":"57263","id":"a7lttpb9534x","geo_precision":"zip","state":"SD"},"type":"Feature","geometry":{"type":"Point","coordinates":[-97.036356,45.100745]}},{"properties":{"city":"Stockholm","geo_score":0.857,"zip code":"57264","id":"a7lttp9lv4jb","geo_precision":"zip","state":"SD"},"type":"Feature","geometry":{"type":"Point","coordinates":[-96.802259,45.106694]}},{"properties":{"city":"Strandburg","geo_score":0.857,"zip code":"57265","id":"a7lttpjq7v6r","geo_precision":"zip","state":"SD"},"type":"Feature","geometry":{"type":"Point","coordinates":[-96.74078,45.021579]}},{"properties":{"city":"Summit","geo_score":0.857,"zip code":"57266","id":"a7lttpg531kw","geo_precision":"zip","state":"SD"},"type":"Feature","geometry":{"type":"Point","coordinates":[-97.036537,45.30204]}},{"properties":{"city":"Toronto","geo_score":0.857,"zip code":"57268","id":"a7lttp7qdige","geo_precision":"zip","state":"SD"},"type":"Feature","geometry":{"type":"Point","coordinates":[-96.785613,44.54441]}},{"properties":{"city":"Twin Brooks","geo_score":0.857,"zip code":"57269","id":"a7lttp7tg8sp","geo_precision":"zip","state":"SD"},"type":"Feature","geometry":{"type":"Point","coordinates":[-96.823706,45.230876]}},{"properties":{"city":"Veblen","geo_score":0.857,"zip code":"57270","id":"a7lttpk90uv8","geo_precision":"zip","state":"SD"},"type":"Feature","geometry":{"type":"Point","coordinates":[-97.39204,45.834957]}},{"properties":{"city":"Vienna","geo_score":0.857,"zip code":"57271","id":"a7lttp6aathh","geo_precision":"zip","state":"SD"},"type":"Feature","geometry":{"type":"Point","coordinates":[-97.737227,44.848565]}},{"properties":{"city":"Wallace","geo_score":0.857,"zip code":"57272","id":"a7lttphwszyt","geo_precision":"zip","state":"SD"},"type":"Feature","geometry":{"type":"Point","coordinates":[-97.453149,45.093607]}},{"properties":{"city":"Waubay","geo_score":0.857,"zip code":"57273","id":"a7lttp6789mw","geo_precision":"zip","state":"SD"},"type":"Feature","geometry":{"type":"Point","coordinates":[-97.307239,45.332568]}},{"properties":{"city":"Webster","geo_score":0.857,"zip code":"57274","id":"a7lttpk597b5","geo_precision":"zip","state":"SD"},"type":"Feature","geometry":{"type":"Point","coordinates":[-97.683422,45.181347]}},{"properties":{"city":"White","geo_score":0.857,"zip code":"57276","id":"a7lttp5t3lg0","geo_precision":"zip","state":"SD"},"type":"Feature","geometry":{"type":"Point","coordinates":[-96.599788,44.405596]}},{"properties":{"city":"Willow Lake","geo_score":0.857,"zip code":"57278","id":"a7lttpi6qw9t","geo_precision":"zip","state":"SD"},"type":"Feature","geometry":{"type":"Point","coordinates":[-97.573152,44.659815]}},{"properties":{"city":"Wilmot","geo_score":0.857,"zip code":"57279","id":"a7lttpfhxqyk","geo_precision":"zip","state":"SD"},"type":"Feature","geometry":{"type":"Point","coordinates":[-96.832256,45.39857]}},{"properties":{"city":"Mitchell","geo_score":0.857,"zip code":"57301","id":"a7lttpi8sbqn","geo_precision":"zip","state":"SD"},"type":"Feature","geometry":{"type":"Point","coordinates":[-97.948409,43.722761]}},{"properties":{"city":"Alexandria","geo_score":0.857,"zip code":"57311","id":"a7lttp4166mf","geo_precision":"zip","state":"SD"},"type":"Feature","geometry":{"type":"Point","coordinates":[-97.688404,43.723869]}},{"properties":{"city":"Alpena","geo_score":0.857,"zip code":"57312","id":"a7lttpg7dnbh","geo_precision":"zip","state":"SD"},"type":"Feature","geometry":{"type":"Point","coordinates":[-98.412198,44.122811]}},{"properties":{"city":"Armour","geo_score":0.857,"zip code":"57313","id":"a7lttpdrseeh","geo_precision":"zip","state":"SD"},"type":"Feature","geometry":{"type":"Point","coordinates":[-98.398964,43.341035]}},{"properties":{"city":"Artesian","geo_score":0.857,"zip code":"57314","id":"a7lttp4xn68m","geo_precision":"zip","state":"SD"},"type":"Feature","geometry":{"type":"Point","coordinates":[-98.01144,44.020961]}},{"properties":{"city":"Avon","geo_score":0.857,"zip code":"57315","id":"a7lttpadoj6g","geo_precision":"zip","state":"SD"},"type":"Feature","geometry":{"type":"Point","coordinates":[-97.878579,42.988284]}},{"properties":{"city":"Bonesteel","geo_score":0.857,"zip code":"57317","id":"a7lttpd239x1","geo_precision":"zip","state":"SD"},"type":"Feature","geometry":{"type":"Point","coordinates":[-99.016376,43.248832]}},{"properties":{"city":"Bridgewater","geo_score":0.857,"zip code":"57319","id":"a7lttpagobip","geo_precision":"zip","state":"SD"},"type":"Feature","geometry":{"type":"Point","coordinates":[-97.469058,43.550264]}},{"properties":{"city":"Canova","geo_score":0.857,"zip code":"57321","id":"a7lttpii8oum","geo_precision":"zip","state":"SD"},"type":"Feature","geometry":{"type":"Point","coordinates":[-97.540053,43.892123]}},{"properties":{"city":"Carpenter","geo_score":0.857,"zip code":"57322","id":"a7lttpf9u0w4","geo_precision":"zip","state":"SD"},"type":"Feature","geometry":{"type":"Point","coordinates":[-97.737227,44.848565]}},{"properties":{"city":"Carthage","geo_score":0.857,"zip code":"57323","id":"a7lttpjxe4rx","geo_precision":"zip","state":"SD"},"type":"Feature","geometry":{"type":"Point","coordinates":[-97.720661,44.138176]}},{"properties":{"city":"Cavour","geo_score":0.857,"zip code":"57324","id":"a7lttpj1mloz","geo_precision":"zip","state":"SD"},"type":"Feature","geometry":{"type":"Point","coordinates":[-98.013968,44.325314]}},{"properties":{"city":"Chamberlain","geo_score":0.857,"zip code":"57325","id":"a7lttphda46k","geo_precision":"zip","state":"SD"},"type":"Feature","geometry":{"type":"Point","coordinates":[-99.210651,43.600832]}},{"properties":{"city":"Chamberlain","geo_score":0.857,"zip code":"57326","id":"a7lttpc0815o","geo_precision":"zip","state":"SD"},"type":"Feature","geometry":{"type":"Point","coordinates":[-99.131736,43.71725]}},{"properties":{"city":"Corsica","geo_score":0.857,"zip code":"57328","id":"a7lttp5atq4n","geo_precision":"zip","state":"SD"},"type":"Feature","geometry":{"type":"Point","coordinates":[-98.212299,43.468876]}},{"properties":{"city":"Dante","geo_score":0.857,"zip code":"57329","id":"a7lttpapzxoq","geo_precision":"zip","state":"SD"},"type":"Feature","geometry":{"type":"Point","coordinates":[-98.175204,42.984707]}},{"properties":{"city":"Delmont","geo_score":0.857,"zip code":"57330","id":"a7lttpfdlevs","geo_precision":"zip","state":"SD"},"type":"Feature","geometry":{"type":"Point","coordinates":[-98.178372,43.290614]}},{"properties":{"city":"Dimock","geo_score":0.857,"zip code":"57331","id":"a7lttpi7w4a0","geo_precision":"zip","state":"SD"},"type":"Feature","geometry":{"type":"Point","coordinates":[-97.999352,43.470444]}},{"properties":{"city":"Emery","geo_score":0.857,"zip code":"57332","id":"a7lttpaubakg","geo_precision":"zip","state":"SD"},"type":"Feature","geometry":{"type":"Point","coordinates":[-97.657844,43.443595]}},{"properties":{"city":"Ethan","geo_score":0.857,"zip code":"57334","id":"a7lttpjywn3f","geo_precision":"zip","state":"SD"},"type":"Feature","geometry":{"type":"Point","coordinates":[-98.074101,43.59997]}},{"properties":{"city":"Fairfax","geo_score":0.857,"zip code":"57335","id":"a7lttpdzdkyg","geo_precision":"zip","state":"SD"},"type":"Feature","geometry":{"type":"Point","coordinates":[-99.016376,43.248832]}},{"properties":{"city":"Fedora","geo_score":0.857,"zip code":"57337","id":"a7lttpeqmfs9","geo_precision":"zip","state":"SD"},"type":"Feature","geometry":{"type":"Point","coordinates":[-97.750838,44.001852]}},{"properties":{"city":"Fort Thompson","geo_score":0.857,"zip code":"57339","id":"a7lttpg9k38b","geo_precision":"zip","state":"SD"},"type":"Feature","geometry":{"type":"Point","coordinates":[-99.251509,44.064873]}},{"properties":{"city":"Fulton","geo_score":0.857,"zip code":"57340","id":"a7lttpd3tpg6","geo_precision":"zip","state":"SD"},"type":"Feature","geometry":{"type":"Point","coordinates":[-97.869025,43.762939]}},{"properties":{"city":"Gann Valley","geo_score":0.857,"zip code":"57341","id":"a7lttpdg953f","geo_precision":"zip","state":"SD"},"type":"Feature","geometry":{"type":"Point","coordinates":[-99.251509,44.064873]}},{"properties":{"city":"Geddes","geo_score":0.857,"zip code":"57342","id":"a7lttpbjrxc0","geo_precision":"zip","state":"SD"},"type":"Feature","geometry":{"type":"Point","coordinates":[-98.736404,43.251263]}},{"properties":{"city":"Harrison","geo_score":0.857,"zip code":"57344","id":"a7lttpd375k0","geo_precision":"zip","state":"SD"},"type":"Feature","geometry":{"type":"Point","coordinates":[-98.528068,43.409186]}},{"properties":{"city":"Highmore","geo_score":0.857,"zip code":"57345","id":"a7lttp7dyjms","geo_precision":"zip","state":"SD"},"type":"Feature","geometry":{"type":"Point","coordinates":[-99.604005,44.758316]}},{"properties":{"city":"Stephan","geo_score":0.857,"zip code":"57346","id":"a7lttpg5sptb","geo_precision":"zip","state":"SD"},"type":"Feature","geometry":{"type":"Point","coordinates":[-99.488221,44.545094]}},{"properties":{"city":"Hitchcock","geo_score":0.857,"zip code":"57348","id":"a7lttpgctib8","geo_precision":"zip","state":"SD"},"type":"Feature","geometry":{"type":"Point","coordinates":[-98.406424,44.567404]}},{"properties":{"city":"Howard","geo_score":0.857,"zip code":"57349","id":"a7lttp5omwfb","geo_precision":"zip","state":"SD"},"type":"Feature","geometry":{"type":"Point","coordinates":[-97.537017,44.182472]}},{"properties":{"city":"Huron","geo_score":0.857,"zip code":"57350","id":"a7lttp8lm0og","geo_precision":"zip","state":"SD"},"type":"Feature","geometry":{"type":"Point","coordinates":[-98.206759,44.564424]}},{"properties":{"city":"Iroquois","geo_score":0.857,"zip code":"57353","id":"a7lttpic1cak","geo_precision":"zip","state":"SD"},"type":"Feature","geometry":{"type":"Point","coordinates":[-97.720636,44.369139]}},{"properties":{"city":"Kaylor","geo_score":0.857,"zip code":"57354","id":"a7lttp8tupbs","geo_precision":"zip","state":"SD"},"type":"Feature","geometry":{"type":"Point","coordinates":[-97.756924,43.334069]}},{"properties":{"city":"Kimball","geo_score":0.857,"zip code":"57355","id":"a7lttpjq7jh8","geo_precision":"zip","state":"SD"},"type":"Feature","geometry":{"type":"Point","coordinates":[-98.97065,43.877774]}},{"properties":{"city":"Lake Andes","geo_score":0.857,"zip code":"57356","id":"a7lttp4lvbe7","geo_precision":"zip","state":"SD"},"type":"Feature","geometry":{"type":"Point","coordinates":[-98.527479,43.147572]}},{"properties":{"city":"Ravinia","geo_score":0.857,"zip code":"57357","id":"a7lttp7xi3kj","geo_precision":"zip","state":"SD"},"type":"Feature","geometry":{"type":"Point","coordinates":[-98.427173,43.136365]}},{"properties":{"city":"Lane","geo_score":0.857,"zip code":"57358","id":"a7lttp9gwmzf","geo_precision":"zip","state":"SD"},"type":"Feature","geometry":{"type":"Point","coordinates":[-98.425228,44.069628]}},{"properties":{"city":"Letcher","geo_score":0.857,"zip code":"57359","id":"a7lttp67o82x","geo_precision":"zip","state":"SD"},"type":"Feature","geometry":{"type":"Point","coordinates":[-98.351475,43.863599]}},{"properties":{"city":"Marty","geo_score":0.857,"zip code":"57361","id":"a7lttphcgo5t","geo_precision":"zip","state":"SD"},"type":"Feature","geometry":{"type":"Point","coordinates":[-98.446929,43.01957]}},{"properties":{"city":"Miller","geo_score":0.857,"zip code":"57362","id":"a7lttp6o8yim","geo_precision":"zip","state":"SD"},"type":"Feature","geometry":{"type":"Point","coordinates":[-99.062766,44.480979]}},{"properties":{"city":"Mount Vernon","geo_score":0.857,"zip code":"57363","id":"a7lttp7hpc3i","geo_precision":"zip","state":"SD"},"type":"Feature","geometry":{"type":"Point","coordinates":[-98.164483,43.674994]}},{"properties":{"city":"New Holland","geo_score":0.857,"zip code":"57364","id":"a7lttpemu5ym","geo_precision":"zip","state":"SD"},"type":"Feature","geometry":{"type":"Point","coordinates":[-98.608778,43.427358]}},{"properties":{"city":"Oacoma","geo_score":0.857,"zip code":"57365","id":"a7lttp7t0lqb","geo_precision":"zip","state":"SD"},"type":"Feature","geometry":{"type":"Point","coordinates":[-99.394735,43.797502]}},{"properties":{"city":"Parkston","geo_score":0.857,"zip code":"57366","id":"a7lttpfox04o","geo_precision":"zip","state":"SD"},"type":"Feature","geometry":{"type":"Point","coordinates":[-97.801735,43.423596]}},{"properties":{"city":"Pickstown","geo_score":0.857,"zip code":"57367","id":"a7lttpjtooxy","geo_precision":"zip","state":"SD"},"type":"Feature","geometry":{"type":"Point","coordinates":[-98.522951,43.067306]}},{"properties":{"city":"Plankinton","geo_score":0.857,"zip code":"57368","id":"a7lttp4hua5c","geo_precision":"zip","state":"SD"},"type":"Feature","geometry":{"type":"Point","coordinates":[-98.518533,43.746753]}},{"properties":{"city":"Platte","geo_score":0.857,"zip code":"57369","id":"a7lttp8mri8k","geo_precision":"zip","state":"SD"},"type":"Feature","geometry":{"type":"Point","coordinates":[-98.767186,43.2916]}},{"properties":{"city":"Pukwana","geo_score":0.857,"zip code":"57370","id":"a7lttpd9yncr","geo_precision":"zip","state":"SD"},"type":"Feature","geometry":{"type":"Point","coordinates":[-99.187321,43.94805]}},{"properties":{"city":"Ree Heights","geo_score":0.857,"zip code":"57371","id":"a7lttp6muuqk","geo_precision":"zip","state":"SD"},"type":"Feature","geometry":{"type":"Point","coordinates":[-99.218556,44.422833]}},{"properties":{"city":"Saint Lawrence","geo_score":0.857,"zip code":"57373","id":"a7lttp9rioe1","geo_precision":"zip","state":"SD"},"type":"Feature","geometry":{"type":"Point","coordinates":[-98.869647,44.495497]}},{"properties":{"city":"Spencer","geo_score":0.857,"zip code":"57374","id":"a7lttp5fqhqw","geo_precision":"zip","state":"SD"},"type":"Feature","geometry":{"type":"Point","coordinates":[-97.581441,43.723565]}},{"properties":{"city":"Stickney","geo_score":0.857,"zip code":"57375","id":"a7lttp9stujn","geo_precision":"zip","state":"SD"},"type":"Feature","geometry":{"type":"Point","coordinates":[-98.589806,43.526937]}},{"properties":{"city":"Tripp","geo_score":0.857,"zip code":"57376","id":"a7lttpgf50w7","geo_precision":"zip","state":"SD"},"type":"Feature","geometry":{"type":"Point","coordinates":[-97.923502,43.24846]}},{"properties":{"city":"Virgil","geo_score":0.857,"zip code":"57379","id":"a7lttpebfzzd","geo_precision":"zip","state":"SD"},"type":"Feature","geometry":{"type":"Point","coordinates":[-98.50273,44.283816]}},{"properties":{"city":"Wagner","geo_score":0.857,"zip code":"57380","id":"a7lttpe6lfq6","geo_precision":"zip","state":"SD"},"type":"Feature","geometry":{"type":"Point","coordinates":[-98.315504,43.034725]}},{"properties":{"city":"Wessington","geo_score":0.857,"zip code":"57381","id":"a7lttpb3uor8","geo_precision":"zip","state":"SD"},"type":"Feature","geometry":{"type":"Point","coordinates":[-98.642453,44.415437]}},{"properties":{"city":"Wessington Springs","geo_score":0.857,"zip code":"57382","id":"a7lttp9qt4js","geo_precision":"zip","state":"SD"},"type":"Feature","geometry":{"type":"Point","coordinates":[-98.675133,44.066415]}},{"properties":{"city":"White Lake","geo_score":0.857,"zip code":"57383","id":"a7lttp55crt3","geo_precision":"zip","state":"SD"},"type":"Feature","geometry":{"type":"Point","coordinates":[-98.644922,43.714955]}},{"properties":{"city":"Wolsey","geo_score":0.857,"zip code":"57384","id":"a7lttp5trmlt","geo_precision":"zip","state":"SD"},"type":"Feature","geometry":{"type":"Point","coordinates":[-98.487894,44.44945]}},{"properties":{"city":"Woonsocket","geo_score":0.857,"zip code":"57385","id":"a7lttpgnpar2","geo_precision":"zip","state":"SD"},"type":"Feature","geometry":{"type":"Point","coordinates":[-98.231397,44.04271]}},{"properties":{"city":"Yale","geo_score":0.857,"zip code":"57386","id":"a7lttpeiqgsk","geo_precision":"zip","state":"SD"},"type":"Feature","geometry":{"type":"Point","coordinates":[-98.040081,44.522526]}},{"properties":{"city":"Huron","geo_score":0.857,"zip code":"57399","id":"a7lttp48ntfo","geo_precision":"zip","state":"SD"},"type":"Feature","geometry":{"type":"Point","coordinates":[-98.279548,44.414319]}},{"properties":{"city":"Omaha","geo_score":0.857,"zip code":"68101","id":"a7lttp4f6v1h","geo_precision":"zip","state":"NE"},"type":"Feature","geometry":{"type":"Point","coordinates":[-96.171104,41.291736]}},{"properties":{"city":"Omaha","geo_score":0.857,"zip code":"68102","id":"a7lttpd0jfu3","geo_precision":"zip","state":"NE"},"type":"Feature","geometry":{"type":"Point","coordinates":[-95.933564,41.262003]}},{"properties":{"city":"Omaha","geo_score":0.857,"zip code":"68103","id":"a7lttpeluj5g","geo_precision":"zip","state":"NE"},"type":"Feature","geometry":{"type":"Point","coordinates":[-96.171104,41.291736]}},{"properties":{"city":"Omaha","geo_score":0.857,"zip code":"68104","id":"a7lttpjg7yq5","geo_precision":"zip","state":"NE"},"type":"Feature","geometry":{"type":"Point","coordinates":[-95.99895,41.295396]}},{"properties":{"city":"Omaha","geo_score":0.857,"zip code":"68105","id":"a7lttpieimw2","geo_precision":"zip","state":"NE"},"type":"Feature","geometry":{"type":"Point","coordinates":[-95.964396,41.240468]}},{"properties":{"city":"Omaha","geo_score":0.857,"zip code":"68106","id":"a7lttp950o9w","geo_precision":"zip","state":"NE"},"type":"Feature","geometry":{"type":"Point","coordinates":[-95.999367,41.239005]}},{"properties":{"city":"Omaha","geo_score":0.857,"zip code":"68107","id":"a7lttp5uvia6","geo_precision":"zip","state":"NE"},"type":"Feature","geometry":{"type":"Point","coordinates":[-95.950312,41.211348]}},{"properties":{"city":"Omaha","geo_score":0.857,"zip code":"68108","id":"a7lttpg4m43a","geo_precision":"zip","state":"NE"},"type":"Feature","geometry":{"type":"Point","coordinates":[-95.964985,41.23814]}},{"properties":{"city":"Omaha","geo_score":0.857,"zip code":"68109","id":"a7lttpjnl70i","geo_precision":"zip","state":"NE"},"type":"Feature","geometry":{"type":"Point","coordinates":[-96.171104,41.291736]}},{"properties":{"city":"Omaha","geo_score":0.857,"zip code":"68110","id":"a7lttph48xze","geo_precision":"zip","state":"NE"},"type":"Feature","geometry":{"type":"Point","coordinates":[-95.914481,41.295598]}},{"properties":{"city":"Omaha","geo_score":0.857,"zip code":"68111","id":"a7lttpegtekf","geo_precision":"zip","state":"NE"},"type":"Feature","geometry":{"type":"Point","coordinates":[-95.964477,41.295395]}},{"properties":{"city":"Omaha","geo_score":0.857,"zip code":"68112","id":"a7lttpjyn25y","geo_precision":"zip","state":"NE"},"type":"Feature","geometry":{"type":"Point","coordinates":[-95.99668,41.406385]}},{"properties":{"city":"Offutt A F B","geo_score":0.857,"zip code":"68113","id":"a7lttp90jfwl","geo_precision":"zip","state":"NE"},"type":"Feature","geometry":{"type":"Point","coordinates":[-95.910732,41.119478]}},{"properties":{"city":"Omaha","geo_score":0.857,"zip code":"68114","id":"a7lttpgsxyjb","geo_precision":"zip","state":"NE"},"type":"Feature","geometry":{"type":"Point","coordinates":[-96.053634,41.263262]}},{"properties":{"city":"Omaha","geo_score":0.857,"zip code":"68116","id":"a7lttpejffvz","geo_precision":"zip","state":"NE"},"type":"Feature","geometry":{"type":"Point","coordinates":[-96.167398,41.293997]}},{"properties":{"city":"Omaha","geo_score":0.857,"zip code":"68117","id":"a7lttpgv2o8h","geo_precision":"zip","state":"NE"},"type":"Feature","geometry":{"type":"Point","coordinates":[-96.001636,41.207194]}},{"properties":{"city":"Omaha","geo_score":0.857,"zip code":"68118","id":"a7lttp5yujm1","geo_precision":"zip","state":"NE"},"type":"Feature","geometry":{"type":"Point","coordinates":[-96.176419,41.264155]}},{"properties":{"city":"Omaha","geo_score":0.857,"zip code":"68119","id":"a7lttp7e9s8o","geo_precision":"zip","state":"NE"},"type":"Feature","geometry":{"type":"Point","coordinates":[-96.171104,41.291736]}},{"properties":{"city":"Omaha","geo_score":0.857,"zip code":"68120","id":"a7lttpipj4ct","geo_precision":"zip","state":"NE"},"type":"Feature","geometry":{"type":"Point","coordinates":[-96.171104,41.291736]}},{"properties":{"city":"Omaha","geo_score":0.857,"zip code":"68122","id":"a7lttpjg7brl","geo_precision":"zip","state":"NE"},"type":"Feature","geometry":{"type":"Point","coordinates":[-96.07026,41.353003]}},{"properties":{"city":"Bellevue","geo_score":0.857,"zip code":"68123","id":"a7lttpbz7sw9","geo_precision":"zip","state":"NE"},"type":"Feature","geometry":{"type":"Point","coordinates":[-95.923622,41.074721]}},{"properties":{"city":"Omaha","geo_score":0.857,"zip code":"68124","id":"a7lttpfmj4do","geo_precision":"zip","state":"NE"},"type":"Feature","geometry":{"type":"Point","coordinates":[-96.052206,41.23467]}},{"properties":{"city":"Omaha","geo_score":0.857,"zip code":"68127","id":"a7lttpffwamp","geo_precision":"zip","state":"NE"},"type":"Feature","geometry":{"type":"Point","coordinates":[-96.061154,41.207414]}},{"properties":{"city":"La Vista","geo_score":0.857,"zip code":"68128","id":"a7lttpasr5sw","geo_precision":"zip","state":"NE"},"type":"Feature","geometry":{"type":"Point","coordinates":[-96.061055,41.164994]}},{"properties":{"city":"Omaha","geo_score":0.857,"zip code":"68130","id":"a7lttp8wgmyr","geo_precision":"zip","state":"NE"},"type":"Feature","geometry":{"type":"Point","coordinates":[-96.19506,41.234004]}},{"properties":{"city":"Omaha","geo_score":0.857,"zip code":"68131","id":"a7lttpbiudvt","geo_precision":"zip","state":"NE"},"type":"Feature","geometry":{"type":"Point","coordinates":[-95.963832,41.265611]}},{"properties":{"city":"Omaha","geo_score":0.857,"zip code":"68132","id":"a7lttp5p4kgu","geo_precision":"zip","state":"NE"},"type":"Feature","geometry":{"type":"Point","coordinates":[-96.000888,41.264309]}},{"properties":{"city":"Papillion","geo_score":0.857,"zip code":"68133","id":"a7lttpiwo08t","geo_precision":"zip","state":"NE"},"type":"Feature","geometry":{"type":"Point","coordinates":[-96.100064,41.129114]}},{"properties":{"city":"Omaha","geo_score":0.857,"zip code":"68134","id":"a7lttpiy4882","geo_precision":"zip","state":"NE"},"type":"Feature","geometry":{"type":"Point","coordinates":[-96.054739,41.321109]}},{"properties":{"city":"Omaha","geo_score":0.857,"zip code":"68135","id":"a7lttpaiv9c2","geo_precision":"zip","state":"NE"},"type":"Feature","geometry":{"type":"Point","coordinates":[-96.193498,41.205998]}},{"properties":{"city":"Omaha","geo_score":0.857,"zip code":"68136","id":"a7lttp46nso4","geo_precision":"zip","state":"NE"},"type":"Feature","geometry":{"type":"Point","coordinates":[-96.185818,41.167434]}},{"properties":{"city":"Omaha","geo_score":0.857,"zip code":"68137","id":"a7lttp6od7d4","geo_precision":"zip","state":"NE"},"type":"Feature","geometry":{"type":"Point","coordinates":[-96.114696,41.207498]}},{"properties":{"city":"Omaha","geo_score":0.857,"zip code":"68138","id":"a7lttp8876uq","geo_precision":"zip","state":"NE"},"type":"Feature","geometry":{"type":"Point","coordinates":[-96.133576,41.158509]}},{"properties":{"city":"Omaha","geo_score":0.857,"zip code":"68139","id":"a7lttp9ox53q","geo_precision":"zip","state":"NE"},"type":"Feature","geometry":{"type":"Point","coordinates":[-96.171104,41.291736]}},{"properties":{"city":"Omaha","geo_score":0.857,"zip code":"68142","id":"a7lttphsap8t","geo_precision":"zip","state":"NE"},"type":"Feature","geometry":{"type":"Point","coordinates":[-96.101846,41.35585]}},{"properties":{"city":"Omaha","geo_score":0.857,"zip code":"68144","id":"a7lttp557z83","geo_precision":"zip","state":"NE"},"type":"Feature","geometry":{"type":"Point","coordinates":[-96.118847,41.233498]}},{"properties":{"city":"Omaha","geo_score":0.857,"zip code":"68145","id":"a7lttp9eev4d","geo_precision":"zip","state":"NE"},"type":"Feature","geometry":{"type":"Point","coordinates":[-96.171104,41.291736]}},{"properties":{"city":"Bellevue","geo_score":0.857,"zip code":"68147","id":"a7lttpb61v8s","geo_precision":"zip","state":"NE"},"type":"Feature","geometry":{"type":"Point","coordinates":[-95.95529,41.175798]}},{"properties":{"city":"Omaha","geo_score":0.857,"zip code":"68152","id":"a7lttpe3bd3e","geo_precision":"zip","state":"NE"},"type":"Feature","geometry":{"type":"Point","coordinates":[-96.011682,41.323609]}},{"properties":{"city":"Omaha","geo_score":0.857,"zip code":"68154","id":"a7lttphtt6iw","geo_precision":"zip","state":"NE"},"type":"Feature","geometry":{"type":"Point","coordinates":[-96.117202,41.286298]}},{"properties":{"city":"Omaha","geo_score":0.857,"zip code":"68155","id":"a7lttpcyxtyw","geo_precision":"zip","state":"NE"},"type":"Feature","geometry":{"type":"Point","coordinates":[-96.171104,41.291736]}},{"properties":{"city":"Omaha","geo_score":0.857,"zip code":"68157","id":"a7lttpckh5rq","geo_precision":"zip","state":"NE"},"type":"Feature","geometry":{"type":"Point","coordinates":[-95.992498,41.181187]}},{"properties":{"city":"Omaha","geo_score":0.857,"zip code":"68164","id":"a7lttpes0uf8","geo_precision":"zip","state":"NE"},"type":"Feature","geometry":{"type":"Point","coordinates":[-96.104795,41.306689]}},{"properties":{"city":"Omaha","geo_score":0.857,"zip code":"68172","id":"a7lttpa11be8","geo_precision":"zip","state":"NE"},"type":"Feature","geometry":{"type":"Point","coordinates":[-96.171104,41.291736]}},{"properties":{"city":"Omaha","geo_score":0.857,"zip code":"68175","id":"a7lttpj2smh1","geo_precision":"zip","state":"NE"},"type":"Feature","geometry":{"type":"Point","coordinates":[-96.171104,41.291736]}},{"properties":{"city":"Omaha","geo_score":0.857,"zip code":"68176","id":"a7lttp7inzhn","geo_precision":"zip","state":"NE"},"type":"Feature","geometry":{"type":"Point","coordinates":[-96.171104,41.291736]}},{"properties":{"city":"Omaha","geo_score":0.857,"zip code":"68178","id":"a7lttp7uih09","geo_precision":"zip","state":"NE"},"type":"Feature","geometry":{"type":"Point","coordinates":[-96.171104,41.291736]}},{"properties":{"city":"Omaha","geo_score":0.857,"zip code":"68179","id":"a7lttpbu1rzi","geo_precision":"zip","state":"NE"},"type":"Feature","geometry":{"type":"Point","coordinates":[-96.171104,41.291736]}},{"properties":{"city":"Omaha","geo_score":0.857,"zip code":"68180","id":"a7lttpbw4b2l","geo_precision":"zip","state":"NE"},"type":"Feature","geometry":{"type":"Point","coordinates":[-96.171104,41.291736]}},{"properties":{"city":"Omaha","geo_score":0.857,"zip code":"68181","id":"a7lttpf5lzr1","geo_precision":"zip","state":"NE"},"type":"Feature","geometry":{"type":"Point","coordinates":[-96.171104,41.291736]}},{"properties":{"city":"Omaha","geo_score":0.857,"zip code":"68182","id":"a7lttphw691r","geo_precision":"zip","state":"NE"},"type":"Feature","geometry":{"type":"Point","coordinates":[-96.171104,41.291736]}},{"properties":{"city":"Omaha","geo_score":0.857,"zip code":"68183","id":"a7lttp4kir0o","geo_precision":"zip","state":"NE"},"type":"Feature","geometry":{"type":"Point","coordinates":[-96.171104,41.291736]}},{"properties":{"city":"Omaha","geo_score":0.857,"zip code":"68198","id":"a7lttpdrzva9","geo_precision":"zip","state":"NE"},"type":"Feature","geometry":{"type":"Point","coordinates":[-96.171104,41.291736]}},{"properties":{"city":"Norfolk","geo_score":0.857,"zip code":"68701","id":"a7lttpe4j86u","geo_precision":"zip","state":"NE"},"type":"Feature","geometry":{"type":"Point","coordinates":[-97.462828,41.903895]}},{"properties":{"city":"Norfolk","geo_score":0.857,"zip code":"68702","id":"a7lttp8upo30","geo_precision":"zip","state":"NE"},"type":"Feature","geometry":{"type":"Point","coordinates":[-97.601348,41.916476]}},{"properties":{"city":"Allen","geo_score":0.857,"zip code":"68710","id":"a7lttpf6x9vz","geo_precision":"zip","state":"NE"},"type":"Feature","geometry":{"type":"Point","coordinates":[-96.884378,42.445278]}},{"properties":{"city":"Amelia","geo_score":0.857,"zip code":"68711","id":"a7lttpheidfe","geo_precision":"zip","state":"NE"},"type":"Feature","geometry":{"type":"Point","coordinates":[-99.032048,42.556421]}},{"properties":{"city":"Atkinson","geo_score":0.857,"zip code":"68713","id":"a7lttpbb9lpw","geo_precision":"zip","state":"NE"},"type":"Feature","geometry":{"type":"Point","coordinates":[-98.975603,42.533852]}},{"properties":{"city":"Bassett","geo_score":0.857,"zip code":"68714","id":"a7lttphk89xs","geo_precision":"zip","state":"NE"},"type":"Feature","geometry":{"type":"Point","coordinates":[-99.551245,42.583147]}},{"properties":{"city":"Battle Creek","geo_score":0.857,"zip code":"68715","id":"a7lttp67vkgm","geo_precision":"zip","state":"NE"},"type":"Feature","geometry":{"type":"Point","coordinates":[-97.568855,41.976904]}},{"properties":{"city":"Beemer","geo_score":0.857,"zip code":"68716","id":"a7lttpchzlaq","geo_precision":"zip","state":"NE"},"type":"Feature","geometry":{"type":"Point","coordinates":[-96.816403,41.909399]}},{"properties":{"city":"Belden","geo_score":0.857,"zip code":"68717","id":"a7lttpg85jlf","geo_precision":"zip","state":"NE"},"type":"Feature","geometry":{"type":"Point","coordinates":[-97.212986,42.429295]}},{"properties":{"city":"Bloomfield","geo_score":0.857,"zip code":"68718","id":"a7lttpdyc58y","geo_precision":"zip","state":"NE"},"type":"Feature","geometry":{"type":"Point","coordinates":[-97.659606,42.628731]}},{"properties":{"city":"Bristow","geo_score":0.857,"zip code":"68719","id":"a7lttp8ah4nv","geo_precision":"zip","state":"NE"},"type":"Feature","geometry":{"type":"Point","coordinates":[-98.781334,42.879903]}},{"properties":{"city":"Brunswick","geo_score":0.857,"zip code":"68720","id":"a7lttp9setzc","geo_precision":"zip","state":"NE"},"type":"Feature","geometry":{"type":"Point","coordinates":[-98.066911,42.176397]}},{"properties":{"city":"Butte","geo_score":0.857,"zip code":"68722","id":"a7lttpkg9yw2","geo_precision":"zip","state":"NE"},"type":"Feature","geometry":{"type":"Point","coordinates":[-98.847065,42.911492]}},{"properties":{"city":"Carroll","geo_score":0.857,"zip code":"68723","id":"a7lttphxunvd","geo_precision":"zip","state":"NE"},"type":"Feature","geometry":{"type":"Point","coordinates":[-97.193337,42.286328]}},{"properties":{"city":"Center","geo_score":0.857,"zip code":"68724","id":"a7lttpkaua78","geo_precision":"zip","state":"NE"},"type":"Feature","geometry":{"type":"Point","coordinates":[-97.866951,42.597304]}},{"properties":{"city":"Chambers","geo_score":0.857,"zip code":"68725","id":"a7lttp56rl67","geo_precision":"zip","state":"NE"},"type":"Feature","geometry":{"type":"Point","coordinates":[-98.749451,42.20186]}},{"properties":{"city":"Clearwater","geo_score":0.857,"zip code":"68726","id":"a7lttp6cjoyh","geo_precision":"zip","state":"NE"},"type":"Feature","geometry":{"type":"Point","coordinates":[-98.066911,42.176397]}},{"properties":{"city":"Coleridge","geo_score":0.857,"zip code":"68727","id":"a7lttp51vrsz","geo_precision":"zip","state":"NE"},"type":"Feature","geometry":{"type":"Point","coordinates":[-97.260393,42.530505]}},{"properties":{"city":"Concord","geo_score":0.857,"zip code":"68728","id":"a7lttp6o0wck","geo_precision":"zip","state":"NE"},"type":"Feature","geometry":{"type":"Point","coordinates":[-96.853429,42.493637]}},{"properties":{"city":"Creighton","geo_score":0.857,"zip code":"68729","id":"a7lttpgelqg1","geo_precision":"zip","state":"NE"},"type":"Feature","geometry":{"type":"Point","coordinates":[-97.919351,42.490856]}},{"properties":{"city":"Crofton","geo_score":0.857,"zip code":"68730","id":"a7lttpbr1qd5","geo_precision":"zip","state":"NE"},"type":"Feature","geometry":{"type":"Point","coordinates":[-97.440894,42.839998]}},{"properties":{"city":"Dakota City","geo_score":0.857,"zip code":"68731","id":"a7lttpe350wb","geo_precision":"zip","state":"NE"},"type":"Feature","geometry":{"type":"Point","coordinates":[-96.565385,42.381775]}},{"properties":{"city":"Dixon","geo_score":0.857,"zip code":"68732","id":"a7lttp6r0i94","geo_precision":"zip","state":"NE"},"type":"Feature","geometry":{"type":"Point","coordinates":[-96.967598,42.480297]}},{"properties":{"city":"Emerson","geo_score":0.857,"zip code":"68733","id":"a7lttpjdmbsb","geo_precision":"zip","state":"NE"},"type":"Feature","geometry":{"type":"Point","coordinates":[-96.639317,42.361551]}},{"properties":{"city":"Emmet","geo_score":0.857,"zip code":"68734","id":"a7lttp94b69c","geo_precision":"zip","state":"NE"},"type":"Feature","geometry":{"type":"Point","coordinates":[-98.778556,42.492295]}},{"properties":{"city":"Ewing","geo_score":0.857,"zip code":"68735","id":"a7lttpk96pla","geo_precision":"zip","state":"NE"},"type":"Feature","geometry":{"type":"Point","coordinates":[-98.339519,42.118062]}},{"properties":{"city":"Fordyce","geo_score":0.857,"zip code":"68736","id":"a7lttpcr6w1b","geo_precision":"zip","state":"NE"},"type":"Feature","geometry":{"type":"Point","coordinates":[-97.374503,42.786943]}},{"properties":{"city":"Foster","geo_score":0.857,"zip code":"68737","id":"a7lttpb9wqf0","geo_precision":"zip","state":"NE"},"type":"Feature","geometry":{"type":"Point","coordinates":[-97.601337,42.264356]}},{"properties":{"city":"Hadar","geo_score":0.857,"zip code":"68738","id":"a7lttpfxmmuh","geo_precision":"zip","state":"NE"},"type":"Feature","geometry":{"type":"Point","coordinates":[-97.601337,42.264356]}},{"properties":{"city":"Hartington","geo_score":0.857,"zip code":"68739","id":"a7lttpbvh12u","geo_precision":"zip","state":"NE"},"type":"Feature","geometry":{"type":"Point","coordinates":[-97.250509,42.591685]}},{"properties":{"city":"Hoskins","geo_score":0.857,"zip code":"68740","id":"a7lttpi5wgat","geo_precision":"zip","state":"NE"},"type":"Feature","geometry":{"type":"Point","coordinates":[-97.309909,42.221141]}},{"properties":{"city":"Hubbard","geo_score":0.857,"zip code":"68741","id":"a7lttp7st7z3","geo_precision":"zip","state":"NE"},"type":"Feature","geometry":{"type":"Point","coordinates":[-96.603097,42.357595]}},{"properties":{"city":"Inman","geo_score":0.857,"zip code":"68742","id":"a7lttp6iubno","geo_precision":"zip","state":"NE"},"type":"Feature","geometry":{"type":"Point","coordinates":[-98.530866,42.380604]}},{"properties":{"city":"Jackson","geo_score":0.857,"zip code":"68743","id":"a7lttpfaby8k","geo_precision":"zip","state":"NE"},"type":"Feature","geometry":{"type":"Point","coordinates":[-96.628923,42.475274]}},{"properties":{"city":"Laurel","geo_score":0.857,"zip code":"68745","id":"a7lttpadsh0j","geo_precision":"zip","state":"NE"},"type":"Feature","geometry":{"type":"Point","coordinates":[-97.142457,42.475072]}},{"properties":{"city":"Lynch","geo_score":0.857,"zip code":"68746","id":"a7lttp7ivx19","geo_precision":"zip","state":"NE"},"type":"Feature","geometry":{"type":"Point","coordinates":[-98.344524,42.681667]}},{"properties":{"city":"Mclean","geo_score":0.857,"zip code":"68747","id":"a7lttp8skf5n","geo_precision":"zip","state":"NE"},"type":"Feature","geometry":{"type":"Point","coordinates":[-97.475151,42.438634]}},{"properties":{"city":"Madison","geo_score":0.857,"zip code":"68748","id":"a7lttp4pcuu0","geo_precision":"zip","state":"NE"},"type":"Feature","geometry":{"type":"Point","coordinates":[-97.48448,41.881046]}},{"properties":{"city":"Magnet","geo_score":0.857,"zip code":"68749","id":"a7lttpas6m5d","geo_precision":"zip","state":"NE"},"type":"Feature","geometry":{"type":"Point","coordinates":[-97.250378,42.609687]}},{"properties":{"city":"Maskell","geo_score":0.857,"zip code":"68751","id":"a7lttpfz30a0","geo_precision":"zip","state":"NE"},"type":"Feature","geometry":{"type":"Point","coordinates":[-96.926042,42.481711]}},{"properties":{"city":"Meadow Grove","geo_score":0.857,"zip code":"68752","id":"a7lttp5p8hcj","geo_precision":"zip","state":"NE"},"type":"Feature","geometry":{"type":"Point","coordinates":[-97.782829,42.034395]}},{"properties":{"city":"Mills","geo_score":0.857,"zip code":"68753","id":"a7lttp7ocvif","geo_precision":"zip","state":"NE"},"type":"Feature","geometry":{"type":"Point","coordinates":[-99.726221,42.858168]}},{"properties":{"city":"Naper","geo_score":0.857,"zip code":"68755","id":"a7lttpc2i2ns","geo_precision":"zip","state":"NE"},"type":"Feature","geometry":{"type":"Point","coordinates":[-98.781334,42.879903]}},{"properties":{"city":"Neligh","geo_score":0.857,"zip code":"68756","id":"a7lttpd05yx1","geo_precision":"zip","state":"NE"},"type":"Feature","geometry":{"type":"Point","coordinates":[-98.13176,42.216925]}},{"properties":{"city":"Newcastle","geo_score":0.857,"zip code":"68757","id":"a7lttpgf8oop","geo_precision":"zip","state":"NE"},"type":"Feature","geometry":{"type":"Point","coordinates":[-96.861558,42.494685]}},{"properties":{"city":"Newman Grove","geo_score":0.857,"zip code":"68758","id":"a7lttp9n2qbz","geo_precision":"zip","state":"NE"},"type":"Feature","geometry":{"type":"Point","coordinates":[-97.777198,41.747884]}},{"properties":{"city":"Newport","geo_score":0.857,"zip code":"68759","id":"a7lttpfw6a17","geo_precision":"zip","state":"NE"},"type":"Feature","geometry":{"type":"Point","coordinates":[-99.30788,42.997778]}},{"properties":{"city":"Niobrara","geo_score":0.857,"zip code":"68760","id":"a7lttp6ogp4i","geo_precision":"zip","state":"NE"},"type":"Feature","geometry":{"type":"Point","coordinates":[-97.850901,42.84111]}},{"properties":{"city":"Oakdale","geo_score":0.857,"zip code":"68761","id":"a7lttp5zcj5m","geo_precision":"zip","state":"NE"},"type":"Feature","geometry":{"type":"Point","coordinates":[-98.066911,42.176397]}},{"properties":{"city":"Oneill","geo_score":0.857,"zip code":"68763","id":"a7lttphn1w2u","geo_precision":"zip","state":"NE"},"type":"Feature","geometry":{"type":"Point","coordinates":[-98.665685,42.370456]}},{"properties":{"city":"Orchard","geo_score":0.857,"zip code":"68764","id":"a7lttpa1tem6","geo_precision":"zip","state":"NE"},"type":"Feature","geometry":{"type":"Point","coordinates":[-98.239908,42.337003]}},{"properties":{"city":"Osmond","geo_score":0.857,"zip code":"68765","id":"a7lttpgvidhb","geo_precision":"zip","state":"NE"},"type":"Feature","geometry":{"type":"Point","coordinates":[-97.598511,42.360661]}},{"properties":{"city":"Page","geo_score":0.857,"zip code":"68766","id":"a7lttpi9nghk","geo_precision":"zip","state":"NE"},"type":"Feature","geometry":{"type":"Point","coordinates":[-98.778556,42.492295]}},{"properties":{"city":"Pierce","geo_score":0.857,"zip code":"68767","id":"a7lttpk0iaod","geo_precision":"zip","state":"NE"},"type":"Feature","geometry":{"type":"Point","coordinates":[-97.581551,42.224218]}},{"properties":{"city":"Pilger","geo_score":0.857,"zip code":"68768","id":"a7lttpgr7ip3","geo_precision":"zip","state":"NE"},"type":"Feature","geometry":{"type":"Point","coordinates":[-97.07791,41.976143]}},{"properties":{"city":"Plainview","geo_score":0.857,"zip code":"68769","id":"a7lttp8y6c2n","geo_precision":"zip","state":"NE"},"type":"Feature","geometry":{"type":"Point","coordinates":[-97.788065,42.35378]}},{"properties":{"city":"Ponca","geo_score":0.857,"zip code":"68770","id":"a7lttpenl3cp","geo_precision":"zip","state":"NE"},"type":"Feature","geometry":{"type":"Point","coordinates":[-96.711058,42.565991]}},{"properties":{"city":"Randolph","geo_score":0.857,"zip code":"68771","id":"a7lttp8no3t2","geo_precision":"zip","state":"NE"},"type":"Feature","geometry":{"type":"Point","coordinates":[-97.319835,42.438743]}},{"properties":{"city":"Rose","geo_score":0.857,"zip code":"68772","id":"a7lttp9uf0cb","geo_precision":"zip","state":"NE"},"type":"Feature","geometry":{"type":"Point","coordinates":[-99.455891,42.445152]}},{"properties":{"city":"Royal","geo_score":0.857,"zip code":"68773","id":"a7lttp5tv9g4","geo_precision":"zip","state":"NE"},"type":"Feature","geometry":{"type":"Point","coordinates":[-98.066911,42.176397]}},{"properties":{"city":"Saint Helena","geo_score":0.857,"zip code":"68774","id":"a7lttpc002vw","geo_precision":"zip","state":"NE"},"type":"Feature","geometry":{"type":"Point","coordinates":[-97.304691,42.804591]}},{"properties":{"city":"South Sioux City","geo_score":0.857,"zip code":"68776","id":"a7lttphc09td","geo_precision":"zip","state":"NE"},"type":"Feature","geometry":{"type":"Point","coordinates":[-96.441697,42.44055]}},{"properties":{"city":"Spencer","geo_score":0.857,"zip code":"68777","id":"a7lttpd42ysf","geo_precision":"zip","state":"NE"},"type":"Feature","geometry":{"type":"Point","coordinates":[-98.701552,42.872702]}},{"properties":{"city":"Springview","geo_score":0.857,"zip code":"68778","id":"a7lttp7j3ehu","geo_precision":"zip","state":"NE"},"type":"Feature","geometry":{"type":"Point","coordinates":[-99.591779,42.911669]}},{"properties":{"city":"Stanton","geo_score":0.857,"zip code":"68779","id":"a7lttparpgsq","geo_precision":"zip","state":"NE"},"type":"Feature","geometry":{"type":"Point","coordinates":[-97.203396,41.982175]}},{"properties":{"city":"Stuart","geo_score":0.857,"zip code":"68780","id":"a7lttpdp8168","geo_precision":"zip","state":"NE"},"type":"Feature","geometry":{"type":"Point","coordinates":[-99.141514,42.599715]}},{"properties":{"city":"Tilden","geo_score":0.857,"zip code":"68781","id":"a7lttpdc8qtm","geo_precision":"zip","state":"NE"},"type":"Feature","geometry":{"type":"Point","coordinates":[-97.829855,42.042732]}},{"properties":{"city":"Verdigre","geo_score":0.857,"zip code":"68783","id":"a7lttpcfcz45","geo_precision":"zip","state":"NE"},"type":"Feature","geometry":{"type":"Point","coordinates":[-98.129817,42.624821]}},{"properties":{"city":"Wakefield","geo_score":0.857,"zip code":"68784","id":"a7lttpeplrqa","geo_precision":"zip","state":"NE"},"type":"Feature","geometry":{"type":"Point","coordinates":[-96.930286,42.307797]}},{"properties":{"city":"Waterbury","geo_score":0.857,"zip code":"68785","id":"a7lttpjt7p5g","geo_precision":"zip","state":"NE"},"type":"Feature","geometry":{"type":"Point","coordinates":[-96.824742,42.512745]}},{"properties":{"city":"Wausa","geo_score":0.857,"zip code":"68786","id":"a7lttp6oych0","geo_precision":"zip","state":"NE"},"type":"Feature","geometry":{"type":"Point","coordinates":[-97.608966,42.518247]}},{"properties":{"city":"Wayne","geo_score":0.857,"zip code":"68787","id":"a7lttphnxpph","geo_precision":"zip","state":"NE"},"type":"Feature","geometry":{"type":"Point","coordinates":[-96.979049,42.206417]}},{"properties":{"city":"West Point","geo_score":0.857,"zip code":"68788","id":"a7lttpjnl5y6","geo_precision":"zip","state":"NE"},"type":"Feature","geometry":{"type":"Point","coordinates":[-96.903369,41.829448]}},{"properties":{"city":"Winnetoon","geo_score":0.857,"zip code":"68789","id":"a7lttp8w3mop","geo_precision":"zip","state":"NE"},"type":"Feature","geometry":{"type":"Point","coordinates":[-98.004988,42.533387]}},{"properties":{"city":"Winside","geo_score":0.857,"zip code":"68790","id":"a7lttpiag7hh","geo_precision":"zip","state":"NE"},"type":"Feature","geometry":{"type":"Point","coordinates":[-97.193232,42.155768]}},{"properties":{"city":"Wisner","geo_score":0.857,"zip code":"68791","id":"a7lttp7r9l25","geo_precision":"zip","state":"NE"},"type":"Feature","geometry":{"type":"Point","coordinates":[-96.893932,41.960145]}},{"properties":{"city":"Wynot","geo_score":0.857,"zip code":"68792","id":"a7lttpdgm16g","geo_precision":"zip","state":"NE"},"type":"Feature","geometry":{"type":"Point","coordinates":[-97.161919,42.708262]}}],"is_temporal":false,"author":{"url":"","metadata":"","contact_name":"","contact_address":"","source":"","contact_phone":""},"source":"","pagination":{"sort":null,"start":0,"total":547,"limit":1000000},"state":"complete","tags":"","published":"2012-08-03T16:00:00Z","id":265338}