{"type":"FeatureCollection","data_type":"Dataset","url_type":null,"permissions":[{"permissions":{"download":true,"view":true},"group_id":"everyone"}],"classification":null,"title":"germany","count":284,"stream_id":265428,"contributor":{"url":"http://geocommons.com/users/50041","name":"rrobbins@katz.pitt.edu"},"data_attributes":null,"calculation_params":null,"icon_link":null,"link":"http://geocommons.com/overlays/265428.json","extent":[6.08333,47.6167,14.55,54.7833],"geometry_types":["point"],"unique_name":null,"name":"germany","feature_count":284,"description":"","next_feature":null,"is_raster":false,"short_classification":"Y","stats":{"latitude":{"max":54.7833,"variance":2.57896813697398,"mean":50.9227869366197,"stdev":1.6059166033683,"min":47.6167,"median":51.1833},"id":{"max":129970,"variance":7569882.11032448,"mean":122553.665492958,"stdev":2751.34187449042,"min":116982,"median":123380},"users":{"max":425308,"variance":807302366.084246,"mean":7433.82042253521,"stdev":28413.0668194098,"min":1002,"median":2106},"longitude":{"max":14.55,"variance":3.65535947636394,"mean":8.85698302816901,"stdev":1.91189944201152,"min":6.08333,"median":8.61667}},"features":[{"properties":{"city":"Andernach","latitude":50.4333,"id":"a62v46tfgr9d","users":1002,"longitude":7.4},"type":"Feature","geometry":{"type":"Point","coordinates":[7.4,50.4333]}},{"properties":{"city":"Gevelsberg","latitude":51.3167,"id":"a62v46xunehb","users":1005,"longitude":7.33333},"type":"Feature","geometry":{"type":"Point","coordinates":[7.33333,51.3167]}},{"properties":{"city":"Tuttlingen","latitude":47.9833,"id":"a62v46vgyzcr","users":1006,"longitude":8.81667},"type":"Feature","geometry":{"type":"Point","coordinates":[8.81667,47.9833]}},{"properties":{"city":"Traunstein","latitude":47.8833,"id":"a62v46wh48vt","users":1010,"longitude":12.65},"type":"Feature","geometry":{"type":"Point","coordinates":[12.65,47.8833]}},{"properties":{"city":"Flörsheim","latitude":50.0167,"id":"a62v46tncozg","users":1010,"longitude":8.43333},"type":"Feature","geometry":{"type":"Point","coordinates":[8.43333,50.0167]}},{"properties":{"city":"Bramsche","latitude":52.4,"id":"a62v46oz654v","users":1026,"longitude":7.98333},"type":"Feature","geometry":{"type":"Point","coordinates":[7.98333,52.4]}},{"properties":{"city":"Backnang","latitude":48.95,"id":"a62v46pdauy9","users":1039,"longitude":9.43333},"type":"Feature","geometry":{"type":"Point","coordinates":[9.43333,48.95]}},{"properties":{"city":"Hürth","latitude":50.8667,"id":"a62v46vwyxvk","users":1041,"longitude":6.86667},"type":"Feature","geometry":{"type":"Point","coordinates":[6.86667,50.8667]}},{"properties":{"city":"Dreieich","latitude":50.0,"id":"a62v46iww1l8","users":1046,"longitude":8.7},"type":"Feature","geometry":{"type":"Point","coordinates":[8.7,50.0]}},{"properties":{"city":"Ronnenberg","latitude":52.3167,"id":"a62v46lnww1t","users":1048,"longitude":9.65},"type":"Feature","geometry":{"type":"Point","coordinates":[9.65,52.3167]}},{"properties":{"city":"Ennepetal","latitude":51.3,"id":"a62v46kq8h4v","users":1052,"longitude":7.35},"type":"Feature","geometry":{"type":"Point","coordinates":[7.35,51.3]}},{"properties":{"city":"Bautzen","latitude":51.1833,"id":"a62v46n5qgvj","users":1052,"longitude":14.4333},"type":"Feature","geometry":{"type":"Point","coordinates":[14.4333,51.1833]}},{"properties":{"city":"Voerde","latitude":51.6,"id":"a62v46j6grn0","users":1054,"longitude":6.68333},"type":"Feature","geometry":{"type":"Point","coordinates":[6.68333,51.6]}},{"properties":{"city":"Schwäbisch Gmünd","latitude":48.8,"id":"a62v46kbhw6n","users":1058,"longitude":9.78333},"type":"Feature","geometry":{"type":"Point","coordinates":[9.78333,48.8]}},{"properties":{"city":"Buxtehude","latitude":53.4667,"id":"a62v46sihywk","users":1061,"longitude":9.7},"type":"Feature","geometry":{"type":"Point","coordinates":[9.7,53.4667]}},{"properties":{"city":"Geilenkirchen","latitude":50.9667,"id":"a62v46re8ixs","users":1066,"longitude":6.11667},"type":"Feature","geometry":{"type":"Point","coordinates":[6.11667,50.9667]}},{"properties":{"city":"Cloppenburg","latitude":52.85,"id":"a62v46pgm15z","users":1075,"longitude":8.03333},"type":"Feature","geometry":{"type":"Point","coordinates":[8.03333,52.85]}},{"properties":{"city":"Langen","latitude":49.9933,"id":"a62v46jcvoqg","users":1077,"longitude":8.67278},"type":"Feature","geometry":{"type":"Point","coordinates":[8.67278,49.9933]}},{"properties":{"city":"Roth","latitude":49.245,"id":"a62v46sgla8n","users":1080,"longitude":11.0911},"type":"Feature","geometry":{"type":"Point","coordinates":[11.0911,49.245]}},{"properties":{"city":"Kamp-Lintfort","latitude":51.5,"id":"a62v46q54rxz","users":1084,"longitude":6.53333},"type":"Feature","geometry":{"type":"Point","coordinates":[6.53333,51.5]}},{"properties":{"city":"Coesfeld","latitude":51.9333,"id":"a62v46r3ipkx","users":1093,"longitude":7.15},"type":"Feature","geometry":{"type":"Point","coordinates":[7.15,51.9333]}},{"properties":{"city":"Schwäbisch Hall","latitude":49.1058,"id":"a62v46svxihb","users":1105,"longitude":9.73417},"type":"Feature","geometry":{"type":"Point","coordinates":[9.73417,49.1058]}},{"properties":{"city":"Frankfurt (Oder)","latitude":52.35,"id":"a62v46r9y3n9","users":1107,"longitude":14.55},"type":"Feature","geometry":{"type":"Point","coordinates":[14.55,52.35]}},{"properties":{"city":"Ibbenbüren","latitude":52.2667,"id":"a62v46ly9sr2","users":1115,"longitude":7.73333},"type":"Feature","geometry":{"type":"Point","coordinates":[7.73333,52.2667]}},{"properties":{"city":"Völklingen","latitude":49.25,"id":"a62v46i9aqxr","users":1124,"longitude":6.85},"type":"Feature","geometry":{"type":"Point","coordinates":[6.85,49.25]}},{"properties":{"city":"Hemer","latitude":51.3833,"id":"a62v46tx9gdp","users":1135,"longitude":7.76667},"type":"Feature","geometry":{"type":"Point","coordinates":[7.76667,51.3833]}},{"properties":{"city":"Rastatt","latitude":48.85,"id":"a62v46roxo8x","users":1139,"longitude":8.2},"type":"Feature","geometry":{"type":"Point","coordinates":[8.2,48.85]}},{"properties":{"city":"Weinheim","latitude":49.5483,"id":"a62v46igzgar","users":1139,"longitude":8.66611},"type":"Feature","geometry":{"type":"Point","coordinates":[8.66611,49.5483]}},{"properties":{"city":"Siegburg","latitude":50.8,"id":"a62v46tcs23u","users":1140,"longitude":7.2},"type":"Feature","geometry":{"type":"Point","coordinates":[7.2,50.8]}},{"properties":{"city":"Goch","latitude":51.6667,"id":"a62v46rr00ls","users":1141,"longitude":6.16667},"type":"Feature","geometry":{"type":"Point","coordinates":[6.16667,51.6667]}},{"properties":{"city":"Herdecke","latitude":51.4,"id":"a62v46oohqw7","users":1142,"longitude":7.43333},"type":"Feature","geometry":{"type":"Point","coordinates":[7.43333,51.4]}},{"properties":{"city":"Dormagen","latitude":51.09444,"id":"a62v46uwdxgs","users":1151,"longitude":6.84166},"type":"Feature","geometry":{"type":"Point","coordinates":[6.84166,51.09444]}},{"properties":{"city":"Geldern","latitude":51.5167,"id":"a62v46jzqeap","users":1158,"longitude":6.33333},"type":"Feature","geometry":{"type":"Point","coordinates":[6.33333,51.5167]}},{"properties":{"city":"Erkrath","latitude":51.2167,"id":"a62v46jhu4pr","users":1162,"longitude":6.9},"type":"Feature","geometry":{"type":"Point","coordinates":[6.9,51.2167]}},{"properties":{"city":"Bietigheim-Bissingen","latitude":48.9667,"id":"a62v46wcgj6z","users":1163,"longitude":9.13333},"type":"Feature","geometry":{"type":"Point","coordinates":[9.13333,48.9667]}},{"properties":{"city":"Bühl","latitude":48.7,"id":"a62v46mzpd8q","users":1165,"longitude":8.15},"type":"Feature","geometry":{"type":"Point","coordinates":[8.15,48.7]}},{"properties":{"city":"Würselen","latitude":50.8167,"id":"a62v46m5z0y4","users":1168,"longitude":6.13333},"type":"Feature","geometry":{"type":"Point","coordinates":[6.13333,50.8167]}},{"properties":{"city":"Sankt Augustin","latitude":50.7667,"id":"a62v46lpzyz2","users":1172,"longitude":7.18333},"type":"Feature","geometry":{"type":"Point","coordinates":[7.18333,50.7667]}},{"properties":{"city":"Pinneberg","latitude":53.65,"id":"a62v46n0bloa","users":1172,"longitude":9.8},"type":"Feature","geometry":{"type":"Point","coordinates":[9.8,53.65]}},{"properties":{"city":"Neustadt","latitude":51.4667,"id":"a62v46ve5wp0","users":1174,"longitude":10.4667},"type":"Feature","geometry":{"type":"Point","coordinates":[10.4667,51.4667]}},{"properties":{"city":"Nordenham","latitude":53.5,"id":"a62v46xluxrz","users":1175,"longitude":8.48333},"type":"Feature","geometry":{"type":"Point","coordinates":[8.48333,53.5]}},{"properties":{"city":"Freising","latitude":48.4,"id":"a62v46mrg40g","users":1178,"longitude":11.7333},"type":"Feature","geometry":{"type":"Point","coordinates":[11.7333,48.4]}},{"properties":{"city":"Alsbach-Hähnlein","latitude":49.7386,"id":"a62v46kq23hn","users":1184,"longitude":8.59583},"type":"Feature","geometry":{"type":"Point","coordinates":[8.59583,49.7386]}},{"properties":{"city":"Esslingen am Neckar","latitude":48.75,"id":"a62v46m4yvhc","users":1185,"longitude":9.3},"type":"Feature","geometry":{"type":"Point","coordinates":[9.3,48.75]}},{"properties":{"city":"Kaufbeuren","latitude":47.8833,"id":"a62v46tnysqs","users":1211,"longitude":10.6167},"type":"Feature","geometry":{"type":"Point","coordinates":[10.6167,47.8833]}},{"properties":{"city":"Nienburg (Weser)","latitude":52.6493,"id":"a62v46r82nii","users":1217,"longitude":9.23655},"type":"Feature","geometry":{"type":"Point","coordinates":[9.23655,52.6493]}},{"properties":{"city":"Gummersbach","latitude":51.0333,"id":"a62v46yafawv","users":1218,"longitude":7.55},"type":"Feature","geometry":{"type":"Point","coordinates":[7.55,51.0333]}},{"properties":{"city":"Fellbach","latitude":48.8,"id":"a62v46qo76io","users":1221,"longitude":9.28333},"type":"Feature","geometry":{"type":"Point","coordinates":[9.28333,48.8]}},{"properties":{"city":"Plauen","latitude":50.5,"id":"a62v46vome74","users":1221,"longitude":12.1333},"type":"Feature","geometry":{"type":"Point","coordinates":[12.1333,50.5]}},{"properties":{"city":"Bad Hersfeld","latitude":50.8667,"id":"a62v46u699g2","users":1222,"longitude":9.7},"type":"Feature","geometry":{"type":"Point","coordinates":[9.7,50.8667]}},{"properties":{"city":"Bad Oeynhausen","latitude":52.2,"id":"a62v46v60o9a","users":1225,"longitude":8.8},"type":"Feature","geometry":{"type":"Point","coordinates":[8.8,52.2]}},{"properties":{"city":"Merseburg","latitude":51.3667,"id":"a62v46kelb74","users":1225,"longitude":12.0},"type":"Feature","geometry":{"type":"Point","coordinates":[12.0,51.3667]}},{"properties":{"city":"Achern","latitude":48.6333,"id":"a62v46mrs32z","users":1235,"longitude":8.06667},"type":"Feature","geometry":{"type":"Point","coordinates":[8.06667,48.6333]}},{"properties":{"city":"Herzogenrath","latitude":50.8667,"id":"a62v46shxs2b","users":1240,"longitude":6.1},"type":"Feature","geometry":{"type":"Point","coordinates":[6.1,50.8667]}},{"properties":{"city":"Schwabach","latitude":49.3292,"id":"a62v46y3h5fp","users":1245,"longitude":11.0256},"type":"Feature","geometry":{"type":"Point","coordinates":[11.0256,49.3292]}},{"properties":{"city":"Peine","latitude":52.3167,"id":"a62v46k4m17g","users":1274,"longitude":10.2333},"type":"Feature","geometry":{"type":"Point","coordinates":[10.2333,52.3167]}},{"properties":{"city":"Rüsselsheim","latitude":49.9925,"id":"a62v46k7zy44","users":1280,"longitude":8.425},"type":"Feature","geometry":{"type":"Point","coordinates":[8.425,49.9925]}},{"properties":{"city":"Willich","latitude":51.2667,"id":"a62v46ohissm","users":1284,"longitude":6.55},"type":"Feature","geometry":{"type":"Point","coordinates":[6.55,51.2667]}},{"properties":{"city":"Menden","latitude":51.4333,"id":"a62v46kl9ffq","users":1292,"longitude":7.8},"type":"Feature","geometry":{"type":"Point","coordinates":[7.8,51.4333]}},{"properties":{"city":"Machern","latitude":51.3667,"id":"a62v46j0toit","users":1309,"longitude":12.6333},"type":"Feature","geometry":{"type":"Point","coordinates":[12.6333,51.3667]}},{"properties":{"city":"Limburg an der Lahn","latitude":50.3833,"id":"a62v46jmtemi","users":1312,"longitude":8.05},"type":"Feature","geometry":{"type":"Point","coordinates":[8.05,50.3833]}},{"properties":{"city":"Seelze","latitude":52.4,"id":"a62v46k77iky","users":1318,"longitude":9.6},"type":"Feature","geometry":{"type":"Point","coordinates":[9.6,52.4]}},{"properties":{"city":"Stralsund","latitude":54.3,"id":"a62v46kemhtt","users":1322,"longitude":13.1},"type":"Feature","geometry":{"type":"Point","coordinates":[13.1,54.3]}},{"properties":{"city":"Eisenach","latitude":50.9833,"id":"a62v46kenb6r","users":1325,"longitude":10.3167},"type":"Feature","geometry":{"type":"Point","coordinates":[10.3167,50.9833]}},{"properties":{"city":"Gotha","latitude":50.95,"id":"a62v46jnmxkg","users":1328,"longitude":10.7167},"type":"Feature","geometry":{"type":"Point","coordinates":[10.7167,50.95]}},{"properties":{"city":"Ahlen","latitude":51.7667,"id":"a62v46jwiso1","users":1333,"longitude":7.9},"type":"Feature","geometry":{"type":"Point","coordinates":[7.9,51.7667]}},{"properties":{"city":"Borken","latitude":51.85,"id":"a62v46wumr9x","users":1339,"longitude":6.86667},"type":"Feature","geometry":{"type":"Point","coordinates":[6.86667,51.85]}},{"properties":{"city":"Meppen","latitude":52.6833,"id":"a62v46ixcuun","users":1340,"longitude":7.31667},"type":"Feature","geometry":{"type":"Point","coordinates":[7.31667,52.6833]}},{"properties":{"city":"Pirmasens","latitude":49.2,"id":"a62v46oa5emy","users":1340,"longitude":7.6},"type":"Feature","geometry":{"type":"Point","coordinates":[7.6,49.2]}},{"properties":{"city":"Meerbusch","latitude":51.2833,"id":"a62v46kp0tu6","users":1342,"longitude":6.66667},"type":"Feature","geometry":{"type":"Point","coordinates":[6.66667,51.2833]}},{"properties":{"city":"Warstein","latitude":51.45,"id":"a62v46sinqcf","users":1353,"longitude":8.36667},"type":"Feature","geometry":{"type":"Point","coordinates":[8.36667,51.45]}},{"properties":{"city":"Langenfeld","latitude":51.1,"id":"a62v46s3o578","users":1358,"longitude":6.95},"type":"Feature","geometry":{"type":"Point","coordinates":[6.95,51.1]}},{"properties":{"city":"Euskirchen","latitude":50.6667,"id":"a62v46j4dc34","users":1363,"longitude":6.78333},"type":"Feature","geometry":{"type":"Point","coordinates":[6.78333,50.6667]}},{"properties":{"city":"Lehrte","latitude":52.3833,"id":"a62v46tal3lx","users":1400,"longitude":9.96667},"type":"Feature","geometry":{"type":"Point","coordinates":[9.96667,52.3833]}},{"properties":{"city":"Dachau","latitude":48.2667,"id":"a62v46khkyuh","users":1402,"longitude":11.4333},"type":"Feature","geometry":{"type":"Point","coordinates":[11.4333,48.2667]}},{"properties":{"city":"Bad Kreuznach","latitude":49.8333,"id":"a62v46u1yo9u","users":1403,"longitude":7.86667},"type":"Feature","geometry":{"type":"Point","coordinates":[7.86667,49.8333]}},{"properties":{"city":"Waiblingen","latitude":48.8333,"id":"a62v46n0pgqk","users":1412,"longitude":9.3},"type":"Feature","geometry":{"type":"Point","coordinates":[9.3,48.8333]}},{"properties":{"city":"Memmingen","latitude":47.9833,"id":"a62v46l3dbo0","users":1434,"longitude":10.1667},"type":"Feature","geometry":{"type":"Point","coordinates":[10.1667,47.9833]}},{"properties":{"city":"Cuxhaven","latitude":53.8833,"id":"a62v46rcs9bw","users":1451,"longitude":8.7},"type":"Feature","geometry":{"type":"Point","coordinates":[8.7,53.8833]}},{"properties":{"city":"Gifhorn","latitude":52.4833,"id":"a62v46jac2gr","users":1463,"longitude":10.55},"type":"Feature","geometry":{"type":"Point","coordinates":[10.55,52.4833]}},{"properties":{"city":"Hückelhoven","latitude":51.05,"id":"a62v46utsf3v","users":1464,"longitude":6.21667},"type":"Feature","geometry":{"type":"Point","coordinates":[6.21667,51.05]}},{"properties":{"city":"Bruchsal","latitude":49.1281,"id":"a62v46vap3a1","users":1467,"longitude":8.58361},"type":"Feature","geometry":{"type":"Point","coordinates":[8.58361,49.1281]}},{"properties":{"city":"Stade","latitude":53.6,"id":"a62v46s420t1","users":1470,"longitude":9.48333},"type":"Feature","geometry":{"type":"Point","coordinates":[9.48333,53.6]}},{"properties":{"city":"Erkelenz","latitude":51.0833,"id":"a62v46mo8t1v","users":1499,"longitude":6.31667},"type":"Feature","geometry":{"type":"Point","coordinates":[6.31667,51.0833]}},{"properties":{"city":"Grevenbroich","latitude":51.0833,"id":"a62v46xm1dky","users":1511,"longitude":6.58333},"type":"Feature","geometry":{"type":"Point","coordinates":[6.58333,51.0833]}},{"properties":{"city":"Erding","latitude":48.3,"id":"a62v46suzvme","users":1514,"longitude":11.9127},"type":"Feature","geometry":{"type":"Point","coordinates":[11.9127,48.3]}},{"properties":{"city":"Hattingen","latitude":51.4,"id":"a62v46p9grlm","users":1514,"longitude":7.16667},"type":"Feature","geometry":{"type":"Point","coordinates":[7.16667,51.4]}},{"properties":{"city":"Sindelfingen","latitude":48.7,"id":"a62v46oizij5","users":1515,"longitude":9.01667},"type":"Feature","geometry":{"type":"Point","coordinates":[9.01667,48.7]}},{"properties":{"city":"Wunstorf","latitude":52.4333,"id":"a62v46vw844n","users":1519,"longitude":9.41667},"type":"Feature","geometry":{"type":"Point","coordinates":[9.41667,52.4333]}},{"properties":{"city":"Hilden","latitude":51.1667,"id":"a62v46nem8ro","users":1520,"longitude":6.93333},"type":"Feature","geometry":{"type":"Point","coordinates":[6.93333,51.1667]}},{"properties":{"city":"Bad Salzuflen","latitude":52.0833,"id":"a62v46nf9c89","users":1531,"longitude":8.76667},"type":"Feature","geometry":{"type":"Point","coordinates":[8.76667,52.0833]}},{"properties":{"city":"Löhne","latitude":52.1833,"id":"a62v46te8l8j","users":1539,"longitude":8.7},"type":"Feature","geometry":{"type":"Point","coordinates":[8.7,52.1833]}},{"properties":{"city":"Dessau","latitude":51.8333,"id":"a62v46lbuoz6","users":1551,"longitude":12.25},"type":"Feature","geometry":{"type":"Point","coordinates":[12.25,51.8333]}},{"properties":{"city":"Elmshorn","latitude":53.75,"id":"a62v46nhwumg","users":1552,"longitude":9.65},"type":"Feature","geometry":{"type":"Point","coordinates":[9.65,53.75]}},{"properties":{"city":"Goslar","latitude":51.9191,"id":"a62v46uqmwh2","users":1556,"longitude":10.4167},"type":"Feature","geometry":{"type":"Point","coordinates":[10.4167,51.9191]}},{"properties":{"city":"Troisdorf","latitude":50.8167,"id":"a62v46ykbp14","users":1581,"longitude":7.16667},"type":"Feature","geometry":{"type":"Point","coordinates":[7.16667,50.8167]}},{"properties":{"city":"Bergkamen","latitude":51.6333,"id":"a62v46iuqu6g","users":1584,"longitude":7.63333},"type":"Feature","geometry":{"type":"Point","coordinates":[7.63333,51.6333]}},{"properties":{"city":"Kleve","latitude":51.7833,"id":"a62v46nvn5h9","users":1586,"longitude":6.15},"type":"Feature","geometry":{"type":"Point","coordinates":[6.15,51.7833]}},{"properties":{"city":"Xanten","latitude":51.6667,"id":"a62v46y18x14","users":1608,"longitude":6.45},"type":"Feature","geometry":{"type":"Point","coordinates":[6.45,51.6667]}},{"properties":{"city":"Kamen","latitude":51.6,"id":"a62v46yim1v8","users":1610,"longitude":7.66667},"type":"Feature","geometry":{"type":"Point","coordinates":[7.66667,51.6]}},{"properties":{"city":"Herten","latitude":51.6,"id":"a62v46qhcgn1","users":1611,"longitude":7.13333},"type":"Feature","geometry":{"type":"Point","coordinates":[7.13333,51.6]}},{"properties":{"city":"Frankenthal (Pfalz)","latitude":49.5372,"id":"a62v46x8dopj","users":1612,"longitude":8.355},"type":"Feature","geometry":{"type":"Point","coordinates":[8.355,49.5372]}},{"properties":{"city":"Coburg","latitude":50.2667,"id":"a62v46upndoa","users":1633,"longitude":10.9667},"type":"Feature","geometry":{"type":"Point","coordinates":[10.9667,50.2667]}},{"properties":{"city":"Itzehoe","latitude":53.9167,"id":"a62v46v90vg2","users":1652,"longitude":9.51667},"type":"Feature","geometry":{"type":"Point","coordinates":[9.51667,53.9167]}},{"properties":{"city":"Jülich","latitude":50.9333,"id":"a62v46xh4y29","users":1669,"longitude":6.36667},"type":"Feature","geometry":{"type":"Point","coordinates":[6.36667,50.9333]}},{"properties":{"city":"Stolberg (Rheinland)","latitude":50.7667,"id":"a62v46otar7z","users":1671,"longitude":6.23333},"type":"Feature","geometry":{"type":"Point","coordinates":[6.23333,50.7667]}},{"properties":{"city":"Alsdorf","latitude":50.8833,"id":"a62v46qmnlb3","users":1676,"longitude":6.16667},"type":"Feature","geometry":{"type":"Point","coordinates":[6.16667,50.8833]}},{"properties":{"city":"Heinsberg","latitude":51.0667,"id":"a62v46q91dxn","users":1678,"longitude":6.08333},"type":"Feature","geometry":{"type":"Point","coordinates":[6.08333,51.0667]}},{"properties":{"city":"Neu-Ulm","latitude":48.4,"id":"a62v46s50bik","users":1680,"longitude":10.0167},"type":"Feature","geometry":{"type":"Point","coordinates":[10.0167,48.4]}},{"properties":{"city":"Bergheim","latitude":50.9667,"id":"a62v46lw4hk7","users":1693,"longitude":6.65},"type":"Feature","geometry":{"type":"Point","coordinates":[6.65,50.9667]}},{"properties":{"city":"Norderstedt","latitude":53.7,"id":"a62v46ygy4y2","users":1694,"longitude":10.0167},"type":"Feature","geometry":{"type":"Point","coordinates":[10.0167,53.7]}},{"properties":{"city":"Schwerte","latitude":51.45,"id":"a62v46rvinwd","users":1740,"longitude":7.56667},"type":"Feature","geometry":{"type":"Point","coordinates":[7.56667,51.45]}},{"properties":{"city":"Dorsten","latitude":51.6667,"id":"a62v46k878d9","users":1745,"longitude":6.96667},"type":"Feature","geometry":{"type":"Point","coordinates":[6.96667,51.6667]}},{"properties":{"city":"Ansbach","latitude":49.3,"id":"a62v46ru25xg","users":1751,"longitude":10.5833},"type":"Feature","geometry":{"type":"Point","coordinates":[10.5833,49.3]}},{"properties":{"city":"Rosenheim","latitude":47.85,"id":"a62v46l0q4y2","users":1761,"longitude":12.1333},"type":"Feature","geometry":{"type":"Point","coordinates":[12.1333,47.85]}},{"properties":{"city":"Rendsburg","latitude":54.3,"id":"a62v46uduw7g","users":1771,"longitude":9.66667},"type":"Feature","geometry":{"type":"Point","coordinates":[9.66667,54.3]}},{"properties":{"city":"Weiden","latitude":49.6775,"id":"a62v46mkh50d","users":1790,"longitude":12.1567},"type":"Feature","geometry":{"type":"Point","coordinates":[12.1567,49.6775]}},{"properties":{"city":"Weimar","latitude":50.9833,"id":"a62v46yeejqx","users":1812,"longitude":11.3167},"type":"Feature","geometry":{"type":"Point","coordinates":[11.3167,50.9833]}},{"properties":{"city":"Aurich","latitude":53.4839,"id":"a62v46pcktc0","users":1823,"longitude":7.51512},"type":"Feature","geometry":{"type":"Point","coordinates":[7.51512,53.4839]}},{"properties":{"city":"Rheine","latitude":52.2833,"id":"a62v46x1xj0g","users":1827,"longitude":7.45},"type":"Feature","geometry":{"type":"Point","coordinates":[7.45,52.2833]}},{"properties":{"city":"Lippstadt","latitude":51.6667,"id":"a62v46w3h2vg","users":1852,"longitude":8.35},"type":"Feature","geometry":{"type":"Point","coordinates":[8.35,51.6667]}},{"properties":{"city":"Böblingen","latitude":48.6833,"id":"a62v46svvssp","users":1875,"longitude":9.01667},"type":"Feature","geometry":{"type":"Point","coordinates":[9.01667,48.6833]}},{"properties":{"city":"Dinslaken","latitude":51.5667,"id":"a62v46y9yevy","users":1875,"longitude":6.73333},"type":"Feature","geometry":{"type":"Point","coordinates":[6.73333,51.5667]}},{"properties":{"city":"Emden","latitude":53.3667,"id":"a62v46jvmoab","users":1877,"longitude":7.21667},"type":"Feature","geometry":{"type":"Point","coordinates":[7.21667,53.3667]}},{"properties":{"city":"Bocholt","latitude":51.8333,"id":"a62v46nr9k7e","users":1896,"longitude":6.6},"type":"Feature","geometry":{"type":"Point","coordinates":[6.6,51.8333]}},{"properties":{"city":"Saarlouis","latitude":49.3167,"id":"a62v46j5cgnn","users":1900,"longitude":6.75},"type":"Feature","geometry":{"type":"Point","coordinates":[6.75,49.3167]}},{"properties":{"city":"Singen","latitude":47.7667,"id":"a62v46ub5rj1","users":1915,"longitude":8.83333},"type":"Feature","geometry":{"type":"Point","coordinates":[8.83333,47.7667]}},{"properties":{"city":"Neubrandenburg","latitude":53.5667,"id":"a62v46pwd18y","users":1921,"longitude":13.2667},"type":"Feature","geometry":{"type":"Point","coordinates":[13.2667,53.5667]}},{"properties":{"city":"Aalen","latitude":48.8333,"id":"a62v46ig38d8","users":1944,"longitude":10.1},"type":"Feature","geometry":{"type":"Point","coordinates":[10.1,48.8333]}},{"properties":{"city":"Ratingen","latitude":51.3,"id":"a62v46idnt0w","users":1969,"longitude":6.85},"type":"Feature","geometry":{"type":"Point","coordinates":[6.85,51.3]}},{"properties":{"city":"Friedrichshafen","latitude":47.65,"id":"a62v46ur6j0z","users":1980,"longitude":9.48333},"type":"Feature","geometry":{"type":"Point","coordinates":[9.48333,47.65]}},{"properties":{"city":"Germering","latitude":48.1333,"id":"a62v46x58mmp","users":1997,"longitude":11.3667},"type":"Feature","geometry":{"type":"Point","coordinates":[11.3667,48.1333]}},{"properties":{"city":"Balingen","latitude":48.2833,"id":"a62v46qmbo11","users":2001,"longitude":8.85},"type":"Feature","geometry":{"type":"Point","coordinates":[8.85,48.2833]}},{"properties":{"city":"Lingen","latitude":52.5167,"id":"a62v46p3x8mq","users":2005,"longitude":7.31667},"type":"Feature","geometry":{"type":"Point","coordinates":[7.31667,52.5167]}},{"properties":{"city":"Vechta","latitude":52.7167,"id":"a62v46n7alp4","users":2019,"longitude":8.28333},"type":"Feature","geometry":{"type":"Point","coordinates":[8.28333,52.7167]}},{"properties":{"city":"Eschweiler","latitude":50.8167,"id":"a62v46sq1l06","users":2023,"longitude":6.28333},"type":"Feature","geometry":{"type":"Point","coordinates":[6.28333,50.8167]}},{"properties":{"city":"Albstadt","latitude":48.2167,"id":"a62v46u337ro","users":2030,"longitude":9.01667},"type":"Feature","geometry":{"type":"Point","coordinates":[9.01667,48.2167]}},{"properties":{"city":"Soest","latitude":51.5833,"id":"a62v46naog3a","users":2045,"longitude":8.11667},"type":"Feature","geometry":{"type":"Point","coordinates":[8.11667,51.5833]}},{"properties":{"city":"Hof","latitude":50.3167,"id":"a62v46tvan9p","users":2072,"longitude":11.9167},"type":"Feature","geometry":{"type":"Point","coordinates":[11.9167,50.3167]}},{"properties":{"city":"Göppingen","latitude":48.7,"id":"a62v46xqlnk1","users":2085,"longitude":9.66667},"type":"Feature","geometry":{"type":"Point","coordinates":[9.66667,48.7]}},{"properties":{"city":"Garbsen","latitude":52.4167,"id":"a62v46n1izd6","users":2086,"longitude":9.6},"type":"Feature","geometry":{"type":"Point","coordinates":[9.6,52.4167]}},{"properties":{"city":"Nordhorn","latitude":52.4333,"id":"a62v46xr8f2p","users":2086,"longitude":7.08333},"type":"Feature","geometry":{"type":"Point","coordinates":[7.08333,52.4333]}},{"properties":{"city":"Lüneburg","latitude":53.25,"id":"a62v46yjh86m","users":2106,"longitude":10.4},"type":"Feature","geometry":{"type":"Point","coordinates":[10.4,53.25]}},{"properties":{"city":"Wolfenbüttel","latitude":52.1667,"id":"a62v46jnq90m","users":2106,"longitude":10.55},"type":"Feature","geometry":{"type":"Point","coordinates":[10.55,52.1667]}},{"properties":{"city":"Syke","latitude":52.9,"id":"a62v46vab73k","users":2109,"longitude":8.83333},"type":"Feature","geometry":{"type":"Point","coordinates":[8.83333,52.9]}},{"properties":{"city":"Gladbeck","latitude":51.5667,"id":"a62v46nz2nti","users":2118,"longitude":6.98333},"type":"Feature","geometry":{"type":"Point","coordinates":[6.98333,51.5667]}},{"properties":{"city":"Kerpen","latitude":50.8667,"id":"a62v46jf1hy1","users":2122,"longitude":6.7},"type":"Feature","geometry":{"type":"Point","coordinates":[6.7,50.8667]}},{"properties":{"city":"Ravensburg","latitude":47.7833,"id":"a62v46uobple","users":2124,"longitude":9.61667},"type":"Feature","geometry":{"type":"Point","coordinates":[9.61667,47.7833]}},{"properties":{"city":"Detmold","latitude":51.9333,"id":"a62v46uxj5tg","users":2131,"longitude":8.88333},"type":"Feature","geometry":{"type":"Point","coordinates":[8.88333,51.9333]}},{"properties":{"city":"Castrop-Rauxel","latitude":51.55,"id":"a62v46wg58q8","users":2143,"longitude":7.31667},"type":"Feature","geometry":{"type":"Point","coordinates":[7.31667,51.55]}},{"properties":{"city":"Landshut","latitude":48.5333,"id":"a62v46jtwo8y","users":2154,"longitude":12.15},"type":"Feature","geometry":{"type":"Point","coordinates":[12.15,48.5333]}},{"properties":{"city":"Delmenhorst","latitude":53.05,"id":"a62v46kxwg7w","users":2192,"longitude":8.61667},"type":"Feature","geometry":{"type":"Point","coordinates":[8.61667,53.05]}},{"properties":{"city":"Villingen-Schwenningen","latitude":48.0667,"id":"a62v46munnol","users":2202,"longitude":8.45},"type":"Feature","geometry":{"type":"Point","coordinates":[8.45,48.0667]}},{"properties":{"city":"Langenhagen","latitude":52.45,"id":"a62v46xuytw3","users":2209,"longitude":9.75},"type":"Feature","geometry":{"type":"Point","coordinates":[9.75,52.45]}},{"properties":{"city":"Worms","latitude":49.6356,"id":"a62v46m1tdfw","users":2232,"longitude":8.35972},"type":"Feature","geometry":{"type":"Point","coordinates":[8.35972,49.6356]}},{"properties":{"city":"Speyer","latitude":49.3297,"id":"a62v46n34vl3","users":2258,"longitude":8.42778},"type":"Feature","geometry":{"type":"Point","coordinates":[8.42778,49.3297]}},{"properties":{"city":"Unna","latitude":51.5333,"id":"a62v46o9w0s2","users":2268,"longitude":7.68333},"type":"Feature","geometry":{"type":"Point","coordinates":[7.68333,51.5333]}},{"properties":{"city":"Greifswald","latitude":54.1,"id":"a62v46tbdvp6","users":2315,"longitude":13.3833},"type":"Feature","geometry":{"type":"Point","coordinates":[13.3833,54.1]}},{"properties":{"city":"Lüdenscheid","latitude":51.2167,"id":"a62v46q1ewnt","users":2355,"longitude":7.61667},"type":"Feature","geometry":{"type":"Point","coordinates":[7.61667,51.2167]}},{"properties":{"city":"Laatzen","latitude":52.3167,"id":"a62v46p75fxb","users":2401,"longitude":9.8},"type":"Feature","geometry":{"type":"Point","coordinates":[9.8,52.3167]}},{"properties":{"city":"Straubing","latitude":48.8833,"id":"a62v46ta6g3m","users":2409,"longitude":12.5667},"type":"Feature","geometry":{"type":"Point","coordinates":[12.5667,48.8833]}},{"properties":{"city":"Lörrach","latitude":47.6167,"id":"a62v46vlvany","users":2421,"longitude":7.66667},"type":"Feature","geometry":{"type":"Point","coordinates":[7.66667,47.6167]}},{"properties":{"city":"Wetzlar","latitude":50.55,"id":"a62v46n8f6vs","users":2437,"longitude":8.5},"type":"Feature","geometry":{"type":"Point","coordinates":[8.5,50.55]}},{"properties":{"city":"Arnsberg","latitude":51.3833,"id":"a62v46tve7el","users":2481,"longitude":8.08333},"type":"Feature","geometry":{"type":"Point","coordinates":[8.08333,51.3833]}},{"properties":{"city":"Tübingen","latitude":48.5333,"id":"a62v46tdmryg","users":2484,"longitude":9.05},"type":"Feature","geometry":{"type":"Point","coordinates":[9.05,48.5333]}},{"properties":{"city":"Hameln","latitude":52.1,"id":"a62v46q9sdbz","users":2502,"longitude":9.35},"type":"Feature","geometry":{"type":"Point","coordinates":[9.35,52.1]}},{"properties":{"city":"Haina (Kloster)","latitude":51.0278,"id":"a62v46yj6wam","users":2514,"longitude":8.96667},"type":"Feature","geometry":{"type":"Point","coordinates":[8.96667,51.0278]}},{"properties":{"city":"Velbert","latitude":51.3333,"id":"a62v46ll71cy","users":2519,"longitude":7.05},"type":"Feature","geometry":{"type":"Point","coordinates":[7.05,51.3333]}},{"properties":{"city":"Salzgitter","latitude":52.12205,"id":"a62v46skmrp1","users":2526,"longitude":10.37607},"type":"Feature","geometry":{"type":"Point","coordinates":[10.37607,52.12205]}},{"properties":{"city":"Zwickau","latitude":50.7333,"id":"a62v46ps85st","users":2530,"longitude":12.5},"type":"Feature","geometry":{"type":"Point","coordinates":[12.5,50.7333]}},{"properties":{"city":"Cottbus","latitude":51.7667,"id":"a62v46pyu9zf","users":2607,"longitude":14.3333},"type":"Feature","geometry":{"type":"Point","coordinates":[14.3333,51.7667]}},{"properties":{"city":"Passau","latitude":48.5833,"id":"a62v46oybfzu","users":2634,"longitude":13.4833},"type":"Feature","geometry":{"type":"Point","coordinates":[13.4833,48.5833]}},{"properties":{"city":"Minden","latitude":52.2833,"id":"a62v46w1wu3n","users":2692,"longitude":8.91667},"type":"Feature","geometry":{"type":"Point","coordinates":[8.91667,52.2833]}},{"properties":{"city":"Mülheim an der Ruhr","latitude":51.4333,"id":"a62v46u2nuzw","users":2781,"longitude":6.88333},"type":"Feature","geometry":{"type":"Point","coordinates":[6.88333,51.4333]}},{"properties":{"city":"Marl","latitude":51.65,"id":"a62v46inyeet","users":2790,"longitude":7.08333},"type":"Feature","geometry":{"type":"Point","coordinates":[7.08333,51.65]}},{"properties":{"city":"Lünen","latitude":51.6167,"id":"a62v46ikb5jl","users":2794,"longitude":7.51667},"type":"Feature","geometry":{"type":"Point","coordinates":[7.51667,51.6167]}},{"properties":{"city":"Baden-Baden","latitude":48.75,"id":"a62v46rd36s3","users":2809,"longitude":8.25},"type":"Feature","geometry":{"type":"Point","coordinates":[8.25,48.75]}},{"properties":{"city":"Celle","latitude":52.6167,"id":"a62v46r6t11z","users":2831,"longitude":10.0833},"type":"Feature","geometry":{"type":"Point","coordinates":[10.0833,52.6167]}},{"properties":{"city":"Mülheim","latitude":49.9167,"id":"a62v46livmm2","users":2852,"longitude":7.01667},"type":"Feature","geometry":{"type":"Point","coordinates":[7.01667,49.9167]}},{"properties":{"city":"Viersen","latitude":51.25,"id":"a62v46u5o59h","users":2869,"longitude":6.38333},"type":"Feature","geometry":{"type":"Point","coordinates":[6.38333,51.25]}},{"properties":{"city":"Witten","latitude":51.4333,"id":"a62v46m2w0wl","users":2889,"longitude":7.33333},"type":"Feature","geometry":{"type":"Point","coordinates":[7.33333,51.4333]}},{"properties":{"city":"Hanau","latitude":50.1333,"id":"a62v46t7r83y","users":2893,"longitude":8.91667},"type":"Feature","geometry":{"type":"Point","coordinates":[8.91667,50.1333]}},{"properties":{"city":"Potsdam","latitude":52.4,"id":"a62v46m23e7q","users":2913,"longitude":13.0667},"type":"Feature","geometry":{"type":"Point","coordinates":[13.0667,52.4]}},{"properties":{"city":"Neuwied","latitude":50.4333,"id":"a62v46s7yh1y","users":2946,"longitude":7.46667},"type":"Feature","geometry":{"type":"Point","coordinates":[7.46667,50.4333]}},{"properties":{"city":"Schwerin","latitude":53.6333,"id":"a62v46kjqtp4","users":2954,"longitude":11.4167},"type":"Feature","geometry":{"type":"Point","coordinates":[11.4167,53.6333]}},{"properties":{"city":"Aschaffenburg","latitude":49.9739,"id":"a62v46u20zk1","users":2990,"longitude":9.14917},"type":"Feature","geometry":{"type":"Point","coordinates":[9.14917,49.9739]}},{"properties":{"city":"Bergisch Gladbach","latitude":50.9833,"id":"a62v46rd0pb5","users":3019,"longitude":7.13333},"type":"Feature","geometry":{"type":"Point","coordinates":[7.13333,50.9833]}},{"properties":{"city":"Marburg","latitude":50.8167,"id":"a62v46vl40y5","users":3069,"longitude":8.76667},"type":"Feature","geometry":{"type":"Point","coordinates":[8.76667,50.8167]}},{"properties":{"city":"Leer (Ostfriesland)","latitude":53.2333,"id":"a62v46owf706","users":3082,"longitude":7.43333},"type":"Feature","geometry":{"type":"Point","coordinates":[7.43333,53.2333]}},{"properties":{"city":"Regensburg","latitude":49.015,"id":"a62v46tsp300","users":3088,"longitude":12.0956},"type":"Feature","geometry":{"type":"Point","coordinates":[12.0956,49.015]}},{"properties":{"city":"Schweinfurt","latitude":50.05,"id":"a62v46w7qwp5","users":3189,"longitude":10.2333},"type":"Feature","geometry":{"type":"Point","coordinates":[10.2333,50.05]}},{"properties":{"city":"Offenburg","latitude":48.4833,"id":"a62v46sjg1jx","users":3226,"longitude":7.93333},"type":"Feature","geometry":{"type":"Point","coordinates":[7.93333,48.4833]}},{"properties":{"city":"Offenbach","latitude":50.1,"id":"a62v46s818uf","users":3261,"longitude":8.76667},"type":"Feature","geometry":{"type":"Point","coordinates":[8.76667,50.1]}},{"properties":{"city":"Gera","latitude":50.8667,"id":"a62v46t3e7i1","users":3368,"longitude":12.0833},"type":"Feature","geometry":{"type":"Point","coordinates":[12.0833,50.8667]}},{"properties":{"city":"Herford","latitude":52.1333,"id":"a62v46yp3oas","users":3389,"longitude":8.68333},"type":"Feature","geometry":{"type":"Point","coordinates":[8.68333,52.1333]}},{"properties":{"city":"Bamberg","latitude":49.8667,"id":"a62v46j18ywc","users":3390,"longitude":10.8667},"type":"Feature","geometry":{"type":"Point","coordinates":[10.8667,49.8667]}},{"properties":{"city":"Wilhelmshaven","latitude":53.5167,"id":"a62v46wykr41","users":3403,"longitude":8.13333},"type":"Feature","geometry":{"type":"Point","coordinates":[8.13333,53.5167]}},{"properties":{"city":"Bottrop","latitude":51.5167,"id":"a62v46t8ba76","users":3449,"longitude":6.91667},"type":"Feature","geometry":{"type":"Point","coordinates":[6.91667,51.5167]}},{"properties":{"city":"Kempten","latitude":47.7167,"id":"a62v46jot0sp","users":3472,"longitude":10.3167},"type":"Feature","geometry":{"type":"Point","coordinates":[10.3167,47.7167]}},{"properties":{"city":"Reutlingen","latitude":48.4833,"id":"a62v46vj3q4t","users":3538,"longitude":9.21667},"type":"Feature","geometry":{"type":"Point","coordinates":[9.21667,48.4833]}},{"properties":{"city":"Neumünster","latitude":54.0667,"id":"a62v46md4uii","users":3697,"longitude":9.98333},"type":"Feature","geometry":{"type":"Point","coordinates":[9.98333,54.0667]}},{"properties":{"city":"Gütersloh","latitude":51.9,"id":"a62v46rzco0e","users":3719,"longitude":8.38333},"type":"Feature","geometry":{"type":"Point","coordinates":[8.38333,51.9]}},{"properties":{"city":"Wesel","latitude":51.6667,"id":"a62v46yncf1f","users":3759,"longitude":6.61667},"type":"Feature","geometry":{"type":"Point","coordinates":[6.61667,51.6667]}},{"properties":{"city":"Konstanz","latitude":47.6667,"id":"a62v46lm5feh","users":3860,"longitude":9.18333},"type":"Feature","geometry":{"type":"Point","coordinates":[9.18333,47.6667]}},{"properties":{"city":"Fulda","latitude":50.55,"id":"a62v46tg2hjj","users":3926,"longitude":9.66667},"type":"Feature","geometry":{"type":"Point","coordinates":[9.66667,50.55]}},{"properties":{"city":"Jena","latitude":50.9333,"id":"a62v46ichg6y","users":3976,"longitude":11.5833},"type":"Feature","geometry":{"type":"Point","coordinates":[11.5833,50.9333]}},{"properties":{"city":"Hildesheim","latitude":52.15,"id":"a62v46pgw1te","users":3985,"longitude":9.96667},"type":"Feature","geometry":{"type":"Point","coordinates":[9.96667,52.15]}},{"properties":{"city":"Iserlohn","latitude":51.3667,"id":"a62v46npa8yv","users":3987,"longitude":7.7},"type":"Feature","geometry":{"type":"Point","coordinates":[7.7,51.3667]}},{"properties":{"city":"Ingolstadt","latitude":48.7667,"id":"a62v46vua3m0","users":4028,"longitude":11.4333},"type":"Feature","geometry":{"type":"Point","coordinates":[11.4333,48.7667]}},{"properties":{"city":"Ludwigshafen am Rhein","latitude":49.4811,"id":"a62v46lsypkz","users":4105,"longitude":8.43528},"type":"Feature","geometry":{"type":"Point","coordinates":[8.43528,49.4811]}},{"properties":{"city":"Moers","latitude":51.45,"id":"a62v46pu76fw","users":4313,"longitude":6.65},"type":"Feature","geometry":{"type":"Point","coordinates":[6.65,51.45]}},{"properties":{"city":"Ludwigsburg","latitude":48.9,"id":"a62v46vhe3k7","users":4336,"longitude":9.18333},"type":"Feature","geometry":{"type":"Point","coordinates":[9.18333,48.9]}},{"properties":{"city":"Düren","latitude":50.8,"id":"a62v46xp4lnn","users":4416,"longitude":6.48333},"type":"Feature","geometry":{"type":"Point","coordinates":[6.48333,50.8]}},{"properties":{"city":"Remscheid","latitude":51.1833,"id":"a62v46qm84lo","users":4469,"longitude":7.2},"type":"Feature","geometry":{"type":"Point","coordinates":[7.2,51.1833]}},{"properties":{"city":"Leverkusen","latitude":51.05,"id":"a62v46uuuhfv","users":4539,"longitude":7.01667},"type":"Feature","geometry":{"type":"Point","coordinates":[7.01667,51.05]}},{"properties":{"city":"Gießen","latitude":50.5833,"id":"a62v46u0g7yq","users":4581,"longitude":8.65},"type":"Feature","geometry":{"type":"Point","coordinates":[8.65,50.5833]}},{"properties":{"city":"Erlangen","latitude":49.5897,"id":"a62v46izv8xg","users":4811,"longitude":11.0039},"type":"Feature","geometry":{"type":"Point","coordinates":[11.0039,49.5897]}},{"properties":{"city":"Wolfsburg","latitude":52.4333,"id":"a62v46x31301","users":4991,"longitude":10.8},"type":"Feature","geometry":{"type":"Point","coordinates":[10.8,52.4333]}},{"properties":{"city":"Trier","latitude":49.75,"id":"a62v46q910ab","users":5046,"longitude":6.63333},"type":"Feature","geometry":{"type":"Point","coordinates":[6.63333,49.75]}},{"properties":{"city":"Bayreuth","latitude":49.9481,"id":"a62v46w00ix3","users":5102,"longitude":11.5783},"type":"Feature","geometry":{"type":"Point","coordinates":[11.5783,49.9481]}},{"properties":{"city":"Pforzheim","latitude":48.8833,"id":"a62v46p5e8sn","users":5154,"longitude":8.7},"type":"Feature","geometry":{"type":"Point","coordinates":[8.7,48.8833]}},{"properties":{"city":"Fürth","latitude":49.4667,"id":"a62v46wad4zg","users":5247,"longitude":10.9667},"type":"Feature","geometry":{"type":"Point","coordinates":[10.9667,49.4667]}},{"properties":{"city":"Göttingen","latitude":51.5333,"id":"a62v46yhpqmy","users":5472,"longitude":9.93333},"type":"Feature","geometry":{"type":"Point","coordinates":[9.93333,51.5333]}},{"properties":{"city":"Siegen","latitude":50.8667,"id":"a62v46l6ek3p","users":5555,"longitude":8.03333},"type":"Feature","geometry":{"type":"Point","coordinates":[8.03333,50.8667]}},{"properties":{"city":"Braunschweig","latitude":52.2667,"id":"a62v46rpiwwp","users":5629,"longitude":10.5333},"type":"Feature","geometry":{"type":"Point","coordinates":[10.5333,52.2667]}},{"properties":{"city":"Neuss","latitude":51.2,"id":"a62v46nmprzs","users":5728,"longitude":6.68333},"type":"Feature","geometry":{"type":"Point","coordinates":[6.68333,51.2]}},{"properties":{"city":"Hamm","latitude":51.6833,"id":"a62v46xdx4cc","users":5957,"longitude":7.8},"type":"Feature","geometry":{"type":"Point","coordinates":[7.8,51.6833]}},{"properties":{"city":"Kaiserslautern","latitude":49.45,"id":"a62v46l6jwe2","users":6273,"longitude":7.75},"type":"Feature","geometry":{"type":"Point","coordinates":[7.75,49.45]}},{"properties":{"city":"Bremerhaven","latitude":53.55,"id":"a62v46tdw3vk","users":6449,"longitude":8.58333},"type":"Feature","geometry":{"type":"Point","coordinates":[8.58333,53.55]}},{"properties":{"city":"Rostock","latitude":54.0833,"id":"a62v46u6gahl","users":6605,"longitude":12.1333},"type":"Feature","geometry":{"type":"Point","coordinates":[12.1333,54.0833]}},{"properties":{"city":"Flensburg","latitude":54.7833,"id":"a62v46p7y2v5","users":6668,"longitude":9.43333},"type":"Feature","geometry":{"type":"Point","coordinates":[9.43333,54.7833]}},{"properties":{"city":"Recklinghausen","latitude":51.6167,"id":"a62v46p0ftgb","users":6784,"longitude":7.2},"type":"Feature","geometry":{"type":"Point","coordinates":[7.2,51.6167]}},{"properties":{"city":"Koblenz","latitude":50.35,"id":"a62v46lu1eny","users":6845,"longitude":7.6},"type":"Feature","geometry":{"type":"Point","coordinates":[7.6,50.35]}},{"properties":{"city":"Freiburg im Breisgau","latitude":48.0,"id":"a62v46wor7pp","users":7017,"longitude":7.85},"type":"Feature","geometry":{"type":"Point","coordinates":[7.85,48.0]}},{"properties":{"city":"Solingen","latitude":51.1833,"id":"a62v46tzlzp1","users":7029,"longitude":7.08333},"type":"Feature","geometry":{"type":"Point","coordinates":[7.08333,51.1833]}},{"properties":{"city":"Paderborn","latitude":51.7167,"id":"a62v46y292f5","users":7230,"longitude":8.76667},"type":"Feature","geometry":{"type":"Point","coordinates":[8.76667,51.7167]}},{"properties":{"city":"Herne","latitude":51.55,"id":"a62v46u1g118","users":7264,"longitude":7.21667},"type":"Feature","geometry":{"type":"Point","coordinates":[7.21667,51.55]}},{"properties":{"city":"Freiburg (Elbe)","latitude":53.8333,"id":"a62v46mjwjns","users":7460,"longitude":9.28333},"type":"Feature","geometry":{"type":"Point","coordinates":[9.28333,53.8333]}},{"properties":{"city":"Halle","latitude":51.5,"id":"a62v46xuuu4u","users":7655,"longitude":12.0},"type":"Feature","geometry":{"type":"Point","coordinates":[12.0,51.5]}},{"properties":{"city":"Magdeburg","latitude":52.1333,"id":"a62v46xp0yei","users":7732,"longitude":11.6167},"type":"Feature","geometry":{"type":"Point","coordinates":[11.6167,52.1333]}},{"properties":{"city":"Chemnitz","latitude":50.8333,"id":"a62v46qvukdr","users":7802,"longitude":12.9167},"type":"Feature","geometry":{"type":"Point","coordinates":[12.9167,50.8333]}},{"properties":{"city":"Heilbronn","latitude":49.1403,"id":"a62v46m0as29","users":8194,"longitude":9.22},"type":"Feature","geometry":{"type":"Point","coordinates":[9.22,49.1403]}},{"properties":{"city":"Würzburg","latitude":49.7878,"id":"a62v46tc3esn","users":8640,"longitude":9.93611},"type":"Feature","geometry":{"type":"Point","coordinates":[9.93611,49.7878]}},{"properties":{"city":"Oberhausen","latitude":51.4667,"id":"a62v46islm4z","users":8650,"longitude":6.85},"type":"Feature","geometry":{"type":"Point","coordinates":[6.85,51.4667]}},{"properties":{"city":"Erfurt","latitude":50.9833,"id":"a62v46tzwovz","users":8974,"longitude":11.0333},"type":"Feature","geometry":{"type":"Point","coordinates":[11.0333,50.9833]}},{"properties":{"city":"Ulm","latitude":48.4,"id":"a62v46t6d1pz","users":8976,"longitude":10.0},"type":"Feature","geometry":{"type":"Point","coordinates":[10.0,48.4]}},{"properties":{"city":"Heidelberg","latitude":49.4167,"id":"a62v46iyx75d","users":9017,"longitude":8.7},"type":"Feature","geometry":{"type":"Point","coordinates":[8.7,49.4167]}},{"properties":{"city":"Lübeck","latitude":53.8667,"id":"a62v46pccz9m","users":9108,"longitude":10.7},"type":"Feature","geometry":{"type":"Point","coordinates":[10.7,53.8667]}},{"properties":{"city":"Darmstadt","latitude":49.8706,"id":"a62v46pngcb9","users":9367,"longitude":8.64944},"type":"Feature","geometry":{"type":"Point","coordinates":[8.64944,49.8706]}},{"properties":{"city":"Hagen","latitude":51.35,"id":"a62v46qw7bt0","users":10365,"longitude":7.46667},"type":"Feature","geometry":{"type":"Point","coordinates":[7.46667,51.35]}},{"properties":{"city":"Wiesbaden","latitude":50.0833,"id":"a62v46org87j","users":10377,"longitude":8.25},"type":"Feature","geometry":{"type":"Point","coordinates":[8.25,50.0833]}},{"properties":{"city":"Saarbrücken","latitude":49.2333,"id":"a62v46os4uyt","users":10615,"longitude":7.0},"type":"Feature","geometry":{"type":"Point","coordinates":[7.0,49.2333]}},{"properties":{"city":"Oldenburg (Oldenburg)","latitude":53.1667,"id":"a62v46i7dypt","users":10778,"longitude":8.2},"type":"Feature","geometry":{"type":"Point","coordinates":[8.2,53.1667]}},{"properties":{"city":"Osnabrück","latitude":52.2667,"id":"a62v46k588ch","users":11102,"longitude":8.05},"type":"Feature","geometry":{"type":"Point","coordinates":[8.05,52.2667]}},{"properties":{"city":"Gelsenkirchen","latitude":51.55,"id":"a62v46lcw591","users":11517,"longitude":7.1},"type":"Feature","geometry":{"type":"Point","coordinates":[7.1,51.55]}},{"properties":{"city":"Krefeld","latitude":51.3333,"id":"a62v46y470cz","users":12479,"longitude":6.56667},"type":"Feature","geometry":{"type":"Point","coordinates":[6.56667,51.3333]}},{"properties":{"city":"Mainz","latitude":50.0,"id":"a62v46ykdh7t","users":12651,"longitude":8.27111},"type":"Feature","geometry":{"type":"Point","coordinates":[8.27111,50.0]}},{"properties":{"city":"Kiel","latitude":54.3333,"id":"a62v46llr3mq","users":14042,"longitude":10.1333},"type":"Feature","geometry":{"type":"Point","coordinates":[10.1333,54.3333]}},{"properties":{"city":"Mönchengladbach","latitude":51.2,"id":"a62v46iwjepp","users":14443,"longitude":6.43333},"type":"Feature","geometry":{"type":"Point","coordinates":[6.43333,51.2]}},{"properties":{"city":"Kassel","latitude":51.3167,"id":"a62v46mvr8ox","users":15532,"longitude":9.5},"type":"Feature","geometry":{"type":"Point","coordinates":[9.5,51.3167]}},{"properties":{"city":"Nürnberg","latitude":49.4478,"id":"a62v46sfkai2","users":15633,"longitude":11.0683},"type":"Feature","geometry":{"type":"Point","coordinates":[11.0683,49.4478]}},{"properties":{"city":"Münster","latitude":51.9667,"id":"a62v46t3ddp9","users":15642,"longitude":7.63333},"type":"Feature","geometry":{"type":"Point","coordinates":[7.63333,51.9667]}},{"properties":{"city":"Augsburg","latitude":48.3667,"id":"a62v46lrkmf4","users":16268,"longitude":10.8833},"type":"Feature","geometry":{"type":"Point","coordinates":[10.8833,48.3667]}},{"properties":{"city":"Aachen","latitude":50.7667,"id":"a62v46v6chgz","users":16273,"longitude":6.1},"type":"Feature","geometry":{"type":"Point","coordinates":[6.1,50.7667]}},{"properties":{"city":"Bonn","latitude":50.7333,"id":"a62v46rczd5t","users":18217,"longitude":7.1},"type":"Feature","geometry":{"type":"Point","coordinates":[7.1,50.7333]}},{"properties":{"city":"Bielefeld","latitude":52.0333,"id":"a62v46wtbdm0","users":18604,"longitude":8.53333},"type":"Feature","geometry":{"type":"Point","coordinates":[8.53333,52.0333]}},{"properties":{"city":"Dresden","latitude":51.05,"id":"a62v46s09hhi","users":18649,"longitude":13.75},"type":"Feature","geometry":{"type":"Point","coordinates":[13.75,51.05]}},{"properties":{"city":"Mannheim","latitude":49.4883,"id":"a62v46us154m","users":19910,"longitude":8.46472},"type":"Feature","geometry":{"type":"Point","coordinates":[8.46472,49.4883]}},{"properties":{"city":"Wuppertal","latitude":51.2667,"id":"a62v46nmfnw4","users":19972,"longitude":7.18333},"type":"Feature","geometry":{"type":"Point","coordinates":[7.18333,51.2667]}},{"properties":{"city":"Bochum","latitude":51.4833,"id":"a62v46vjwy28","users":19983,"longitude":7.21667},"type":"Feature","geometry":{"type":"Point","coordinates":[7.21667,51.4833]}},{"properties":{"city":"Karlsruhe","latitude":49.0047,"id":"a62v46sa6svt","users":20910,"longitude":8.38583},"type":"Feature","geometry":{"type":"Point","coordinates":[8.38583,49.0047]}},{"properties":{"city":"Leipzig","latitude":51.3667,"id":"a62v46p7arzd","users":24302,"longitude":12.3833},"type":"Feature","geometry":{"type":"Point","coordinates":[12.3833,51.3667]}},{"properties":{"city":"Duisburg","latitude":51.4333,"id":"a62v46uwmysi","users":29532,"longitude":6.75},"type":"Feature","geometry":{"type":"Point","coordinates":[6.75,51.4333]}},{"properties":{"city":"Hannover","latitude":52.3667,"id":"a62v46vnkn04","users":29841,"longitude":9.71667},"type":"Feature","geometry":{"type":"Point","coordinates":[9.71667,52.3667]}},{"properties":{"city":"Bremen","latitude":53.0833,"id":"a62v46q1eksz","users":31411,"longitude":8.8},"type":"Feature","geometry":{"type":"Point","coordinates":[8.8,53.0833]}},{"properties":{"city":"Essen","latitude":51.45,"id":"a62v46ttdfct","users":34891,"longitude":7.01667},"type":"Feature","geometry":{"type":"Point","coordinates":[7.01667,51.45]}},{"properties":{"city":"Dortmund","latitude":51.5167,"id":"a62v46owf3su","users":42096,"longitude":7.45},"type":"Feature","geometry":{"type":"Point","coordinates":[7.45,51.5167]}},{"properties":{"city":"Stuttgart","latitude":48.7667,"id":"a62v46otr5te","users":44835,"longitude":9.18333},"type":"Feature","geometry":{"type":"Point","coordinates":[9.18333,48.7667]}},{"properties":{"city":"Düsseldorf","latitude":51.2167,"id":"a62v46wjtpmq","users":46052,"longitude":6.76667},"type":"Feature","geometry":{"type":"Point","coordinates":[6.76667,51.2167]}},{"properties":{"city":"Munich","latitude":48.15,"id":"a62v46tn5bkh","users":77649,"longitude":11.5833},"type":"Feature","geometry":{"type":"Point","coordinates":[11.5833,48.15]}},{"properties":{"city":"Frankfurt am Main","latitude":50.1167,"id":"a62v46nhsia9","users":89560,"longitude":8.68333},"type":"Feature","geometry":{"type":"Point","coordinates":[8.68333,50.1167]}},{"properties":{"city":"Hamburg","latitude":53.55,"id":"a62v46uu29lo","users":119359,"longitude":10.0},"type":"Feature","geometry":{"type":"Point","coordinates":[10.0,53.55]}},{"properties":{"city":"Cologne","latitude":50.9333,"id":"a62v46r2xhgg","users":128556,"longitude":6.95},"type":"Feature","geometry":{"type":"Point","coordinates":[6.95,50.9333]}},{"properties":{"city":"Berlin","latitude":52.5167,"id":"a62v46wtm2kp","users":425308,"longitude":13.4},"type":"Feature","geometry":{"type":"Point","coordinates":[13.4,52.5167]}}],"is_temporal":false,"author":{"url":"","metadata":"","contact_name":"","contact_address":"","source":"","contact_phone":""},"source":"","pagination":{"sort":null,"start":0,"total":284,"limit":1000000},"state":"complete","tags":"","published":"2014-08-14T22:29:17-04:00","id":265428}