{"type":"FeatureCollection","data_type":"Dataset","url_type":null,"permissions":[{"permissions":{"download":true,"view":true},"group_id":"everyone"}],"classification":null,"title":"HPC Members and Attenders - Sheet1 (2)","count":76,"stream_id":265417,"contributor":{"url":"http://geocommons.com/users/21812","name":"okcalvin"},"data_attributes":null,"calculation_params":null,"icon_link":null,"link":"http://geocommons.com/overlays/265417.json","extent":[-98.6939,34.4853,-77.9981,39.8624],"geometry_types":["point"],"unique_name":null,"name":"HPC Members and Attenders - Sheet1 (2)","feature_count":76,"description":"Heritage Presbyterian Church households","next_feature":null,"is_raster":false,"short_classification":"Y","stats":{},"features":[{"properties":{"city":"CITY","zip":"ZIP","last name":"NAME","geo_score":0.311,"street":"STREET","id":"a7mk185cq5ze","geo_precision":"street","state":"STATE"},"type":"Feature","geometry":{"type":"Point","coordinates":[-77.998102,39.862421]}},{"properties":{"city":"Oklahoma City","zip":"73134","last name":"Betz","geo_score":0.619,"street":"14900 N Pennsylvania Ave, Apt 634","id":"a7mk17xzok7p","geo_precision":"street","state":"OK"},"type":"Feature","geometry":{"type":"Point","coordinates":[-97.54949,35.611591]}},{"properties":{"city":"Nichols Hills","zip":"73120","last name":"Broadfoot","geo_score":0.925,"street":"1701 Dorchester Place","id":"a7mk1810oyyj","geo_precision":"range","state":"OK"},"type":"Feature","geometry":{"type":"Point","coordinates":[-97.553687,35.555222]}},{"properties":{"city":"Edmond","zip":"73025-2940","last name":"Bryan","geo_score":0.542,"street":"1204 COPPER ROCK DR","id":"a7mk17u20wot","geo_precision":"street","state":"OK"},"type":"Feature","geometry":{"type":"Point","coordinates":[-97.727864,35.503955]}},{"properties":{"city":"Edmond","zip":"73012","last name":"Butler","geo_score":0.873,"street":"813 Adams Trl","id":"a7mk17w325h7","geo_precision":"range","state":"OK"},"type":"Feature","geometry":{"type":"Point","coordinates":[-97.521555,35.663236]}},{"properties":{"city":"Oklahoma City","zip":"73105","last name":"Buxton","geo_score":0.854,"street":"828 NE 20th","id":"a7mk187i0xpm","geo_precision":"range","state":"OK"},"type":"Feature","geometry":{"type":"Point","coordinates":[-97.497342,35.490051]}},{"properties":{"city":"Oklahoma City","zip":"73112-7417","last name":"Camenisch","geo_score":0.941,"street":"2716 NW 33RD ST","id":"a7mk1820h6c1","geo_precision":"range","state":"OK"},"type":"Feature","geometry":{"type":"Point","coordinates":[-97.56309,35.504226]}},{"properties":{"city":"Oklahoma City","zip":"73104-1233","last name":"Cason","geo_score":0.941,"street":"501 NE 16TH ST","id":"a7mk186aym6o","geo_precision":"range","state":"OK"},"type":"Feature","geometry":{"type":"Point","coordinates":[-97.503575,35.48549]}},{"properties":{"city":"Arcadia","zip":"73007-6917","last name":"Clem","geo_score":1.0,"street":"10200 Sunday Dr","id":"a7mk17vgg9nr","geo_precision":"range","state":"OK"},"type":"Feature","geometry":{"type":"Point","coordinates":[-97.345871,35.64796]}},{"properties":{"city":"Oklahoma City","zip":"73132-5657","last name":"Cronk","geo_score":1.0,"street":"7310 KINGS MANOR CT","id":"a7mk184il378","geo_precision":"range","state":"OK"},"type":"Feature","geometry":{"type":"Point","coordinates":[-97.62825,35.54618]}},{"properties":{"city":"MIDWEST CITY","zip":"73110","last name":"Darnell","geo_score":0.607,"street":"712 E. Frolich Drive","id":"a7mk17zjc3a0","geo_precision":"street","state":"OK"},"type":"Feature","geometry":{"type":"Point","coordinates":[-97.38852,35.459236]}},{"properties":{"city":"Oklahoma City","zip":"73162","last name":"Daxon","geo_score":1.0,"street":"10102 Ski Dr","id":"a7mk17rxuayj","geo_precision":"range","state":"OK"},"type":"Feature","geometry":{"type":"Point","coordinates":[-97.624872,35.575391]}},{"properties":{"city":"Oklahoma City","zip":"73106","last name":"Dearmon","geo_score":0.941,"street":"1023 NW 18th St.","id":"a7mk17rpss15","geo_precision":"range","state":"OK"},"type":"Feature","geometry":{"type":"Point","coordinates":[-97.529684,35.488156]}},{"properties":{"city":"Oklahoma City","zip":"73120","last name":"Deffenbaugh","geo_score":0.463,"street":"12401 Trail Oak Drive","id":"a7mk182uj21c","geo_precision":"street","state":"OK"},"type":"Feature","geometry":{"type":"Point","coordinates":[-97.402741,35.452805]}},{"properties":{"city":"Oklahoma City","zip":"73120-8867","last name":"Dixon","geo_score":1.0,"street":"4017 SPYGLASS RD","id":"a7mk186cvz6l","geo_precision":"range","state":"OK"},"type":"Feature","geometry":{"type":"Point","coordinates":[-97.590915,35.605675]}},{"properties":{"city":"Oklahoma City","zip":"73127","last name":"Dixon","geo_score":0.607,"street":"1617 N. Fordson Drive","id":"a7mk17zbon85","geo_precision":"street","state":"OK"},"type":"Feature","geometry":{"type":"Point","coordinates":[-97.642229,35.482686]}},{"properties":{"city":"Weatherford","zip":"73096","last name":"Dozier","geo_score":1.0,"street":"1308 Steiner Rd","id":"a7mk182ahufd","geo_precision":"range","state":"OK"},"type":"Feature","geometry":{"type":"Point","coordinates":[-98.693928,35.544609]}},{"properties":{"city":"Edmond","zip":"73013","last name":"Dudleson","geo_score":0.905,"street":"777 E 15th St, Apt 273","id":"a7mk17v6u46b","geo_precision":"street","state":"OK"},"type":"Feature","geometry":{"type":"Point","coordinates":[-97.480246,35.638297]}},{"properties":{"city":"Edmond","zip":"73003-3079","last name":"Dutcher","geo_score":1.0,"street":"105  Lakeview Ct","id":"a7mk17wl0yec","geo_precision":"range","state":"OK"},"type":"Feature","geometry":{"type":"Point","coordinates":[-97.479437,35.689966]}},{"properties":{"city":"Edmond","zip":"73025","last name":"Everett","geo_score":0.622,"street":"732 Real Quiet Circle","id":"a7mk181mdy19","geo_precision":"street","state":"OK"},"type":"Feature","geometry":{"type":"Point","coordinates":[-97.490597,35.758981]}},{"properties":{"city":"Oklahoma City","zip":"73120","last name":"Fowler","geo_score":0.512,"street":"11525 N Meridian Ave #132","id":"a7mk184v211w","geo_precision":"street","state":"OK"},"type":"Feature","geometry":{"type":"Point","coordinates":[-97.54126,35.58374]}},{"properties":{"city":"Edmond","zip":"73013-8712","last name":"Fresella","geo_score":1.0,"street":"8124 NE 140TH ST","id":"a7mk17t954lv","geo_precision":"range","state":"OK"},"type":"Feature","geometry":{"type":"Point","coordinates":[-97.382717,35.613417]}},{"properties":{"city":"Edmond","zip":"73013-6946","last name":"Futrell","geo_score":1.0,"street":"3725 Coachlight Drive","id":"a7mk184wpnht","geo_precision":"range","state":"OK"},"type":"Feature","geometry":{"type":"Point","coordinates":[-97.448195,35.619673]}},{"properties":{"city":"Edmond","zip":"73013","last name":"Green","geo_score":0.902,"street":"16132 Promontory Rd","id":"a7mk17tuodpj","geo_precision":"range","state":"OK"},"type":"Feature","geometry":{"type":"Point","coordinates":[-97.608263,35.63502]}},{"properties":{"city":"Warr Acres","zip":"73122","last name":"Harkins","geo_score":0.488,"street":"5901 N. MacArthur","id":"a7mk17wm4qnt","geo_precision":"street","state":"OK"},"type":"Feature","geometry":{"type":"Point","coordinates":[-97.618997,35.50051]}},{"properties":{"city":"Oklahoma City","zip":"73120","last name":"Harris","geo_score":1.0,"street":"3008 Cornwall Place","id":"a7mk17slunxk","geo_precision":"range","state":"OK"},"type":"Feature","geometry":{"type":"Point","coordinates":[-97.569297,35.557523]}},{"properties":{"city":"Edmond","zip":"73034","last name":"Harris","geo_score":1.0,"street":"1404 Boomer Trail","id":"a7mk184aj8ji","geo_precision":"range","state":"OK"},"type":"Feature","geometry":{"type":"Point","coordinates":[-97.4634,35.670886]}},{"properties":{"city":"Oklahoma City","zip":"73107","last name":"Haskins","geo_score":0.941,"street":"4320 NW 21st Street","id":"a7mk17w5mmw5","geo_precision":"range","state":"OK"},"type":"Feature","geometry":{"type":"Point","coordinates":[-97.596138,35.491607]}},{"properties":{"city":"Edmond","zip":"73034-4158","last name":"Hawk","geo_score":1.0,"street":"2800 MILES DR","id":"a7mk17u0un4w","geo_precision":"range","state":"OK"},"type":"Feature","geometry":{"type":"Point","coordinates":[-97.462719,35.683809]}},{"properties":{"city":"Edmond","zip":"73012-8413","last name":"Horstmanshof","geo_score":0.488,"street":"17105 WHIMBREL LN","id":"a7mk185jqt4g","geo_precision":"zip","state":"OK"},"type":"Feature","geometry":{"type":"Point","coordinates":[-97.852223,34.48532]}},{"properties":{"city":"Oklahoma City","zip":"73162-4913","last name":"Hurst","geo_score":1.0,"street":"11200 BLUE STEM DR","id":"a7mk17wx6enw","geo_precision":"range","state":"OK"},"type":"Feature","geometry":{"type":"Point","coordinates":[-97.621551,35.582167]}},{"properties":{"city":"Edmond","zip":"73013","last name":"Johnson","geo_score":1.0,"street":"3104 Kelsey Drive","id":"a7mk17ui6m4u","geo_precision":"range","state":"OK"},"type":"Feature","geometry":{"type":"Point","coordinates":[-97.47201,35.623561]}},{"properties":{"city":"Edmond","zip":"73034-4224","last name":"Klages","geo_score":1.0,"street":"618 SUNNY BROOK DR","id":"a7mk18674fcw","geo_precision":"range","state":"OK"},"type":"Feature","geometry":{"type":"Point","coordinates":[-97.472453,35.675402]}},{"properties":{"city":"Edmond","zip":"73013-8899","last name":"Koiner","geo_score":1.0,"street":"15704 SHADOW MOUNTAIN DR","id":"a7mk17v9b3ty","geo_precision":"range","state":"OK"},"type":"Feature","geometry":{"type":"Point","coordinates":[-97.560753,35.629046]}},{"properties":{"city":"Oklahoma City","zip":"73127-1953","last name":"Levy","geo_score":1.0,"street":"2713 TUDOR RD","id":"a7mk17v4qo5e","geo_precision":"range","state":"OK"},"type":"Feature","geometry":{"type":"Point","coordinates":[-97.60479,35.498656]}},{"properties":{"city":"Oklahoma City","zip":"73162","last name":"Loruse","geo_score":1.0,"street":"11800 Edgemont Circle","id":"a7mk185r1kba","geo_precision":"range","state":"OK"},"type":"Feature","geometry":{"type":"Point","coordinates":[-97.625227,35.590835]}},{"properties":{"city":"Edmond","zip":"73083-3608","last name":"Loyd","geo_score":0.325,"street":"PO Box 3608","id":"a7mk17t89ptm","geo_precision":"street","state":"OK"},"type":"Feature","geometry":{"type":"Point","coordinates":[-97.312947,35.616291]}},{"properties":{"city":"Edmond","zip":"73003-6284","last name":"Mappes","geo_score":0.894,"street":"509 S SANTA FE AVE APT 120","id":"a7mk184tdxob","geo_precision":"range","state":"OK"},"type":"Feature","geometry":{"type":"Point","coordinates":[-97.513973,35.649357]}},{"properties":{"city":"Jones","zip":"73049-8743","last name":"McCullough","geo_score":0.504,"street":"14800 SHARON SPGS","id":"a7mk17ssoztk","geo_precision":"street","state":"OK"},"type":"Feature","geometry":{"type":"Point","coordinates":[-97.790938,35.62977]}},{"properties":{"city":"Edmond","zip":"73034","last name":"McNair","geo_score":1.0,"street":"2501 Tredington Way","id":"a7mk1874mooc","geo_precision":"range","state":"OK"},"type":"Feature","geometry":{"type":"Point","coordinates":[-97.447223,35.64245]}},{"properties":{"city":"Yukon","zip":"73099-8200","last name":"Meiki","geo_score":1.0,"street":"11605 N MORGAN RD","id":"a7mk17udb0xh","geo_precision":"range","state":"OK"},"type":"Feature","geometry":{"type":"Point","coordinates":[-97.691864,35.591453]}},{"properties":{"city":"Oklahoma City","zip":"73170","last name":"Miller","geo_score":1.0,"street":"11505 Kingsgate Drive","id":"a7mk17vrfpmf","geo_precision":"range","state":"OK"},"type":"Feature","geometry":{"type":"Point","coordinates":[-97.541142,35.353218]}},{"properties":{"city":"Edmond","zip":"73034","last name":"Myers","geo_score":1.0,"street":"6121 N Bryant Avenue","id":"a7mk18450sw6","geo_precision":"range","state":"OK"},"type":"Feature","geometry":{"type":"Point","coordinates":[-97.460577,35.71623]}},{"properties":{"city":"Edmond","zip":"73012","last name":"Narcio","geo_score":0.393,"street":"18001 Highland Park Rd, Apt 806","id":"a7mk184v8g30","geo_precision":"street","state":"OK"},"type":"Feature","geometry":{"type":"Point","coordinates":[-97.97146,34.647076]}},{"properties":{"city":"Edmond","zip":"73013-1573","last name":"Nelson","geo_score":1.0,"street":"1508 NW 144TH ST","id":"a7mk17ywompa","geo_precision":"range","state":"OK"},"type":"Feature","geometry":{"type":"Point","coordinates":[-97.540516,35.617573]}},{"properties":{"city":"Oklahoma City","zip":"73107-5420","last name":"Nesbitt","geo_score":0.941,"street":"2646 NW 12TH ST","id":"a7mk184ug0b7","geo_precision":"range","state":"OK"},"type":"Feature","geometry":{"type":"Point","coordinates":[-97.560366,35.481596]}},{"properties":{"city":"Edmond","zip":"73012-4004","last name":"Nokes","geo_score":0.902,"street":"18328 SCARLET OAK LN","id":"a7mk17xah87b","geo_precision":"range","state":"OK"},"type":"Feature","geometry":{"type":"Point","coordinates":[-97.536287,35.65765]}},{"properties":{"city":"Oklahoma City","zip":"73151","last name":"O'Kresik","geo_score":0.583,"street":"6508 NE 105th Street","id":"a7mk17v34lnq","geo_precision":"street","state":"OK"},"type":"Feature","geometry":{"type":"Point","coordinates":[-97.641927,35.5777]}},{"properties":{"city":"Edmond","zip":"73034-7366","last name":"Peabody","geo_score":1.0,"street":"108 Berkshire Drive","id":"a7mk17rb3q0t","geo_precision":"range","state":"OK"},"type":"Feature","geometry":{"type":"Point","coordinates":[-97.427707,35.656985]}},{"properties":{"city":"Edmond","zip":"73013-0463","last name":"Peck","geo_score":0.585,"street":"12017 NANDINA CIR","id":"a7mk185fwd4j","geo_precision":"zip","state":"OK"},"type":"Feature","geometry":{"type":"Point","coordinates":[-97.515011,35.555542]}},{"properties":{"city":"Oklahoma City","zip":"73120-8417","last name":"Petty","geo_score":0.868,"street":"2201 NW 122ND ST APT 2613","id":"a7mk183eiszr","geo_precision":"range","state":"OK"},"type":"Feature","geometry":{"type":"Point","coordinates":[-97.549538,35.594708]}},{"properties":{"city":"Jones","zip":"73049-8544","last name":"Posey","geo_score":0.951,"street":"11601 N Chester St","id":"a7mk17tbbfqk","geo_precision":"range","state":"OK"},"type":"Feature","geometry":{"type":"Point","coordinates":[-97.382854,35.591409]}},{"properties":{"city":"Wheatland","zip":"73097","last name":"Priestley","geo_score":0.329,"street":"PO Box 833","id":"a7mk17syicbb","geo_precision":"street","state":"OK"},"type":"Feature","geometry":{"type":"Point","coordinates":[-97.312947,35.616291]}},{"properties":{"city":"Edmond","zip":"73034","last name":"Riner","geo_score":0.619,"street":"3049 Asteon Court","id":"a7mk17rxuatt","geo_precision":"range","state":"OK"},"type":"Feature","geometry":{"type":"Point","coordinates":[-97.177206,35.179181]}},{"properties":{"city":"Oklahoma City","zip":"73162","last name":"Roberts","geo_score":1.0,"street":"5601 NW 111th Street","id":"a7mk17zgqtx2","geo_precision":"range","state":"OK"},"type":"Feature","geometry":{"type":"Point","coordinates":[-97.620007,35.583622]}},{"properties":{"city":"Moore","zip":"73160","last name":"Rose","geo_score":1.0,"street":"604 S Patterson Dr","id":"a7mk180pvbqb","geo_precision":"range","state":"OK"},"type":"Feature","geometry":{"type":"Point","coordinates":[-97.472714,35.331785]}},{"properties":{"city":"Oklahoma City","zip":"73116-1801","last name":"Russell","geo_score":1.0,"street":"6613 N SHAWNEE AVE","id":"a7mk17ybnj2s","geo_precision":"range","state":"OK"},"type":"Feature","geometry":{"type":"Point","coordinates":[-97.588953,35.539324]}},{"properties":{"city":"Edmond","zip":"73034","last name":"Russell","geo_score":1.0,"street":"617 North Broadway","id":"a7mk17u0zxlz","geo_precision":"range","state":"OK"},"type":"Feature","geometry":{"type":"Point","coordinates":[-97.480439,35.661811]}},{"properties":{"city":"Edmond","zip":"73034-9225","last name":"Ruwe","geo_score":1.0,"street":"5608 NORTHWOOD DR","id":"a7mk186hwni4","geo_precision":"range","state":"OK"},"type":"Feature","geometry":{"type":"Point","coordinates":[-97.432977,35.712028]}},{"properties":{"city":"Oklahoma City","zip":"73120-5208","last name":"Santelmann","geo_score":1.0,"street":"3105 BROOKHOLLOW RD","id":"a7mk17s7skvi","geo_precision":"range","state":"OK"},"type":"Feature","geometry":{"type":"Point","coordinates":[-97.570677,35.581914]}},{"properties":{"city":"Oklahoma City","zip":"73120-5208","last name":"Santelmann","geo_score":1.0,"street":"3105 BROOKHOLLOW RD","id":"a7mk183bfiyv","geo_precision":"range","state":"OK"},"type":"Feature","geometry":{"type":"Point","coordinates":[-97.570677,35.581914]}},{"properties":{"city":"Oklahoma City","zip":"73112","last name":"Santelmann","geo_score":0.941,"street":"3913 NW 60th Street","id":"a7mk17z35zvr","geo_precision":"range","state":"OK"},"type":"Feature","geometry":{"type":"Point","coordinates":[-97.589016,35.533664]}},{"properties":{"city":"Oklahoma City","zip":"73132","last name":"Santelmann","geo_score":0.941,"street":"4805 NW 68th Street","id":"a7mk17x4ykda","geo_precision":"range","state":"OK"},"type":"Feature","geometry":{"type":"Point","coordinates":[-97.609546,35.542158]}},{"properties":{"city":"Cashion","zip":"73016-9702","last name":"Schuppel","geo_score":0.545,"street":"RR 1 BOX 56","id":"a7mk18182xoe","geo_precision":"street","state":"OK"},"type":"Feature","geometry":{"type":"Point","coordinates":[-97.675311,35.802952]}},{"properties":{"city":"Edmond","zip":"73034","last name":"Shinn","geo_score":1.0,"street":"2216 Old Pond Rd","id":"a7mk1802ii3h","geo_precision":"range","state":"OK"},"type":"Feature","geometry":{"type":"Point","coordinates":[-97.447775,35.664105]}},{"properties":{"city":"Edmond","zip":"73034-5720","last name":"Shofner","geo_score":1.0,"street":"1205 Briarwood Place","id":"a7mk17w1ga5i","geo_precision":"range","state":"OK"},"type":"Feature","geometry":{"type":"Point","coordinates":[-97.464455,35.642056]}},{"properties":{"city":"Guthrie","zip":"73044-3614","last name":"Skinner","geo_score":1.0,"street":"629 Hamill Ln","id":"a7mk17wkrxfn","geo_precision":"range","state":"OK"},"type":"Feature","geometry":{"type":"Point","coordinates":[-97.414956,35.883997]}},{"properties":{"city":"Oklahoma City","zip":"73132-2831","last name":"Svetgoff","geo_score":0.941,"street":"5736 NW 86TH ST","id":"a7mk180yss9x","geo_precision":"range","state":"OK"},"type":"Feature","geometry":{"type":"Point","coordinates":[-97.618853,35.558768]}},{"properties":{"city":"Edmond","zip":"73012","last name":"Tappert","geo_score":0.902,"street":"17509 Platinum Lane","id":"a7mk17zr8rq9","geo_precision":"range","state":"OK"},"type":"Feature","geometry":{"type":"Point","coordinates":[-97.543985,35.64777]}},{"properties":{"city":"Edmond","zip":"73013-5467","last name":"Tennyson","geo_score":0.944,"street":"3813 WHISPERING HEIGHTS DR","id":"a7mk1845pcxx","geo_precision":"range","state":"OK"},"type":"Feature","geometry":{"type":"Point","coordinates":[-97.471324,35.617893]}},{"properties":{"city":"Edmond","zip":"73012-7088","last name":"Thompson","geo_score":0.708,"street":"1412 NW 166TH ST","id":"a7mk180deq5l","geo_precision":"street","state":"OK"},"type":"Feature","geometry":{"type":"Point","coordinates":[-97.531629,35.64033]}},{"properties":{"city":"Oklahoma City","zip":"73105","last name":"Viseur","geo_score":0.941,"street":"901 NE 18th Street","id":"a7mk184y8x22","geo_precision":"range","state":"OK"},"type":"Feature","geometry":{"type":"Point","coordinates":[-97.49637,35.488334]}},{"properties":{"city":"Oklahoma City","zip":"73112","last name":"Warren","geo_score":0.947,"street":"2421 NW 55th Terrace","id":"a7mk17rt12gc","geo_precision":"range","state":"OK"},"type":"Feature","geometry":{"type":"Point","coordinates":[-97.556045,35.527163]}},{"properties":{"city":"Luther","zip":"73054-9455","last name":"Wehe","geo_score":0.902,"street":"10610 Lori Ln","id":"a7mk1859c4un","geo_precision":"range","state":"OK"},"type":"Feature","geometry":{"type":"Point","coordinates":[-97.183137,35.577272]}},{"properties":{"city":"Edmond","zip":"73034-6654","last name":"Wells","geo_score":1.0,"street":"100 Shelton Place","id":"a7mk17ves42r","geo_precision":"range","state":"OK"},"type":"Feature","geometry":{"type":"Point","coordinates":[-97.449991,35.655755]}},{"properties":{"city":"Oklahoma City","zip":"73116-4120","last name":"Willingham","geo_score":0.993,"street":"2540 W Wilshire Blvd","id":"a7mk186burje","geo_precision":"range","state":"OK"},"type":"Feature","geometry":{"type":"Point","coordinates":[-97.558441,35.551007]}}],"is_temporal":false,"author":{"url":"","metadata":"","contact_name":"","contact_address":"","source":"","contact_phone":""},"source":"","pagination":{"sort":null,"start":0,"total":76,"limit":1000000},"state":"complete","tags":"hpc","published":"2014-08-14T22:25:40-04:00","id":265417}