{"type":"FeatureCollection","data_type":"Dataset","url_type":null,"permissions":[{"permissions":{"download":true,"view":true},"group_id":"everyone"}],"classification":null,"title":"Local Power - Queensland Solar Installation Map","count":400,"stream_id":265837,"contributor":{"url":"http://geocommons.com/users/50138","name":"local-power"},"data_attributes":null,"calculation_params":null,"icon_link":null,"link":"http://geocommons.com/overlays/265837.json","extent":[0.0,0.0,0.0,0.0],"geometry_types":[],"unique_name":null,"name":"Local Power - Queensland Solar Installation Map","feature_count":400,"description":"At Local Power we are dedicated to provide solar power solutions for all of of Australia. This solar map shows some of our recent installations in regional Queensland","next_feature":null,"is_raster":false,"short_classification":"Y","stats":{"postcode":{"max":4820,"variance":7045.41603383458,"mean":4691.9975,"stdev":83.9369765588122,"min":4055,"median":4701}},"features":[{"properties":{"postcode":4703,"country":"Australia","geo_score":0.0,"suburb":"Yeppoon","id":"a7ov4wmjd97w","geo_precision":"unmatched","state":"QLD"},"type":"Feature","geometry":null},{"properties":{"postcode":4703,"country":"Australia","geo_score":0.0,"suburb":"Yeppoon","id":"a7ov4wtggu2m","geo_precision":"unmatched","state":"QLD"},"type":"Feature","geometry":null},{"properties":{"postcode":4703,"country":"Australia","geo_score":0.0,"suburb":"Yeppoon","id":"a7ov4wnpma6d","geo_precision":"unmatched","state":"QLD"},"type":"Feature","geometry":null},{"properties":{"postcode":4703,"country":"Australia","geo_score":0.0,"suburb":"Yeppoon","id":"a7ov4wigsy5a","geo_precision":"unmatched","state":"QLD"},"type":"Feature","geometry":null},{"properties":{"postcode":4703,"country":"Australia","geo_score":0.0,"suburb":"Yeppoon","id":"a7ov4wv2rv0u","geo_precision":"unmatched","state":"QLD"},"type":"Feature","geometry":null},{"properties":{"postcode":4703,"country":"Australia","geo_score":0.0,"suburb":"Yeppoon","id":"a7ov4whni3sh","geo_precision":"unmatched","state":"QLD"},"type":"Feature","geometry":null},{"properties":{"postcode":4703,"country":"Australia","geo_score":0.0,"suburb":"Yeppoon","id":"a7ov4wr7uudt","geo_precision":"unmatched","state":"QLD"},"type":"Feature","geometry":null},{"properties":{"postcode":4703,"country":"Australia","geo_score":0.0,"suburb":"Yeppoon","id":"a7ov4wvfgsbe","geo_precision":"unmatched","state":"QLD"},"type":"Feature","geometry":null},{"properties":{"postcode":4703,"country":"Australia","geo_score":0.0,"suburb":"Yeppoon","id":"a7ov4wq9z61g","geo_precision":"unmatched","state":"QLD"},"type":"Feature","geometry":null},{"properties":{"postcode":4703,"country":"Australia","geo_score":0.0,"suburb":"Yeppoon","id":"a7ov4wtst6uw","geo_precision":"unmatched","state":"QLD"},"type":"Feature","geometry":null},{"properties":{"postcode":4703,"country":"Australia","geo_score":0.0,"suburb":"Yeppoon","id":"a7ov4wqp3xa8","geo_precision":"unmatched","state":"QLD"},"type":"Feature","geometry":null},{"properties":{"postcode":4701,"country":"Australia","geo_score":0.0,"suburb":"Frenchville","id":"a7ov4wjkpefr","geo_precision":"unmatched","state":"QLD"},"type":"Feature","geometry":null},{"properties":{"postcode":4702,"country":"Australia","geo_score":0.0,"suburb":"Frenchville","id":"a7ov4wmwu6q8","geo_precision":"unmatched","state":"QLD"},"type":"Feature","geometry":null},{"properties":{"postcode":4703,"country":"Australia","geo_score":0.0,"suburb":"Frenchville","id":"a7ov4wopcg5k","geo_precision":"unmatched","state":"QLD"},"type":"Feature","geometry":null},{"properties":{"postcode":4704,"country":"Australia","geo_score":0.0,"suburb":"Frenchville","id":"a7ov4wporycx","geo_precision":"unmatched","state":"QLD"},"type":"Feature","geometry":null},{"properties":{"postcode":4705,"country":"Australia","geo_score":0.0,"suburb":"Frenchville","id":"a7ov4wioqa46","geo_precision":"unmatched","state":"QLD"},"type":"Feature","geometry":null},{"properties":{"postcode":4706,"country":"Australia","geo_score":0.0,"suburb":"Frenchville","id":"a7ov4wnxblge","geo_precision":"unmatched","state":"QLD"},"type":"Feature","geometry":null},{"properties":{"postcode":4707,"country":"Australia","geo_score":0.0,"suburb":"Frenchville","id":"a7ov4wje95lx","geo_precision":"unmatched","state":"QLD"},"type":"Feature","geometry":null},{"properties":{"postcode":4710,"country":"Australia","geo_score":0.0,"suburb":"Emu Park","id":"a7ov4wrqxhbd","geo_precision":"unmatched","state":"QLD"},"type":"Feature","geometry":null},{"properties":{"postcode":4710,"country":"Australia","geo_score":0.0,"suburb":"Emu Park","id":"a7ov4wlunrou","geo_precision":"unmatched","state":"QLD"},"type":"Feature","geometry":null},{"properties":{"postcode":4710,"country":"Australia","geo_score":0.0,"suburb":"Emu Park","id":"a7ov4wrgevmb","geo_precision":"unmatched","state":"QLD"},"type":"Feature","geometry":null},{"properties":{"postcode":4710,"country":"Australia","geo_score":0.0,"suburb":"Emu Park","id":"a7ov4wqzl19w","geo_precision":"unmatched","state":"QLD"},"type":"Feature","geometry":null},{"properties":{"postcode":4702,"country":"Australia","geo_score":0.0,"suburb":"Parkhurst","id":"a7ov4wnw3j5t","geo_precision":"unmatched","state":"QLD"},"type":"Feature","geometry":null},{"properties":{"postcode":4702,"country":"Australia","geo_score":0.0,"suburb":"Parkhurst","id":"a7ov4wx9hq45","geo_precision":"unmatched","state":"QLD"},"type":"Feature","geometry":null},{"properties":{"postcode":4702,"country":"Australia","geo_score":0.0,"suburb":"Parkhurst","id":"a7ov4wtrfjrp","geo_precision":"unmatched","state":"QLD"},"type":"Feature","geometry":null},{"properties":{"postcode":4702,"country":"Australia","geo_score":0.0,"suburb":"Parkhurst","id":"a7ov4wqb0rbp","geo_precision":"unmatched","state":"QLD"},"type":"Feature","geometry":null},{"properties":{"postcode":4702,"country":"Australia","geo_score":0.0,"suburb":"Parkhurst","id":"a7ov4wu0zpya","geo_precision":"unmatched","state":"QLD"},"type":"Feature","geometry":null},{"properties":{"postcode":4702,"country":"Australia","geo_score":0.0,"suburb":"Parkhurst","id":"a7ov4wkd4eq8","geo_precision":"unmatched","state":"QLD"},"type":"Feature","geometry":null},{"properties":{"postcode":4702,"country":"Australia","geo_score":0.0,"suburb":"Parkhurst","id":"a7ov4wubpf5l","geo_precision":"unmatched","state":"QLD"},"type":"Feature","geometry":null},{"properties":{"postcode":4702,"country":"Australia","geo_score":0.0,"suburb":"Parkhurst","id":"a7ov4wx8q6yc","geo_precision":"unmatched","state":"QLD"},"type":"Feature","geometry":null},{"properties":{"postcode":4702,"country":"Australia","geo_score":0.0,"suburb":"Parkhurst","id":"a7ov4wqby20u","geo_precision":"unmatched","state":"QLD"},"type":"Feature","geometry":null},{"properties":{"postcode":4702,"country":"Australia","geo_score":0.0,"suburb":"Gracemere","id":"a7ov4woe5r8y","geo_precision":"unmatched","state":"QLD"},"type":"Feature","geometry":null},{"properties":{"postcode":4703,"country":"Australia","geo_score":0.0,"suburb":"Gracemere","id":"a7ov4wjgevbf","geo_precision":"unmatched","state":"QLD"},"type":"Feature","geometry":null},{"properties":{"postcode":4704,"country":"Australia","geo_score":0.0,"suburb":"Gracemere","id":"a7ov4woy56yr","geo_precision":"unmatched","state":"QLD"},"type":"Feature","geometry":null},{"properties":{"postcode":4705,"country":"Australia","geo_score":0.0,"suburb":"Gracemere","id":"a7ov4wssu9yf","geo_precision":"unmatched","state":"QLD"},"type":"Feature","geometry":null},{"properties":{"postcode":4706,"country":"Australia","geo_score":0.0,"suburb":"Gracemere","id":"a7ov4wn4vfwj","geo_precision":"unmatched","state":"QLD"},"type":"Feature","geometry":null},{"properties":{"postcode":4707,"country":"Australia","geo_score":0.0,"suburb":"Gracemere","id":"a7ov4wp5pooa","geo_precision":"unmatched","state":"QLD"},"type":"Feature","geometry":null},{"properties":{"postcode":4708,"country":"Australia","geo_score":0.0,"suburb":"Gracemere","id":"a7ov4wqks8t1","geo_precision":"unmatched","state":"QLD"},"type":"Feature","geometry":null},{"properties":{"postcode":4709,"country":"Australia","geo_score":0.0,"suburb":"Gracemere","id":"a7ov4wtuemmn","geo_precision":"unmatched","state":"QLD"},"type":"Feature","geometry":null},{"properties":{"postcode":4710,"country":"Australia","geo_score":0.0,"suburb":"Gracemere","id":"a7ov4wtdg9xg","geo_precision":"unmatched","state":"QLD"},"type":"Feature","geometry":null},{"properties":{"postcode":4711,"country":"Australia","geo_score":0.0,"suburb":"Gracemere","id":"a7ov4wox15hp","geo_precision":"unmatched","state":"QLD"},"type":"Feature","geometry":null},{"properties":{"postcode":4712,"country":"Australia","geo_score":0.0,"suburb":"Gracemere","id":"a7ov4wm4ujih","geo_precision":"unmatched","state":"QLD"},"type":"Feature","geometry":null},{"properties":{"postcode":4713,"country":"Australia","geo_score":0.0,"suburb":"Gracemere","id":"a7ov4wvp1iyx","geo_precision":"unmatched","state":"QLD"},"type":"Feature","geometry":null},{"properties":{"postcode":4714,"country":"Australia","geo_score":0.0,"suburb":"Gracemere","id":"a7ov4wmaod36","geo_precision":"unmatched","state":"QLD"},"type":"Feature","geometry":null},{"properties":{"postcode":4715,"country":"Australia","geo_score":0.0,"suburb":"Gracemere","id":"a7ov4wkzxg4d","geo_precision":"unmatched","state":"QLD"},"type":"Feature","geometry":null},{"properties":{"postcode":4716,"country":"Australia","geo_score":0.0,"suburb":"Gracemere","id":"a7ov4wm78nab","geo_precision":"unmatched","state":"QLD"},"type":"Feature","geometry":null},{"properties":{"postcode":4717,"country":"Australia","geo_score":0.0,"suburb":"Gracemere","id":"a7ov4wltfpg1","geo_precision":"unmatched","state":"QLD"},"type":"Feature","geometry":null},{"properties":{"postcode":4718,"country":"Australia","geo_score":0.0,"suburb":"Gracemere","id":"a7ov4wp43n4o","geo_precision":"unmatched","state":"QLD"},"type":"Feature","geometry":null},{"properties":{"postcode":4719,"country":"Australia","geo_score":0.0,"suburb":"Gracemere","id":"a7ov4wuqdrj0","geo_precision":"unmatched","state":"QLD"},"type":"Feature","geometry":null},{"properties":{"postcode":4720,"country":"Australia","geo_score":0.0,"suburb":"Gracemere","id":"a7ov4whyiwi1","geo_precision":"unmatched","state":"QLD"},"type":"Feature","geometry":null},{"properties":{"postcode":4721,"country":"Australia","geo_score":0.0,"suburb":"Gracemere","id":"a7ov4wqsepig","geo_precision":"unmatched","state":"QLD"},"type":"Feature","geometry":null},{"properties":{"postcode":4740,"country":"Australia","geo_score":0.0,"suburb":"Mackay","id":"a7ov4wit02o9","geo_precision":"unmatched","state":"QLD"},"type":"Feature","geometry":null},{"properties":{"postcode":4740,"country":"Australia","geo_score":0.0,"suburb":"Mackay","id":"a7ov4wrcbh6f","geo_precision":"unmatched","state":"QLD"},"type":"Feature","geometry":null},{"properties":{"postcode":4740,"country":"Australia","geo_score":0.0,"suburb":"Mackay","id":"a7ov4wo23rky","geo_precision":"unmatched","state":"QLD"},"type":"Feature","geometry":null},{"properties":{"postcode":4740,"country":"Australia","geo_score":0.0,"suburb":"Mackay","id":"a7ov4wujlxyk","geo_precision":"unmatched","state":"QLD"},"type":"Feature","geometry":null},{"properties":{"postcode":4740,"country":"Australia","geo_score":0.0,"suburb":"Mackay","id":"a7ov4wr2q6rh","geo_precision":"unmatched","state":"QLD"},"type":"Feature","geometry":null},{"properties":{"postcode":4740,"country":"Australia","geo_score":0.0,"suburb":"Mackay","id":"a7ov4wokdou2","geo_precision":"unmatched","state":"QLD"},"type":"Feature","geometry":null},{"properties":{"postcode":4740,"country":"Australia","geo_score":0.0,"suburb":"Mackay","id":"a7ov4wqsrffm","geo_precision":"unmatched","state":"QLD"},"type":"Feature","geometry":null},{"properties":{"postcode":4740,"country":"Australia","geo_score":0.0,"suburb":"Mackay","id":"a7ov4wl7qjo8","geo_precision":"unmatched","state":"QLD"},"type":"Feature","geometry":null},{"properties":{"postcode":4740,"country":"Australia","geo_score":0.0,"suburb":"Mackay","id":"a7ov4whzy3fq","geo_precision":"unmatched","state":"QLD"},"type":"Feature","geometry":null},{"properties":{"postcode":4740,"country":"Australia","geo_score":0.0,"suburb":"Mackay","id":"a7ov4wm0tahc","geo_precision":"unmatched","state":"QLD"},"type":"Feature","geometry":null},{"properties":{"postcode":4740,"country":"Australia","geo_score":0.0,"suburb":"Mackay","id":"a7ov4wj9xpz4","geo_precision":"unmatched","state":"QLD"},"type":"Feature","geometry":null},{"properties":{"postcode":4740,"country":"Australia","geo_score":0.0,"suburb":"Mackay","id":"a7ov4wl98p1n","geo_precision":"unmatched","state":"QLD"},"type":"Feature","geometry":null},{"properties":{"postcode":4740,"country":"Australia","geo_score":0.0,"suburb":"Mackay","id":"a7ov4wjwb8pe","geo_precision":"unmatched","state":"QLD"},"type":"Feature","geometry":null},{"properties":{"postcode":4740,"country":"Australia","geo_score":0.0,"suburb":"Mackay","id":"a7ov4wum5f5b","geo_precision":"unmatched","state":"QLD"},"type":"Feature","geometry":null},{"properties":{"postcode":4740,"country":"Australia","geo_score":0.0,"suburb":"Mackay","id":"a7ov4wi7gt7l","geo_precision":"unmatched","state":"QLD"},"type":"Feature","geometry":null},{"properties":{"postcode":4740,"country":"Australia","geo_score":0.0,"suburb":"Mackay","id":"a7ov4wuk6iv7","geo_precision":"unmatched","state":"QLD"},"type":"Feature","geometry":null},{"properties":{"postcode":4740,"country":"Australia","geo_score":0.0,"suburb":"Mackay","id":"a7ov4wuv3slh","geo_precision":"unmatched","state":"QLD"},"type":"Feature","geometry":null},{"properties":{"postcode":4740,"country":"Australia","geo_score":0.0,"suburb":"Mackay","id":"a7ov4wse20o1","geo_precision":"unmatched","state":"QLD"},"type":"Feature","geometry":null},{"properties":{"postcode":4740,"country":"Australia","geo_score":0.0,"suburb":"Mackay","id":"a7ov4wgzz4zv","geo_precision":"unmatched","state":"QLD"},"type":"Feature","geometry":null},{"properties":{"postcode":4742,"country":"Australia","geo_score":0.0,"suburb":"Nebo","id":"a7ov4wnj1vxd","geo_precision":"unmatched","state":"QLD"},"type":"Feature","geometry":null},{"properties":{"postcode":4742,"country":"Australia","geo_score":0.0,"suburb":"Nebo","id":"a7ov4ww1rqiq","geo_precision":"unmatched","state":"QLD"},"type":"Feature","geometry":null},{"properties":{"postcode":4742,"country":"Australia","geo_score":0.0,"suburb":"Nebo","id":"a7ov4wwesax7","geo_precision":"unmatched","state":"QLD"},"type":"Feature","geometry":null},{"properties":{"postcode":4742,"country":"Australia","geo_score":0.0,"suburb":"Nebo","id":"a7ov4wwmtdgq","geo_precision":"unmatched","state":"QLD"},"type":"Feature","geometry":null},{"properties":{"postcode":4742,"country":"Australia","geo_score":0.0,"suburb":"Nebo","id":"a7ov4wvjly57","geo_precision":"unmatched","state":"QLD"},"type":"Feature","geometry":null},{"properties":{"postcode":4700,"country":"Australia","geo_score":0.0,"suburb":"Rockhampton","id":"a7ov4wudy0d8","geo_precision":"unmatched","state":"QLD"},"type":"Feature","geometry":null},{"properties":{"postcode":4700,"country":"Australia","geo_score":0.0,"suburb":"Rockhampton","id":"a7ov4wll8ovt","geo_precision":"unmatched","state":"QLD"},"type":"Feature","geometry":null},{"properties":{"postcode":4700,"country":"Australia","geo_score":0.0,"suburb":"Rockhampton","id":"a7ov4wtypnl1","geo_precision":"unmatched","state":"QLD"},"type":"Feature","geometry":null},{"properties":{"postcode":4700,"country":"Australia","geo_score":0.0,"suburb":"Rockhampton","id":"a7ov4woajsmq","geo_precision":"unmatched","state":"QLD"},"type":"Feature","geometry":null},{"properties":{"postcode":4700,"country":"Australia","geo_score":0.0,"suburb":"Rockhampton","id":"a7ov4wor9qu0","geo_precision":"unmatched","state":"QLD"},"type":"Feature","geometry":null},{"properties":{"postcode":4700,"country":"Australia","geo_score":0.0,"suburb":"Rockhampton","id":"a7ov4wk9g8zi","geo_precision":"unmatched","state":"QLD"},"type":"Feature","geometry":null},{"properties":{"postcode":4700,"country":"Australia","geo_score":0.0,"suburb":"Rockhampton","id":"a7ov4wppizv0","geo_precision":"unmatched","state":"QLD"},"type":"Feature","geometry":null},{"properties":{"postcode":4700,"country":"Australia","geo_score":0.0,"suburb":"Rockhampton","id":"a7ov4woassfv","geo_precision":"unmatched","state":"QLD"},"type":"Feature","geometry":null},{"properties":{"postcode":4700,"country":"Australia","geo_score":0.0,"suburb":"Rockhampton","id":"a7ov4wmravi1","geo_precision":"unmatched","state":"QLD"},"type":"Feature","geometry":null},{"properties":{"postcode":4700,"country":"Australia","geo_score":0.0,"suburb":"Rockhampton","id":"a7ov4wtri3ge","geo_precision":"unmatched","state":"QLD"},"type":"Feature","geometry":null},{"properties":{"postcode":4700,"country":"Australia","geo_score":0.0,"suburb":"Rockhampton","id":"a7ov4wslnkae","geo_precision":"unmatched","state":"QLD"},"type":"Feature","geometry":null},{"properties":{"postcode":4700,"country":"Australia","geo_score":0.0,"suburb":"Rockhampton","id":"a7ov4wi8xsfi","geo_precision":"unmatched","state":"QLD"},"type":"Feature","geometry":null},{"properties":{"postcode":4700,"country":"Australia","geo_score":0.0,"suburb":"Rockhampton","id":"a7ov4wt0qyqt","geo_precision":"unmatched","state":"QLD"},"type":"Feature","geometry":null},{"properties":{"postcode":4700,"country":"Australia","geo_score":0.0,"suburb":"Rockhampton","id":"a7ov4wjfr9oz","geo_precision":"unmatched","state":"QLD"},"type":"Feature","geometry":null},{"properties":{"postcode":4700,"country":"Australia","geo_score":0.0,"suburb":"Rockhampton","id":"a7ov4wsswwn7","geo_precision":"unmatched","state":"QLD"},"type":"Feature","geometry":null},{"properties":{"postcode":4700,"country":"Australia","geo_score":0.0,"suburb":"Rockhampton","id":"a7ov4wrqv7ql","geo_precision":"unmatched","state":"QLD"},"type":"Feature","geometry":null},{"properties":{"postcode":4700,"country":"Australia","geo_score":0.0,"suburb":"Rockhampton","id":"a7ov4wqnvet3","geo_precision":"unmatched","state":"QLD"},"type":"Feature","geometry":null},{"properties":{"postcode":4700,"country":"Australia","geo_score":0.0,"suburb":"Rockhampton","id":"a7ov4wl3tlnp","geo_precision":"unmatched","state":"QLD"},"type":"Feature","geometry":null},{"properties":{"postcode":4700,"country":"Australia","geo_score":0.0,"suburb":"Rockhampton","id":"a7ov4wwwnrkv","geo_precision":"unmatched","state":"QLD"},"type":"Feature","geometry":null},{"properties":{"postcode":4700,"country":"Australia","geo_score":0.0,"suburb":"Rockhampton","id":"a7ov4wwsyze0","geo_precision":"unmatched","state":"QLD"},"type":"Feature","geometry":null},{"properties":{"postcode":4700,"country":"Australia","geo_score":0.0,"suburb":"Rockhampton","id":"a7ov4wqvbgv4","geo_precision":"unmatched","state":"QLD"},"type":"Feature","geometry":null},{"properties":{"postcode":4700,"country":"Australia","geo_score":0.0,"suburb":"Rockhampton","id":"a7ov4wi8cxnz","geo_precision":"unmatched","state":"QLD"},"type":"Feature","geometry":null},{"properties":{"postcode":4700,"country":"Australia","geo_score":0.0,"suburb":"Rockhampton","id":"a7ov4wusr9b5","geo_precision":"unmatched","state":"QLD"},"type":"Feature","geometry":null},{"properties":{"postcode":4700,"country":"Australia","geo_score":0.0,"suburb":"Rockhampton","id":"a7ov4wwp0irw","geo_precision":"unmatched","state":"QLD"},"type":"Feature","geometry":null},{"properties":{"postcode":4700,"country":"Australia","geo_score":0.0,"suburb":"Rockhampton","id":"a7ov4wt786sh","geo_precision":"unmatched","state":"QLD"},"type":"Feature","geometry":null},{"properties":{"postcode":4700,"country":"Australia","geo_score":0.0,"suburb":"Rockhampton","id":"a7ov4wum0wco","geo_precision":"unmatched","state":"QLD"},"type":"Feature","geometry":null},{"properties":{"postcode":4700,"country":"Australia","geo_score":0.0,"suburb":"Rockhampton","id":"a7ov4ww57wn1","geo_precision":"unmatched","state":"QLD"},"type":"Feature","geometry":null},{"properties":{"postcode":4700,"country":"Australia","geo_score":0.0,"suburb":"Rockhampton","id":"a7ov4woz8lra","geo_precision":"unmatched","state":"QLD"},"type":"Feature","geometry":null},{"properties":{"postcode":4700,"country":"Australia","geo_score":0.0,"suburb":"Rockhampton","id":"a7ov4wmytfnx","geo_precision":"unmatched","state":"QLD"},"type":"Feature","geometry":null},{"properties":{"postcode":4700,"country":"Australia","geo_score":0.0,"suburb":"Rockhampton","id":"a7ov4wivo9ms","geo_precision":"unmatched","state":"QLD"},"type":"Feature","geometry":null},{"properties":{"postcode":4700,"country":"Australia","geo_score":0.0,"suburb":"Rockhampton","id":"a7ov4wh913zv","geo_precision":"unmatched","state":"QLD"},"type":"Feature","geometry":null},{"properties":{"postcode":4700,"country":"Australia","geo_score":0.0,"suburb":"Rockhampton","id":"a7ov4wmv8lyp","geo_precision":"unmatched","state":"QLD"},"type":"Feature","geometry":null},{"properties":{"postcode":4700,"country":"Australia","geo_score":0.0,"suburb":"Rockhampton","id":"a7ov4wnxhilw","geo_precision":"unmatched","state":"QLD"},"type":"Feature","geometry":null},{"properties":{"postcode":4700,"country":"Australia","geo_score":0.0,"suburb":"Rockhampton","id":"a7ov4wpj5n4l","geo_precision":"unmatched","state":"QLD"},"type":"Feature","geometry":null},{"properties":{"postcode":4700,"country":"Australia","geo_score":0.0,"suburb":"Rockhampton","id":"a7ov4wl9zf2p","geo_precision":"unmatched","state":"QLD"},"type":"Feature","geometry":null},{"properties":{"postcode":4700,"country":"Australia","geo_score":0.0,"suburb":"Rockhampton","id":"a7ov4wox0xdv","geo_precision":"unmatched","state":"QLD"},"type":"Feature","geometry":null},{"properties":{"postcode":4700,"country":"Australia","geo_score":0.0,"suburb":"Rockhampton","id":"a7ov4wmld7ep","geo_precision":"unmatched","state":"QLD"},"type":"Feature","geometry":null},{"properties":{"postcode":4700,"country":"Australia","geo_score":0.0,"suburb":"Rockhampton","id":"a7ov4wloolhe","geo_precision":"unmatched","state":"QLD"},"type":"Feature","geometry":null},{"properties":{"postcode":4700,"country":"Australia","geo_score":0.0,"suburb":"Rockhampton","id":"a7ov4wqfpddi","geo_precision":"unmatched","state":"QLD"},"type":"Feature","geometry":null},{"properties":{"postcode":4700,"country":"Australia","geo_score":0.0,"suburb":"Rockhampton","id":"a7ov4wr5myv4","geo_precision":"unmatched","state":"QLD"},"type":"Feature","geometry":null},{"properties":{"postcode":4700,"country":"Australia","geo_score":0.0,"suburb":"Rockhampton","id":"a7ov4wvern3b","geo_precision":"unmatched","state":"QLD"},"type":"Feature","geometry":null},{"properties":{"postcode":4744,"country":"Australia","geo_score":0.0,"suburb":"Moranbah","id":"a7ov4wnw1z93","geo_precision":"unmatched","state":"QLD"},"type":"Feature","geometry":null},{"properties":{"postcode":4744,"country":"Australia","geo_score":0.0,"suburb":"Moranbah","id":"a7ov4wx2rz1n","geo_precision":"unmatched","state":"QLD"},"type":"Feature","geometry":null},{"properties":{"postcode":4744,"country":"Australia","geo_score":0.0,"suburb":"Moranbah","id":"a7ov4wqlv86x","geo_precision":"unmatched","state":"QLD"},"type":"Feature","geometry":null},{"properties":{"postcode":4744,"country":"Australia","geo_score":0.0,"suburb":"Moranbah","id":"a7ov4wi3zjxi","geo_precision":"unmatched","state":"QLD"},"type":"Feature","geometry":null},{"properties":{"postcode":4744,"country":"Australia","geo_score":0.0,"suburb":"Moranbah","id":"a7ov4whzqbmi","geo_precision":"unmatched","state":"QLD"},"type":"Feature","geometry":null},{"properties":{"postcode":4720,"country":"Australia","geo_score":0.0,"suburb":"Emerald","id":"a7ov4womni5b","geo_precision":"unmatched","state":"QLD"},"type":"Feature","geometry":null},{"properties":{"postcode":4720,"country":"Australia","geo_score":0.0,"suburb":"Emerald","id":"a7ov4wttzflo","geo_precision":"unmatched","state":"QLD"},"type":"Feature","geometry":null},{"properties":{"postcode":4720,"country":"Australia","geo_score":0.0,"suburb":"Emerald","id":"a7ov4wtguu22","geo_precision":"unmatched","state":"QLD"},"type":"Feature","geometry":null},{"properties":{"postcode":4720,"country":"Australia","geo_score":0.0,"suburb":"Emerald","id":"a7ov4wrinnoj","geo_precision":"unmatched","state":"QLD"},"type":"Feature","geometry":null},{"properties":{"postcode":4720,"country":"Australia","geo_score":0.0,"suburb":"Emerald","id":"a7ov4ws36ydy","geo_precision":"unmatched","state":"QLD"},"type":"Feature","geometry":null},{"properties":{"postcode":4720,"country":"Australia","geo_score":0.0,"suburb":"Emerald","id":"a7ov4wpr3jke","geo_precision":"unmatched","state":"QLD"},"type":"Feature","geometry":null},{"properties":{"postcode":4720,"country":"Australia","geo_score":0.0,"suburb":"Emerald","id":"a7ov4wici66h","geo_precision":"unmatched","state":"QLD"},"type":"Feature","geometry":null},{"properties":{"postcode":4720,"country":"Australia","geo_score":0.0,"suburb":"Emerald","id":"a7ov4wx3qv28","geo_precision":"unmatched","state":"QLD"},"type":"Feature","geometry":null},{"properties":{"postcode":4720,"country":"Australia","geo_score":0.0,"suburb":"Emerald","id":"a7ov4wo9sur7","geo_precision":"unmatched","state":"QLD"},"type":"Feature","geometry":null},{"properties":{"postcode":4720,"country":"Australia","geo_score":0.0,"suburb":"Emerald","id":"a7ov4wo5d39t","geo_precision":"unmatched","state":"QLD"},"type":"Feature","geometry":null},{"properties":{"postcode":4720,"country":"Australia","geo_score":0.0,"suburb":"Emerald","id":"a7ov4wq6lgzj","geo_precision":"unmatched","state":"QLD"},"type":"Feature","geometry":null},{"properties":{"postcode":4720,"country":"Australia","geo_score":0.0,"suburb":"Emerald","id":"a7ov4wna0ypo","geo_precision":"unmatched","state":"QLD"},"type":"Feature","geometry":null},{"properties":{"postcode":4720,"country":"Australia","geo_score":0.0,"suburb":"Emerald","id":"a7ov4wriabdk","geo_precision":"unmatched","state":"QLD"},"type":"Feature","geometry":null},{"properties":{"postcode":4715,"country":"Australia","geo_score":0.0,"suburb":"Biloela","id":"a7ov4wpo1y3h","geo_precision":"unmatched","state":"QLD"},"type":"Feature","geometry":null},{"properties":{"postcode":4715,"country":"Australia","geo_score":0.0,"suburb":"Biloela","id":"a7ov4wisi2rm","geo_precision":"unmatched","state":"QLD"},"type":"Feature","geometry":null},{"properties":{"postcode":4715,"country":"Australia","geo_score":0.0,"suburb":"Biloela","id":"a7ov4wo2jr20","geo_precision":"unmatched","state":"QLD"},"type":"Feature","geometry":null},{"properties":{"postcode":4715,"country":"Australia","geo_score":0.0,"suburb":"Biloela","id":"a7ov4wjuf6jx","geo_precision":"unmatched","state":"QLD"},"type":"Feature","geometry":null},{"properties":{"postcode":4715,"country":"Australia","geo_score":0.0,"suburb":"Biloela","id":"a7ov4wiymb56","geo_precision":"unmatched","state":"QLD"},"type":"Feature","geometry":null},{"properties":{"postcode":4715,"country":"Australia","geo_score":0.0,"suburb":"Biloela","id":"a7ov4wwz5udv","geo_precision":"unmatched","state":"QLD"},"type":"Feature","geometry":null},{"properties":{"postcode":4715,"country":"Australia","geo_score":0.0,"suburb":"Biloela","id":"a7ov4wtwub1b","geo_precision":"unmatched","state":"QLD"},"type":"Feature","geometry":null},{"properties":{"postcode":4715,"country":"Australia","geo_score":0.0,"suburb":"Biloela","id":"a7ov4wqe5u70","geo_precision":"unmatched","state":"QLD"},"type":"Feature","geometry":null},{"properties":{"postcode":4715,"country":"Australia","geo_score":0.0,"suburb":"Biloela","id":"a7ov4wveqqb9","geo_precision":"unmatched","state":"QLD"},"type":"Feature","geometry":null},{"properties":{"postcode":4715,"country":"Australia","geo_score":0.0,"suburb":"Biloela","id":"a7ov4wojza8s","geo_precision":"unmatched","state":"QLD"},"type":"Feature","geometry":null},{"properties":{"postcode":4715,"country":"Australia","geo_score":0.0,"suburb":"Biloela","id":"a7ov4wrfvgwu","geo_precision":"unmatched","state":"QLD"},"type":"Feature","geometry":null},{"properties":{"postcode":4680,"country":"Australia","geo_score":0.0,"suburb":"Gladstone","id":"a7ov4wjc73qy","geo_precision":"unmatched","state":"QLD"},"type":"Feature","geometry":null},{"properties":{"postcode":4680,"country":"Australia","geo_score":0.0,"suburb":"Gladstone","id":"a7ov4wj5myzh","geo_precision":"unmatched","state":"QLD"},"type":"Feature","geometry":null},{"properties":{"postcode":4680,"country":"Australia","geo_score":0.0,"suburb":"Gladstone","id":"a7ov4wpg4yc7","geo_precision":"unmatched","state":"QLD"},"type":"Feature","geometry":null},{"properties":{"postcode":4680,"country":"Australia","geo_score":0.0,"suburb":"Gladstone","id":"a7ov4wxayfpw","geo_precision":"unmatched","state":"QLD"},"type":"Feature","geometry":null},{"properties":{"postcode":4680,"country":"Australia","geo_score":0.0,"suburb":"Gladstone","id":"a7ov4wpzia51","geo_precision":"unmatched","state":"QLD"},"type":"Feature","geometry":null},{"properties":{"postcode":4680,"country":"Australia","geo_score":0.0,"suburb":"Gladstone","id":"a7ov4wqu71o4","geo_precision":"unmatched","state":"QLD"},"type":"Feature","geometry":null},{"properties":{"postcode":4680,"country":"Australia","geo_score":0.0,"suburb":"Gladstone","id":"a7ov4wn2dc1g","geo_precision":"unmatched","state":"QLD"},"type":"Feature","geometry":null},{"properties":{"postcode":4680,"country":"Australia","geo_score":0.0,"suburb":"Gladstone","id":"a7ov4wi2npe9","geo_precision":"unmatched","state":"QLD"},"type":"Feature","geometry":null},{"properties":{"postcode":4680,"country":"Australia","geo_score":0.0,"suburb":"Gladstone","id":"a7ov4wlo3wgr","geo_precision":"unmatched","state":"QLD"},"type":"Feature","geometry":null},{"properties":{"postcode":4680,"country":"Australia","geo_score":0.0,"suburb":"Gladstone","id":"a7ov4wsa5yv4","geo_precision":"unmatched","state":"QLD"},"type":"Feature","geometry":null},{"properties":{"postcode":4680,"country":"Australia","geo_score":0.0,"suburb":"Gladstone","id":"a7ov4wuei6iq","geo_precision":"unmatched","state":"QLD"},"type":"Feature","geometry":null},{"properties":{"postcode":4680,"country":"Australia","geo_score":0.0,"suburb":"Gladstone","id":"a7ov4wj6yrd3","geo_precision":"unmatched","state":"QLD"},"type":"Feature","geometry":null},{"properties":{"postcode":4680,"country":"Australia","geo_score":0.0,"suburb":"Gladstone","id":"a7ov4ws2ax4f","geo_precision":"unmatched","state":"QLD"},"type":"Feature","geometry":null},{"properties":{"postcode":4680,"country":"Australia","geo_score":0.0,"suburb":"Gladstone","id":"a7ov4won5vud","geo_precision":"unmatched","state":"QLD"},"type":"Feature","geometry":null},{"properties":{"postcode":4680,"country":"Australia","geo_score":0.0,"suburb":"Gladstone","id":"a7ov4wi6c4i2","geo_precision":"unmatched","state":"QLD"},"type":"Feature","geometry":null},{"properties":{"postcode":4680,"country":"Australia","geo_score":0.0,"suburb":"Gladstone","id":"a7ov4wvo9za2","geo_precision":"unmatched","state":"QLD"},"type":"Feature","geometry":null},{"properties":{"postcode":4680,"country":"Australia","geo_score":0.0,"suburb":"Gladstone","id":"a7ov4wlrqz06","geo_precision":"unmatched","state":"QLD"},"type":"Feature","geometry":null},{"properties":{"postcode":4680,"country":"Australia","geo_score":0.0,"suburb":"Gladstone","id":"a7ov4wm5jq1p","geo_precision":"unmatched","state":"QLD"},"type":"Feature","geometry":null},{"properties":{"postcode":4680,"country":"Australia","geo_score":0.0,"suburb":"Gladstone","id":"a7ov4wrnnfdp","geo_precision":"unmatched","state":"QLD"},"type":"Feature","geometry":null},{"properties":{"postcode":4670,"country":"Australia","geo_score":0.0,"suburb":"Bundaberg","id":"a7ov4wwxamwt","geo_precision":"unmatched","state":"QLD"},"type":"Feature","geometry":null},{"properties":{"postcode":4670,"country":"Australia","geo_score":0.0,"suburb":"Bundaberg","id":"a7ov4wvmktad","geo_precision":"unmatched","state":"QLD"},"type":"Feature","geometry":null},{"properties":{"postcode":4670,"country":"Australia","geo_score":0.0,"suburb":"Bundaberg","id":"a7ov4wx1b61k","geo_precision":"unmatched","state":"QLD"},"type":"Feature","geometry":null},{"properties":{"postcode":4670,"country":"Australia","geo_score":0.0,"suburb":"Bundaberg","id":"a7ov4wsr0iet","geo_precision":"unmatched","state":"QLD"},"type":"Feature","geometry":null},{"properties":{"postcode":4670,"country":"Australia","geo_score":0.0,"suburb":"Bundaberg","id":"a7ov4whb29kk","geo_precision":"unmatched","state":"QLD"},"type":"Feature","geometry":null},{"properties":{"postcode":4670,"country":"Australia","geo_score":0.0,"suburb":"Bundaberg","id":"a7ov4wxbrfko","geo_precision":"unmatched","state":"QLD"},"type":"Feature","geometry":null},{"properties":{"postcode":4670,"country":"Australia","geo_score":0.0,"suburb":"Bundaberg","id":"a7ov4wlzc59f","geo_precision":"unmatched","state":"QLD"},"type":"Feature","geometry":null},{"properties":{"postcode":4670,"country":"Australia","geo_score":0.0,"suburb":"Bundaberg","id":"a7ov4wl7h24d","geo_precision":"unmatched","state":"QLD"},"type":"Feature","geometry":null},{"properties":{"postcode":4677,"country":"Australia","geo_score":0.0,"suburb":"Agnes Water","id":"a7ov4wug0wqi","geo_precision":"unmatched","state":"QLD"},"type":"Feature","geometry":null},{"properties":{"postcode":4677,"country":"Australia","geo_score":0.0,"suburb":"Agnes Water","id":"a7ov4wqx0bh7","geo_precision":"unmatched","state":"QLD"},"type":"Feature","geometry":null},{"properties":{"postcode":4677,"country":"Australia","geo_score":0.0,"suburb":"Agnes Water","id":"a7ov4wjwai8o","geo_precision":"unmatched","state":"QLD"},"type":"Feature","geometry":null},{"properties":{"postcode":4677,"country":"Australia","geo_score":0.0,"suburb":"Agnes Water","id":"a7ov4wpkm7c7","geo_precision":"unmatched","state":"QLD"},"type":"Feature","geometry":null},{"properties":{"postcode":4677,"country":"Australia","geo_score":0.0,"suburb":"Agnes Water","id":"a7ov4wuzo5so","geo_precision":"unmatched","state":"QLD"},"type":"Feature","geometry":null},{"properties":{"postcode":4677,"country":"Australia","geo_score":0.0,"suburb":"Agnes Water","id":"a7ov4wsbin6c","geo_precision":"unmatched","state":"QLD"},"type":"Feature","geometry":null},{"properties":{"postcode":4800,"country":"Australia","geo_score":0.0,"suburb":"Proserpine","id":"a7ov4wgyd2yu","geo_precision":"unmatched","state":"QLD"},"type":"Feature","geometry":null},{"properties":{"postcode":4801,"country":"Australia","geo_score":0.0,"suburb":"Proserpine","id":"a7ov4wu3w5xj","geo_precision":"unmatched","state":"QLD"},"type":"Feature","geometry":null},{"properties":{"postcode":4802,"country":"Australia","geo_score":0.0,"suburb":"Proserpine","id":"a7ov4wsh1n6t","geo_precision":"unmatched","state":"QLD"},"type":"Feature","geometry":null},{"properties":{"postcode":4803,"country":"Australia","geo_score":0.0,"suburb":"Proserpine","id":"a7ov4wu3q9cl","geo_precision":"unmatched","state":"QLD"},"type":"Feature","geometry":null},{"properties":{"postcode":4804,"country":"Australia","geo_score":0.0,"suburb":"Proserpine","id":"a7ov4wosuwfe","geo_precision":"unmatched","state":"QLD"},"type":"Feature","geometry":null},{"properties":{"postcode":4805,"country":"Australia","geo_score":0.0,"suburb":"Proserpine","id":"a7ov4wionqwt","geo_precision":"unmatched","state":"QLD"},"type":"Feature","geometry":null},{"properties":{"postcode":4806,"country":"Australia","geo_score":0.0,"suburb":"Proserpine","id":"a7ov4wignlys","geo_precision":"unmatched","state":"QLD"},"type":"Feature","geometry":null},{"properties":{"postcode":4717,"country":"Australia","geo_score":0.0,"suburb":"Blackwater","id":"a7ov4wssn7bc","geo_precision":"unmatched","state":"QLD"},"type":"Feature","geometry":null},{"properties":{"postcode":4717,"country":"Australia","geo_score":0.0,"suburb":"Blackwater","id":"a7ov4wjkav0f","geo_precision":"unmatched","state":"QLD"},"type":"Feature","geometry":null},{"properties":{"postcode":4717,"country":"Australia","geo_score":0.0,"suburb":"Blackwater","id":"a7ov4wvt7yyv","geo_precision":"unmatched","state":"QLD"},"type":"Feature","geometry":null},{"properties":{"postcode":4717,"country":"Australia","geo_score":0.0,"suburb":"Blackwater","id":"a7ov4ww1devy","geo_precision":"unmatched","state":"QLD"},"type":"Feature","geometry":null},{"properties":{"postcode":4717,"country":"Australia","geo_score":0.0,"suburb":"Blackwater","id":"a7ov4ww3fiyq","geo_precision":"unmatched","state":"QLD"},"type":"Feature","geometry":null},{"properties":{"postcode":4717,"country":"Australia","geo_score":0.0,"suburb":"Blackwater","id":"a7ov4wn8yp7j","geo_precision":"unmatched","state":"QLD"},"type":"Feature","geometry":null},{"properties":{"postcode":4717,"country":"Australia","geo_score":0.0,"suburb":"Blackwater","id":"a7ov4wq8c6v0","geo_precision":"unmatched","state":"QLD"},"type":"Feature","geometry":null},{"properties":{"postcode":4717,"country":"Australia","geo_score":0.0,"suburb":"Blackwater","id":"a7ov4wmimmxa","geo_precision":"unmatched","state":"QLD"},"type":"Feature","geometry":null},{"properties":{"postcode":4717,"country":"Australia","geo_score":0.0,"suburb":"Blackwater","id":"a7ov4wsfsai2","geo_precision":"unmatched","state":"QLD"},"type":"Feature","geometry":null},{"properties":{"postcode":4670,"country":"Australia","geo_score":0.0,"suburb":"Bargara","id":"a7ov4wh9m1rn","geo_precision":"unmatched","state":"QLD"},"type":"Feature","geometry":null},{"properties":{"postcode":4670,"country":"Australia","geo_score":0.0,"suburb":"Bargara","id":"a7ov4wvw4a4d","geo_precision":"unmatched","state":"QLD"},"type":"Feature","geometry":null},{"properties":{"postcode":4670,"country":"Australia","geo_score":0.0,"suburb":"Bargara","id":"a7ov4wjuxz5t","geo_precision":"unmatched","state":"QLD"},"type":"Feature","geometry":null},{"properties":{"postcode":4670,"country":"Australia","geo_score":0.0,"suburb":"Bargara","id":"a7ov4wv0ucjy","geo_precision":"unmatched","state":"QLD"},"type":"Feature","geometry":null},{"properties":{"postcode":4670,"country":"Australia","geo_score":0.0,"suburb":"Bargara","id":"a7ov4wkt5dv1","geo_precision":"unmatched","state":"QLD"},"type":"Feature","geometry":null},{"properties":{"postcode":4670,"country":"Australia","geo_score":0.0,"suburb":"Bargara","id":"a7ov4wookl80","geo_precision":"unmatched","state":"QLD"},"type":"Feature","geometry":null},{"properties":{"postcode":4670,"country":"Australia","geo_score":0.0,"suburb":"Bargara","id":"a7ov4wwsryvm","geo_precision":"unmatched","state":"QLD"},"type":"Feature","geometry":null},{"properties":{"postcode":4670,"country":"Australia","geo_score":0.0,"suburb":"Bargara","id":"a7ov4whd3ewv","geo_precision":"unmatched","state":"QLD"},"type":"Feature","geometry":null},{"properties":{"postcode":4670,"country":"Australia","geo_score":0.0,"suburb":"Bargara","id":"a7ov4wxc57yj","geo_precision":"unmatched","state":"QLD"},"type":"Feature","geometry":null},{"properties":{"postcode":4701,"country":"Australia","geo_score":0.0,"suburb":"Berserker","id":"a7ov4wii4jwz","geo_precision":"unmatched","state":"QLD"},"type":"Feature","geometry":null},{"properties":{"postcode":4701,"country":"Australia","geo_score":0.0,"suburb":"Berserker","id":"a7ov4wkp3tcb","geo_precision":"unmatched","state":"QLD"},"type":"Feature","geometry":null},{"properties":{"postcode":4701,"country":"Australia","geo_score":0.0,"suburb":"Berserker","id":"a7ov4wo5ky06","geo_precision":"unmatched","state":"QLD"},"type":"Feature","geometry":null},{"properties":{"postcode":4701,"country":"Australia","geo_score":0.0,"suburb":"Berserker","id":"a7ov4wim9vqy","geo_precision":"unmatched","state":"QLD"},"type":"Feature","geometry":null},{"properties":{"postcode":4701,"country":"Australia","geo_score":0.0,"suburb":"Berserker","id":"a7ov4wmf9xj3","geo_precision":"unmatched","state":"QLD"},"type":"Feature","geometry":null},{"properties":{"postcode":4701,"country":"Australia","geo_score":0.0,"suburb":"Berserker","id":"a7ov4wh802iz","geo_precision":"unmatched","state":"QLD"},"type":"Feature","geometry":null},{"properties":{"postcode":4701,"country":"Australia","geo_score":0.0,"suburb":"Berserker","id":"a7ov4wk4swyl","geo_precision":"unmatched","state":"QLD"},"type":"Feature","geometry":null},{"properties":{"postcode":4701,"country":"Australia","geo_score":0.0,"suburb":"Berserker","id":"a7ov4wwbjl68","geo_precision":"unmatched","state":"QLD"},"type":"Feature","geometry":null},{"properties":{"postcode":4701,"country":"Australia","geo_score":0.0,"suburb":"Berserker","id":"a7ov4wrdh7xe","geo_precision":"unmatched","state":"QLD"},"type":"Feature","geometry":null},{"properties":{"postcode":4701,"country":"Australia","geo_score":0.0,"suburb":"Berserker","id":"a7ov4wwznzsn","geo_precision":"unmatched","state":"QLD"},"type":"Feature","geometry":null},{"properties":{"postcode":4798,"country":"Australia","geo_score":0.0,"suburb":"Calen","id":"a7ov4wrkjb7a","geo_precision":"unmatched","state":"QLD"},"type":"Feature","geometry":null},{"properties":{"postcode":4551,"country":"Australia","geo_score":0.0,"suburb":"Caloundra West","id":"a7ov4wo6verb","geo_precision":"unmatched","state":"QLD"},"type":"Feature","geometry":null},{"properties":{"postcode":4551,"country":"Australia","geo_score":0.0,"suburb":"Caloundra West","id":"a7ov4ww0jnyp","geo_precision":"unmatched","state":"QLD"},"type":"Feature","geometry":null},{"properties":{"postcode":4702,"country":"Australia","geo_score":0.0,"suburb":"Cawarral","id":"a7ov4wm69ljf","geo_precision":"unmatched","state":"QLD"},"type":"Feature","geometry":null},{"properties":{"postcode":4069,"country":"Australia","geo_score":0.0,"suburb":"Chapel Hill","id":"a7ov4wosc6xm","geo_precision":"unmatched","state":"QLD"},"type":"Feature","geometry":null},{"properties":{"postcode":4660,"country":"Australia","geo_score":0.0,"suburb":"Childers","id":"a7ov4wimvqjj","geo_precision":"unmatched","state":"QLD"},"type":"Feature","geometry":null},{"properties":{"postcode":4721,"country":"Australia","geo_score":0.0,"suburb":"Clermont","id":"a7ov4wwwazwg","geo_precision":"unmatched","state":"QLD"},"type":"Feature","geometry":null},{"properties":{"postcode":4721,"country":"Australia","geo_score":0.0,"suburb":"Clermont","id":"a7ov4wmafg1x","geo_precision":"unmatched","state":"QLD"},"type":"Feature","geometry":null},{"properties":{"postcode":4721,"country":"Australia","geo_score":0.0,"suburb":"Clermont","id":"a7ov4wpku2ug","geo_precision":"unmatched","state":"QLD"},"type":"Feature","geometry":null},{"properties":{"postcode":4721,"country":"Australia","geo_score":0.0,"suburb":"Clermont","id":"a7ov4wt8c9k3","geo_precision":"unmatched","state":"QLD"},"type":"Feature","geometry":null},{"properties":{"postcode":4740,"country":"Australia","geo_score":0.0,"suburb":"Eimeo","id":"a7ov4whb30cw","geo_precision":"unmatched","state":"QLD"},"type":"Feature","geometry":null},{"properties":{"postcode":4740,"country":"Australia","geo_score":0.0,"suburb":"Eimeo","id":"a7ov4wrsdyv0","geo_precision":"unmatched","state":"QLD"},"type":"Feature","geometry":null},{"properties":{"postcode":4740,"country":"Australia","geo_score":0.0,"suburb":"Eimeo","id":"a7ov4wkg123l","geo_precision":"unmatched","state":"QLD"},"type":"Feature","geometry":null},{"properties":{"postcode":4740,"country":"Australia","geo_score":0.0,"suburb":"Eimeo","id":"a7ov4wpezqrk","geo_precision":"unmatched","state":"QLD"},"type":"Feature","geometry":null},{"properties":{"postcode":4740,"country":"Australia","geo_score":0.0,"suburb":"Eimeo","id":"a7ov4wt2clx7","geo_precision":"unmatched","state":"QLD"},"type":"Feature","geometry":null},{"properties":{"postcode":4740,"country":"Australia","geo_score":0.0,"suburb":"Eimeo","id":"a7ov4wlyfb6q","geo_precision":"unmatched","state":"QLD"},"type":"Feature","geometry":null},{"properties":{"postcode":4625,"country":"Australia","geo_score":0.0,"suburb":"Gayndah","id":"a7ov4wwn5m60","geo_precision":"unmatched","state":"QLD"},"type":"Feature","geometry":null},{"properties":{"postcode":4625,"country":"Australia","geo_score":0.0,"suburb":"Gayndah","id":"a7ov4wvz0emm","geo_precision":"unmatched","state":"QLD"},"type":"Feature","geometry":null},{"properties":{"postcode":4625,"country":"Australia","geo_score":0.0,"suburb":"Gayndah","id":"a7ov4wj85z3d","geo_precision":"unmatched","state":"QLD"},"type":"Feature","geometry":null},{"properties":{"postcode":4660,"country":"Australia","geo_score":0.0,"suburb":"Gin Gin","id":"a7ov4wtij6sf","geo_precision":"unmatched","state":"QLD"},"type":"Feature","geometry":null},{"properties":{"postcode":4671,"country":"Australia","geo_score":0.0,"suburb":"Gin Gin","id":"a7ov4wkx9zif","geo_precision":"unmatched","state":"QLD"},"type":"Feature","geometry":null},{"properties":{"postcode":4671,"country":"Australia","geo_score":0.0,"suburb":"Gin Gin","id":"a7ov4wp5dzei","geo_precision":"unmatched","state":"QLD"},"type":"Feature","geometry":null},{"properties":{"postcode":4671,"country":"Australia","geo_score":0.0,"suburb":"Gin Gin","id":"a7ov4wngyriy","geo_precision":"unmatched","state":"QLD"},"type":"Feature","geometry":null},{"properties":{"postcode":4671,"country":"Australia","geo_score":0.0,"suburb":"Gin Gin","id":"a7ov4wjya8w6","geo_precision":"unmatched","state":"QLD"},"type":"Feature","geometry":null},{"properties":{"postcode":4671,"country":"Australia","geo_score":0.0,"suburb":"Gin Gin","id":"a7ov4wukku4i","geo_precision":"unmatched","state":"QLD"},"type":"Feature","geometry":null},{"properties":{"postcode":4518,"country":"Australia","geo_score":0.0,"suburb":"Glass House Mountains","id":"a7ov4wtht5lw","geo_precision":"unmatched","state":"QLD"},"type":"Feature","geometry":null},{"properties":{"postcode":4701,"country":"Australia","geo_score":0.0,"suburb":"Kawana","id":"a7ov4wn7t41m","geo_precision":"unmatched","state":"QLD"},"type":"Feature","geometry":null},{"properties":{"postcode":4701,"country":"Australia","geo_score":0.0,"suburb":"Kawana","id":"a7ov4wx1mkdl","geo_precision":"unmatched","state":"QLD"},"type":"Feature","geometry":null},{"properties":{"postcode":4701,"country":"Australia","geo_score":0.0,"suburb":"Kawana","id":"a7ov4wvmviek","geo_precision":"unmatched","state":"QLD"},"type":"Feature","geometry":null},{"properties":{"postcode":4701,"country":"Australia","geo_score":0.0,"suburb":"Kawana","id":"a7ov4wqfvjz4","geo_precision":"unmatched","state":"QLD"},"type":"Feature","geometry":null},{"properties":{"postcode":4701,"country":"Australia","geo_score":0.0,"suburb":"Kawana","id":"a7ov4wnku67d","geo_precision":"unmatched","state":"QLD"},"type":"Feature","geometry":null},{"properties":{"postcode":4701,"country":"Australia","geo_score":0.0,"suburb":"Kawana","id":"a7ov4wpqhhk7","geo_precision":"unmatched","state":"QLD"},"type":"Feature","geometry":null},{"properties":{"postcode":4701,"country":"Australia","geo_score":0.0,"suburb":"Kawana","id":"a7ov4wqf34hr","geo_precision":"unmatched","state":"QLD"},"type":"Feature","geometry":null},{"properties":{"postcode":4701,"country":"Australia","geo_score":0.0,"suburb":"Kawana","id":"a7ov4wwnzs34","geo_precision":"unmatched","state":"QLD"},"type":"Feature","geometry":null},{"properties":{"postcode":4701,"country":"Australia","geo_score":0.0,"suburb":"Kawana","id":"a7ov4wlb3wpc","geo_precision":"unmatched","state":"QLD"},"type":"Feature","geometry":null},{"properties":{"postcode":4701,"country":"Australia","geo_score":0.0,"suburb":"Kawana","id":"a7ov4wmlhb1b","geo_precision":"unmatched","state":"QLD"},"type":"Feature","geometry":null},{"properties":{"postcode":4701,"country":"Australia","geo_score":0.0,"suburb":"Kawana","id":"a7ov4wj8025u","geo_precision":"unmatched","state":"QLD"},"type":"Feature","geometry":null},{"properties":{"postcode":4701,"country":"Australia","geo_score":0.0,"suburb":"Kawana","id":"a7ov4wo3bmsy","geo_precision":"unmatched","state":"QLD"},"type":"Feature","geometry":null},{"properties":{"postcode":4701,"country":"Australia","geo_score":0.0,"suburb":"Kawana","id":"a7ov4wu6a25c","geo_precision":"unmatched","state":"QLD"},"type":"Feature","geometry":null},{"properties":{"postcode":4701,"country":"Australia","geo_score":0.0,"suburb":"Kawana","id":"a7ov4wqq6ur0","geo_precision":"unmatched","state":"QLD"},"type":"Feature","geometry":null},{"properties":{"postcode":4701,"country":"Australia","geo_score":0.0,"suburb":"Kawana","id":"a7ov4ww0ri6d","geo_precision":"unmatched","state":"QLD"},"type":"Feature","geometry":null},{"properties":{"postcode":4701,"country":"Australia","geo_score":0.0,"suburb":"Kawana","id":"a7ov4wsujfdy","geo_precision":"unmatched","state":"QLD"},"type":"Feature","geometry":null},{"properties":{"postcode":4701,"country":"Australia","geo_score":0.0,"suburb":"Kawana","id":"a7ov4wt9p3n5","geo_precision":"unmatched","state":"QLD"},"type":"Feature","geometry":null},{"properties":{"postcode":4701,"country":"Australia","geo_score":0.0,"suburb":"Kawana","id":"a7ov4wlpx1n9","geo_precision":"unmatched","state":"QLD"},"type":"Feature","geometry":null},{"properties":{"postcode":4701,"country":"Australia","geo_score":0.0,"suburb":"Kawana","id":"a7ov4wmjt8ra","geo_precision":"unmatched","state":"QLD"},"type":"Feature","geometry":null},{"properties":{"postcode":4701,"country":"Australia","geo_score":0.0,"suburb":"Kawana","id":"a7ov4wmgv921","geo_precision":"unmatched","state":"QLD"},"type":"Feature","geometry":null},{"properties":{"postcode":4701,"country":"Australia","geo_score":0.0,"suburb":"Kawana","id":"a7ov4wut7xbg","geo_precision":"unmatched","state":"QLD"},"type":"Feature","geometry":null},{"properties":{"postcode":4817,"country":"Australia","geo_score":0.0,"suburb":"Kirwan","id":"a7ov4wkhi2sy","geo_precision":"unmatched","state":"QLD"},"type":"Feature","geometry":null},{"properties":{"postcode":4817,"country":"Australia","geo_score":0.0,"suburb":"Kirwan","id":"a7ov4wrmcrzs","geo_precision":"unmatched","state":"QLD"},"type":"Feature","geometry":null},{"properties":{"postcode":4701,"country":"Australia","geo_score":0.0,"suburb":"Koongal","id":"a7ov4wr6unl0","geo_precision":"unmatched","state":"QLD"},"type":"Feature","geometry":null},{"properties":{"postcode":4701,"country":"Australia","geo_score":0.0,"suburb":"Koongal","id":"a7ov4wx61y8o","geo_precision":"unmatched","state":"QLD"},"type":"Feature","geometry":null},{"properties":{"postcode":4701,"country":"Australia","geo_score":0.0,"suburb":"Koongal","id":"a7ov4wmczfqm","geo_precision":"unmatched","state":"QLD"},"type":"Feature","geometry":null},{"properties":{"postcode":4701,"country":"Australia","geo_score":0.0,"suburb":"Koongal","id":"a7ov4woq0d2u","geo_precision":"unmatched","state":"QLD"},"type":"Feature","geometry":null},{"properties":{"postcode":4738,"country":"Australia","geo_score":0.0,"suburb":"Koumala","id":"a7ov4wijo5lc","geo_precision":"unmatched","state":"QLD"},"type":"Feature","geometry":null},{"properties":{"postcode":4703,"country":"Australia","geo_score":0.0,"suburb":"Lake Mary","id":"a7ov4wlh3js6","geo_precision":"unmatched","state":"QLD"},"type":"Feature","geometry":null},{"properties":{"postcode":4703,"country":"Australia","geo_score":0.0,"suburb":"Lake Mary","id":"a7ov4wr97iei","geo_precision":"unmatched","state":"QLD"},"type":"Feature","geometry":null},{"properties":{"postcode":4703,"country":"Australia","geo_score":0.0,"suburb":"Lammermoor","id":"a7ov4wj4c4x1","geo_precision":"unmatched","state":"QLD"},"type":"Feature","geometry":null},{"properties":{"postcode":4703,"country":"Australia","geo_score":0.0,"suburb":"Lammermoor","id":"a7ov4wq3pazh","geo_precision":"unmatched","state":"QLD"},"type":"Feature","geometry":null},{"properties":{"postcode":4703,"country":"Australia","geo_score":0.0,"suburb":"Lammermoor","id":"a7ov4wwcgizy","geo_precision":"unmatched","state":"QLD"},"type":"Feature","geometry":null},{"properties":{"postcode":4703,"country":"Australia","geo_score":0.0,"suburb":"Lammermoor","id":"a7ov4wtf5701","geo_precision":"unmatched","state":"QLD"},"type":"Feature","geometry":null},{"properties":{"postcode":4703,"country":"Australia","geo_score":0.0,"suburb":"Lammermoor","id":"a7ov4woa1o92","geo_precision":"unmatched","state":"QLD"},"type":"Feature","geometry":null},{"properties":{"postcode":4703,"country":"Australia","geo_score":0.0,"suburb":"Lammermoor","id":"a7ov4wkdwrur","geo_precision":"unmatched","state":"QLD"},"type":"Feature","geometry":null},{"properties":{"postcode":4703,"country":"Australia","geo_score":0.0,"suburb":"Lammermoor","id":"a7ov4wudy3mf","geo_precision":"unmatched","state":"QLD"},"type":"Feature","geometry":null},{"properties":{"postcode":4650,"country":"Australia","geo_score":0.0,"suburb":"Maaroom","id":"a7ov4wrs9pni","geo_precision":"unmatched","state":"QLD"},"type":"Feature","geometry":null},{"properties":{"postcode":4650,"country":"Australia","geo_score":0.0,"suburb":"Maaroom","id":"a7ov4wpx56tm","geo_precision":"unmatched","state":"QLD"},"type":"Feature","geometry":null},{"properties":{"postcode":4740,"country":"Australia","geo_score":0.0,"suburb":"Mackay","id":"a7ov4wqgkqa6","geo_precision":"unmatched","state":"QLD"},"type":"Feature","geometry":null},{"properties":{"postcode":4740,"country":"Australia","geo_score":0.0,"suburb":"Mackay","id":"a7ov4wk6sirz","geo_precision":"unmatched","state":"QLD"},"type":"Feature","geometry":null},{"properties":{"postcode":4746,"country":"Australia","geo_score":0.0,"suburb":"Mackay","id":"a7ov4ww3tzes","geo_precision":"unmatched","state":"QLD"},"type":"Feature","geometry":null},{"properties":{"postcode":4714,"country":"Australia","geo_score":0.0,"suburb":"Mount Morgan","id":"a7ov4wqum90c","geo_precision":"unmatched","state":"QLD"},"type":"Feature","geometry":null},{"properties":{"postcode":4714,"country":"Australia","geo_score":0.0,"suburb":"Mount Morgan","id":"a7ov4wufmgzy","geo_precision":"unmatched","state":"QLD"},"type":"Feature","geometry":null},{"properties":{"postcode":4703,"country":"Australia","geo_score":0.0,"suburb":"Mount Morgan","id":"a7ov4wjqoeac","geo_precision":"unmatched","state":"QLD"},"type":"Feature","geometry":null},{"properties":{"postcode":4714,"country":"Australia","geo_score":0.0,"suburb":"Mount Morgan","id":"a7ov4wpme1h5","geo_precision":"unmatched","state":"QLD"},"type":"Feature","geometry":null},{"properties":{"postcode":4714,"country":"Australia","geo_score":0.0,"suburb":"Mount Morgan","id":"a7ov4wn2p4x9","geo_precision":"unmatched","state":"QLD"},"type":"Feature","geometry":null},{"properties":{"postcode":4714,"country":"Australia","geo_score":0.0,"suburb":"Mount Morgan","id":"a7ov4wx9arql","geo_precision":"unmatched","state":"QLD"},"type":"Feature","geometry":null},{"properties":{"postcode":4714,"country":"Australia","geo_score":0.0,"suburb":"Mount Morgan","id":"a7ov4wsa53c8","geo_precision":"unmatched","state":"QLD"},"type":"Feature","geometry":null},{"properties":{"postcode":4714,"country":"Australia","geo_score":0.0,"suburb":"Mount Morgan","id":"a7ov4wn5jucz","geo_precision":"unmatched","state":"QLD"},"type":"Feature","geometry":null},{"properties":{"postcode":4714,"country":"Australia","geo_score":0.0,"suburb":"Mount Morgan","id":"a7ov4wha6iw9","geo_precision":"unmatched","state":"QLD"},"type":"Feature","geometry":null},{"properties":{"postcode":4714,"country":"Australia","geo_score":0.0,"suburb":"Mount Morgan","id":"a7ov4wq1s5g9","geo_precision":"unmatched","state":"QLD"},"type":"Feature","geometry":null},{"properties":{"postcode":4714,"country":"Australia","geo_score":0.0,"suburb":"Mount Morgan","id":"a7ov4wq6l9oe","geo_precision":"unmatched","state":"QLD"},"type":"Feature","geometry":null},{"properties":{"postcode":4714,"country":"Australia","geo_score":0.0,"suburb":"Mount Morgan","id":"a7ov4wwx9zfa","geo_precision":"unmatched","state":"QLD"},"type":"Feature","geometry":null},{"properties":{"postcode":4701,"country":"Australia","geo_score":0.0,"suburb":"Norman Gardens","id":"a7ov4wktpqbk","geo_precision":"unmatched","state":"QLD"},"type":"Feature","geometry":null},{"properties":{"postcode":4701,"country":"Australia","geo_score":0.0,"suburb":"Norman Gardens","id":"a7ov4wok6xyg","geo_precision":"unmatched","state":"QLD"},"type":"Feature","geometry":null},{"properties":{"postcode":4701,"country":"Australia","geo_score":0.0,"suburb":"Norman Gardens","id":"a7ov4wofhunb","geo_precision":"unmatched","state":"QLD"},"type":"Feature","geometry":null},{"properties":{"postcode":4701,"country":"Australia","geo_score":0.0,"suburb":"Norman Gardens","id":"a7ov4woyskh5","geo_precision":"unmatched","state":"QLD"},"type":"Feature","geometry":null},{"properties":{"postcode":4701,"country":"Australia","geo_score":0.0,"suburb":"Norman Gardens","id":"a7ov4wmtbo94","geo_precision":"unmatched","state":"QLD"},"type":"Feature","geometry":null},{"properties":{"postcode":4701,"country":"Australia","geo_score":0.0,"suburb":"Norman Gardens","id":"a7ov4wxbdxru","geo_precision":"unmatched","state":"QLD"},"type":"Feature","geometry":null},{"properties":{"postcode":4701,"country":"Australia","geo_score":0.0,"suburb":"Norman Gardens","id":"a7ov4wuho5lf","geo_precision":"unmatched","state":"QLD"},"type":"Feature","geometry":null},{"properties":{"postcode":4701,"country":"Australia","geo_score":0.0,"suburb":"Norman Gardens","id":"a7ov4wtch53f","geo_precision":"unmatched","state":"QLD"},"type":"Feature","geometry":null},{"properties":{"postcode":4701,"country":"Australia","geo_score":0.0,"suburb":"Norman Gardens","id":"a7ov4wo4o9g9","geo_precision":"unmatched","state":"QLD"},"type":"Feature","geometry":null},{"properties":{"postcode":4701,"country":"Australia","geo_score":0.0,"suburb":"Norman Gardens","id":"a7ov4wq5f3fj","geo_precision":"unmatched","state":"QLD"},"type":"Feature","geometry":null},{"properties":{"postcode":4701,"country":"Australia","geo_score":0.0,"suburb":"Norman Gardens","id":"a7ov4wr1e81c","geo_precision":"unmatched","state":"QLD"},"type":"Feature","geometry":null},{"properties":{"postcode":4701,"country":"Australia","geo_score":0.0,"suburb":"Norman Gardens","id":"a7ov4wmjq1ed","geo_precision":"unmatched","state":"QLD"},"type":"Feature","geometry":null},{"properties":{"postcode":4701,"country":"Australia","geo_score":0.0,"suburb":"Norman Gardens","id":"a7ov4wr4fdje","geo_precision":"unmatched","state":"QLD"},"type":"Feature","geometry":null},{"properties":{"postcode":4701,"country":"Australia","geo_score":0.0,"suburb":"Norman Gardens","id":"a7ov4wvbuc72","geo_precision":"unmatched","state":"QLD"},"type":"Feature","geometry":null},{"properties":{"postcode":4701,"country":"Australia","geo_score":0.0,"suburb":"Norman Gardens","id":"a7ov4wl9saui","geo_precision":"unmatched","state":"QLD"},"type":"Feature","geometry":null},{"properties":{"postcode":4701,"country":"Australia","geo_score":0.0,"suburb":"Norman Gardens","id":"a7ov4wn6c93n","geo_precision":"unmatched","state":"QLD"},"type":"Feature","geometry":null},{"properties":{"postcode":4701,"country":"Australia","geo_score":0.0,"suburb":"Norman Gardens","id":"a7ov4wk9u6wg","geo_precision":"unmatched","state":"QLD"},"type":"Feature","geometry":null},{"properties":{"postcode":4701,"country":"Australia","geo_score":0.0,"suburb":"Norman Gardens","id":"a7ov4wh13w08","geo_precision":"unmatched","state":"QLD"},"type":"Feature","geometry":null},{"properties":{"postcode":4701,"country":"Australia","geo_score":0.0,"suburb":"Norman Gardens","id":"a7ov4wremgez","geo_precision":"unmatched","state":"QLD"},"type":"Feature","geometry":null},{"properties":{"postcode":4701,"country":"Australia","geo_score":0.0,"suburb":"Norman Gardens","id":"a7ov4whxokfe","geo_precision":"unmatched","state":"QLD"},"type":"Feature","geometry":null},{"properties":{"postcode":4701,"country":"Australia","geo_score":0.0,"suburb":"Norman Gardens","id":"a7ov4wt4luik","geo_precision":"unmatched","state":"QLD"},"type":"Feature","geometry":null},{"properties":{"postcode":4701,"country":"Australia","geo_score":0.0,"suburb":"Rockyview","id":"a7ov4wl85xpf","geo_precision":"unmatched","state":"QLD"},"type":"Feature","geometry":null},{"properties":{"postcode":4701,"country":"Australia","geo_score":0.0,"suburb":"Rockyview","id":"a7ov4wkgj6io","geo_precision":"unmatched","state":"QLD"},"type":"Feature","geometry":null},{"properties":{"postcode":4701,"country":"Australia","geo_score":0.0,"suburb":"Rockyview","id":"a7ov4wmoj6ck","geo_precision":"unmatched","state":"QLD"},"type":"Feature","geometry":null},{"properties":{"postcode":4701,"country":"Australia","geo_score":0.0,"suburb":"Rockyview","id":"a7ov4wtuwl46","geo_precision":"unmatched","state":"QLD"},"type":"Feature","geometry":null},{"properties":{"postcode":4701,"country":"Australia","geo_score":0.0,"suburb":"Rockyview","id":"a7ov4wrw2nj5","geo_precision":"unmatched","state":"QLD"},"type":"Feature","geometry":null},{"properties":{"postcode":4701,"country":"Australia","geo_score":0.0,"suburb":"Rockyview","id":"a7ov4wrwp0wq","geo_precision":"unmatched","state":"QLD"},"type":"Feature","geometry":null},{"properties":{"postcode":4702,"country":"Australia","geo_score":0.0,"suburb":"Rockyview","id":"a7ov4wmhxrq9","geo_precision":"unmatched","state":"QLD"},"type":"Feature","geometry":null},{"properties":{"postcode":4702,"country":"Australia","geo_score":0.0,"suburb":"Rockyview","id":"a7ov4wp2s2sg","geo_precision":"unmatched","state":"QLD"},"type":"Feature","geometry":null},{"properties":{"postcode":4113,"country":"Australia","geo_score":0.0,"suburb":"Runcorn","id":"a7ov4whpyo78","geo_precision":"unmatched","state":"QLD"},"type":"Feature","geometry":null},{"properties":{"postcode":4740,"country":"Australia","geo_score":0.0,"suburb":"Rural View","id":"a7ov4wn15y5a","geo_precision":"unmatched","state":"QLD"},"type":"Feature","geometry":null},{"properties":{"postcode":4740,"country":"Australia","geo_score":0.0,"suburb":"Rural View","id":"a7ov4wtbuhi5","geo_precision":"unmatched","state":"QLD"},"type":"Feature","geometry":null},{"properties":{"postcode":4740,"country":"Australia","geo_score":0.0,"suburb":"Rural View","id":"a7ov4wsiqzzv","geo_precision":"unmatched","state":"QLD"},"type":"Feature","geometry":null},{"properties":{"postcode":4740,"country":"Australia","geo_score":0.0,"suburb":"Rural View","id":"a7ov4wk1ro1h","geo_precision":"unmatched","state":"QLD"},"type":"Feature","geometry":null},{"properties":{"postcode":4740,"country":"Australia","geo_score":0.0,"suburb":"Rural View","id":"a7ov4wjzm94m","geo_precision":"unmatched","state":"QLD"},"type":"Feature","geometry":null},{"properties":{"postcode":4740,"country":"Australia","geo_score":0.0,"suburb":"Rural View","id":"a7ov4wlb6p6o","geo_precision":"unmatched","state":"QLD"},"type":"Feature","geometry":null},{"properties":{"postcode":4740,"country":"Australia","geo_score":0.0,"suburb":"Rural View","id":"a7ov4wq8xe9z","geo_precision":"unmatched","state":"QLD"},"type":"Feature","geometry":null},{"properties":{"postcode":4740,"country":"Australia","geo_score":0.0,"suburb":"Rural View","id":"a7ov4wrj0b7e","geo_precision":"unmatched","state":"QLD"},"type":"Feature","geometry":null},{"properties":{"postcode":4740,"country":"Australia","geo_score":0.0,"suburb":"Rural View","id":"a7ov4wrtl7vk","geo_precision":"unmatched","state":"QLD"},"type":"Feature","geometry":null},{"properties":{"postcode":4680,"country":"Australia","geo_score":0.0,"suburb":"Tannum Sands","id":"a7ov4wotppp3","geo_precision":"unmatched","state":"QLD"},"type":"Feature","geometry":null},{"properties":{"postcode":4680,"country":"Australia","geo_score":0.0,"suburb":"Tannum Sands","id":"a7ov4wrjjtxt","geo_precision":"unmatched","state":"QLD"},"type":"Feature","geometry":null},{"properties":{"postcode":4680,"country":"Australia","geo_score":0.0,"suburb":"Tannum Sands","id":"a7ov4wnncmv6","geo_precision":"unmatched","state":"QLD"},"type":"Feature","geometry":null},{"properties":{"postcode":4680,"country":"Australia","geo_score":0.0,"suburb":"Tannum Sands","id":"a7ov4wm9y7dy","geo_precision":"unmatched","state":"QLD"},"type":"Feature","geometry":null},{"properties":{"postcode":4703,"country":"Australia","geo_score":0.0,"suburb":"Taranganba","id":"a7ov4wum5oiu","geo_precision":"unmatched","state":"QLD"},"type":"Feature","geometry":null},{"properties":{"postcode":4703,"country":"Australia","geo_score":0.0,"suburb":"Taranganba","id":"a7ov4wpgezkv","geo_precision":"unmatched","state":"QLD"},"type":"Feature","geometry":null},{"properties":{"postcode":4703,"country":"Australia","geo_score":0.0,"suburb":"Taranganba","id":"a7ov4wq6zunm","geo_precision":"unmatched","state":"QLD"},"type":"Feature","geometry":null},{"properties":{"postcode":4703,"country":"Australia","geo_score":0.0,"suburb":"Taranganba","id":"a7ov4wtb7n5h","geo_precision":"unmatched","state":"QLD"},"type":"Feature","geometry":null},{"properties":{"postcode":4703,"country":"Australia","geo_score":0.0,"suburb":"Taranganba","id":"a7ov4wrr3m8s","geo_precision":"unmatched","state":"QLD"},"type":"Feature","geometry":null},{"properties":{"postcode":4703,"country":"Australia","geo_score":0.0,"suburb":"Taranganba","id":"a7ov4wsg4y5q","geo_precision":"unmatched","state":"QLD"},"type":"Feature","geometry":null},{"properties":{"postcode":4703,"country":"Australia","geo_score":0.0,"suburb":"Taranganba","id":"a7ov4wiaqvme","geo_precision":"unmatched","state":"QLD"},"type":"Feature","geometry":null},{"properties":{"postcode":4700,"country":"Australia","geo_score":0.0,"suburb":"The Range","id":"a7ov4wiz7o5f","geo_precision":"unmatched","state":"QLD"},"type":"Feature","geometry":null},{"properties":{"postcode":4700,"country":"Australia","geo_score":0.0,"suburb":"The Range","id":"a7ov4wrhobg1","geo_precision":"unmatched","state":"QLD"},"type":"Feature","geometry":null},{"properties":{"postcode":4700,"country":"Australia","geo_score":0.0,"suburb":"The Range","id":"a7ov4wn0hpay","geo_precision":"unmatched","state":"QLD"},"type":"Feature","geometry":null},{"properties":{"postcode":4700,"country":"Australia","geo_score":0.0,"suburb":"The Range","id":"a7ov4wkqis7d","geo_precision":"unmatched","state":"QLD"},"type":"Feature","geometry":null},{"properties":{"postcode":4700,"country":"Australia","geo_score":0.0,"suburb":"The Range","id":"a7ov4wjpykmu","geo_precision":"unmatched","state":"QLD"},"type":"Feature","geometry":null},{"properties":{"postcode":4700,"country":"Australia","geo_score":0.0,"suburb":"The Range","id":"a7ov4wgvs064","geo_precision":"unmatched","state":"QLD"},"type":"Feature","geometry":null},{"properties":{"postcode":4700,"country":"Australia","geo_score":0.0,"suburb":"The Range","id":"a7ov4wq52eeg","geo_precision":"unmatched","state":"QLD"},"type":"Feature","geometry":null},{"properties":{"postcode":4700,"country":"Australia","geo_score":0.0,"suburb":"The Range","id":"a7ov4wulaycy","geo_precision":"unmatched","state":"QLD"},"type":"Feature","geometry":null},{"properties":{"postcode":4740,"country":"Australia","geo_score":0.0,"suburb":"West Mackay","id":"a7ov4wjvnp9e","geo_precision":"unmatched","state":"QLD"},"type":"Feature","geometry":null},{"properties":{"postcode":4700,"country":"Australia","geo_score":0.0,"suburb":"West Rockhampton","id":"a7ov4wmvz2mz","geo_precision":"unmatched","state":"QLD"},"type":"Feature","geometry":null},{"properties":{"postcode":4751,"country":"Australia","geo_score":0.0,"suburb":"Wlkerston","id":"a7ov4wjl97ch","geo_precision":"unmatched","state":"QLD"},"type":"Feature","geometry":null},{"properties":{"postcode":4703,"country":"Australia","geo_score":0.0,"suburb":"Woodbury","id":"a7ov4wjulk1g","geo_precision":"unmatched","state":"QLD"},"type":"Feature","geometry":null},{"properties":{"postcode":4703,"country":"Australia","geo_score":0.0,"suburb":"Woodbury","id":"a7ov4wtxfmyz","geo_precision":"unmatched","state":"QLD"},"type":"Feature","geometry":null},{"properties":{"postcode":4660,"country":"Australia","geo_score":0.0,"suburb":"Woodgate","id":"a7ov4wu1g3x6","geo_precision":"unmatched","state":"QLD"},"type":"Feature","geometry":null},{"properties":{"postcode":4660,"country":"Australia","geo_score":0.0,"suburb":"Woodgate","id":"a7ov4wsf1wb2","geo_precision":"unmatched","state":"QLD"},"type":"Feature","geometry":null},{"properties":{"postcode":4660,"country":"Australia","geo_score":0.0,"suburb":"Woodgate","id":"a7ov4wjhlv6k","geo_precision":"unmatched","state":"QLD"},"type":"Feature","geometry":null},{"properties":{"postcode":4660,"country":"Australia","geo_score":0.0,"suburb":"Woodgate","id":"a7ov4wm4z04k","geo_precision":"unmatched","state":"QLD"},"type":"Feature","geometry":null},{"properties":{"postcode":4660,"country":"Australia","geo_score":0.0,"suburb":"Woodgate","id":"a7ov4wi3i6zx","geo_precision":"unmatched","state":"QLD"},"type":"Feature","geometry":null},{"properties":{"postcode":4701,"country":"Australia","geo_score":0.0,"suburb":"Zilzie","id":"a7ov4wpco19v","geo_precision":"unmatched","state":"QLD"},"type":"Feature","geometry":null},{"properties":{"postcode":4710,"country":"Australia","geo_score":0.0,"suburb":"Zilzie","id":"a7ov4wkoekga","geo_precision":"unmatched","state":"QLD"},"type":"Feature","geometry":null},{"properties":{"postcode":4710,"country":"Australia","geo_score":0.0,"suburb":"Zilzie","id":"a7ov4wi75l0a","geo_precision":"unmatched","state":"QLD"},"type":"Feature","geometry":null},{"properties":{"postcode":4711,"country":"Australia","geo_score":0.0,"suburb":"Zilzie","id":"a7ov4wtzt3qb","geo_precision":"unmatched","state":"QLD"},"type":"Feature","geometry":null},{"properties":{"postcode":4055,"country":"Australia","geo_score":0.0,"suburb":"Ferny Hills","id":"a7ov4wr0hs6j","geo_precision":"unmatched","state":"QLD"},"type":"Feature","geometry":null},{"properties":{"postcode":4740,"country":"Australia","geo_score":0.0,"suburb":"Mackay","id":"a7ov4wuf7a7o","geo_precision":"unmatched","state":"QLD"},"type":"Feature","geometry":null},{"properties":{"postcode":4350,"country":"Australia","geo_score":0.0,"suburb":"Tawoomba","id":"a7ov4wsg6n1u","geo_precision":"unmatched","state":"QLD"},"type":"Feature","geometry":null},{"properties":{"postcode":4350,"country":"Australia","geo_score":0.0,"suburb":"Tawoomba","id":"a7ov4wtf4upm","geo_precision":"unmatched","state":"QLD"},"type":"Feature","geometry":null},{"properties":{"postcode":4350,"country":"Australia","geo_score":0.0,"suburb":"Tawoomba","id":"a7ov4wwh1nis","geo_precision":"unmatched","state":"QLD"},"type":"Feature","geometry":null},{"properties":{"postcode":4350,"country":"Australia","geo_score":0.0,"suburb":"Tawoomba","id":"a7ov4wjq05e1","geo_precision":"unmatched","state":"QLD"},"type":"Feature","geometry":null},{"properties":{"postcode":4350,"country":"Australia","geo_score":0.0,"suburb":"Tawoomba","id":"a7ov4wpwpu5o","geo_precision":"unmatched","state":"QLD"},"type":"Feature","geometry":null},{"properties":{"postcode":4350,"country":"Australia","geo_score":0.0,"suburb":"Tawoomba","id":"a7ov4wjwx8f3","geo_precision":"unmatched","state":"QLD"},"type":"Feature","geometry":null},{"properties":{"postcode":4350,"country":"Australia","geo_score":0.0,"suburb":"Tawoomba","id":"a7ov4wqmlph9","geo_precision":"unmatched","state":"QLD"},"type":"Feature","geometry":null},{"properties":{"postcode":4350,"country":"Australia","geo_score":0.0,"suburb":"Tawoomba","id":"a7ov4wm473ku","geo_precision":"unmatched","state":"QLD"},"type":"Feature","geometry":null},{"properties":{"postcode":4455,"country":"Australia","geo_score":0.0,"suburb":"Roma","id":"a7ov4ws13itn","geo_precision":"unmatched","state":"QLD"},"type":"Feature","geometry":null},{"properties":{"postcode":4455,"country":"Australia","geo_score":0.0,"suburb":"Roma","id":"a7ov4wnf7mx4","geo_precision":"unmatched","state":"QLD"},"type":"Feature","geometry":null},{"properties":{"postcode":4455,"country":"Australia","geo_score":0.0,"suburb":"Roma","id":"a7ov4wua8qpp","geo_precision":"unmatched","state":"QLD"},"type":"Feature","geometry":null},{"properties":{"postcode":4610,"country":"Australia","geo_score":0.0,"suburb":"Kingaroy","id":"a7ov4wi2qsoi","geo_precision":"unmatched","state":"QLD"},"type":"Feature","geometry":null},{"properties":{"postcode":4610,"country":"Australia","geo_score":0.0,"suburb":"Kingaroy","id":"a7ov4wvnju6h","geo_precision":"unmatched","state":"QLD"},"type":"Feature","geometry":null},{"properties":{"postcode":4610,"country":"Australia","geo_score":0.0,"suburb":"Kingaroy","id":"a7ov4wixo0p6","geo_precision":"unmatched","state":"QLD"},"type":"Feature","geometry":null},{"properties":{"postcode":4610,"country":"Australia","geo_score":0.0,"suburb":"Kingaroy","id":"a7ov4whdvzpj","geo_precision":"unmatched","state":"QLD"},"type":"Feature","geometry":null},{"properties":{"postcode":4610,"country":"Australia","geo_score":0.0,"suburb":"Kingaroy","id":"a7ov4wspwzee","geo_precision":"unmatched","state":"QLD"},"type":"Feature","geometry":null},{"properties":{"postcode":4610,"country":"Australia","geo_score":0.0,"suburb":"Kingaroy","id":"a7ov4wkc49re","geo_precision":"unmatched","state":"QLD"},"type":"Feature","geometry":null},{"properties":{"postcode":4610,"country":"Australia","geo_score":0.0,"suburb":"Kingaroy","id":"a7ov4wj2s3ya","geo_precision":"unmatched","state":"QLD"},"type":"Feature","geometry":null},{"properties":{"postcode":4650,"country":"Australia","geo_score":0.0,"suburb":"Maryborough","id":"a7ov4wogmxxw","geo_precision":"unmatched","state":"QLD"},"type":"Feature","geometry":null},{"properties":{"postcode":4650,"country":"Australia","geo_score":0.0,"suburb":"Maryborough","id":"a7ov4wvx3f2k","geo_precision":"unmatched","state":"QLD"},"type":"Feature","geometry":null},{"properties":{"postcode":4650,"country":"Australia","geo_score":0.0,"suburb":"Maryborough","id":"a7ov4wnpykw8","geo_precision":"unmatched","state":"QLD"},"type":"Feature","geometry":null},{"properties":{"postcode":4650,"country":"Australia","geo_score":0.0,"suburb":"Maryborough","id":"a7ov4wjwyhu1","geo_precision":"unmatched","state":"QLD"},"type":"Feature","geometry":null},{"properties":{"postcode":4737,"country":"Australia","geo_score":0.0,"suburb":"Sarina","id":"a7ov4wmhycrc","geo_precision":"unmatched","state":"QLD"},"type":"Feature","geometry":null},{"properties":{"postcode":4737,"country":"Australia","geo_score":0.0,"suburb":"Sarina","id":"a7ov4wlpvm3r","geo_precision":"unmatched","state":"QLD"},"type":"Feature","geometry":null},{"properties":{"postcode":4737,"country":"Australia","geo_score":0.0,"suburb":"Sarina","id":"a7ov4wnf0w2y","geo_precision":"unmatched","state":"QLD"},"type":"Feature","geometry":null},{"properties":{"postcode":4737,"country":"Australia","geo_score":0.0,"suburb":"Sarina","id":"a7ov4wgyirvw","geo_precision":"unmatched","state":"QLD"},"type":"Feature","geometry":null},{"properties":{"postcode":4737,"country":"Australia","geo_score":0.0,"suburb":"Sarina","id":"a7ov4wixxbm6","geo_precision":"unmatched","state":"QLD"},"type":"Feature","geometry":null},{"properties":{"postcode":4820,"country":"Australia","geo_score":0.0,"suburb":"Charters Towers","id":"a7ov4whdu606","geo_precision":"unmatched","state":"QLD"},"type":"Feature","geometry":null},{"properties":{"postcode":4820,"country":"Australia","geo_score":0.0,"suburb":"Charters Towers","id":"a7ov4wpk97yq","geo_precision":"unmatched","state":"QLD"},"type":"Feature","geometry":null},{"properties":{"postcode":4820,"country":"Australia","geo_score":0.0,"suburb":"Charters Towers","id":"a7ov4whilv51","geo_precision":"unmatched","state":"QLD"},"type":"Feature","geometry":null},{"properties":{"postcode":4820,"country":"Australia","geo_score":0.0,"suburb":"Charters Towers","id":"a7ov4wm369nz","geo_precision":"unmatched","state":"QLD"},"type":"Feature","geometry":null},{"properties":{"postcode":4820,"country":"Australia","geo_score":0.0,"suburb":"Charters Towers","id":"a7ov4wv084xn","geo_precision":"unmatched","state":"QLD"},"type":"Feature","geometry":null},{"properties":{"postcode":4820,"country":"Australia","geo_score":0.0,"suburb":"Charters Towers","id":"a7ov4wu0c8o9","geo_precision":"unmatched","state":"QLD"},"type":"Feature","geometry":null}],"is_temporal":false,"author":{"url":"","metadata":"","contact_name":"","contact_address":"","source":"","contact_phone":""},"source":"","pagination":{"sort":null,"start":0,"total":400,"limit":1000000},"state":"complete","tags":"installers,panels,power,solar","published":"2014-08-14T22:56:33-04:00","id":265837}