{"type":"FeatureCollection","data_type":"Dataset","url_type":null,"permissions":[{"permissions":{"download":true,"edit":true,"view":true},"group_id":48694},{"permissions":{"download":true,"edit":true,"view":true},"group_id":50073},{"permissions":{"download":true,"view":true},"group_id":"everyone"}],"classification":null,"title":"dccrime","count":422,"stream_id":265919,"contributor":{"url":"http://geocommons.com/users/47383","name":"jccDtc"},"data_attributes":null,"calculation_params":null,"icon_link":null,"link":"http://geocommons.com/overlays/265919.json","extent":[-77.0488,38.9141,-77.0144,38.9374],"geometry_types":["point"],"unique_name":null,"name":"dccrime","feature_count":422,"description":"Crime in Washington DC Ward 1","next_feature":null,"is_raster":false,"short_classification":"Y","stats":{"latitude":{"max":38.93739606,"variance":4.2402641980564e-05,"mean":38.9253566574408,"stdev":0.00651173110474964,"min":38.91408294,"median":38.92547246},"longitude":{"max":-77.01443195,"variance":4.7134112504323e-05,"mean":-77.0326795529146,"stdev":0.00686542879245885,"min":-77.04881323,"median":-77.03272625},"ward":{"max":1,"variance":0.0,"mean":1.0,"stdev":0.0,"min":1,"median":1}},"features":[{"properties":{"city":"WASHINGTON","anc":"1A","latitude":38.93290239,"blocksiteaddress":"700 B/O PARK RD NW","longitude":-77.02496775,"id":"a7p3i3dq4f9b","offense":"ADW","state":"DC","ward":1},"type":"Feature","geometry":{"type":"Point","coordinates":[-77.02496775,38.93290239]}},{"properties":{"city":"WASHINGTON","anc":"1A","latitude":38.93456926,"blocksiteaddress":"1300 B/O OTIS PL NW","longitude":-77.03107201,"id":"a7p3i383emb2","offense":"ADW","state":"DC","ward":1},"type":"Feature","geometry":{"type":"Point","coordinates":[-77.03107201,38.93456926]}},{"properties":{"city":"WASHINGTON","anc":"1A","latitude":38.92952144,"blocksiteaddress":"3100 B/O 14TH ST NW","longitude":-77.032764,"id":"a7p3i32x6keh","offense":"ADW","state":"DC","ward":1},"type":"Feature","geometry":{"type":"Point","coordinates":[-77.032764,38.92952144]}},{"properties":{"city":"WASHINGTON","anc":"1A","latitude":38.93667129,"blocksiteaddress":"3600 B/O 14TH ST NW","longitude":-77.03273024,"id":"a7p3i350e47u","offense":"ADW","state":"DC","ward":1},"type":"Feature","geometry":{"type":"Point","coordinates":[-77.03273024,38.93667129]}},{"properties":{"city":"WASHINGTON","anc":"1A","latitude":38.92895736,"blocksiteaddress":"700 B/O IRVING ST NW","longitude":-77.02472792,"id":"a7p3i344ejbo","offense":"ADW","state":"DC","ward":1},"type":"Feature","geometry":{"type":"Point","coordinates":[-77.02472792,38.92895736]}},{"properties":{"city":"WASHINGTON","anc":"1A","latitude":38.93020538,"blocksiteaddress":"14TH ST NW &amp; PARK RD NW","longitude":-77.03266386,"id":"a7p3i3i4oyol","offense":"ADW","state":"DC","ward":1},"type":"Feature","geometry":{"type":"Point","coordinates":[-77.03266386,38.93020538]}},{"properties":{"city":"WASHINGTON","anc":"1A","latitude":38.92904106,"blocksiteaddress":"GEORGIA AVE NW &amp; IRVING ST NW","longitude":-77.02322885,"id":"a7p3i3figpfr","offense":"ADW","state":"DC","ward":1},"type":"Feature","geometry":{"type":"Point","coordinates":[-77.02322885,38.92904106]}},{"properties":{"city":"WASHINGTON","anc":"1B","latitude":38.91699954,"blocksiteaddress":"1300 B/O U ST NW","longitude":-77.03067922,"id":"a7p3i3em2761","offense":"ADW","state":"DC","ward":1},"type":"Feature","geometry":{"type":"Point","coordinates":[-77.03067922,38.91699954]}},{"properties":{"city":"WASHINGTON","anc":"1B","latitude":38.91699954,"blocksiteaddress":"1300 B/O U ST NW","longitude":-77.03067922,"id":"a7p3i36250b9","offense":"ADW","state":"DC","ward":1},"type":"Feature","geometry":{"type":"Point","coordinates":[-77.03067922,38.91699954]}},{"properties":{"city":"WASHINGTON","anc":"1B","latitude":38.91918516,"blocksiteaddress":"14TH ST NW &amp; W ST NW","longitude":-77.03195149,"id":"a7p3i3gg8mxv","offense":"ADW","state":"DC","ward":1},"type":"Feature","geometry":{"type":"Point","coordinates":[-77.03195149,38.91918516]}},{"properties":{"city":"WASHINGTON","anc":"1B","latitude":38.92242573,"blocksiteaddress":"1200 B/O CLIFTON ST NW","longitude":-77.02882839,"id":"a7p3i38ba90r","offense":"ADW","state":"DC","ward":1},"type":"Feature","geometry":{"type":"Point","coordinates":[-77.02882839,38.92242573]}},{"properties":{"city":"WASHINGTON","anc":"1B","latitude":38.9163152,"blocksiteaddress":"1900 B/O VERMONT AVE NW","longitude":-77.02574604,"id":"a7p3i3iuggd8","offense":"ADW","state":"DC","ward":1},"type":"Feature","geometry":{"type":"Point","coordinates":[-77.02574604,38.9163152]}},{"properties":{"city":"WASHINGTON","anc":"1B","latitude":38.92475392,"blocksiteaddress":"1300 B/O FAIRMONT ST NW","longitude":-77.03097692,"id":"a7p3i3e31rxb","offense":"ADW","state":"DC","ward":1},"type":"Feature","geometry":{"type":"Point","coordinates":[-77.03097692,38.92475392]}},{"properties":{"city":"WASHINGTON","anc":"1B","latitude":38.91999084,"blocksiteaddress":"BRYANT ST NW &amp; GEORGIA AVE NW","longitude":-77.02192262,"id":"a7p3i3hgcydg","offense":"ADW","state":"DC","ward":1},"type":"Feature","geometry":{"type":"Point","coordinates":[-77.02192262,38.91999084]}},{"properties":{"city":"WASHINGTON","anc":"1B","latitude":38.91699928,"blocksiteaddress":"13TH ST NW &amp; U ST NW","longitude":-77.02962137,"id":"a7p3i3cxojop","offense":"ADW","state":"DC","ward":1},"type":"Feature","geometry":{"type":"Point","coordinates":[-77.02962137,38.91699928]}},{"properties":{"city":"WASHINGTON","anc":"1B","latitude":38.91699954,"blocksiteaddress":"1300 B/O U ST NW","longitude":-77.03067922,"id":"a7p3i3523pkg","offense":"ADW","state":"DC","ward":1},"type":"Feature","geometry":{"type":"Point","coordinates":[-77.03067922,38.91699954]}},{"properties":{"city":"WASHINGTON","anc":"1B","latitude":38.91699954,"blocksiteaddress":"1300 B/O U ST NW","longitude":-77.03067922,"id":"a7p3i3i7jco2","offense":"ADW","state":"DC","ward":1},"type":"Feature","geometry":{"type":"Point","coordinates":[-77.03067922,38.91699954]}},{"properties":{"city":"WASHINGTON","anc":"1B","latitude":38.91755544,"blocksiteaddress":"2000 B/O 14TH ST NW","longitude":-77.03195105,"id":"a7p3i3745t18","offense":"ADW","state":"DC","ward":1},"type":"Feature","geometry":{"type":"Point","coordinates":[-77.03195105,38.91755544]}},{"properties":{"city":"WASHINGTON","anc":"1C","latitude":38.9257112,"blocksiteaddress":"1600 B/O COLUMBIA RD NW","longitude":-77.03783764,"id":"a7p3i3eloq9e","offense":"ADW","state":"DC","ward":1},"type":"Feature","geometry":{"type":"Point","coordinates":[-77.03783764,38.9257112]}},{"properties":{"city":"WASHINGTON","anc":"1C","latitude":38.91965842,"blocksiteaddress":"1800 B/O KALORAMA RD NW","longitude":-77.04305093,"id":"a7p3i3fj5bdr","offense":"ADW","state":"DC","ward":1},"type":"Feature","geometry":{"type":"Point","coordinates":[-77.04305093,38.91965842]}},{"properties":{"city":"WASHINGTON","anc":"1C","latitude":38.92391556,"blocksiteaddress":"2500 B/O 17TH ST NW","longitude":-77.0390389,"id":"a7p3i33pqz0i","offense":"ADW","state":"DC","ward":1},"type":"Feature","geometry":{"type":"Point","coordinates":[-77.0390389,38.92391556]}},{"properties":{"city":"WASHINGTON","anc":"1C","latitude":38.92310971,"blocksiteaddress":"1700 B/O EUCLID ST NW","longitude":-77.04019915,"id":"a7p3i3bbl3zj","offense":"ADW","state":"DC","ward":1},"type":"Feature","geometry":{"type":"Point","coordinates":[-77.04019915,38.92310971]}},{"properties":{"city":"WASHINGTON","anc":"1D","latitude":38.93173574,"blocksiteaddress":"3200 B/O MOUNT PLEASANT ST NW","longitude":-77.0385017,"id":"a7p3i3fy2n1v","offense":"ADW","state":"DC","ward":1},"type":"Feature","geometry":{"type":"Point","coordinates":[-77.0385017,38.93173574]}},{"properties":{"city":"WASHINGTON","anc":"1D","latitude":38.93052132,"blocksiteaddress":"3200 B/O 16TH ST NW","longitude":-77.03645622,"id":"a7p3i36fgmh5","offense":"ADW","state":"DC","ward":1},"type":"Feature","geometry":{"type":"Point","coordinates":[-77.03645622,38.93052132]}},{"properties":{"city":"WASHINGTON","anc":"1A","latitude":38.92768858,"blocksiteaddress":"1100 B/O COLUMBIA RD NW","longitude":-77.02849038,"id":"a7p3i3cweby4","offense":"BURGLARY","state":"DC","ward":1},"type":"Feature","geometry":{"type":"Point","coordinates":[-77.02849038,38.92768858]}},{"properties":{"city":"WASHINGTON","anc":"1A","latitude":38.93739606,"blocksiteaddress":"1400 B/O SPRING RD NW","longitude":-77.03431782,"id":"a7p3i3fxgiay","offense":"BURGLARY","state":"DC","ward":1},"type":"Feature","geometry":{"type":"Point","coordinates":[-77.03431782,38.93739606]}},{"properties":{"city":"WASHINGTON","anc":"1A","latitude":38.93481474,"blocksiteaddress":"3600 B/O NEW HAMPSHIRE AVE NW","longitude":-77.02548744,"id":"a7p3i3bhyq50","offense":"BURGLARY","state":"DC","ward":1},"type":"Feature","geometry":{"type":"Point","coordinates":[-77.02548744,38.93481474]}},{"properties":{"city":"WASHINGTON","anc":"1A","latitude":38.93601619,"blocksiteaddress":"1300 B/O PERRY PL NW","longitude":-77.03180109,"id":"a7p3i3dpyoz3","offense":"BURGLARY","state":"DC","ward":1},"type":"Feature","geometry":{"type":"Point","coordinates":[-77.03180109,38.93601619]}},{"properties":{"city":"WASHINGTON","anc":"1A","latitude":38.92786602,"blocksiteaddress":"3000 B/O 15TH ST NW","longitude":-77.03584759,"id":"a7p3i3im3q9g","offense":"BURGLARY","state":"DC","ward":1},"type":"Feature","geometry":{"type":"Point","coordinates":[-77.03584759,38.92786602]}},{"properties":{"city":"WASHINGTON","anc":"1A","latitude":38.93526668,"blocksiteaddress":"3600 B/O 11TH ST NW","longitude":-77.02849377,"id":"a7p3i34o9iui","offense":"BURGLARY","state":"DC","ward":1},"type":"Feature","geometry":{"type":"Point","coordinates":[-77.02849377,38.93526668]}},{"properties":{"city":"WASHINGTON","anc":"1A","latitude":38.931901,"blocksiteaddress":"1300 B/O MONROE ST NW","longitude":-77.03108123,"id":"a7p3i3ck5iae","offense":"BURGLARY","state":"DC","ward":1},"type":"Feature","geometry":{"type":"Point","coordinates":[-77.03108123,38.931901]}},{"properties":{"city":"WASHINGTON","anc":"1A","latitude":38.92758179,"blocksiteaddress":"1300 B/O COLUMBIA RD NW","longitude":-77.03111185,"id":"a7p3i37c7wjj","offense":"BURGLARY","state":"DC","ward":1},"type":"Feature","geometry":{"type":"Point","coordinates":[-77.03111185,38.92758179]}},{"properties":{"city":"WASHINGTON","anc":"1A","latitude":38.92704908,"blocksiteaddress":"2900 B/O 14TH ST NW","longitude":-77.03246958,"id":"a7p3i33d93h4","offense":"BURGLARY","state":"DC","ward":1},"type":"Feature","geometry":{"type":"Point","coordinates":[-77.03246958,38.92704908]}},{"properties":{"city":"WASHINGTON","anc":"1A","latitude":38.93667129,"blocksiteaddress":"3600 B/O 14TH ST NW","longitude":-77.03273024,"id":"a7p3i3aiq009","offense":"BURGLARY","state":"DC","ward":1},"type":"Feature","geometry":{"type":"Point","coordinates":[-77.03273024,38.93667129]}},{"properties":{"city":"WASHINGTON","anc":"1A","latitude":38.93739606,"blocksiteaddress":"1400 B/O SPRING RD NW","longitude":-77.03431782,"id":"a7p3i38qg5tl","offense":"BURGLARY","state":"DC","ward":1},"type":"Feature","geometry":{"type":"Point","coordinates":[-77.03431782,38.93739606]}},{"properties":{"city":"WASHINGTON","anc":"1A","latitude":38.93601341,"blocksiteaddress":"700 B/O QUEBEC PL NW","longitude":-77.02273701,"id":"a7p3i36pzver","offense":"BURGLARY","state":"DC","ward":1},"type":"Feature","geometry":{"type":"Point","coordinates":[-77.02273701,38.93601341]}},{"properties":{"city":"WASHINGTON","anc":"1A","latitude":38.92742599,"blocksiteaddress":"1400 B/O COLUMBIA RD NW","longitude":-77.03407927,"id":"a7p3i3i5cizw","offense":"BURGLARY","state":"DC","ward":1},"type":"Feature","geometry":{"type":"Point","coordinates":[-77.03407927,38.92742599]}},{"properties":{"city":"WASHINGTON","anc":"1A","latitude":38.92903929,"blocksiteaddress":"600 B/O IRVING ST NW","longitude":-77.02213507,"id":"a7p3i39jjvie","offense":"BURGLARY","state":"DC","ward":1},"type":"Feature","geometry":{"type":"Point","coordinates":[-77.02213507,38.92903929]}},{"properties":{"city":"WASHINGTON","anc":"1A","latitude":38.92765861,"blocksiteaddress":"1200 B/O COLUMBIA RD NW","longitude":-77.02904732,"id":"a7p3i39o4ioj","offense":"BURGLARY","state":"DC","ward":1},"type":"Feature","geometry":{"type":"Point","coordinates":[-77.02904732,38.92765861]}},{"properties":{"city":"WASHINGTON","anc":"1B","latitude":38.91628555,"blocksiteaddress":"1900 B/O 12TH ST NW","longitude":-77.02808116,"id":"a7p3i38frb3v","offense":"BURGLARY","state":"DC","ward":1},"type":"Feature","geometry":{"type":"Point","coordinates":[-77.02808116,38.91628555]}},{"properties":{"city":"WASHINGTON","anc":"1B","latitude":38.91864594,"blocksiteaddress":"2100 B/O 10TH ST NW","longitude":-77.0259917,"id":"a7p3i3ftq8h1","offense":"BURGLARY","state":"DC","ward":1},"type":"Feature","geometry":{"type":"Point","coordinates":[-77.0259917,38.91864594]}},{"properties":{"city":"WASHINGTON","anc":"1B","latitude":38.92303361,"blocksiteaddress":"2500 B/O UNIVERSITY PL NW","longitude":-77.03402096,"id":"a7p3i3gwws5z","offense":"BURGLARY","state":"DC","ward":1},"type":"Feature","geometry":{"type":"Point","coordinates":[-77.03402096,38.92303361]}},{"properties":{"city":"WASHINGTON","anc":"1B","latitude":38.92155609,"blocksiteaddress":"1400 B/O CHAPIN ST NW","longitude":-77.03357196,"id":"a7p3i3epmlni","offense":"BURGLARY","state":"DC","ward":1},"type":"Feature","geometry":{"type":"Point","coordinates":[-77.03357196,38.92155609]}},{"properties":{"city":"WASHINGTON","anc":"1B","latitude":38.9254034,"blocksiteaddress":"1400 B/O GIRARD ST NW","longitude":-77.03386964,"id":"a7p3i3e7h9q1","offense":"BURGLARY","state":"DC","ward":1},"type":"Feature","geometry":{"type":"Point","coordinates":[-77.03386964,38.9254034]}},{"properties":{"city":"WASHINGTON","anc":"1B","latitude":38.92242952,"blocksiteaddress":"1300 B/O CLIFTON ST NW","longitude":-77.03085735,"id":"a7p3i3b6c94y","offense":"BURGLARY","state":"DC","ward":1},"type":"Feature","geometry":{"type":"Point","coordinates":[-77.03085735,38.92242952]}},{"properties":{"city":"WASHINGTON","anc":"1B","latitude":38.91918495,"blocksiteaddress":"1100 B/O W ST NW","longitude":-77.02755943,"id":"a7p3i356ohpi","offense":"BURGLARY","state":"DC","ward":1},"type":"Feature","geometry":{"type":"Point","coordinates":[-77.02755943,38.91918495]}},{"properties":{"city":"WASHINGTON","anc":"1B","latitude":38.92084379,"blocksiteaddress":"2300 B/O 14TH ST NW","longitude":-77.03184982,"id":"a7p3i3j2z93c","offense":"BURGLARY","state":"DC","ward":1},"type":"Feature","geometry":{"type":"Point","coordinates":[-77.03184982,38.92084379]}},{"properties":{"city":"WASHINGTON","anc":"1B","latitude":38.91452762,"blocksiteaddress":"400 B/O FLORIDA AVE NW","longitude":-77.01786196,"id":"a7p3i34ccfq6","offense":"BURGLARY","state":"DC","ward":1},"type":"Feature","geometry":{"type":"Point","coordinates":[-77.01786196,38.91452762]}},{"properties":{"city":"WASHINGTON","anc":"1B","latitude":38.92376166,"blocksiteaddress":"1200 B/O EUCLID ST NW","longitude":-77.02884277,"id":"a7p3i3898xho","offense":"BURGLARY","state":"DC","ward":1},"type":"Feature","geometry":{"type":"Point","coordinates":[-77.02884277,38.92376166]}},{"properties":{"city":"WASHINGTON","anc":"1B","latitude":38.92574795,"blocksiteaddress":"1200 B/O GIRARD ST NW","longitude":-77.02901771,"id":"a7p3i39o3jxi","offense":"BURGLARY","state":"DC","ward":1},"type":"Feature","geometry":{"type":"Point","coordinates":[-77.02901771,38.92574795]}},{"properties":{"city":"WASHINGTON","anc":"1B","latitude":38.92600709,"blocksiteaddress":"700 B/O GIRARD ST NW","longitude":-77.02430489,"id":"a7p3i3e6mcdh","offense":"BURGLARY","state":"DC","ward":1},"type":"Feature","geometry":{"type":"Point","coordinates":[-77.02430489,38.92600709]}},{"properties":{"city":"WASHINGTON","anc":"1B","latitude":38.92698657,"blocksiteaddress":"700 B/O HARVARD ST NW","longitude":-77.02443424,"id":"a7p3i3hpz4dj","offense":"BURGLARY","state":"DC","ward":1},"type":"Feature","geometry":{"type":"Point","coordinates":[-77.02443424,38.92698657]}},{"properties":{"city":"WASHINGTON","anc":"1B","latitude":38.92823849,"blocksiteaddress":"600 B/O COLUMBIA RD NW","longitude":-77.02192493,"id":"a7p3i39apw1f","offense":"BURGLARY","state":"DC","ward":1},"type":"Feature","geometry":{"type":"Point","coordinates":[-77.02192493,38.92823849]}},{"properties":{"city":"WASHINGTON","anc":"1B","latitude":38.92502563,"blocksiteaddress":"700 B/O FAIRMONT ST NW","longitude":-77.02416004,"id":"a7p3i398etdw","offense":"BURGLARY","state":"DC","ward":1},"type":"Feature","geometry":{"type":"Point","coordinates":[-77.02416004,38.92502563]}},{"properties":{"city":"WASHINGTON","anc":"1C","latitude":38.92323549,"blocksiteaddress":"1900 B/O CALVERT ST NW","longitude":-77.04597673,"id":"a7p3i37km6il","offense":"BURGLARY","state":"DC","ward":1},"type":"Feature","geometry":{"type":"Point","coordinates":[-77.04597673,38.92323549]}},{"properties":{"city":"WASHINGTON","anc":"1C","latitude":38.92161738,"blocksiteaddress":"2300 B/O CHAMPLAIN ST NW","longitude":-77.04129822,"id":"a7p3i36p7lp4","offense":"BURGLARY","state":"DC","ward":1},"type":"Feature","geometry":{"type":"Point","coordinates":[-77.04129822,38.92161738]}},{"properties":{"city":"WASHINGTON","anc":"1C","latitude":38.92673632,"blocksiteaddress":"1600 B/O ARGONNE PL NW","longitude":-77.03792352,"id":"a7p3i3fa4xup","offense":"BURGLARY","state":"DC","ward":1},"type":"Feature","geometry":{"type":"Point","coordinates":[-77.03792352,38.92673632]}},{"properties":{"city":"WASHINGTON","anc":"1C","latitude":38.91695611,"blocksiteaddress":"1800 B/O VERNON ST NW","longitude":-77.04276823,"id":"a7p3i3cg6ax8","offense":"BURGLARY","state":"DC","ward":1},"type":"Feature","geometry":{"type":"Point","coordinates":[-77.04276823,38.91695611]}},{"properties":{"city":"WASHINGTON","anc":"1C","latitude":38.92630605,"blocksiteaddress":"1700 B/O SUMMIT PL NW","longitude":-77.04094523,"id":"a7p3i37gfaao","offense":"BURGLARY","state":"DC","ward":1},"type":"Feature","geometry":{"type":"Point","coordinates":[-77.04094523,38.92630605]}},{"properties":{"city":"WASHINGTON","anc":"1C","latitude":38.92630605,"blocksiteaddress":"1700 B/O SUMMIT PL NW","longitude":-77.04094523,"id":"a7p3i355ehpl","offense":"BURGLARY","state":"DC","ward":1},"type":"Feature","geometry":{"type":"Point","coordinates":[-77.04094523,38.92630605]}},{"properties":{"city":"WASHINGTON","anc":"1C","latitude":38.91573107,"blocksiteaddress":"1900 B/O 19TH ST NW","longitude":-77.04342331,"id":"a7p3i341keve","offense":"BURGLARY","state":"DC","ward":1},"type":"Feature","geometry":{"type":"Point","coordinates":[-77.04342331,38.91573107]}},{"properties":{"city":"WASHINGTON","anc":"1C","latitude":38.91635172,"blocksiteaddress":"1800 B/O FLORIDA AVE NW","longitude":-77.04256032,"id":"a7p3i3hdqpn9","offense":"BURGLARY","state":"DC","ward":1},"type":"Feature","geometry":{"type":"Point","coordinates":[-77.04256032,38.91635172]}},{"properties":{"city":"WASHINGTON","anc":"1C","latitude":38.91695611,"blocksiteaddress":"1800 B/O VERNON ST NW","longitude":-77.04276823,"id":"a7p3i3588ttp","offense":"BURGLARY","state":"DC","ward":1},"type":"Feature","geometry":{"type":"Point","coordinates":[-77.04276823,38.91695611]}},{"properties":{"city":"WASHINGTON","anc":"1D","latitude":38.93334443,"blocksiteaddress":"3300 B/O MOUNT PLEASANT ST NW","longitude":-77.03992819,"id":"a7p3i39i62u6","offense":"BURGLARY","state":"DC","ward":1},"type":"Feature","geometry":{"type":"Point","coordinates":[-77.03992819,38.93334443]}},{"properties":{"city":"WASHINGTON","anc":"1D","latitude":38.93203243,"blocksiteaddress":"1600 B/O PARK RD NW","longitude":-77.03751114,"id":"a7p3i36pcvbe","offense":"BURGLARY","state":"DC","ward":1},"type":"Feature","geometry":{"type":"Point","coordinates":[-77.03751114,38.93203243]}},{"properties":{"city":"WASHINGTON","anc":"1D","latitude":38.93711469,"blocksiteaddress":"3600 B/O 16TH ST NW","longitude":-77.03644805,"id":"a7p3i3bnenbr","offense":"BURGLARY","state":"DC","ward":1},"type":"Feature","geometry":{"type":"Point","coordinates":[-77.03644805,38.93711469]}},{"properties":{"city":"WASHINGTON","anc":"1D","latitude":38.93711469,"blocksiteaddress":"3600 B/O 16TH ST NW","longitude":-77.03644805,"id":"a7p3i3cedwdp","offense":"BURGLARY","state":"DC","ward":1},"type":"Feature","geometry":{"type":"Point","coordinates":[-77.03644805,38.93711469]}},{"properties":{"city":"WASHINGTON","anc":"1D","latitude":38.93498456,"blocksiteaddress":"3400 B/O BROWN ST NW","longitude":-77.03719054,"id":"a7p3i37kpso5","offense":"BURGLARY","state":"DC","ward":1},"type":"Feature","geometry":{"type":"Point","coordinates":[-77.03719054,38.93498456]}},{"properties":{"city":"WASHINGTON","anc":"1D","latitude":38.93711469,"blocksiteaddress":"3600 B/O 16TH ST NW","longitude":-77.03644805,"id":"a7p3i3ghdljk","offense":"BURGLARY","state":"DC","ward":1},"type":"Feature","geometry":{"type":"Point","coordinates":[-77.03644805,38.93711469]}},{"properties":{"city":"WASHINGTON","anc":"1D","latitude":38.93414488,"blocksiteaddress":"1700 B/O NEWTON ST NW","longitude":-77.04022959,"id":"a7p3i35z2t55","offense":"BURGLARY","state":"DC","ward":1},"type":"Feature","geometry":{"type":"Point","coordinates":[-77.04022959,38.93414488]}},{"properties":{"city":"WASHINGTON","anc":"1D","latitude":38.93363539,"blocksiteaddress":"3300 B/O 19TH ST NW","longitude":-77.04417381,"id":"a7p3i3c82qp7","offense":"BURGLARY","state":"DC","ward":1},"type":"Feature","geometry":{"type":"Point","coordinates":[-77.04417381,38.93363539]}},{"properties":{"city":"WASHINGTON","anc":"1D","latitude":38.9279697,"blocksiteaddress":"1600 B/O HOBART ST NW","longitude":-77.03992806,"id":"a7p3i38bn01w","offense":"BURGLARY","state":"DC","ward":1},"type":"Feature","geometry":{"type":"Point","coordinates":[-77.03992806,38.9279697]}},{"properties":{"city":"WASHINGTON","anc":"1B","latitude":38.9264976,"blocksiteaddress":"700 B/O GRESHAM PL NW","longitude":-77.0243692,"id":"a7p3i3gl0vs2","offense":"HOMICIDE","state":"DC","ward":1},"type":"Feature","geometry":{"type":"Point","coordinates":[-77.0243692,38.9264976]}},{"properties":{"city":"WASHINGTON","anc":"1A","latitude":38.93493623,"blocksiteaddress":"3600 B/O ROCK CREEK CHURCH RD NW","longitude":-77.02602035,"id":"a7p3i3hjz5ri","offense":"ROBBERY","state":"DC","ward":1},"type":"Feature","geometry":{"type":"Point","coordinates":[-77.02602035,38.93493623]}},{"properties":{"city":"WASHINGTON","anc":"1A","latitude":38.92962722,"blocksiteaddress":"1300 B/O KENYON ST NW","longitude":-77.03138125,"id":"a7p3i33lrfzu","offense":"ROBBERY","state":"DC","ward":1},"type":"Feature","geometry":{"type":"Point","coordinates":[-77.03138125,38.92962722]}},{"properties":{"city":"WASHINGTON","anc":"1A","latitude":38.92903929,"blocksiteaddress":"600 B/O IRVING ST NW","longitude":-77.02213507,"id":"a7p3i39475rx","offense":"ROBBERY","state":"DC","ward":1},"type":"Feature","geometry":{"type":"Point","coordinates":[-77.02213507,38.92903929]}},{"properties":{"city":"WASHINGTON","anc":"1A","latitude":38.93060755,"blocksiteaddress":"1400 B/O PARK RD NW","longitude":-77.03381171,"id":"a7p3i3efqvt3","offense":"ROBBERY","state":"DC","ward":1},"type":"Feature","geometry":{"type":"Point","coordinates":[-77.03381171,38.93060755]}},{"properties":{"city":"WASHINGTON","anc":"1A","latitude":38.93658085,"blocksiteaddress":"1300 B/O SPRING RD NW","longitude":-77.03092064,"id":"a7p3i3h637p4","offense":"ROBBERY","state":"DC","ward":1},"type":"Feature","geometry":{"type":"Point","coordinates":[-77.03092064,38.93658085]}},{"properties":{"city":"WASHINGTON","anc":"1A","latitude":38.93626399,"blocksiteaddress":"14TH ST NW &amp; PERRY PL NW","longitude":-77.03273135,"id":"a7p3i34t13v6","offense":"ROBBERY","state":"DC","ward":1},"type":"Feature","geometry":{"type":"Point","coordinates":[-77.03273135,38.93626399]}},{"properties":{"city":"WASHINGTON","anc":"1A","latitude":38.92952144,"blocksiteaddress":"3100 B/O 14TH ST NW","longitude":-77.032764,"id":"a7p3i32yd5bd","offense":"ROBBERY","state":"DC","ward":1},"type":"Feature","geometry":{"type":"Point","coordinates":[-77.032764,38.92952144]}},{"properties":{"city":"WASHINGTON","anc":"1A","latitude":38.92641541,"blocksiteaddress":"1400 B/O HARVARD ST NW","longitude":-77.03394509,"id":"a7p3i37082uh","offense":"ROBBERY","state":"DC","ward":1},"type":"Feature","geometry":{"type":"Point","coordinates":[-77.03394509,38.92641541]}},{"properties":{"city":"WASHINGTON","anc":"1A","latitude":38.93408697,"blocksiteaddress":"800 B/O OTIS PL NW","longitude":-77.02498345,"id":"a7p3i3j8yg46","offense":"ROBBERY","state":"DC","ward":1},"type":"Feature","geometry":{"type":"Point","coordinates":[-77.02498345,38.93408697]}},{"properties":{"city":"WASHINGTON","anc":"1A","latitude":38.93595805,"blocksiteaddress":"1500 B/O OGDEN ST NW","longitude":-77.03527215,"id":"a7p3i3ewd17q","offense":"ROBBERY","state":"DC","ward":1},"type":"Feature","geometry":{"type":"Point","coordinates":[-77.03527215,38.93595805]}},{"properties":{"city":"WASHINGTON","anc":"1A","latitude":38.93739606,"blocksiteaddress":"1400 B/O SPRING RD NW","longitude":-77.03431782,"id":"a7p3i3e2blcg","offense":"ROBBERY","state":"DC","ward":1},"type":"Feature","geometry":{"type":"Point","coordinates":[-77.03431782,38.93739606]}},{"properties":{"city":"WASHINGTON","anc":"1A","latitude":38.93658085,"blocksiteaddress":"1300 B/O SPRING RD NW","longitude":-77.03092064,"id":"a7p3i355a3gl","offense":"ROBBERY","state":"DC","ward":1},"type":"Feature","geometry":{"type":"Point","coordinates":[-77.03092064,38.93658085]}},{"properties":{"city":"WASHINGTON","anc":"1A","latitude":38.92812323,"blocksiteaddress":"COLUMBIA RD NW &amp; GEORGIA AVE NW","longitude":-77.02309489,"id":"a7p3i353sq6a","offense":"ROBBERY","state":"DC","ward":1},"type":"Feature","geometry":{"type":"Point","coordinates":[-77.02309489,38.92812323]}},{"properties":{"city":"WASHINGTON","anc":"1A","latitude":38.93414775,"blocksiteaddress":"1400 B/O OAK ST NW","longitude":-77.03401292,"id":"a7p3i3g5ulot","offense":"ROBBERY","state":"DC","ward":1},"type":"Feature","geometry":{"type":"Point","coordinates":[-77.03401292,38.93414775]}},{"properties":{"city":"WASHINGTON","anc":"1A","latitude":38.93667129,"blocksiteaddress":"3600 B/O 14TH ST NW","longitude":-77.03273024,"id":"a7p3i38i1idt","offense":"ROBBERY","state":"DC","ward":1},"type":"Feature","geometry":{"type":"Point","coordinates":[-77.03273024,38.93667129]}},{"properties":{"city":"WASHINGTON","anc":"1A","latitude":38.93125089,"blocksiteaddress":"1500 B/O PARK RD NW","longitude":-77.03540634,"id":"a7p3i35nj40u","offense":"ROBBERY","state":"DC","ward":1},"type":"Feature","geometry":{"type":"Point","coordinates":[-77.03540634,38.93125089]}},{"properties":{"city":"WASHINGTON","anc":"1A","latitude":38.9331663,"blocksiteaddress":"14TH ST NW &amp; MERIDIAN PL NW","longitude":-77.03273142,"id":"a7p3i3iguqyo","offense":"ROBBERY","state":"DC","ward":1},"type":"Feature","geometry":{"type":"Point","coordinates":[-77.03273142,38.9331663]}},{"properties":{"city":"WASHINGTON","anc":"1A","latitude":38.93060755,"blocksiteaddress":"1400 B/O PARK RD NW","longitude":-77.03381171,"id":"a7p3i3bizrkb","offense":"ROBBERY","state":"DC","ward":1},"type":"Feature","geometry":{"type":"Point","coordinates":[-77.03381171,38.93060755]}},{"properties":{"city":"WASHINGTON","anc":"1A","latitude":38.92880506,"blocksiteaddress":"14TH ST NW &amp; IRVING ST NW","longitude":-77.03261236,"id":"a7p3i3chd6eg","offense":"ROBBERY","state":"DC","ward":1},"type":"Feature","geometry":{"type":"Point","coordinates":[-77.03261236,38.92880506]}},{"properties":{"city":"WASHINGTON","anc":"1A","latitude":38.93069449,"blocksiteaddress":"11TH ST NW &amp; LAMONT ST NW","longitude":-77.02799016,"id":"a7p3i3f1ur1h","offense":"ROBBERY","state":"DC","ward":1},"type":"Feature","geometry":{"type":"Point","coordinates":[-77.02799016,38.93069449]}},{"properties":{"city":"WASHINGTON","anc":"1A","latitude":38.92872657,"blocksiteaddress":"1400 B/O IRVING ST NW","longitude":-77.03397113,"id":"a7p3i3f6rr5q","offense":"ROBBERY","state":"DC","ward":1},"type":"Feature","geometry":{"type":"Point","coordinates":[-77.03397113,38.92872657]}},{"properties":{"city":"WASHINGTON","anc":"1A","latitude":38.935212,"blocksiteaddress":"3500 B/O 14TH ST NW","longitude":-77.03272625,"id":"a7p3i37whh4c","offense":"ROBBERY","state":"DC","ward":1},"type":"Feature","geometry":{"type":"Point","coordinates":[-77.03272625,38.935212]}},{"properties":{"city":"WASHINGTON","anc":"1A","latitude":38.9293127,"blocksiteaddress":"3100 B/O SHERMAN AVE NW","longitude":-77.02630554,"id":"a7p3i3h434kd","offense":"ROBBERY","state":"DC","ward":1},"type":"Feature","geometry":{"type":"Point","coordinates":[-77.02630554,38.9293127]}},{"properties":{"city":"WASHINGTON","anc":"1A","latitude":38.92962722,"blocksiteaddress":"1300 B/O KENYON ST NW","longitude":-77.03138125,"id":"a7p3i32rldkj","offense":"ROBBERY","state":"DC","ward":1},"type":"Feature","geometry":{"type":"Point","coordinates":[-77.03138125,38.92962722]}},{"properties":{"city":"WASHINGTON","anc":"1A","latitude":38.92754177,"blocksiteaddress":"14TH ST NW &amp; COLUMBIA RD NW","longitude":-77.03245367,"id":"a7p3i3iinup7","offense":"ROBBERY","state":"DC","ward":1},"type":"Feature","geometry":{"type":"Point","coordinates":[-77.03245367,38.92754177]}},{"properties":{"city":"WASHINGTON","anc":"1A","latitude":38.93612739,"blocksiteaddress":"1100 B/O SPRING RD NW","longitude":-77.02910866,"id":"a7p3i3bbtnuk","offense":"ROBBERY","state":"DC","ward":1},"type":"Feature","geometry":{"type":"Point","coordinates":[-77.02910866,38.93612739]}},{"properties":{"city":"WASHINGTON","anc":"1A","latitude":38.92632549,"blocksiteaddress":"15TH ST NW &amp; HARVARD ST NW","longitude":-77.03548373,"id":"a7p3i3b00o13","offense":"ROBBERY","state":"DC","ward":1},"type":"Feature","geometry":{"type":"Point","coordinates":[-77.03548373,38.92632549]}},{"properties":{"city":"WASHINGTON","anc":"1A","latitude":38.93523529,"blocksiteaddress":"1400 B/O OTIS PL NW","longitude":-77.03377303,"id":"a7p3i3deb79t","offense":"ROBBERY","state":"DC","ward":1},"type":"Feature","geometry":{"type":"Point","coordinates":[-77.03377303,38.93523529]}},{"properties":{"city":"WASHINGTON","anc":"1A","latitude":38.93125779,"blocksiteaddress":"3300 B/O 11TH ST NW","longitude":-77.0281249,"id":"a7p3i32z145h","offense":"ROBBERY","state":"DC","ward":1},"type":"Feature","geometry":{"type":"Point","coordinates":[-77.0281249,38.93125779]}},{"properties":{"city":"WASHINGTON","anc":"1A","latitude":38.93540393,"blocksiteaddress":"700 B/O PRINCETON PL NW","longitude":-77.0226418,"id":"a7p3i3b0veth","offense":"ROBBERY","state":"DC","ward":1},"type":"Feature","geometry":{"type":"Point","coordinates":[-77.0226418,38.93540393]}},{"properties":{"city":"WASHINGTON","anc":"1A","latitude":38.93257741,"blocksiteaddress":"1100 B/O MONROE ST NW","longitude":-77.02910288,"id":"a7p3i37t7r0t","offense":"ROBBERY","state":"DC","ward":1},"type":"Feature","geometry":{"type":"Point","coordinates":[-77.02910288,38.93257741]}},{"properties":{"city":"WASHINGTON","anc":"1A","latitude":38.935212,"blocksiteaddress":"3500 B/O 14TH ST NW","longitude":-77.03272625,"id":"a7p3i3g4pwuh","offense":"ROBBERY","state":"DC","ward":1},"type":"Feature","geometry":{"type":"Point","coordinates":[-77.03272625,38.935212]}},{"properties":{"city":"WASHINGTON","anc":"1A","latitude":38.93648807,"blocksiteaddress":"1400 B/O PERRY PL NW","longitude":-77.03358079,"id":"a7p3i3f0ofhv","offense":"ROBBERY","state":"DC","ward":1},"type":"Feature","geometry":{"type":"Point","coordinates":[-77.03358079,38.93648807]}},{"properties":{"city":"WASHINGTON","anc":"1A","latitude":38.92872657,"blocksiteaddress":"1400 B/O IRVING ST NW","longitude":-77.03397113,"id":"a7p3i33cj9cl","offense":"ROBBERY","state":"DC","ward":1},"type":"Feature","geometry":{"type":"Point","coordinates":[-77.03397113,38.92872657]}},{"properties":{"city":"WASHINGTON","anc":"1B","latitude":38.91699049,"blocksiteaddress":"9TH ST NW &amp; U ST NW","longitude":-77.0239553,"id":"a7p3i38gxmky","offense":"ROBBERY","state":"DC","ward":1},"type":"Feature","geometry":{"type":"Point","coordinates":[-77.0239553,38.91699049]}},{"properties":{"city":"WASHINGTON","anc":"1B","latitude":38.92028654,"blocksiteaddress":"1300 B/O FLORIDA AVE NW","longitude":-77.03081029,"id":"a7p3i3ebya1b","offense":"ROBBERY","state":"DC","ward":1},"type":"Feature","geometry":{"type":"Point","coordinates":[-77.03081029,38.92028654]}},{"properties":{"city":"WASHINGTON","anc":"1B","latitude":38.91918516,"blocksiteaddress":"14TH ST NW &amp; W ST NW","longitude":-77.03195149,"id":"a7p3i3gbryxa","offense":"ROBBERY","state":"DC","ward":1},"type":"Feature","geometry":{"type":"Point","coordinates":[-77.03195149,38.91918516]}},{"properties":{"city":"WASHINGTON","anc":"1B","latitude":38.91520026,"blocksiteaddress":"1800 B/O 9TH ST NW","longitude":-77.02396718,"id":"a7p3i36dxqwc","offense":"ROBBERY","state":"DC","ward":1},"type":"Feature","geometry":{"type":"Point","coordinates":[-77.02396718,38.91520026]}},{"properties":{"city":"WASHINGTON","anc":"1B","latitude":38.91408294,"blocksiteaddress":"10TH ST NW &amp; S ST NW","longitude":-77.02599037,"id":"a7p3i33s4s8a","offense":"ROBBERY","state":"DC","ward":1},"type":"Feature","geometry":{"type":"Point","coordinates":[-77.02599037,38.91408294]}},{"properties":{"city":"WASHINGTON","anc":"1B","latitude":38.92581436,"blocksiteaddress":"1000 B/O GIRARD ST NW","longitude":-77.02642209,"id":"a7p3i3hc1m8q","offense":"ROBBERY","state":"DC","ward":1},"type":"Feature","geometry":{"type":"Point","coordinates":[-77.02642209,38.92581436]}},{"properties":{"city":"WASHINGTON","anc":"1B","latitude":38.91864897,"blocksiteaddress":"2100 B/O 14TH ST NW","longitude":-77.0319519,"id":"a7p3i3bn9jbe","offense":"ROBBERY","state":"DC","ward":1},"type":"Feature","geometry":{"type":"Point","coordinates":[-77.0319519,38.91864897]}},{"properties":{"city":"WASHINGTON","anc":"1B","latitude":38.9230975,"blocksiteaddress":"2500 B/O 11TH ST NW","longitude":-77.02703696,"id":"a7p3i394xv3s","offense":"ROBBERY","state":"DC","ward":1},"type":"Feature","geometry":{"type":"Point","coordinates":[-77.02703696,38.9230975]}},{"properties":{"city":"WASHINGTON","anc":"1B","latitude":38.9166854,"blocksiteaddress":"1900 B/O 3RD ST NW","longitude":-77.01587804,"id":"a7p3i37riefp","offense":"ROBBERY","state":"DC","ward":1},"type":"Feature","geometry":{"type":"Point","coordinates":[-77.01587804,38.9166854]}},{"properties":{"city":"WASHINGTON","anc":"1B","latitude":38.9242166,"blocksiteaddress":"2600 B/O 14TH ST NW","longitude":-77.03222071,"id":"a7p3i3i0ie5v","offense":"ROBBERY","state":"DC","ward":1},"type":"Feature","geometry":{"type":"Point","coordinates":[-77.03222071,38.9242166]}},{"properties":{"city":"WASHINGTON","anc":"1B","latitude":38.91699954,"blocksiteaddress":"1300 B/O U ST NW","longitude":-77.03067922,"id":"a7p3i354z9bq","offense":"ROBBERY","state":"DC","ward":1},"type":"Feature","geometry":{"type":"Point","coordinates":[-77.03067922,38.91699954]}},{"properties":{"city":"WASHINGTON","anc":"1B","latitude":38.91811272,"blocksiteaddress":"14TH ST NW &amp; V ST NW","longitude":-77.03195227,"id":"a7p3i3itzkkr","offense":"ROBBERY","state":"DC","ward":1},"type":"Feature","geometry":{"type":"Point","coordinates":[-77.03195227,38.91811272]}},{"properties":{"city":"WASHINGTON","anc":"1B","latitude":38.9264976,"blocksiteaddress":"700 B/O GRESHAM PL NW","longitude":-77.0243692,"id":"a7p3i3gmyagz","offense":"ROBBERY","state":"DC","ward":1},"type":"Feature","geometry":{"type":"Point","coordinates":[-77.0243692,38.9264976]}},{"properties":{"city":"WASHINGTON","anc":"1B","latitude":38.92418347,"blocksiteaddress":"EUCLID ST NW &amp; GEORGIA AVE NW","longitude":-77.02252289,"id":"a7p3i3grsw36","offense":"ROBBERY","state":"DC","ward":1},"type":"Feature","geometry":{"type":"Point","coordinates":[-77.02252289,38.92418347]}},{"properties":{"city":"WASHINGTON","anc":"1B","latitude":38.91997345,"blocksiteaddress":"2200 B/O 11TH ST NW","longitude":-77.02703614,"id":"a7p3i3flfhqe","offense":"ROBBERY","state":"DC","ward":1},"type":"Feature","geometry":{"type":"Point","coordinates":[-77.02703614,38.91997345]}},{"properties":{"city":"WASHINGTON","anc":"1B","latitude":38.91557389,"blocksiteaddress":"13TH ST NW &amp; T ST NW","longitude":-77.02962147,"id":"a7p3i386wvus","offense":"ROBBERY","state":"DC","ward":1},"type":"Feature","geometry":{"type":"Point","coordinates":[-77.02962147,38.91557389]}},{"properties":{"city":"WASHINGTON","anc":"1B","latitude":38.91811413,"blocksiteaddress":"NEW HAMPSHIRE AVE NW &amp; V ST NW","longitude":-77.03549348,"id":"a7p3i3epy9jb","offense":"ROBBERY","state":"DC","ward":1},"type":"Feature","geometry":{"type":"Point","coordinates":[-77.03549348,38.91811413]}},{"properties":{"city":"WASHINGTON","anc":"1B","latitude":38.92440066,"blocksiteaddress":"2600 B/O SHERMAN AVE NW","longitude":-77.0255754,"id":"a7p3i337s9yu","offense":"ROBBERY","state":"DC","ward":1},"type":"Feature","geometry":{"type":"Point","coordinates":[-77.0255754,38.92440066]}},{"properties":{"city":"WASHINGTON","anc":"1B","latitude":38.92309629,"blocksiteaddress":"2500 B/O 13TH ST NW","longitude":-77.02970805,"id":"a7p3i36if8wo","offense":"ROBBERY","state":"DC","ward":1},"type":"Feature","geometry":{"type":"Point","coordinates":[-77.02970805,38.92309629]}},{"properties":{"city":"WASHINGTON","anc":"1B","latitude":38.91700012,"blocksiteaddress":"1200 B/O U ST NW","longitude":-77.02885258,"id":"a7p3i35ulbjz","offense":"ROBBERY","state":"DC","ward":1},"type":"Feature","geometry":{"type":"Point","coordinates":[-77.02885258,38.91700012]}},{"properties":{"city":"WASHINGTON","anc":"1B","latitude":38.92606687,"blocksiteaddress":"2800 B/O 14TH ST NW","longitude":-77.03237262,"id":"a7p3i3hie6y4","offense":"ROBBERY","state":"DC","ward":1},"type":"Feature","geometry":{"type":"Point","coordinates":[-77.03237262,38.92606687]}},{"properties":{"city":"WASHINGTON","anc":"1B","latitude":38.92242573,"blocksiteaddress":"1200 B/O CLIFTON ST NW","longitude":-77.02882839,"id":"a7p3i3ah6i73","offense":"ROBBERY","state":"DC","ward":1},"type":"Feature","geometry":{"type":"Point","coordinates":[-77.02882839,38.92242573]}},{"properties":{"city":"WASHINGTON","anc":"1B","latitude":38.91811264,"blocksiteaddress":"12TH ST NW &amp; V ST NW","longitude":-77.02808416,"id":"a7p3i3ie8s3k","offense":"ROBBERY","state":"DC","ward":1},"type":"Feature","geometry":{"type":"Point","coordinates":[-77.02808416,38.91811264]}},{"properties":{"city":"WASHINGTON","anc":"1B","latitude":38.91557251,"blocksiteaddress":"1300 B/O T ST NW","longitude":-77.03078844,"id":"a7p3i3iaa6ob","offense":"ROBBERY","state":"DC","ward":1},"type":"Feature","geometry":{"type":"Point","coordinates":[-77.03078844,38.91557251]}},{"properties":{"city":"WASHINGTON","anc":"1B","latitude":38.92336456,"blocksiteaddress":"2500 B/O 15TH ST NW","longitude":-77.03530909,"id":"a7p3i3i2a719","offense":"ROBBERY","state":"DC","ward":1},"type":"Feature","geometry":{"type":"Point","coordinates":[-77.03530909,38.92336456]}},{"properties":{"city":"WASHINGTON","anc":"1B","latitude":38.92606687,"blocksiteaddress":"2800 B/O 14TH ST NW","longitude":-77.03237262,"id":"a7p3i3hl5674","offense":"ROBBERY","state":"DC","ward":1},"type":"Feature","geometry":{"type":"Point","coordinates":[-77.03237262,38.92606687]}},{"properties":{"city":"WASHINGTON","anc":"1B","latitude":38.9181134,"blocksiteaddress":"1500 B/O V ST NW","longitude":-77.03552738,"id":"a7p3i3dmtml5","offense":"ROBBERY","state":"DC","ward":1},"type":"Feature","geometry":{"type":"Point","coordinates":[-77.03552738,38.9181134]}},{"properties":{"city":"WASHINGTON","anc":"1B","latitude":38.91701078,"blocksiteaddress":"2000 B/O GEORGIA AVE NW","longitude":-77.02189474,"id":"a7p3i375omnm","offense":"ROBBERY","state":"DC","ward":1},"type":"Feature","geometry":{"type":"Point","coordinates":[-77.02189474,38.91701078]}},{"properties":{"city":"WASHINGTON","anc":"1B","latitude":38.92096281,"blocksiteaddress":"BARRY PL NW &amp; GEORGIA AVE NW","longitude":-77.02205749,"id":"a7p3i36zhi4q","offense":"ROBBERY","state":"DC","ward":1},"type":"Feature","geometry":{"type":"Point","coordinates":[-77.02205749,38.92096281]}},{"properties":{"city":"WASHINGTON","anc":"1B","latitude":38.91520026,"blocksiteaddress":"1800 B/O 9TH ST NW","longitude":-77.02396718,"id":"a7p3i3gwbhnr","offense":"ROBBERY","state":"DC","ward":1},"type":"Feature","geometry":{"type":"Point","coordinates":[-77.02396718,38.91520026]}},{"properties":{"city":"WASHINGTON","anc":"1B","latitude":38.91776413,"blocksiteaddress":"9TH ST NW &amp; V ST NW","longitude":-77.02394325,"id":"a7p3i36txw68","offense":"ROBBERY","state":"DC","ward":1},"type":"Feature","geometry":{"type":"Point","coordinates":[-77.02394325,38.91776413]}},{"properties":{"city":"WASHINGTON","anc":"1B","latitude":38.91594571,"blocksiteaddress":"300 B/O T ST NW","longitude":-77.01665223,"id":"a7p3i3e58xvt","offense":"ROBBERY","state":"DC","ward":1},"type":"Feature","geometry":{"type":"Point","coordinates":[-77.01665223,38.91594571]}},{"properties":{"city":"WASHINGTON","anc":"1B","latitude":38.92378719,"blocksiteaddress":"1100 B/O EUCLID ST NW","longitude":-77.02756157,"id":"a7p3i3d97t36","offense":"ROBBERY","state":"DC","ward":1},"type":"Feature","geometry":{"type":"Point","coordinates":[-77.02756157,38.92378719]}},{"properties":{"city":"WASHINGTON","anc":"1B","latitude":38.91520026,"blocksiteaddress":"1800 B/O 9TH ST NW","longitude":-77.02396718,"id":"a7p3i3artuig","offense":"ROBBERY","state":"DC","ward":1},"type":"Feature","geometry":{"type":"Point","coordinates":[-77.02396718,38.91520026]}},{"properties":{"city":"WASHINGTON","anc":"1C","latitude":38.92009125,"blocksiteaddress":"2300 B/O 19TH ST NW","longitude":-77.04526847,"id":"a7p3i3ih2m8u","offense":"ROBBERY","state":"DC","ward":1},"type":"Feature","geometry":{"type":"Point","coordinates":[-77.04526847,38.92009125]}},{"properties":{"city":"WASHINGTON","anc":"1C","latitude":38.92309789,"blocksiteaddress":"1800 B/O ADAMS MILL RD NW","longitude":-77.04301755,"id":"a7p3i38cczrb","offense":"ROBBERY","state":"DC","ward":1},"type":"Feature","geometry":{"type":"Point","coordinates":[-77.04301755,38.92309789]}},{"properties":{"city":"WASHINGTON","anc":"1C","latitude":38.92135128,"blocksiteaddress":"17TH ST NW &amp; KALORAMA RD NW","longitude":-77.03888874,"id":"a7p3i36ikjyp","offense":"ROBBERY","state":"DC","ward":1},"type":"Feature","geometry":{"type":"Point","coordinates":[-77.03888874,38.92135128]}},{"properties":{"city":"WASHINGTON","anc":"1C","latitude":38.92468337,"blocksiteaddress":"1600 B/O FULLER ST NW","longitude":-77.03777943,"id":"a7p3i3eyt5t3","offense":"ROBBERY","state":"DC","ward":1},"type":"Feature","geometry":{"type":"Point","coordinates":[-77.03777943,38.92468337]}},{"properties":{"city":"WASHINGTON","anc":"1C","latitude":38.92225524,"blocksiteaddress":"2400 B/O 17TH ST NW","longitude":-77.03894358,"id":"a7p3i3ercv3p","offense":"ROBBERY","state":"DC","ward":1},"type":"Feature","geometry":{"type":"Point","coordinates":[-77.03894358,38.92225524]}},{"properties":{"city":"WASHINGTON","anc":"1C","latitude":38.92323549,"blocksiteaddress":"1900 B/O CALVERT ST NW","longitude":-77.04597673,"id":"a7p3i3g3tz5u","offense":"ROBBERY","state":"DC","ward":1},"type":"Feature","geometry":{"type":"Point","coordinates":[-77.04597673,38.92323549]}},{"properties":{"city":"WASHINGTON","anc":"1C","latitude":38.9201256,"blocksiteaddress":"2300 B/O 18TH ST NW","longitude":-77.04185915,"id":"a7p3i3g9assy","offense":"ROBBERY","state":"DC","ward":1},"type":"Feature","geometry":{"type":"Point","coordinates":[-77.04185915,38.9201256]}},{"properties":{"city":"WASHINGTON","anc":"1C","latitude":38.92188819,"blocksiteaddress":"2400 B/O ONTARIO RD NW","longitude":-77.04015234,"id":"a7p3i3a4lt3a","offense":"ROBBERY","state":"DC","ward":1},"type":"Feature","geometry":{"type":"Point","coordinates":[-77.04015234,38.92188819]}},{"properties":{"city":"WASHINGTON","anc":"1C","latitude":38.92323549,"blocksiteaddress":"1900 B/O CALVERT ST NW","longitude":-77.04597673,"id":"a7p3i3bg690y","offense":"ROBBERY","state":"DC","ward":1},"type":"Feature","geometry":{"type":"Point","coordinates":[-77.04597673,38.92323549]}},{"properties":{"city":"WASHINGTON","anc":"1C","latitude":38.92492537,"blocksiteaddress":"1700 B/O LANIER PL NW","longitude":-77.04139722,"id":"a7p3i3c0trgf","offense":"ROBBERY","state":"DC","ward":1},"type":"Feature","geometry":{"type":"Point","coordinates":[-77.04139722,38.92492537]}},{"properties":{"city":"WASHINGTON","anc":"1C","latitude":38.92547246,"blocksiteaddress":"18TH ST NW &amp; ONTARIO RD NW","longitude":-77.04160431,"id":"a7p3i3emudmm","offense":"ROBBERY","state":"DC","ward":1},"type":"Feature","geometry":{"type":"Point","coordinates":[-77.04160431,38.92547246]}},{"properties":{"city":"WASHINGTON","anc":"1C","latitude":38.92673632,"blocksiteaddress":"1600 B/O ARGONNE PL NW","longitude":-77.03792352,"id":"a7p3i36mvnqn","offense":"ROBBERY","state":"DC","ward":1},"type":"Feature","geometry":{"type":"Point","coordinates":[-77.03792352,38.92673632]}},{"properties":{"city":"WASHINGTON","anc":"1C","latitude":38.92170634,"blocksiteaddress":"2400 B/O 18TH ST NW","longitude":-77.04239169,"id":"a7p3i39orsi9","offense":"ROBBERY","state":"DC","ward":1},"type":"Feature","geometry":{"type":"Point","coordinates":[-77.04239169,38.92170634]}},{"properties":{"city":"WASHINGTON","anc":"1C","latitude":38.91920216,"blocksiteaddress":"2200 B/O 18TH ST NW","longitude":-77.04168132,"id":"a7p3i35zswbu","offense":"ROBBERY","state":"DC","ward":1},"type":"Feature","geometry":{"type":"Point","coordinates":[-77.04168132,38.91920216]}},{"properties":{"city":"WASHINGTON","anc":"1C","latitude":38.92391765,"blocksiteaddress":"2500 B/O MOZART PL NW","longitude":-77.03780325,"id":"a7p3i3d6bgg1","offense":"ROBBERY","state":"DC","ward":1},"type":"Feature","geometry":{"type":"Point","coordinates":[-77.03780325,38.92391765]}},{"properties":{"city":"WASHINGTON","anc":"1C","latitude":38.92320061,"blocksiteaddress":"1600 B/O EUCLID ST NW","longitude":-77.03774636,"id":"a7p3i39a4w0h","offense":"ROBBERY","state":"DC","ward":1},"type":"Feature","geometry":{"type":"Point","coordinates":[-77.03774636,38.92320061]}},{"properties":{"city":"WASHINGTON","anc":"1D","latitude":38.92980825,"blocksiteaddress":"3100 B/O 16TH ST NW","longitude":-77.03646811,"id":"a7p3i38b014c","offense":"ROBBERY","state":"DC","ward":1},"type":"Feature","geometry":{"type":"Point","coordinates":[-77.03646811,38.92980825]}},{"properties":{"city":"WASHINGTON","anc":"1D","latitude":38.92868771,"blocksiteaddress":"16TH ST NW &amp; IRVING ST NW","longitude":-77.0364765,"id":"a7p3i3g9yhx2","offense":"ROBBERY","state":"DC","ward":1},"type":"Feature","geometry":{"type":"Point","coordinates":[-77.0364765,38.92868771]}},{"properties":{"city":"WASHINGTON","anc":"1D","latitude":38.93203243,"blocksiteaddress":"1600 B/O PARK RD NW","longitude":-77.03751114,"id":"a7p3i33k7r88","offense":"ROBBERY","state":"DC","ward":1},"type":"Feature","geometry":{"type":"Point","coordinates":[-77.03751114,38.93203243]}},{"properties":{"city":"WASHINGTON","anc":"1C","latitude":38.92161738,"blocksiteaddress":"2300 B/O CHAMPLAIN ST NW","longitude":-77.04129822,"id":"a7p3i3chqsb6","offense":"SEX ABUSE","state":"DC","ward":1},"type":"Feature","geometry":{"type":"Point","coordinates":[-77.04129822,38.92161738]}},{"properties":{"city":"WASHINGTON","anc":"1A","latitude":38.933518,"blocksiteaddress":"700 B/O NEWTON PL NW","longitude":-77.02517103,"id":"a7p3i39c8ibg","offense":"STOLEN AUTO","state":"DC","ward":1},"type":"Feature","geometry":{"type":"Point","coordinates":[-77.02517103,38.933518]}},{"properties":{"city":"WASHINGTON","anc":"1A","latitude":38.92742599,"blocksiteaddress":"1400 B/O COLUMBIA RD NW","longitude":-77.03407927,"id":"a7p3i33t9kdh","offense":"STOLEN AUTO","state":"DC","ward":1},"type":"Feature","geometry":{"type":"Point","coordinates":[-77.03407927,38.92742599]}},{"properties":{"city":"WASHINGTON","anc":"1A","latitude":38.92812323,"blocksiteaddress":"COLUMBIA RD NW &amp; GEORGIA AVE NW","longitude":-77.02309489,"id":"a7p3i38nufpw","offense":"STOLEN AUTO","state":"DC","ward":1},"type":"Feature","geometry":{"type":"Point","coordinates":[-77.02309489,38.92812323]}},{"properties":{"city":"WASHINGTON","anc":"1A","latitude":38.93101455,"blocksiteaddress":"3200 B/O PARK PL NW","longitude":-77.01846812,"id":"a7p3i3bazey0","offense":"STOLEN AUTO","state":"DC","ward":1},"type":"Feature","geometry":{"type":"Point","coordinates":[-77.01846812,38.93101455]}},{"properties":{"city":"WASHINGTON","anc":"1B","latitude":38.92535298,"blocksiteaddress":"2700 B/O GEORGIA AVE NW","longitude":-77.02270708,"id":"a7p3i396em5d","offense":"STOLEN AUTO","state":"DC","ward":1},"type":"Feature","geometry":{"type":"Point","coordinates":[-77.02270708,38.92535298]}},{"properties":{"city":"WASHINGTON","anc":"1B","latitude":38.91755662,"blocksiteaddress":"2000 B/O 13TH ST NW","longitude":-77.0296207,"id":"a7p3i3b3313i","offense":"STOLEN AUTO","state":"DC","ward":1},"type":"Feature","geometry":{"type":"Point","coordinates":[-77.0296207,38.91755662]}},{"properties":{"city":"WASHINGTON","anc":"1B","latitude":38.9253191,"blocksiteaddress":"15TH ST NW &amp; GIRARD ST NW","longitude":-77.03542407,"id":"a7p3i3bak3j6","offense":"STOLEN AUTO","state":"DC","ward":1},"type":"Feature","geometry":{"type":"Point","coordinates":[-77.03542407,38.9253191]}},{"properties":{"city":"WASHINGTON","anc":"1B","latitude":38.92535298,"blocksiteaddress":"2700 B/O GEORGIA AVE NW","longitude":-77.02270708,"id":"a7p3i34v0gz0","offense":"STOLEN AUTO","state":"DC","ward":1},"type":"Feature","geometry":{"type":"Point","coordinates":[-77.02270708,38.92535298]}},{"properties":{"city":"WASHINGTON","anc":"1B","latitude":38.91590931,"blocksiteaddress":"4TH ST NW &amp; T ST NW","longitude":-77.01733189,"id":"a7p3i3if3wc5","offense":"STOLEN AUTO","state":"DC","ward":1},"type":"Feature","geometry":{"type":"Point","coordinates":[-77.01733189,38.91590931]}},{"properties":{"city":"WASHINGTON","anc":"1B","latitude":38.91793952,"blocksiteaddress":"2000 B/O 2ND ST NW","longitude":-77.01463988,"id":"a7p3i3eblxkd","offense":"STOLEN AUTO","state":"DC","ward":1},"type":"Feature","geometry":{"type":"Point","coordinates":[-77.01463988,38.91793952]}},{"properties":{"city":"WASHINGTON","anc":"1B","latitude":38.92155609,"blocksiteaddress":"1400 B/O CHAPIN ST NW","longitude":-77.03357196,"id":"a7p3i3fc4uf7","offense":"STOLEN AUTO","state":"DC","ward":1},"type":"Feature","geometry":{"type":"Point","coordinates":[-77.03357196,38.92155609]}},{"properties":{"city":"WASHINGTON","anc":"1B","latitude":38.91994265,"blocksiteaddress":"2200 B/O 12TH ST NW","longitude":-77.02808585,"id":"a7p3i3d94z72","offense":"STOLEN AUTO","state":"DC","ward":1},"type":"Feature","geometry":{"type":"Point","coordinates":[-77.02808585,38.91994265]}},{"properties":{"city":"WASHINGTON","anc":"1B","latitude":38.9222922,"blocksiteaddress":"2300 B/O SHERMAN AVE NW","longitude":-77.0253422,"id":"a7p3i34scdyd","offense":"STOLEN AUTO","state":"DC","ward":1},"type":"Feature","geometry":{"type":"Point","coordinates":[-77.0253422,38.9222922]}},{"properties":{"city":"WASHINGTON","anc":"1B","latitude":38.92440066,"blocksiteaddress":"2600 B/O SHERMAN AVE NW","longitude":-77.0255754,"id":"a7p3i34ytfrs","offense":"STOLEN AUTO","state":"DC","ward":1},"type":"Feature","geometry":{"type":"Point","coordinates":[-77.0255754,38.92440066]}},{"properties":{"city":"WASHINGTON","anc":"1B","latitude":38.92145559,"blocksiteaddress":"15TH ST NW &amp; CHAPIN ST NW","longitude":-77.03521389,"id":"a7p3i3a22uo8","offense":"STOLEN AUTO","state":"DC","ward":1},"type":"Feature","geometry":{"type":"Point","coordinates":[-77.03521389,38.92145559]}},{"properties":{"city":"WASHINGTON","anc":"1B","latitude":38.91557374,"blocksiteaddress":"1100 B/O T ST NW","longitude":-77.02755912,"id":"a7p3i3bvfh30","offense":"STOLEN AUTO","state":"DC","ward":1},"type":"Feature","geometry":{"type":"Point","coordinates":[-77.02755912,38.91557374]}},{"properties":{"city":"WASHINGTON","anc":"1C","latitude":38.92150232,"blocksiteaddress":"2400 B/O 19TH ST NW","longitude":-77.04592026,"id":"a7p3i36fyfqk","offense":"STOLEN AUTO","state":"DC","ward":1},"type":"Feature","geometry":{"type":"Point","coordinates":[-77.04592026,38.92150232]}},{"properties":{"city":"WASHINGTON","anc":"1C","latitude":38.91780914,"blocksiteaddress":"1700 B/O FLORIDA AVE NW","longitude":-77.04040026,"id":"a7p3i3b8whxi","offense":"STOLEN AUTO","state":"DC","ward":1},"type":"Feature","geometry":{"type":"Point","coordinates":[-77.04040026,38.91780914]}},{"properties":{"city":"WASHINGTON","anc":"1C","latitude":38.92320061,"blocksiteaddress":"1600 B/O EUCLID ST NW","longitude":-77.03774636,"id":"a7p3i387kc7o","offense":"STOLEN AUTO","state":"DC","ward":1},"type":"Feature","geometry":{"type":"Point","coordinates":[-77.03774636,38.92320061]}},{"properties":{"city":"WASHINGTON","anc":"1C","latitude":38.91781949,"blocksiteaddress":"1800 B/O CALIFORNIA ST NW","longitude":-77.04295145,"id":"a7p3i34xgdvd","offense":"STOLEN AUTO","state":"DC","ward":1},"type":"Feature","geometry":{"type":"Point","coordinates":[-77.04295145,38.91781949]}},{"properties":{"city":"WASHINGTON","anc":"1C","latitude":38.92492537,"blocksiteaddress":"1700 B/O LANIER PL NW","longitude":-77.04139722,"id":"a7p3i3iec6t0","offense":"STOLEN AUTO","state":"DC","ward":1},"type":"Feature","geometry":{"type":"Point","coordinates":[-77.04139722,38.92492537]}},{"properties":{"city":"WASHINGTON","anc":"1C","latitude":38.92066603,"blocksiteaddress":"KALORAMA RD NW &amp; ONTARIO RD NW","longitude":-77.04004217,"id":"a7p3i3gqhbli","offense":"STOLEN AUTO","state":"DC","ward":1},"type":"Feature","geometry":{"type":"Point","coordinates":[-77.04004217,38.92066603]}},{"properties":{"city":"WASHINGTON","anc":"1D","latitude":38.93328755,"blocksiteaddress":"1800 B/O MONROE ST NW","longitude":-77.04273874,"id":"a7p3i35wab73","offense":"STOLEN AUTO","state":"DC","ward":1},"type":"Feature","geometry":{"type":"Point","coordinates":[-77.04273874,38.93328755]}},{"properties":{"city":"WASHINGTON","anc":"1D","latitude":38.93013037,"blocksiteaddress":"3100 B/O 17TH ST NW","longitude":-77.03885345,"id":"a7p3i3b0eex2","offense":"STOLEN AUTO","state":"DC","ward":1},"type":"Feature","geometry":{"type":"Point","coordinates":[-77.03885345,38.93013037]}},{"properties":{"city":"WASHINGTON","anc":"1A","latitude":38.93242374,"blocksiteaddress":"3300 B/O 16TH ST NW","longitude":-77.03642259,"id":"a7p3i36c3ioq","offense":"THEFT","state":"DC","ward":1},"type":"Feature","geometry":{"type":"Point","coordinates":[-77.03642259,38.93242374]}},{"properties":{"city":"WASHINGTON","anc":"1A","latitude":38.93256775,"blocksiteaddress":"1400 B/O NEWTON ST NW","longitude":-77.03460074,"id":"a7p3i37lxfh4","offense":"THEFT","state":"DC","ward":1},"type":"Feature","geometry":{"type":"Point","coordinates":[-77.03460074,38.93256775]}},{"properties":{"city":"WASHINGTON","anc":"1A","latitude":38.92980825,"blocksiteaddress":"3100 B/O 16TH ST NW","longitude":-77.03646811,"id":"a7p3i3j0wwqn","offense":"THEFT","state":"DC","ward":1},"type":"Feature","geometry":{"type":"Point","coordinates":[-77.03646811,38.92980825]}},{"properties":{"city":"WASHINGTON","anc":"1A","latitude":38.93456614,"blocksiteaddress":"1200 B/O OTIS PL NW","longitude":-77.02919662,"id":"a7p3i3d5n6dp","offense":"THEFT","state":"DC","ward":1},"type":"Feature","geometry":{"type":"Point","coordinates":[-77.02919662,38.93456614]}},{"properties":{"city":"WASHINGTON","anc":"1A","latitude":38.93357734,"blocksiteaddress":"1400 B/O MERIDIAN PL NW","longitude":-77.03426567,"id":"a7p3i3617sn7","offense":"THEFT","state":"DC","ward":1},"type":"Feature","geometry":{"type":"Point","coordinates":[-77.03426567,38.93357734]}},{"properties":{"city":"WASHINGTON","anc":"1A","latitude":38.93739606,"blocksiteaddress":"1400 B/O SPRING RD NW","longitude":-77.03431782,"id":"a7p3i39uqf26","offense":"THEFT","state":"DC","ward":1},"type":"Feature","geometry":{"type":"Point","coordinates":[-77.03431782,38.93739606]}},{"properties":{"city":"WASHINGTON","anc":"1A","latitude":38.93648807,"blocksiteaddress":"1400 B/O PERRY PL NW","longitude":-77.03358079,"id":"a7p3i3eooube","offense":"THEFT","state":"DC","ward":1},"type":"Feature","geometry":{"type":"Point","coordinates":[-77.03358079,38.93648807]}},{"properties":{"city":"WASHINGTON","anc":"1A","latitude":38.92952144,"blocksiteaddress":"3100 B/O 14TH ST NW","longitude":-77.032764,"id":"a7p3i36145br","offense":"THEFT","state":"DC","ward":1},"type":"Feature","geometry":{"type":"Point","coordinates":[-77.032764,38.92952144]}},{"properties":{"city":"WASHINGTON","anc":"1A","latitude":38.92882316,"blocksiteaddress":"IRVING ST NW &amp; SHERMAN AVE NW","longitude":-77.02623246,"id":"a7p3i36e1ewq","offense":"THEFT","state":"DC","ward":1},"type":"Feature","geometry":{"type":"Point","coordinates":[-77.02623246,38.92882316]}},{"properties":{"city":"WASHINGTON","anc":"1A","latitude":38.92952146,"blocksiteaddress":"3100 B/O 14TH ST NW","longitude":-77.03269481,"id":"a7p3i3h0z0ej","offense":"THEFT","state":"DC","ward":1},"type":"Feature","geometry":{"type":"Point","coordinates":[-77.03269481,38.92952146]}},{"properties":{"city":"WASHINGTON","anc":"1A","latitude":38.92952144,"blocksiteaddress":"3100 B/O 14TH ST NW","longitude":-77.032764,"id":"a7p3i3fgpj87","offense":"THEFT","state":"DC","ward":1},"type":"Feature","geometry":{"type":"Point","coordinates":[-77.032764,38.92952144]}},{"properties":{"city":"WASHINGTON","anc":"1A","latitude":38.92813645,"blocksiteaddress":"3000 B/O 13TH ST NW","longitude":-77.02970762,"id":"a7p3i39cjt8f","offense":"THEFT","state":"DC","ward":1},"type":"Feature","geometry":{"type":"Point","coordinates":[-77.02970762,38.92813645]}},{"properties":{"city":"WASHINGTON","anc":"1A","latitude":38.92952144,"blocksiteaddress":"3100 B/O 14TH ST NW","longitude":-77.032764,"id":"a7p3i3c9omd0","offense":"THEFT","state":"DC","ward":1},"type":"Feature","geometry":{"type":"Point","coordinates":[-77.032764,38.92952144]}},{"properties":{"city":"WASHINGTON","anc":"1A","latitude":38.92952144,"blocksiteaddress":"3100 B/O 14TH ST NW","longitude":-77.032764,"id":"a7p3i331i3hw","offense":"THEFT","state":"DC","ward":1},"type":"Feature","geometry":{"type":"Point","coordinates":[-77.032764,38.92952144]}},{"properties":{"city":"WASHINGTON","anc":"1A","latitude":38.93060755,"blocksiteaddress":"1400 B/O PARK RD NW","longitude":-77.03381171,"id":"a7p3i33ydptq","offense":"THEFT","state":"DC","ward":1},"type":"Feature","geometry":{"type":"Point","coordinates":[-77.03381171,38.93060755]}},{"properties":{"city":"WASHINGTON","anc":"1A","latitude":38.92952144,"blocksiteaddress":"3100 B/O 14TH ST NW","longitude":-77.032764,"id":"a7p3i3dlxmg3","offense":"THEFT","state":"DC","ward":1},"type":"Feature","geometry":{"type":"Point","coordinates":[-77.032764,38.92952144]}},{"properties":{"city":"WASHINGTON","anc":"1A","latitude":38.92903929,"blocksiteaddress":"600 B/O IRVING ST NW","longitude":-77.02213507,"id":"a7p3i3epa856","offense":"THEFT","state":"DC","ward":1},"type":"Feature","geometry":{"type":"Point","coordinates":[-77.02213507,38.92903929]}},{"properties":{"city":"WASHINGTON","anc":"1A","latitude":38.92993741,"blocksiteaddress":"700 B/O KENYON ST NW","longitude":-77.02487387,"id":"a7p3i33kqt3n","offense":"THEFT","state":"DC","ward":1},"type":"Feature","geometry":{"type":"Point","coordinates":[-77.02487387,38.92993741]}},{"properties":{"city":"WASHINGTON","anc":"1A","latitude":38.92952144,"blocksiteaddress":"3100 B/O 14TH ST NW","longitude":-77.032764,"id":"a7p3i3hcvrx8","offense":"THEFT","state":"DC","ward":1},"type":"Feature","geometry":{"type":"Point","coordinates":[-77.032764,38.92952144]}},{"properties":{"city":"WASHINGTON","anc":"1A","latitude":38.93646256,"blocksiteaddress":"600 B/O QUEBEC PL NW","longitude":-77.02024989,"id":"a7p3i38qja5m","offense":"THEFT","state":"DC","ward":1},"type":"Feature","geometry":{"type":"Point","coordinates":[-77.02024989,38.93646256]}},{"properties":{"city":"WASHINGTON","anc":"1A","latitude":38.93190228,"blocksiteaddress":"700 B/O MORTON ST NW","longitude":-77.02516974,"id":"a7p3i340olu1","offense":"THEFT","state":"DC","ward":1},"type":"Feature","geometry":{"type":"Point","coordinates":[-77.02516974,38.93190228]}},{"properties":{"city":"WASHINGTON","anc":"1A","latitude":38.92674247,"blocksiteaddress":"1300 B/O HARVARD ST NW","longitude":-77.03109202,"id":"a7p3i39rrnnt","offense":"THEFT","state":"DC","ward":1},"type":"Feature","geometry":{"type":"Point","coordinates":[-77.03109202,38.92674247]}},{"properties":{"city":"WASHINGTON","anc":"1A","latitude":38.92952144,"blocksiteaddress":"3100 B/O 14TH ST NW","longitude":-77.032764,"id":"a7p3i372ki47","offense":"THEFT","state":"DC","ward":1},"type":"Feature","geometry":{"type":"Point","coordinates":[-77.032764,38.92952144]}},{"properties":{"city":"WASHINGTON","anc":"1A","latitude":38.93257741,"blocksiteaddress":"1100 B/O MONROE ST NW","longitude":-77.02910288,"id":"a7p3i398vqac","offense":"THEFT","state":"DC","ward":1},"type":"Feature","geometry":{"type":"Point","coordinates":[-77.02910288,38.93257741]}},{"properties":{"city":"WASHINGTON","anc":"1A","latitude":38.93346739,"blocksiteaddress":"3500 B/O 13TH ST NW","longitude":-77.02972534,"id":"a7p3i3e8y8zs","offense":"THEFT","state":"DC","ward":1},"type":"Feature","geometry":{"type":"Point","coordinates":[-77.02972534,38.93346739]}},{"properties":{"city":"WASHINGTON","anc":"1A","latitude":38.93083891,"blocksiteaddress":"1300 B/O PARK RD NW","longitude":-77.03111421,"id":"a7p3i3iguid4","offense":"THEFT","state":"DC","ward":1},"type":"Feature","geometry":{"type":"Point","coordinates":[-77.03111421,38.93083891]}},{"properties":{"city":"WASHINGTON","anc":"1A","latitude":38.93153342,"blocksiteaddress":"3300 B/O GEORGIA AVE NW","longitude":-77.02355559,"id":"a7p3i3edmikc","offense":"THEFT","state":"DC","ward":1},"type":"Feature","geometry":{"type":"Point","coordinates":[-77.02355559,38.93153342]}},{"properties":{"city":"WASHINGTON","anc":"1A","latitude":38.92977458,"blocksiteaddress":"3200 B/O 14TH ST NW","longitude":-77.03274105,"id":"a7p3i3i0his6","offense":"THEFT","state":"DC","ward":1},"type":"Feature","geometry":{"type":"Point","coordinates":[-77.03274105,38.92977458]}},{"properties":{"city":"WASHINGTON","anc":"1A","latitude":38.92952144,"blocksiteaddress":"3100 B/O 14TH ST NW","longitude":-77.032764,"id":"a7p3i3elq4m5","offense":"THEFT","state":"DC","ward":1},"type":"Feature","geometry":{"type":"Point","coordinates":[-77.032764,38.92952144]}},{"properties":{"city":"WASHINGTON","anc":"1A","latitude":38.93581905,"blocksiteaddress":"1400 B/O PARKWOOD PL NW","longitude":-77.033614,"id":"a7p3i395rzom","offense":"THEFT","state":"DC","ward":1},"type":"Feature","geometry":{"type":"Point","coordinates":[-77.033614,38.93581905]}},{"properties":{"city":"WASHINGTON","anc":"1A","latitude":38.9356798,"blocksiteaddress":"3600 B/O GEORGIA AVE NW","longitude":-77.02422939,"id":"a7p3i3ive39s","offense":"THEFT","state":"DC","ward":1},"type":"Feature","geometry":{"type":"Point","coordinates":[-77.02422939,38.9356798]}},{"properties":{"city":"WASHINGTON","anc":"1A","latitude":38.92952144,"blocksiteaddress":"3100 B/O 14TH ST NW","longitude":-77.032764,"id":"a7p3i35kzjsg","offense":"THEFT","state":"DC","ward":1},"type":"Feature","geometry":{"type":"Point","coordinates":[-77.032764,38.92952144]}},{"properties":{"city":"WASHINGTON","anc":"1A","latitude":38.93372688,"blocksiteaddress":"3500 B/O GEORGIA AVE NW","longitude":-77.02386542,"id":"a7p3i3bew5h0","offense":"THEFT","state":"DC","ward":1},"type":"Feature","geometry":{"type":"Point","coordinates":[-77.02386542,38.93372688]}},{"properties":{"city":"WASHINGTON","anc":"1A","latitude":38.92952144,"blocksiteaddress":"3100 B/O 14TH ST NW","longitude":-77.032764,"id":"a7p3i3d38i8l","offense":"THEFT","state":"DC","ward":1},"type":"Feature","geometry":{"type":"Point","coordinates":[-77.032764,38.92952144]}},{"properties":{"city":"WASHINGTON","anc":"1A","latitude":38.92952144,"blocksiteaddress":"3100 B/O 14TH ST NW","longitude":-77.032764,"id":"a7p3i3dbwvmy","offense":"THEFT","state":"DC","ward":1},"type":"Feature","geometry":{"type":"Point","coordinates":[-77.032764,38.92952144]}},{"properties":{"city":"WASHINGTON","anc":"1A","latitude":38.92952144,"blocksiteaddress":"3100 B/O 14TH ST NW","longitude":-77.032764,"id":"a7p3i3f7pg6f","offense":"THEFT","state":"DC","ward":1},"type":"Feature","geometry":{"type":"Point","coordinates":[-77.032764,38.92952144]}},{"properties":{"city":"WASHINGTON","anc":"1A","latitude":38.92952144,"blocksiteaddress":"3100 B/O 14TH ST NW","longitude":-77.032764,"id":"a7p3i36nnvjg","offense":"THEFT","state":"DC","ward":1},"type":"Feature","geometry":{"type":"Point","coordinates":[-77.032764,38.92952144]}},{"properties":{"city":"WASHINGTON","anc":"1A","latitude":38.9356798,"blocksiteaddress":"3600 B/O GEORGIA AVE NW","longitude":-77.02422939,"id":"a7p3i3gggjl2","offense":"THEFT","state":"DC","ward":1},"type":"Feature","geometry":{"type":"Point","coordinates":[-77.02422939,38.9356798]}},{"properties":{"city":"WASHINGTON","anc":"1A","latitude":38.92872657,"blocksiteaddress":"1400 B/O IRVING ST NW","longitude":-77.03397113,"id":"a7p3i3ed0m7y","offense":"THEFT","state":"DC","ward":1},"type":"Feature","geometry":{"type":"Point","coordinates":[-77.03397113,38.92872657]}},{"properties":{"city":"WASHINGTON","anc":"1A","latitude":38.92777177,"blocksiteaddress":"1000 B/O COLUMBIA RD NW","longitude":-77.02669124,"id":"a7p3i3iy0mwe","offense":"THEFT","state":"DC","ward":1},"type":"Feature","geometry":{"type":"Point","coordinates":[-77.02669124,38.92777177]}},{"properties":{"city":"WASHINGTON","anc":"1A","latitude":38.9315334,"blocksiteaddress":"3300 B/O GEORGIA AVE NW","longitude":-77.02362479,"id":"a7p3i3hg46pm","offense":"THEFT","state":"DC","ward":1},"type":"Feature","geometry":{"type":"Point","coordinates":[-77.02362479,38.9315334]}},{"properties":{"city":"WASHINGTON","anc":"1A","latitude":38.93153037,"blocksiteaddress":"1200 B/O PARK RD NW","longitude":-77.02909965,"id":"a7p3i3f6vvhx","offense":"THEFT","state":"DC","ward":1},"type":"Feature","geometry":{"type":"Point","coordinates":[-77.02909965,38.93153037]}},{"properties":{"city":"WASHINGTON","anc":"1A","latitude":38.92952144,"blocksiteaddress":"3100 B/O 14TH ST NW","longitude":-77.032764,"id":"a7p3i39m9ba7","offense":"THEFT","state":"DC","ward":1},"type":"Feature","geometry":{"type":"Point","coordinates":[-77.032764,38.92952144]}},{"properties":{"city":"WASHINGTON","anc":"1A","latitude":38.92952144,"blocksiteaddress":"3100 B/O 14TH ST NW","longitude":-77.032764,"id":"a7p3i3fr0rkn","offense":"THEFT","state":"DC","ward":1},"type":"Feature","geometry":{"type":"Point","coordinates":[-77.032764,38.92952144]}},{"properties":{"city":"WASHINGTON","anc":"1A","latitude":38.92952144,"blocksiteaddress":"3100 B/O 14TH ST NW","longitude":-77.032764,"id":"a7p3i356304u","offense":"THEFT","state":"DC","ward":1},"type":"Feature","geometry":{"type":"Point","coordinates":[-77.032764,38.92952144]}},{"properties":{"city":"WASHINGTON","anc":"1A","latitude":38.92768858,"blocksiteaddress":"1100 B/O COLUMBIA RD NW","longitude":-77.02849038,"id":"a7p3i36fvzam","offense":"THEFT","state":"DC","ward":1},"type":"Feature","geometry":{"type":"Point","coordinates":[-77.02849038,38.92768858]}},{"properties":{"city":"WASHINGTON","anc":"1A","latitude":38.93529567,"blocksiteaddress":"1300 B/O PARKWOOD PL NW","longitude":-77.03179896,"id":"a7p3i3ig1hcb","offense":"THEFT","state":"DC","ward":1},"type":"Feature","geometry":{"type":"Point","coordinates":[-77.03179896,38.93529567]}},{"properties":{"city":"WASHINGTON","anc":"1A","latitude":38.92952144,"blocksiteaddress":"3100 B/O 14TH ST NW","longitude":-77.032764,"id":"a7p3i3iimxie","offense":"THEFT","state":"DC","ward":1},"type":"Feature","geometry":{"type":"Point","coordinates":[-77.032764,38.92952144]}},{"properties":{"city":"WASHINGTON","anc":"1A","latitude":38.93153037,"blocksiteaddress":"1200 B/O PARK RD NW","longitude":-77.02909965,"id":"a7p3i33j6dty","offense":"THEFT","state":"DC","ward":1},"type":"Feature","geometry":{"type":"Point","coordinates":[-77.02909965,38.93153037]}},{"properties":{"city":"WASHINGTON","anc":"1A","latitude":38.93118515,"blocksiteaddress":"14TH ST NW &amp; MONROE ST NW","longitude":-77.03271611,"id":"a7p3i3g7zvcl","offense":"THEFT","state":"DC","ward":1},"type":"Feature","geometry":{"type":"Point","coordinates":[-77.03271611,38.93118515]}},{"properties":{"city":"WASHINGTON","anc":"1A","latitude":38.92952144,"blocksiteaddress":"3100 B/O 14TH ST NW","longitude":-77.032764,"id":"a7p3i3gu6b29","offense":"THEFT","state":"DC","ward":1},"type":"Feature","geometry":{"type":"Point","coordinates":[-77.032764,38.92952144]}},{"properties":{"city":"WASHINGTON","anc":"1A","latitude":38.92768858,"blocksiteaddress":"1100 B/O COLUMBIA RD NW","longitude":-77.02849038,"id":"a7p3i3beab26","offense":"THEFT","state":"DC","ward":1},"type":"Feature","geometry":{"type":"Point","coordinates":[-77.02849038,38.92768858]}},{"properties":{"city":"WASHINGTON","anc":"1A","latitude":38.92962722,"blocksiteaddress":"1300 B/O KENYON ST NW","longitude":-77.03138125,"id":"a7p3i35nwuuv","offense":"THEFT","state":"DC","ward":1},"type":"Feature","geometry":{"type":"Point","coordinates":[-77.03138125,38.92962722]}},{"properties":{"city":"WASHINGTON","anc":"1B","latitude":38.91701078,"blocksiteaddress":"2000 B/O GEORGIA AVE NW","longitude":-77.02189474,"id":"a7p3i3hx91n5","offense":"THEFT","state":"DC","ward":1},"type":"Feature","geometry":{"type":"Point","coordinates":[-77.02189474,38.91701078]}},{"properties":{"city":"WASHINGTON","anc":"1B","latitude":38.9183915,"blocksiteaddress":"2100 B/O GEORGIA AVE NW","longitude":-77.02189884,"id":"a7p3i34w1ewl","offense":"THEFT","state":"DC","ward":1},"type":"Feature","geometry":{"type":"Point","coordinates":[-77.02189884,38.9183915]}},{"properties":{"city":"WASHINGTON","anc":"1B","latitude":38.92535298,"blocksiteaddress":"2700 B/O GEORGIA AVE NW","longitude":-77.02270708,"id":"a7p3i3e0i0c3","offense":"THEFT","state":"DC","ward":1},"type":"Feature","geometry":{"type":"Point","coordinates":[-77.02270708,38.92535298]}},{"properties":{"city":"WASHINGTON","anc":"1B","latitude":38.92028654,"blocksiteaddress":"1300 B/O FLORIDA AVE NW","longitude":-77.03081029,"id":"a7p3i3fop8cn","offense":"THEFT","state":"DC","ward":1},"type":"Feature","geometry":{"type":"Point","coordinates":[-77.03081029,38.92028654]}},{"properties":{"city":"WASHINGTON","anc":"1B","latitude":38.91483338,"blocksiteaddress":"1800 B/O 12TH ST NW","longitude":-77.02807987,"id":"a7p3i36mix4x","offense":"THEFT","state":"DC","ward":1},"type":"Feature","geometry":{"type":"Point","coordinates":[-77.02807987,38.91483338]}},{"properties":{"city":"WASHINGTON","anc":"1B","latitude":38.92482444,"blocksiteaddress":"1000 B/O FAIRMONT ST NW","longitude":-77.02634713,"id":"a7p3i3789w7g","offense":"THEFT","state":"DC","ward":1},"type":"Feature","geometry":{"type":"Point","coordinates":[-77.02634713,38.92482444]}},{"properties":{"city":"WASHINGTON","anc":"1B","latitude":38.91522348,"blocksiteaddress":"500 B/O FLORIDA AVE NW","longitude":-77.01945329,"id":"a7p3i3e9iasl","offense":"THEFT","state":"DC","ward":1},"type":"Feature","geometry":{"type":"Point","coordinates":[-77.01945329,38.91522348]}},{"properties":{"city":"WASHINGTON","anc":"1B","latitude":38.91483042,"blocksiteaddress":"1800 B/O 8TH ST NW","longitude":-77.02294335,"id":"a7p3i338i7p4","offense":"THEFT","state":"DC","ward":1},"type":"Feature","geometry":{"type":"Point","coordinates":[-77.02294335,38.91483042]}},{"properties":{"city":"WASHINGTON","anc":"1B","latitude":38.92641541,"blocksiteaddress":"1400 B/O HARVARD ST NW","longitude":-77.03394509,"id":"a7p3i38p5270","offense":"THEFT","state":"DC","ward":1},"type":"Feature","geometry":{"type":"Point","coordinates":[-77.03394509,38.92641541]}},{"properties":{"city":"WASHINGTON","anc":"1B","latitude":38.91701078,"blocksiteaddress":"2000 B/O GEORGIA AVE NW","longitude":-77.02189474,"id":"a7p3i3ftkeq1","offense":"THEFT","state":"DC","ward":1},"type":"Feature","geometry":{"type":"Point","coordinates":[-77.02189474,38.91701078]}},{"properties":{"city":"WASHINGTON","anc":"1B","latitude":38.92159579,"blocksiteaddress":"2300 B/O 11TH ST NW","longitude":-77.02703639,"id":"a7p3i3ck8672","offense":"THEFT","state":"DC","ward":1},"type":"Feature","geometry":{"type":"Point","coordinates":[-77.02703639,38.92159579]}},{"properties":{"city":"WASHINGTON","anc":"1B","latitude":38.92242573,"blocksiteaddress":"1200 B/O CLIFTON ST NW","longitude":-77.02882839,"id":"a7p3i3gz4sh8","offense":"THEFT","state":"DC","ward":1},"type":"Feature","geometry":{"type":"Point","coordinates":[-77.02882839,38.92242573]}},{"properties":{"city":"WASHINGTON","anc":"1B","latitude":38.92376527,"blocksiteaddress":"1300 B/O EUCLID ST NW","longitude":-77.03092712,"id":"a7p3i38z40qz","offense":"THEFT","state":"DC","ward":1},"type":"Feature","geometry":{"type":"Point","coordinates":[-77.03092712,38.92376527]}},{"properties":{"city":"WASHINGTON","anc":"1B","latitude":38.92237549,"blocksiteaddress":"2400 B/O 15TH ST NW","longitude":-77.03526247,"id":"a7p3i3i5rq03","offense":"THEFT","state":"DC","ward":1},"type":"Feature","geometry":{"type":"Point","coordinates":[-77.03526247,38.92237549]}},{"properties":{"city":"WASHINGTON","anc":"1B","latitude":38.91483048,"blocksiteaddress":"1800 B/O 7TH ST NW","longitude":-77.02191821,"id":"a7p3i38w9i4h","offense":"THEFT","state":"DC","ward":1},"type":"Feature","geometry":{"type":"Point","coordinates":[-77.02191821,38.91483048]}},{"properties":{"city":"WASHINGTON","anc":"1B","latitude":38.92137329,"blocksiteaddress":"2400 B/O 14TH ST NW","longitude":-77.03190158,"id":"a7p3i39qxl57","offense":"THEFT","state":"DC","ward":1},"type":"Feature","geometry":{"type":"Point","coordinates":[-77.03190158,38.92137329]}},{"properties":{"city":"WASHINGTON","anc":"1B","latitude":38.91742799,"blocksiteaddress":"300 B/O ELM ST NW","longitude":-77.01675708,"id":"a7p3i35noof0","offense":"THEFT","state":"DC","ward":1},"type":"Feature","geometry":{"type":"Point","coordinates":[-77.01675708,38.91742799]}},{"properties":{"city":"WASHINGTON","anc":"1B","latitude":38.91700012,"blocksiteaddress":"1200 B/O U ST NW","longitude":-77.02885258,"id":"a7p3i39iji8n","offense":"THEFT","state":"DC","ward":1},"type":"Feature","geometry":{"type":"Point","coordinates":[-77.02885258,38.91700012]}},{"properties":{"city":"WASHINGTON","anc":"1B","latitude":38.91755503,"blocksiteaddress":"2000 B/O 12TH ST NW","longitude":-77.02808455,"id":"a7p3i3hmnhxx","offense":"THEFT","state":"DC","ward":1},"type":"Feature","geometry":{"type":"Point","coordinates":[-77.02808455,38.91755503]}},{"properties":{"city":"WASHINGTON","anc":"1B","latitude":38.91755503,"blocksiteaddress":"2000 B/O 12TH ST NW","longitude":-77.02808455,"id":"a7p3i3cstk0r","offense":"THEFT","state":"DC","ward":1},"type":"Feature","geometry":{"type":"Point","coordinates":[-77.02808455,38.91755503]}},{"properties":{"city":"WASHINGTON","anc":"1B","latitude":38.92237549,"blocksiteaddress":"2400 B/O 15TH ST NW","longitude":-77.03526247,"id":"a7p3i3h9fumx","offense":"THEFT","state":"DC","ward":1},"type":"Feature","geometry":{"type":"Point","coordinates":[-77.03526247,38.92237549]}},{"properties":{"city":"WASHINGTON","anc":"1B","latitude":38.91699954,"blocksiteaddress":"1300 B/O U ST NW","longitude":-77.03067922,"id":"a7p3i34sao1t","offense":"THEFT","state":"DC","ward":1},"type":"Feature","geometry":{"type":"Point","coordinates":[-77.03067922,38.91699954]}},{"properties":{"city":"WASHINGTON","anc":"1B","latitude":38.91483048,"blocksiteaddress":"1800 B/O 7TH ST NW","longitude":-77.02191821,"id":"a7p3i3526df9","offense":"THEFT","state":"DC","ward":1},"type":"Feature","geometry":{"type":"Point","coordinates":[-77.02191821,38.91483048]}},{"properties":{"city":"WASHINGTON","anc":"1B","latitude":38.92376377,"blocksiteaddress":"14TH ST NW &amp; EUCLID ST NW","longitude":-77.03214344,"id":"a7p3i3e4c5wn","offense":"THEFT","state":"DC","ward":1},"type":"Feature","geometry":{"type":"Point","coordinates":[-77.03214344,38.92376377]}},{"properties":{"city":"WASHINGTON","anc":"1B","latitude":38.91630196,"blocksiteaddress":"1900 B/O 14TH ST NW","longitude":-77.03195077,"id":"a7p3i3iullbs","offense":"THEFT","state":"DC","ward":1},"type":"Feature","geometry":{"type":"Point","coordinates":[-77.03195077,38.91630196]}},{"properties":{"city":"WASHINGTON","anc":"1B","latitude":38.92581436,"blocksiteaddress":"1000 B/O GIRARD ST NW","longitude":-77.02642209,"id":"a7p3i3cjhp26","offense":"THEFT","state":"DC","ward":1},"type":"Feature","geometry":{"type":"Point","coordinates":[-77.02642209,38.92581436]}},{"properties":{"city":"WASHINGTON","anc":"1B","latitude":38.91628651,"blocksiteaddress":"1900 B/O 11TH ST NW","longitude":-77.02703726,"id":"a7p3i38sff76","offense":"THEFT","state":"DC","ward":1},"type":"Feature","geometry":{"type":"Point","coordinates":[-77.02703726,38.91628651]}},{"properties":{"city":"WASHINGTON","anc":"1B","latitude":38.91864817,"blocksiteaddress":"2100 B/O 13TH ST NW","longitude":-77.02961971,"id":"a7p3i32wkl8b","offense":"THEFT","state":"DC","ward":1},"type":"Feature","geometry":{"type":"Point","coordinates":[-77.02961971,38.91864817]}},{"properties":{"city":"WASHINGTON","anc":"1B","latitude":38.91864817,"blocksiteaddress":"2100 B/O 13TH ST NW","longitude":-77.02961971,"id":"a7p3i33g37x1","offense":"THEFT","state":"DC","ward":1},"type":"Feature","geometry":{"type":"Point","coordinates":[-77.02961971,38.91864817]}},{"properties":{"city":"WASHINGTON","anc":"1B","latitude":38.92242704,"blocksiteaddress":"13TH ST NW &amp; CLIFTON ST NW","longitude":-77.02970458,"id":"a7p3i3d4wub8","offense":"THEFT","state":"DC","ward":1},"type":"Feature","geometry":{"type":"Point","coordinates":[-77.02970458,38.92242704]}},{"properties":{"city":"WASHINGTON","anc":"1B","latitude":38.92242805,"blocksiteaddress":"11TH ST NW &amp; CLIFTON ST NW","longitude":-77.02703612,"id":"a7p3i34pjoen","offense":"THEFT","state":"DC","ward":1},"type":"Feature","geometry":{"type":"Point","coordinates":[-77.02703612,38.92242805]}},{"properties":{"city":"WASHINGTON","anc":"1B","latitude":38.92355044,"blocksiteaddress":"1400 B/O EUCLID ST NW","longitude":-77.03309936,"id":"a7p3i3hnh9lu","offense":"THEFT","state":"DC","ward":1},"type":"Feature","geometry":{"type":"Point","coordinates":[-77.03309936,38.92355044]}},{"properties":{"city":"WASHINGTON","anc":"1B","latitude":38.9257485,"blocksiteaddress":"13TH ST NW &amp; GIRARD ST NW","longitude":-77.02971081,"id":"a7p3i343c3lg","offense":"THEFT","state":"DC","ward":1},"type":"Feature","geometry":{"type":"Point","coordinates":[-77.02971081,38.9257485]}},{"properties":{"city":"WASHINGTON","anc":"1B","latitude":38.92155609,"blocksiteaddress":"1400 B/O CHAPIN ST NW","longitude":-77.03357196,"id":"a7p3i33a5diw","offense":"THEFT","state":"DC","ward":1},"type":"Feature","geometry":{"type":"Point","coordinates":[-77.03357196,38.92155609]}},{"properties":{"city":"WASHINGTON","anc":"1B","latitude":38.92368269,"blocksiteaddress":"2400 B/O 6TH ST NW","longitude":-77.02128487,"id":"a7p3i3enlnmo","offense":"THEFT","state":"DC","ward":1},"type":"Feature","geometry":{"type":"Point","coordinates":[-77.02128487,38.92368269]}},{"properties":{"city":"WASHINGTON","anc":"1B","latitude":38.92137329,"blocksiteaddress":"2400 B/O 14TH ST NW","longitude":-77.03190158,"id":"a7p3i37ma18h","offense":"THEFT","state":"DC","ward":1},"type":"Feature","geometry":{"type":"Point","coordinates":[-77.03190158,38.92137329]}},{"properties":{"city":"WASHINGTON","anc":"1B","latitude":38.91553598,"blocksiteaddress":"600 B/O T ST NW","longitude":-77.02124532,"id":"a7p3i3dj34a5","offense":"THEFT","state":"DC","ward":1},"type":"Feature","geometry":{"type":"Point","coordinates":[-77.02124532,38.91553598]}},{"properties":{"city":"WASHINGTON","anc":"1B","latitude":38.91700032,"blocksiteaddress":"1100 B/O U ST NW","longitude":-77.02756356,"id":"a7p3i36qe0un","offense":"THEFT","state":"DC","ward":1},"type":"Feature","geometry":{"type":"Point","coordinates":[-77.02756356,38.91700032]}},{"properties":{"city":"WASHINGTON","anc":"1B","latitude":38.92137329,"blocksiteaddress":"2400 B/O 14TH ST NW","longitude":-77.03190158,"id":"a7p3i3a4gufj","offense":"THEFT","state":"DC","ward":1},"type":"Feature","geometry":{"type":"Point","coordinates":[-77.03190158,38.92137329]}},{"properties":{"city":"WASHINGTON","anc":"1B","latitude":38.91699912,"blocksiteaddress":"900 B/O U ST NW","longitude":-77.02488723,"id":"a7p3i3g9r3d5","offense":"THEFT","state":"DC","ward":1},"type":"Feature","geometry":{"type":"Point","coordinates":[-77.02488723,38.91699912]}},{"properties":{"city":"WASHINGTON","anc":"1C","latitude":38.92381839,"blocksiteaddress":"1700 B/O COLUMBIA RD NW","longitude":-77.0409895,"id":"a7p3i34iug0q","offense":"THEFT","state":"DC","ward":1},"type":"Feature","geometry":{"type":"Point","coordinates":[-77.0409895,38.92381839]}},{"properties":{"city":"WASHINGTON","anc":"1C","latitude":38.92564594,"blocksiteaddress":"1800 B/O CLYDESDALE PL NW","longitude":-77.04411812,"id":"a7p3i33rlpiz","offense":"THEFT","state":"DC","ward":1},"type":"Feature","geometry":{"type":"Point","coordinates":[-77.04411812,38.92564594]}},{"properties":{"city":"WASHINGTON","anc":"1C","latitude":38.92323753,"blocksiteaddress":"1800 B/O CALVERT ST NW","longitude":-77.04601789,"id":"a7p3i3d4a2dt","offense":"THEFT","state":"DC","ward":1},"type":"Feature","geometry":{"type":"Point","coordinates":[-77.04601789,38.92323753]}},{"properties":{"city":"WASHINGTON","anc":"1C","latitude":38.92544679,"blocksiteaddress":"2800 B/O ONTARIO RD NW","longitude":-77.04183921,"id":"a7p3i3eehozz","offense":"THEFT","state":"DC","ward":1},"type":"Feature","geometry":{"type":"Point","coordinates":[-77.04183921,38.92544679]}},{"properties":{"city":"WASHINGTON","anc":"1C","latitude":38.92158252,"blocksiteaddress":"1800 B/O COLUMBIA RD NW","longitude":-77.04349981,"id":"a7p3i37fox73","offense":"THEFT","state":"DC","ward":1},"type":"Feature","geometry":{"type":"Point","coordinates":[-77.04349981,38.92158252]}},{"properties":{"city":"WASHINGTON","anc":"1C","latitude":38.92170634,"blocksiteaddress":"2400 B/O 18TH ST NW","longitude":-77.04239169,"id":"a7p3i3bc5d7x","offense":"THEFT","state":"DC","ward":1},"type":"Feature","geometry":{"type":"Point","coordinates":[-77.04239169,38.92170634]}},{"properties":{"city":"WASHINGTON","anc":"1C","latitude":38.9201256,"blocksiteaddress":"2300 B/O 18TH ST NW","longitude":-77.04185915,"id":"a7p3i3gj87p8","offense":"THEFT","state":"DC","ward":1},"type":"Feature","geometry":{"type":"Point","coordinates":[-77.04185915,38.9201256]}},{"properties":{"city":"WASHINGTON","anc":"1C","latitude":38.92139723,"blocksiteaddress":"1800 B/O MINTWOOD PL NW","longitude":-77.04475146,"id":"a7p3i3fk2ry5","offense":"THEFT","state":"DC","ward":1},"type":"Feature","geometry":{"type":"Point","coordinates":[-77.04475146,38.92139723]}},{"properties":{"city":"WASHINGTON","anc":"1C","latitude":38.92630711,"blocksiteaddress":"1800 B/O SUMMIT PL NW","longitude":-77.04232228,"id":"a7p3i3b9392j","offense":"THEFT","state":"DC","ward":1},"type":"Feature","geometry":{"type":"Point","coordinates":[-77.04232228,38.92630711]}},{"properties":{"city":"WASHINGTON","anc":"1C","latitude":38.9201256,"blocksiteaddress":"2300 B/O 18TH ST NW","longitude":-77.04185915,"id":"a7p3i3cjhx9o","offense":"THEFT","state":"DC","ward":1},"type":"Feature","geometry":{"type":"Point","coordinates":[-77.04185915,38.9201256]}},{"properties":{"city":"WASHINGTON","anc":"1C","latitude":38.92519231,"blocksiteaddress":"LANIER PL NW &amp; ONTARIO RD NW","longitude":-77.04105072,"id":"a7p3i3e75g5p","offense":"THEFT","state":"DC","ward":1},"type":"Feature","geometry":{"type":"Point","coordinates":[-77.04105072,38.92519231]}},{"properties":{"city":"WASHINGTON","anc":"1C","latitude":38.9201256,"blocksiteaddress":"2300 B/O 18TH ST NW","longitude":-77.04185915,"id":"a7p3i33rxctn","offense":"THEFT","state":"DC","ward":1},"type":"Feature","geometry":{"type":"Point","coordinates":[-77.04185915,38.9201256]}},{"properties":{"city":"WASHINGTON","anc":"1C","latitude":38.9201256,"blocksiteaddress":"2300 B/O 18TH ST NW","longitude":-77.04185915,"id":"a7p3i3h8bdsh","offense":"THEFT","state":"DC","ward":1},"type":"Feature","geometry":{"type":"Point","coordinates":[-77.04185915,38.9201256]}},{"properties":{"city":"WASHINGTON","anc":"1C","latitude":38.9201256,"blocksiteaddress":"2300 B/O 18TH ST NW","longitude":-77.04185915,"id":"a7p3i38i0rhj","offense":"THEFT","state":"DC","ward":1},"type":"Feature","geometry":{"type":"Point","coordinates":[-77.04185915,38.9201256]}},{"properties":{"city":"WASHINGTON","anc":"1C","latitude":38.92309789,"blocksiteaddress":"1800 B/O ADAMS MILL RD NW","longitude":-77.04301755,"id":"a7p3i3hlg52f","offense":"THEFT","state":"DC","ward":1},"type":"Feature","geometry":{"type":"Point","coordinates":[-77.04301755,38.92309789]}},{"properties":{"city":"WASHINGTON","anc":"1C","latitude":38.916985,"blocksiteaddress":"18TH ST NW &amp; U ST NW","longitude":-77.04165444,"id":"a7p3i3bp2oma","offense":"THEFT","state":"DC","ward":1},"type":"Feature","geometry":{"type":"Point","coordinates":[-77.04165444,38.916985]}},{"properties":{"city":"WASHINGTON","anc":"1C","latitude":38.91828163,"blocksiteaddress":"2100 B/O 18TH ST NW","longitude":-77.04168078,"id":"a7p3i37bprb3","offense":"THEFT","state":"DC","ward":1},"type":"Feature","geometry":{"type":"Point","coordinates":[-77.04168078,38.91828163]}},{"properties":{"city":"WASHINGTON","anc":"1C","latitude":38.92170634,"blocksiteaddress":"2400 B/O 18TH ST NW","longitude":-77.04239169,"id":"a7p3i37k1q84","offense":"THEFT","state":"DC","ward":1},"type":"Feature","geometry":{"type":"Point","coordinates":[-77.04239169,38.92170634]}},{"properties":{"city":"WASHINGTON","anc":"1C","latitude":38.92309789,"blocksiteaddress":"1800 B/O ADAMS MILL RD NW","longitude":-77.04301755,"id":"a7p3i3esckov","offense":"THEFT","state":"DC","ward":1},"type":"Feature","geometry":{"type":"Point","coordinates":[-77.04301755,38.92309789]}},{"properties":{"city":"WASHINGTON","anc":"1C","latitude":38.9201256,"blocksiteaddress":"2300 B/O 18TH ST NW","longitude":-77.04185915,"id":"a7p3i3hypss9","offense":"THEFT","state":"DC","ward":1},"type":"Feature","geometry":{"type":"Point","coordinates":[-77.04185915,38.9201256]}},{"properties":{"city":"WASHINGTON","anc":"1C","latitude":38.92158252,"blocksiteaddress":"1800 B/O COLUMBIA RD NW","longitude":-77.04349981,"id":"a7p3i3gjtckz","offense":"THEFT","state":"DC","ward":1},"type":"Feature","geometry":{"type":"Point","coordinates":[-77.04349981,38.92158252]}},{"properties":{"city":"WASHINGTON","anc":"1C","latitude":38.92158252,"blocksiteaddress":"1800 B/O COLUMBIA RD NW","longitude":-77.04349981,"id":"a7p3i3cisspa","offense":"THEFT","state":"DC","ward":1},"type":"Feature","geometry":{"type":"Point","coordinates":[-77.04349981,38.92158252]}},{"properties":{"city":"WASHINGTON","anc":"1C","latitude":38.91493512,"blocksiteaddress":"1800 B/O CONNECTICUT AVE NW","longitude":-77.04622851,"id":"a7p3i346vu3q","offense":"THEFT","state":"DC","ward":1},"type":"Feature","geometry":{"type":"Point","coordinates":[-77.04622851,38.91493512]}},{"properties":{"city":"WASHINGTON","anc":"1C","latitude":38.9170247,"blocksiteaddress":"1700 B/O U ST NW","longitude":-77.03986248,"id":"a7p3i3dnnyyb","offense":"THEFT","state":"DC","ward":1},"type":"Feature","geometry":{"type":"Point","coordinates":[-77.03986248,38.9170247]}},{"properties":{"city":"WASHINGTON","anc":"1C","latitude":38.92204916,"blocksiteaddress":"1600 B/O KALORAMA RD NW","longitude":-77.03769407,"id":"a7p3i3d0ebgl","offense":"THEFT","state":"DC","ward":1},"type":"Feature","geometry":{"type":"Point","coordinates":[-77.03769407,38.92204916]}},{"properties":{"city":"WASHINGTON","anc":"1C","latitude":38.91493512,"blocksiteaddress":"1800 B/O CONNECTICUT AVE NW","longitude":-77.04622851,"id":"a7p3i3ao5rne","offense":"THEFT","state":"DC","ward":1},"type":"Feature","geometry":{"type":"Point","coordinates":[-77.04622851,38.91493512]}},{"properties":{"city":"WASHINGTON","anc":"1C","latitude":38.9207298,"blocksiteaddress":"1700 B/O KALORAMA RD NW","longitude":-77.03992682,"id":"a7p3i33r5e58","offense":"THEFT","state":"DC","ward":1},"type":"Feature","geometry":{"type":"Point","coordinates":[-77.03992682,38.9207298]}},{"properties":{"city":"WASHINGTON","anc":"1C","latitude":38.91781949,"blocksiteaddress":"1800 B/O CALIFORNIA ST NW","longitude":-77.04295145,"id":"a7p3i3dpt2ch","offense":"THEFT","state":"DC","ward":1},"type":"Feature","geometry":{"type":"Point","coordinates":[-77.04295145,38.91781949]}},{"properties":{"city":"WASHINGTON","anc":"1C","latitude":38.92323753,"blocksiteaddress":"1800 B/O CALVERT ST NW","longitude":-77.04601789,"id":"a7p3i3b5t3ao","offense":"THEFT","state":"DC","ward":1},"type":"Feature","geometry":{"type":"Point","coordinates":[-77.04601789,38.92323753]}},{"properties":{"city":"WASHINGTON","anc":"1C","latitude":38.92650295,"blocksiteaddress":"2900 B/O 18TH ST NW","longitude":-77.04137853,"id":"a7p3i3j0icil","offense":"THEFT","state":"DC","ward":1},"type":"Feature","geometry":{"type":"Point","coordinates":[-77.04137853,38.92650295]}},{"properties":{"city":"WASHINGTON","anc":"1C","latitude":38.92630605,"blocksiteaddress":"1700 B/O SUMMIT PL NW","longitude":-77.04094523,"id":"a7p3i38oiqcj","offense":"THEFT","state":"DC","ward":1},"type":"Feature","geometry":{"type":"Point","coordinates":[-77.04094523,38.92630605]}},{"properties":{"city":"WASHINGTON","anc":"1C","latitude":38.91891972,"blocksiteaddress":"2300 B/O CONNECTICUT AVE NW","longitude":-77.04881323,"id":"a7p3i3dgxk90","offense":"THEFT","state":"DC","ward":1},"type":"Feature","geometry":{"type":"Point","coordinates":[-77.04881323,38.91891972]}},{"properties":{"city":"WASHINGTON","anc":"1D","latitude":38.93058904,"blocksiteaddress":"3100 B/O 19TH ST NW","longitude":-77.04347186,"id":"a7p3i3i27bqa","offense":"THEFT","state":"DC","ward":1},"type":"Feature","geometry":{"type":"Point","coordinates":[-77.04347186,38.93058904]}},{"properties":{"city":"WASHINGTON","anc":"1D","latitude":38.93711469,"blocksiteaddress":"3600 B/O 16TH ST NW","longitude":-77.03644805,"id":"a7p3i3al1elr","offense":"THEFT","state":"DC","ward":1},"type":"Feature","geometry":{"type":"Point","coordinates":[-77.03644805,38.93711469]}},{"properties":{"city":"WASHINGTON","anc":"1D","latitude":38.93203243,"blocksiteaddress":"1600 B/O PARK RD NW","longitude":-77.03751114,"id":"a7p3i39yoljx","offense":"THEFT","state":"DC","ward":1},"type":"Feature","geometry":{"type":"Point","coordinates":[-77.03751114,38.93203243]}},{"properties":{"city":"WASHINGTON","anc":"1D","latitude":38.93247028,"blocksiteaddress":"1700 B/O PARK RD NW","longitude":-77.04008448,"id":"a7p3i34zp37n","offense":"THEFT","state":"DC","ward":1},"type":"Feature","geometry":{"type":"Point","coordinates":[-77.04008448,38.93247028]}},{"properties":{"city":"WASHINGTON","anc":"1D","latitude":38.93001716,"blocksiteaddress":"3100 B/O MOUNT PLEASANT ST NW","longitude":-77.0378676,"id":"a7p3i377x2e9","offense":"THEFT","state":"DC","ward":1},"type":"Feature","geometry":{"type":"Point","coordinates":[-77.0378676,38.93001716]}},{"properties":{"city":"WASHINGTON","anc":"1D","latitude":38.92799813,"blocksiteaddress":"1700 B/O HOBART ST NW","longitude":-77.04133096,"id":"a7p3i3huidf7","offense":"THEFT","state":"DC","ward":1},"type":"Feature","geometry":{"type":"Point","coordinates":[-77.04133096,38.92799813]}},{"properties":{"city":"WASHINGTON","anc":"2B","latitude":38.91556868,"blocksiteaddress":"14TH ST NW &amp; T ST NW","longitude":-77.03195552,"id":"a7p3i37n3ews","offense":"THEFT","state":"DC","ward":1},"type":"Feature","geometry":{"type":"Point","coordinates":[-77.03195552,38.91556868]}},{"properties":{"city":"WASHINGTON","anc":"1A","latitude":38.93188903,"blocksiteaddress":"1400 B/O MONROE ST NW","longitude":-77.03459104,"id":"a7p3i35qom5a","offense":"THEFT F/AUTO","state":"DC","ward":1},"type":"Feature","geometry":{"type":"Point","coordinates":[-77.03459104,38.93188903]}},{"properties":{"city":"WASHINGTON","anc":"1A","latitude":38.93188903,"blocksiteaddress":"1400 B/O MONROE ST NW","longitude":-77.03459104,"id":"a7p3i32vkkmj","offense":"THEFT F/AUTO","state":"DC","ward":1},"type":"Feature","geometry":{"type":"Point","coordinates":[-77.03459104,38.93188903]}},{"properties":{"city":"WASHINGTON","anc":"1A","latitude":38.93253537,"blocksiteaddress":"PARK RD NW &amp; WARDER ST NW","longitude":-77.02041917,"id":"a7p3i3dq5f12","offense":"THEFT F/AUTO","state":"DC","ward":1},"type":"Feature","geometry":{"type":"Point","coordinates":[-77.02041917,38.93253537]}},{"properties":{"city":"WASHINGTON","anc":"1A","latitude":38.93060755,"blocksiteaddress":"1400 B/O PARK RD NW","longitude":-77.03381171,"id":"a7p3i3elhief","offense":"THEFT F/AUTO","state":"DC","ward":1},"type":"Feature","geometry":{"type":"Point","coordinates":[-77.03381171,38.93060755]}},{"properties":{"city":"WASHINGTON","anc":"1A","latitude":38.93211465,"blocksiteaddress":"600 B/O MORTON ST NW","longitude":-77.02255815,"id":"a7p3i35zraxb","offense":"THEFT F/AUTO","state":"DC","ward":1},"type":"Feature","geometry":{"type":"Point","coordinates":[-77.02255815,38.93211465]}},{"properties":{"city":"WASHINGTON","anc":"1A","latitude":38.935212,"blocksiteaddress":"3500 B/O 14TH ST NW","longitude":-77.03272625,"id":"a7p3i3e0ps5r","offense":"THEFT F/AUTO","state":"DC","ward":1},"type":"Feature","geometry":{"type":"Point","coordinates":[-77.03272625,38.935212]}},{"properties":{"city":"WASHINGTON","anc":"1A","latitude":38.93372688,"blocksiteaddress":"3500 B/O GEORGIA AVE NW","longitude":-77.02386542,"id":"a7p3i35b3qu3","offense":"THEFT F/AUTO","state":"DC","ward":1},"type":"Feature","geometry":{"type":"Point","coordinates":[-77.02386542,38.93372688]}},{"properties":{"city":"WASHINGTON","anc":"1A","latitude":38.92758179,"blocksiteaddress":"1300 B/O COLUMBIA RD NW","longitude":-77.03111185,"id":"a7p3i3d9b48i","offense":"THEFT F/AUTO","state":"DC","ward":1},"type":"Feature","geometry":{"type":"Point","coordinates":[-77.03111185,38.92758179]}},{"properties":{"city":null,"anc":"1A","latitude":38.9341188,"blocksiteaddress":"CENTER ST NW &amp; MERIDIAN PL NW","longitude":-77.03564458,"id":"a7p3i330mcd7","offense":"THEFT F/AUTO","state":null,"ward":1},"type":"Feature","geometry":{"type":"Point","coordinates":[-77.03564458,38.9341188]}},{"properties":{"city":"WASHINGTON","anc":"1A","latitude":38.93188903,"blocksiteaddress":"1400 B/O MONROE ST NW","longitude":-77.03459104,"id":"a7p3i38iuchk","offense":"THEFT F/AUTO","state":"DC","ward":1},"type":"Feature","geometry":{"type":"Point","coordinates":[-77.03459104,38.93188903]}},{"properties":{"city":"WASHINGTON","anc":"1A","latitude":38.93646256,"blocksiteaddress":"600 B/O QUEBEC PL NW","longitude":-77.02024989,"id":"a7p3i397uv1a","offense":"THEFT F/AUTO","state":"DC","ward":1},"type":"Feature","geometry":{"type":"Point","coordinates":[-77.02024989,38.93646256]}},{"properties":{"city":"WASHINGTON","anc":"1A","latitude":38.93451807,"blocksiteaddress":"1400 B/O OGDEN ST NW","longitude":-77.03374321,"id":"a7p3i3c20kxo","offense":"THEFT F/AUTO","state":"DC","ward":1},"type":"Feature","geometry":{"type":"Point","coordinates":[-77.03374321,38.93451807]}},{"properties":{"city":"WASHINGTON","anc":"1A","latitude":38.92685409,"blocksiteaddress":"HARVARD ST NW &amp; SHERMAN AVE NW","longitude":-77.0259392,"id":"a7p3i36tbvo0","offense":"THEFT F/AUTO","state":"DC","ward":1},"type":"Feature","geometry":{"type":"Point","coordinates":[-77.0259392,38.92685409]}},{"properties":{"city":"WASHINGTON","anc":"1A","latitude":38.93069263,"blocksiteaddress":"1100 B/O LAMONT ST NW","longitude":-77.02884911,"id":"a7p3i3bcyi6i","offense":"THEFT F/AUTO","state":"DC","ward":1},"type":"Feature","geometry":{"type":"Point","coordinates":[-77.02884911,38.93069263]}},{"properties":{"city":"WASHINGTON","anc":"1A","latitude":38.93281309,"blocksiteaddress":"3400 B/O 14TH ST NW","longitude":-77.03272515,"id":"a7p3i3bqhbdn","offense":"THEFT F/AUTO","state":"DC","ward":1},"type":"Feature","geometry":{"type":"Point","coordinates":[-77.03272515,38.93281309]}},{"properties":{"city":"WASHINGTON","anc":"1A","latitude":38.93357734,"blocksiteaddress":"1400 B/O MERIDIAN PL NW","longitude":-77.03426567,"id":"a7p3i3aexhdi","offense":"THEFT F/AUTO","state":"DC","ward":1},"type":"Feature","geometry":{"type":"Point","coordinates":[-77.03426567,38.93357734]}},{"properties":{"city":"WASHINGTON","anc":"1A","latitude":38.93080052,"blocksiteaddress":"800 B/O LAMONT ST NW","longitude":-77.02600269,"id":"a7p3i3bsm4hz","offense":"THEFT F/AUTO","state":"DC","ward":1},"type":"Feature","geometry":{"type":"Point","coordinates":[-77.02600269,38.93080052]}},{"properties":{"city":"WASHINGTON","anc":"1A","latitude":38.93145247,"blocksiteaddress":"3300 B/O HOLMEAD PL NW","longitude":-77.03086846,"id":"a7p3i39vqblj","offense":"THEFT F/AUTO","state":"DC","ward":1},"type":"Feature","geometry":{"type":"Point","coordinates":[-77.03086846,38.93145247]}},{"properties":{"city":"WASHINGTON","anc":"1A","latitude":38.93301731,"blocksiteaddress":"GEORGIA AVE NW &amp; PARK RD NW","longitude":-77.02380117,"id":"a7p3i3etsc4r","offense":"THEFT F/AUTO","state":"DC","ward":1},"type":"Feature","geometry":{"type":"Point","coordinates":[-77.02380117,38.93301731]}},{"properties":{"city":"WASHINGTON","anc":"1A","latitude":38.93368023,"blocksiteaddress":"3500 B/O 11TH ST NW","longitude":-77.02849457,"id":"a7p3i3h339rb","offense":"THEFT F/AUTO","state":"DC","ward":1},"type":"Feature","geometry":{"type":"Point","coordinates":[-77.02849457,38.93368023]}},{"properties":{"city":"WASHINGTON","anc":"1A","latitude":38.93015373,"blocksiteaddress":"3200 B/O 13TH ST NW","longitude":-77.02974494,"id":"a7p3i38vt6ol","offense":"THEFT F/AUTO","state":"DC","ward":1},"type":"Feature","geometry":{"type":"Point","coordinates":[-77.02974494,38.93015373]}},{"properties":{"city":"WASHINGTON","anc":"1A","latitude":38.93332887,"blocksiteaddress":"3400 B/O HOLMEAD PL NW","longitude":-77.03086617,"id":"a7p3i37dygjn","offense":"THEFT F/AUTO","state":"DC","ward":1},"type":"Feature","geometry":{"type":"Point","coordinates":[-77.03086617,38.93332887]}},{"properties":{"city":"WASHINGTON","anc":"1A","latitude":38.9330698,"blocksiteaddress":"1500 B/O NEWTON ST NW","longitude":-77.03589699,"id":"a7p3i39fsyo9","offense":"THEFT F/AUTO","state":"DC","ward":1},"type":"Feature","geometry":{"type":"Point","coordinates":[-77.03589699,38.9330698]}},{"properties":{"city":"WASHINGTON","anc":"1A","latitude":38.931901,"blocksiteaddress":"1300 B/O MONROE ST NW","longitude":-77.03108123,"id":"a7p3i33d96s1","offense":"THEFT F/AUTO","state":"DC","ward":1},"type":"Feature","geometry":{"type":"Point","coordinates":[-77.03108123,38.931901]}},{"properties":{"city":"WASHINGTON","anc":"1A","latitude":38.9324817,"blocksiteaddress":"1300 B/O NEWTON ST NW","longitude":-77.03179951,"id":"a7p3i3gt1s5r","offense":"THEFT F/AUTO","state":"DC","ward":1},"type":"Feature","geometry":{"type":"Point","coordinates":[-77.03179951,38.9324817]}},{"properties":{"city":"WASHINGTON","anc":"1A","latitude":38.93125779,"blocksiteaddress":"3300 B/O 11TH ST NW","longitude":-77.0281249,"id":"a7p3i3e3jk3l","offense":"THEFT F/AUTO","state":"DC","ward":1},"type":"Feature","geometry":{"type":"Point","coordinates":[-77.0281249,38.93125779]}},{"properties":{"city":"WASHINGTON","anc":"1A","latitude":38.93357734,"blocksiteaddress":"1400 B/O MERIDIAN PL NW","longitude":-77.03426567,"id":"a7p3i3cq844a","offense":"THEFT F/AUTO","state":"DC","ward":1},"type":"Feature","geometry":{"type":"Point","coordinates":[-77.03426567,38.93357734]}},{"properties":{"city":"WASHINGTON","anc":"1A","latitude":38.93534222,"blocksiteaddress":"3500 B/O HOLMEAD PL NW","longitude":-77.03089472,"id":"a7p3i3ew1fz1","offense":"THEFT F/AUTO","state":"DC","ward":1},"type":"Feature","geometry":{"type":"Point","coordinates":[-77.03089472,38.93534222]}},{"properties":{"city":"WASHINGTON","anc":"1B","latitude":38.91628651,"blocksiteaddress":"1900 B/O 11TH ST NW","longitude":-77.02703726,"id":"a7p3i38hgwx0","offense":"THEFT F/AUTO","state":"DC","ward":1},"type":"Feature","geometry":{"type":"Point","coordinates":[-77.02703726,38.91628651]}},{"properties":{"city":"WASHINGTON","anc":"1B","latitude":38.91700256,"blocksiteaddress":"16TH ST NW &amp; U ST NW","longitude":-77.03649232,"id":"a7p3i3ifpqvl","offense":"THEFT F/AUTO","state":"DC","ward":1},"type":"Feature","geometry":{"type":"Point","coordinates":[-77.03649232,38.91700256]}},{"properties":{"city":"WASHINGTON","anc":"1B","latitude":38.9181109,"blocksiteaddress":"11TH ST NW &amp; V ST NW","longitude":-77.02703633,"id":"a7p3i35zoczs","offense":"THEFT F/AUTO","state":"DC","ward":1},"type":"Feature","geometry":{"type":"Point","coordinates":[-77.02703633,38.9181109]}},{"properties":{"city":"WASHINGTON","anc":"1B","latitude":38.91953266,"blocksiteaddress":"2200 B/O 8TH ST NW","longitude":-77.02294854,"id":"a7p3i3g82k0d","offense":"THEFT F/AUTO","state":"DC","ward":1},"type":"Feature","geometry":{"type":"Point","coordinates":[-77.02294854,38.91953266]}},{"properties":{"city":"WASHINGTON","anc":"1B","latitude":38.91557251,"blocksiteaddress":"1300 B/O T ST NW","longitude":-77.03078844,"id":"a7p3i3ad0kmg","offense":"THEFT F/AUTO","state":"DC","ward":1},"type":"Feature","geometry":{"type":"Point","coordinates":[-77.03078844,38.91557251]}},{"properties":{"city":"WASHINGTON","anc":"1B","latitude":38.92641541,"blocksiteaddress":"1400 B/O HARVARD ST NW","longitude":-77.03394509,"id":"a7p3i3iuzulv","offense":"THEFT F/AUTO","state":"DC","ward":1},"type":"Feature","geometry":{"type":"Point","coordinates":[-77.03394509,38.92641541]}},{"properties":{"city":"WASHINGTON","anc":"1B","latitude":38.92062676,"blocksiteaddress":"1200 B/O FLORIDA AVE NW","longitude":-77.02886226,"id":"a7p3i3ajgdkt","offense":"THEFT F/AUTO","state":"DC","ward":1},"type":"Feature","geometry":{"type":"Point","coordinates":[-77.02886226,38.92062676]}},{"properties":{"city":"WASHINGTON","anc":"1B","latitude":38.91483117,"blocksiteaddress":"1800 B/O 13TH ST NW","longitude":-77.02962281,"id":"a7p3i36aj15x","offense":"THEFT F/AUTO","state":"DC","ward":1},"type":"Feature","geometry":{"type":"Point","coordinates":[-77.02962281,38.91483117]}},{"properties":{"city":"WASHINGTON","anc":"1B","latitude":38.91557075,"blocksiteaddress":"1200 B/O T ST NW","longitude":-77.02885164,"id":"a7p3i33ubiu5","offense":"THEFT F/AUTO","state":"DC","ward":1},"type":"Feature","geometry":{"type":"Point","coordinates":[-77.02885164,38.91557075]}},{"properties":{"city":"WASHINGTON","anc":"1B","latitude":38.92574795,"blocksiteaddress":"1200 B/O GIRARD ST NW","longitude":-77.02901771,"id":"a7p3i3hm133l","offense":"THEFT F/AUTO","state":"DC","ward":1},"type":"Feature","geometry":{"type":"Point","coordinates":[-77.02901771,38.92574795]}},{"properties":{"city":"WASHINGTON","anc":"1B","latitude":38.91776243,"blocksiteaddress":"8TH ST NW &amp; V ST NW","longitude":-77.02294832,"id":"a7p3i32ugn89","offense":"THEFT F/AUTO","state":"DC","ward":1},"type":"Feature","geometry":{"type":"Point","coordinates":[-77.02294832,38.91776243]}},{"properties":{"city":"WASHINGTON","anc":"1B","latitude":38.91811406,"blocksiteaddress":"13TH ST NW &amp; V ST NW","longitude":-77.02962045,"id":"a7p3i39a05et","offense":"THEFT F/AUTO","state":"DC","ward":1},"type":"Feature","geometry":{"type":"Point","coordinates":[-77.02962045,38.91811406]}},{"properties":{"city":"WASHINGTON","anc":"1B","latitude":38.91408859,"blocksiteaddress":"13TH ST NW &amp; S ST NW","longitude":-77.02961982,"id":"a7p3i3807l8o","offense":"THEFT F/AUTO","state":"DC","ward":1},"type":"Feature","geometry":{"type":"Point","coordinates":[-77.02961982,38.91408859]}},{"properties":{"city":"WASHINGTON","anc":"1B","latitude":38.92051076,"blocksiteaddress":"1400 B/O BELMONT ST NW","longitude":-77.03335993,"id":"a7p3i3db4rl3","offense":"THEFT F/AUTO","state":"DC","ward":1},"type":"Feature","geometry":{"type":"Point","coordinates":[-77.03335993,38.92051076]}},{"properties":{"city":"WASHINGTON","anc":"1B","latitude":38.92096783,"blocksiteaddress":"2300 B/O 15TH ST NW","longitude":-77.03516412,"id":"a7p3i3cakesk","offense":"THEFT F/AUTO","state":"DC","ward":1},"type":"Feature","geometry":{"type":"Point","coordinates":[-77.03516412,38.92096783]}},{"properties":{"city":"WASHINGTON","anc":"1B","latitude":38.91483042,"blocksiteaddress":"1800 B/O 8TH ST NW","longitude":-77.02294335,"id":"a7p3i372vjvs","offense":"THEFT F/AUTO","state":"DC","ward":1},"type":"Feature","geometry":{"type":"Point","coordinates":[-77.02294335,38.91483042]}},{"properties":{"city":"WASHINGTON","anc":"1B","latitude":38.91557251,"blocksiteaddress":"1300 B/O T ST NW","longitude":-77.03078844,"id":"a7p3i3gazr5q","offense":"THEFT F/AUTO","state":"DC","ward":1},"type":"Feature","geometry":{"type":"Point","coordinates":[-77.03078844,38.91557251]}},{"properties":{"city":"WASHINGTON","anc":"1B","latitude":38.91572376,"blocksiteaddress":"500 B/O T ST NW","longitude":-77.01927578,"id":"a7p3i366fdom","offense":"THEFT F/AUTO","state":"DC","ward":1},"type":"Feature","geometry":{"type":"Point","coordinates":[-77.01927578,38.91572376]}},{"properties":{"city":"WASHINGTON","anc":"1B","latitude":38.9181117,"blocksiteaddress":"1100 B/O V ST NW","longitude":-77.0275601,"id":"a7p3i3eqvl0k","offense":"THEFT F/AUTO","state":"DC","ward":1},"type":"Feature","geometry":{"type":"Point","coordinates":[-77.0275601,38.9181117]}},{"properties":{"city":"WASHINGTON","anc":"1B","latitude":38.92020343,"blocksiteaddress":"2200 B/O SHERMAN AVE NW","longitude":-77.02518867,"id":"a7p3i38ws98n","offense":"THEFT F/AUTO","state":"DC","ward":1},"type":"Feature","geometry":{"type":"Point","coordinates":[-77.02518867,38.92020343]}},{"properties":{"city":"WASHINGTON","anc":"1B","latitude":38.92020343,"blocksiteaddress":"2200 B/O SHERMAN AVE NW","longitude":-77.02518867,"id":"a7p3i37djg1h","offense":"THEFT F/AUTO","state":"DC","ward":1},"type":"Feature","geometry":{"type":"Point","coordinates":[-77.02518867,38.92020343]}},{"properties":{"city":"WASHINGTON","anc":"1B","latitude":38.91628459,"blocksiteaddress":"1300 B/O WALLACH PL NW","longitude":-77.03078766,"id":"a7p3i3irdd1h","offense":"THEFT F/AUTO","state":"DC","ward":1},"type":"Feature","geometry":{"type":"Point","coordinates":[-77.03078766,38.91628459]}},{"properties":{"city":"WASHINGTON","anc":"1B","latitude":38.91612076,"blocksiteaddress":"1900 B/O 2ND ST NW","longitude":-77.01443195,"id":"a7p3i3ho9r3i","offense":"THEFT F/AUTO","state":"DC","ward":1},"type":"Feature","geometry":{"type":"Point","coordinates":[-77.01443195,38.91612076]}},{"properties":{"city":"WASHINGTON","anc":"1B","latitude":38.92426591,"blocksiteaddress":"2600 B/O 11TH ST NW","longitude":-77.02703885,"id":"a7p3i3fsfzkz","offense":"THEFT F/AUTO","state":"DC","ward":1},"type":"Feature","geometry":{"type":"Point","coordinates":[-77.02703885,38.92426591]}},{"properties":{"city":"WASHINGTON","anc":"1B","latitude":38.91557251,"blocksiteaddress":"1300 B/O T ST NW","longitude":-77.03078844,"id":"a7p3i37bfbpl","offense":"THEFT F/AUTO","state":"DC","ward":1},"type":"Feature","geometry":{"type":"Point","coordinates":[-77.03078844,38.91557251]}},{"properties":{"city":"WASHINGTON","anc":"1B","latitude":38.91483338,"blocksiteaddress":"1800 B/O 12TH ST NW","longitude":-77.02807987,"id":"a7p3i366klq0","offense":"THEFT F/AUTO","state":"DC","ward":1},"type":"Feature","geometry":{"type":"Point","coordinates":[-77.02807987,38.91483338]}},{"properties":{"city":"WASHINGTON","anc":"1B","latitude":38.91473958,"blocksiteaddress":"1800 B/O 10TH ST NW","longitude":-77.02602451,"id":"a7p3i367wp12","offense":"THEFT F/AUTO","state":"DC","ward":1},"type":"Feature","geometry":{"type":"Point","coordinates":[-77.02602451,38.91473958]}},{"properties":{"city":"WASHINGTON","anc":"1B","latitude":38.91557251,"blocksiteaddress":"1300 B/O T ST NW","longitude":-77.03078844,"id":"a7p3i3afhi0i","offense":"THEFT F/AUTO","state":"DC","ward":1},"type":"Feature","geometry":{"type":"Point","coordinates":[-77.03078844,38.91557251]}},{"properties":{"city":"WASHINGTON","anc":"1B","latitude":38.9148302,"blocksiteaddress":"9TH ST NW &amp; WESTMINSTER ST NW","longitude":-77.02396702,"id":"a7p3i3cljdj5","offense":"THEFT F/AUTO","state":"DC","ward":1},"type":"Feature","geometry":{"type":"Point","coordinates":[-77.02396702,38.9148302]}},{"properties":{"city":"WASHINGTON","anc":"1B","latitude":38.91918628,"blocksiteaddress":"1400 B/O W ST NW","longitude":-77.033284,"id":"a7p3i3h1dnxo","offense":"THEFT F/AUTO","state":"DC","ward":1},"type":"Feature","geometry":{"type":"Point","coordinates":[-77.033284,38.91918628]}},{"properties":{"city":"WASHINGTON","anc":"1B","latitude":38.92551828,"blocksiteaddress":"2800 B/O 15TH ST NW","longitude":-77.03540076,"id":"a7p3i37tnl14","offense":"THEFT F/AUTO","state":"DC","ward":1},"type":"Feature","geometry":{"type":"Point","coordinates":[-77.03540076,38.92551828]}},{"properties":{"city":"WASHINGTON","anc":"1B","latitude":38.91628459,"blocksiteaddress":"1300 B/O WALLACH PL NW","longitude":-77.03078766,"id":"a7p3i3hrk19w","offense":"THEFT F/AUTO","state":"DC","ward":1},"type":"Feature","geometry":{"type":"Point","coordinates":[-77.03078766,38.91628459]}},{"properties":{"city":"WASHINGTON","anc":"1B","latitude":38.92641541,"blocksiteaddress":"1400 B/O HARVARD ST NW","longitude":-77.03394509,"id":"a7p3i3im11sk","offense":"THEFT F/AUTO","state":"DC","ward":1},"type":"Feature","geometry":{"type":"Point","coordinates":[-77.03394509,38.92641541]}},{"properties":{"city":"WASHINGTON","anc":"1B","latitude":38.91811209,"blocksiteaddress":"1200 B/O V ST NW","longitude":-77.02885231,"id":"a7p3i3igkwoo","offense":"THEFT F/AUTO","state":"DC","ward":1},"type":"Feature","geometry":{"type":"Point","coordinates":[-77.02885231,38.91811209]}},{"properties":{"city":"WASHINGTON","anc":"1B","latitude":38.91699771,"blocksiteaddress":"10TH ST NW &amp; U ST NW","longitude":-77.02599028,"id":"a7p3i39y31sp","offense":"THEFT F/AUTO","state":"DC","ward":1},"type":"Feature","geometry":{"type":"Point","coordinates":[-77.02599028,38.91699771]}},{"properties":{"city":"WASHINGTON","anc":"1B","latitude":38.92675312,"blocksiteaddress":"1500 B/O COLUMBIA RD NW","longitude":-77.03605065,"id":"a7p3i35yqqzj","offense":"THEFT F/AUTO","state":"DC","ward":1},"type":"Feature","geometry":{"type":"Point","coordinates":[-77.03605065,38.92675312]}},{"properties":{"city":"WASHINGTON","anc":"1B","latitude":38.92309629,"blocksiteaddress":"2500 B/O 13TH ST NW","longitude":-77.02970805,"id":"a7p3i39xzry0","offense":"THEFT F/AUTO","state":"DC","ward":1},"type":"Feature","geometry":{"type":"Point","coordinates":[-77.02970805,38.92309629]}},{"properties":{"city":"WASHINGTON","anc":"1B","latitude":38.92355044,"blocksiteaddress":"1400 B/O EUCLID ST NW","longitude":-77.03309936,"id":"a7p3i35ie6hf","offense":"THEFT F/AUTO","state":"DC","ward":1},"type":"Feature","geometry":{"type":"Point","coordinates":[-77.03309936,38.92355044]}},{"properties":{"city":"WASHINGTON","anc":"1B","latitude":38.92684395,"blocksiteaddress":"600 B/O GRESHAM PL NW","longitude":-77.02223472,"id":"a7p3i3dgqu0r","offense":"THEFT F/AUTO","state":"DC","ward":1},"type":"Feature","geometry":{"type":"Point","coordinates":[-77.02223472,38.92684395]}},{"properties":{"city":"WASHINGTON","anc":"1B","latitude":38.92475392,"blocksiteaddress":"1300 B/O FAIRMONT ST NW","longitude":-77.03097692,"id":"a7p3i3ficef3","offense":"THEFT F/AUTO","state":"DC","ward":1},"type":"Feature","geometry":{"type":"Point","coordinates":[-77.03097692,38.92475392]}},{"properties":{"city":"WASHINGTON","anc":"1C","latitude":38.91701016,"blocksiteaddress":"1800 B/O VERNON ST NW","longitude":-77.04276827,"id":"a7p3i3ev1agm","offense":"THEFT F/AUTO","state":"DC","ward":1},"type":"Feature","geometry":{"type":"Point","coordinates":[-77.04276827,38.91701016]}},{"properties":{"city":"WASHINGTON","anc":"1C","latitude":38.92547527,"blocksiteaddress":"ONTARIO PL NW &amp; ONTARIO RD NW","longitude":-77.0425495,"id":"a7p3i376denf","offense":"THEFT F/AUTO","state":"DC","ward":1},"type":"Feature","geometry":{"type":"Point","coordinates":[-77.0425495,38.92547527]}},{"properties":{"city":"WASHINGTON","anc":"1C","latitude":38.92161738,"blocksiteaddress":"2300 B/O CHAMPLAIN ST NW","longitude":-77.04129822,"id":"a7p3i3562973","offense":"THEFT F/AUTO","state":"DC","ward":1},"type":"Feature","geometry":{"type":"Point","coordinates":[-77.04129822,38.92161738]}},{"properties":{"city":"WASHINGTON","anc":"1C","latitude":38.92492537,"blocksiteaddress":"1700 B/O LANIER PL NW","longitude":-77.04139722,"id":"a7p3i3d2ryyi","offense":"THEFT F/AUTO","state":"DC","ward":1},"type":"Feature","geometry":{"type":"Point","coordinates":[-77.04139722,38.92492537]}},{"properties":{"city":"WASHINGTON","anc":"1C","latitude":38.92381839,"blocksiteaddress":"1700 B/O COLUMBIA RD NW","longitude":-77.0409895,"id":"a7p3i3i30goi","offense":"THEFT F/AUTO","state":"DC","ward":1},"type":"Feature","geometry":{"type":"Point","coordinates":[-77.0409895,38.92381839]}},{"properties":{"city":"WASHINGTON","anc":"1C","latitude":38.92641713,"blocksiteaddress":"2800 B/O ADAMS MILL RD NW","longitude":-77.04389948,"id":"a7p3i37dz5gz","offense":"THEFT F/AUTO","state":"DC","ward":1},"type":"Feature","geometry":{"type":"Point","coordinates":[-77.04389948,38.92641713]}},{"properties":{"city":"WASHINGTON","anc":"1C","latitude":38.9231593,"blocksiteaddress":"17TH ST NW &amp; EUCLID ST NW","longitude":-77.03899582,"id":"a7p3i3gehhr6","offense":"THEFT F/AUTO","state":"DC","ward":1},"type":"Feature","geometry":{"type":"Point","coordinates":[-77.03899582,38.9231593]}},{"properties":{"city":"WASHINGTON","anc":"1C","latitude":38.92188819,"blocksiteaddress":"2400 B/O ONTARIO RD NW","longitude":-77.04015234,"id":"a7p3i3fjx3bx","offense":"THEFT F/AUTO","state":"DC","ward":1},"type":"Feature","geometry":{"type":"Point","coordinates":[-77.04015234,38.92188819]}},{"properties":{"city":"WASHINGTON","anc":"1C","latitude":38.91781949,"blocksiteaddress":"1800 B/O CALIFORNIA ST NW","longitude":-77.04295145,"id":"a7p3i3ckid4l","offense":"THEFT F/AUTO","state":"DC","ward":1},"type":"Feature","geometry":{"type":"Point","coordinates":[-77.04295145,38.91781949]}},{"properties":{"city":"WASHINGTON","anc":"1C","latitude":38.91697475,"blocksiteaddress":"19TH ST NW &amp; VERNON ST NW","longitude":-77.04388711,"id":"a7p3i3cvr324","offense":"THEFT F/AUTO","state":"DC","ward":1},"type":"Feature","geometry":{"type":"Point","coordinates":[-77.04388711,38.91697475]}},{"properties":{"city":"WASHINGTON","anc":"1C","latitude":38.92875485,"blocksiteaddress":"2900 B/O ADAMS MILL RD NW","longitude":-77.04372446,"id":"a7p3i32x6ae7","offense":"THEFT F/AUTO","state":"DC","ward":1},"type":"Feature","geometry":{"type":"Point","coordinates":[-77.04372446,38.92875485]}},{"properties":{"city":"WASHINGTON","anc":"1C","latitude":38.92758865,"blocksiteaddress":"1800 B/O HARVARD ST NW","longitude":-77.04270542,"id":"a7p3i3h4k1bh","offense":"THEFT F/AUTO","state":"DC","ward":1},"type":"Feature","geometry":{"type":"Point","coordinates":[-77.04270542,38.92758865]}},{"properties":{"city":"WASHINGTON","anc":"1C","latitude":38.92158252,"blocksiteaddress":"1800 B/O COLUMBIA RD NW","longitude":-77.04349981,"id":"a7p3i3hca9ej","offense":"THEFT F/AUTO","state":"DC","ward":1},"type":"Feature","geometry":{"type":"Point","coordinates":[-77.04349981,38.92158252]}},{"properties":{"city":"WASHINGTON","anc":"1C","latitude":38.9257112,"blocksiteaddress":"1600 B/O COLUMBIA RD NW","longitude":-77.03783764,"id":"a7p3i3c0xgi9","offense":"THEFT F/AUTO","state":"DC","ward":1},"type":"Feature","geometry":{"type":"Point","coordinates":[-77.03783764,38.9257112]}},{"properties":{"city":"WASHINGTON","anc":"1C","latitude":38.9257112,"blocksiteaddress":"1600 B/O COLUMBIA RD NW","longitude":-77.03783764,"id":"a7p3i3fxo1hn","offense":"THEFT F/AUTO","state":"DC","ward":1},"type":"Feature","geometry":{"type":"Point","coordinates":[-77.03783764,38.9257112]}},{"properties":{"city":"WASHINGTON","anc":"1C","latitude":38.91874387,"blocksiteaddress":"18TH ST NW &amp; WYOMING AVE NW","longitude":-77.04168105,"id":"a7p3i33n08x0","offense":"THEFT F/AUTO","state":"DC","ward":1},"type":"Feature","geometry":{"type":"Point","coordinates":[-77.04168105,38.91874387]}},{"properties":{"city":"WASHINGTON","anc":"1C","latitude":38.91701016,"blocksiteaddress":"1800 B/O VERNON ST NW","longitude":-77.04276827,"id":"a7p3i3j2vjvz","offense":"THEFT F/AUTO","state":"DC","ward":1},"type":"Feature","geometry":{"type":"Point","coordinates":[-77.04276827,38.91701016]}},{"properties":{"city":"WASHINGTON","anc":"1C","latitude":38.91780914,"blocksiteaddress":"1700 B/O FLORIDA AVE NW","longitude":-77.04040026,"id":"a7p3i372b44o","offense":"THEFT F/AUTO","state":"DC","ward":1},"type":"Feature","geometry":{"type":"Point","coordinates":[-77.04040026,38.91780914]}},{"properties":{"city":"WASHINGTON","anc":"1C","latitude":38.92367445,"blocksiteaddress":"2500 B/O ONTARIO RD NW","longitude":-77.04025864,"id":"a7p3i35uj9wz","offense":"THEFT F/AUTO","state":"DC","ward":1},"type":"Feature","geometry":{"type":"Point","coordinates":[-77.04025864,38.92367445]}},{"properties":{"city":"WASHINGTON","anc":"1C","latitude":38.92072484,"blocksiteaddress":"2300 B/O 17TH ST NW","longitude":-77.03885445,"id":"a7p3i37pk37a","offense":"THEFT F/AUTO","state":"DC","ward":1},"type":"Feature","geometry":{"type":"Point","coordinates":[-77.03885445,38.92072484]}},{"properties":{"city":"WASHINGTON","anc":"1C","latitude":38.92002265,"blocksiteaddress":"2200 B/O CHAMPLAIN ST NW","longitude":-77.04081081,"id":"a7p3i3awa1t5","offense":"THEFT F/AUTO","state":"DC","ward":1},"type":"Feature","geometry":{"type":"Point","coordinates":[-77.04081081,38.92002265]}},{"properties":{"city":"WASHINGTON","anc":"1C","latitude":38.92161738,"blocksiteaddress":"2300 B/O CHAMPLAIN ST NW","longitude":-77.04129822,"id":"a7p3i3315231","offense":"THEFT F/AUTO","state":"DC","ward":1},"type":"Feature","geometry":{"type":"Point","coordinates":[-77.04129822,38.92161738]}},{"properties":{"city":"WASHINGTON","anc":"1C","latitude":38.92391765,"blocksiteaddress":"2500 B/O MOZART PL NW","longitude":-77.03780325,"id":"a7p3i3czwi4f","offense":"THEFT F/AUTO","state":"DC","ward":1},"type":"Feature","geometry":{"type":"Point","coordinates":[-77.03780325,38.92391765]}},{"properties":{"city":"WASHINGTON","anc":"1D","latitude":38.93507689,"blocksiteaddress":"1800 B/O INGLESIDE TER NW","longitude":-77.04294923,"id":"a7p3i3app81l","offense":"THEFT F/AUTO","state":"DC","ward":1},"type":"Feature","geometry":{"type":"Point","coordinates":[-77.04294923,38.93507689]}},{"properties":{"city":"WASHINGTON","anc":"1D","latitude":38.93242372,"blocksiteaddress":"3300 B/O 16TH ST NW","longitude":-77.03649179,"id":"a7p3i364dpwv","offense":"THEFT F/AUTO","state":"DC","ward":1},"type":"Feature","geometry":{"type":"Point","coordinates":[-77.03649179,38.93242372]}},{"properties":{"city":"WASHINGTON","anc":"1D","latitude":38.93358137,"blocksiteaddress":"3300 B/O BROWN ST NW","longitude":-77.03808799,"id":"a7p3i343t0b1","offense":"THEFT F/AUTO","state":"DC","ward":1},"type":"Feature","geometry":{"type":"Point","coordinates":[-77.03808799,38.93358137]}},{"properties":{"city":"WASHINGTON","anc":"1D","latitude":38.93141452,"blocksiteaddress":"1700 B/O LAMONT ST NW","longitude":-77.04006543,"id":"a7p3i35cator","offense":"THEFT F/AUTO","state":"DC","ward":1},"type":"Feature","geometry":{"type":"Point","coordinates":[-77.04006543,38.93141452]}},{"properties":{"city":"WASHINGTON","anc":"1D","latitude":38.93236826,"blocksiteaddress":"1800 B/O PARK RD NW","longitude":-77.04279045,"id":"a7p3i3bwzjl1","offense":"THEFT F/AUTO","state":"DC","ward":1},"type":"Feature","geometry":{"type":"Point","coordinates":[-77.04279045,38.93236826]}},{"properties":{"city":"WASHINGTON","anc":"1D","latitude":38.93247028,"blocksiteaddress":"1700 B/O PARK RD NW","longitude":-77.04008448,"id":"a7p3i3ie9ya6","offense":"THEFT F/AUTO","state":"DC","ward":1},"type":"Feature","geometry":{"type":"Point","coordinates":[-77.04008448,38.93247028]}},{"properties":{"city":"WASHINGTON","anc":"1D","latitude":38.93419893,"blocksiteaddress":"1700 B/O NEWTON ST NW","longitude":-77.04022962,"id":"a7p3i38cz7zw","offense":"THEFT F/AUTO","state":"DC","ward":1},"type":"Feature","geometry":{"type":"Point","coordinates":[-77.04022962,38.93419893]}},{"properties":{"city":"WASHINGTON","anc":"1D","latitude":38.92881374,"blocksiteaddress":"1700 B/O IRVING ST NW","longitude":-77.04029578,"id":"a7p3i36y1btl","offense":"THEFT F/AUTO","state":"DC","ward":1},"type":"Feature","geometry":{"type":"Point","coordinates":[-77.04029578,38.92881374]}},{"properties":{"city":"WASHINGTON","anc":"1D","latitude":38.93711469,"blocksiteaddress":"3600 B/O 16TH ST NW","longitude":-77.03644805,"id":"a7p3i3eyfma5","offense":"THEFT F/AUTO","state":"DC","ward":1},"type":"Feature","geometry":{"type":"Point","coordinates":[-77.03644805,38.93711469]}},{"properties":{"city":"WASHINGTON","anc":"1D","latitude":38.93417079,"blocksiteaddress":"1800 B/O NEWTON ST NW","longitude":-77.04273819,"id":"a7p3i3dewp6h","offense":"THEFT F/AUTO","state":"DC","ward":1},"type":"Feature","geometry":{"type":"Point","coordinates":[-77.04273819,38.93417079]}},{"properties":{"city":"WASHINGTON","anc":"1D","latitude":38.9283004,"blocksiteaddress":"3000 B/O MOUNT PLEASANT ST NW","longitude":-77.03717768,"id":"a7p3i3cgkekx","offense":"THEFT F/AUTO","state":"DC","ward":1},"type":"Feature","geometry":{"type":"Point","coordinates":[-77.03717768,38.9283004]}},{"properties":{"city":"WASHINGTON","anc":"1D","latitude":38.93186179,"blocksiteaddress":"3200 B/O 18TH ST NW","longitude":-77.04133089,"id":"a7p3i39cgwyw","offense":"THEFT F/AUTO","state":"DC","ward":1},"type":"Feature","geometry":{"type":"Point","coordinates":[-77.04133089,38.93186179]}},{"properties":{"city":"WASHINGTON","anc":"1D","latitude":38.93508435,"blocksiteaddress":"1600 B/O OAK ST NW","longitude":-77.03675122,"id":"a7p3i3iirelr","offense":"THEFT F/AUTO","state":"DC","ward":1},"type":"Feature","geometry":{"type":"Point","coordinates":[-77.03675122,38.93508435]}},{"properties":{"city":"WASHINGTON","anc":"1D","latitude":38.92872468,"blocksiteaddress":"1600 B/O IRVING ST NW","longitude":-77.03722223,"id":"a7p3i34mvdlr","offense":"THEFT F/AUTO","state":"DC","ward":1},"type":"Feature","geometry":{"type":"Point","coordinates":[-77.03722223,38.92872468]}}],"is_temporal":false,"author":{"url":"","metadata":"","contact_name":"","contact_address":"","source":"","contact_phone":""},"source":"","pagination":{"sort":null,"start":0,"total":422,"limit":1000000},"state":"complete","tags":"crime,dc,washington","published":"2014-08-14T23:05:02-04:00","id":265919}