{"type":"FeatureCollection","data_type":"Dataset","url_type":null,"permissions":[{"permissions":{"download":true,"view":true},"group_id":"everyone"}],"classification":null,"title":"MasterList","count":773,"stream_id":267782,"contributor":{"url":"http://geocommons.com/users/50461","name":"jhiltabidel"},"data_attributes":null,"calculation_params":null,"icon_link":null,"link":"http://geocommons.com/overlays/267782.json","extent":[-156.648,26.142,-70.2707,61.4864],"geometry_types":["point"],"unique_name":null,"name":"MasterList","feature_count":773,"description":"","next_feature":null,"is_raster":false,"short_classification":"Y","stats":{},"features":[{"properties":{"city":"Morganton","country":"USA","geo_score":0.714,"id":"a7vabl7etoad","geo_precision":"city","state":"NC"},"type":"Feature","geometry":{"type":"Point","coordinates":[-79.42891,36.122081]}},{"properties":{"city":"Greenville","country":"USA","geo_score":0.714,"id":"a7vabl6xgkz8","geo_precision":"city","state":"SC"},"type":"Feature","geometry":{"type":"Point","coordinates":[-82.402871,34.848567]}},{"properties":{"city":"Spring","country":"USA","geo_score":0.714,"id":"a7vablg9sqw1","geo_precision":"city","state":"TX"},"type":"Feature","geometry":{"type":"Point","coordinates":[-98.961457,33.370103]}},{"properties":{"city":"Prairieville","country":"USA","geo_score":0.714,"id":"a7vablbejeg9","geo_precision":"city","state":"LA"},"type":"Feature","geometry":{"type":"Point","coordinates":[-90.926014,30.287275]}},{"properties":{"city":"Long Beach","country":"USA","geo_score":0.714,"id":"a7vabldty4os","geo_precision":"city","state":"NY"},"type":"Feature","geometry":{"type":"Point","coordinates":[-73.642323,40.589139]}},{"properties":{"city":"Martinez","country":"USA","geo_score":0.714,"id":"a7vablgmn4hn","geo_precision":"city","state":"GA"},"type":"Feature","geometry":{"type":"Point","coordinates":[-82.075673,33.517358]}},{"properties":{"city":"Rochester","country":"USA","geo_score":0.714,"id":"a7vabl1csdkv","geo_precision":"city","state":"MN"},"type":"Feature","geometry":{"type":"Point","coordinates":[-92.516916,44.075285]}},{"properties":{"city":"Hickory","country":"USA","geo_score":0.0,"id":"a7vabl2vi0vg","geo_precision":"unmatched","state":"NC"},"type":"Feature","geometry":null},{"properties":{"city":"Mt Pleasant","country":"USA","geo_score":0.714,"id":"a7vabl0khnfi","geo_precision":"city","state":"SC"},"type":"Feature","geometry":{"type":"Point","coordinates":[-81.990395,33.915963]}},{"properties":{"city":"Greenville","country":"USA","geo_score":0.714,"id":"a7vabl82frap","geo_precision":"city","state":"SC"},"type":"Feature","geometry":{"type":"Point","coordinates":[-82.402871,34.848567]}},{"properties":{"city":"Towson","country":"USA","geo_score":0.714,"id":"a7vabl2cezpa","geo_precision":"city","state":"MD"},"type":"Feature","geometry":{"type":"Point","coordinates":[-78.943637,39.477593]}},{"properties":{"city":"Towson","country":"USA","geo_score":0.714,"id":"a7vabl171lp7","geo_precision":"city","state":"MD"},"type":"Feature","geometry":{"type":"Point","coordinates":[-78.943637,39.477593]}},{"properties":{"city":"Freehold","country":"USA","geo_score":0.714,"id":"a7vabl40l0af","geo_precision":"city","state":"NJ"},"type":"Feature","geometry":{"type":"Point","coordinates":[-74.306284,40.236423]}},{"properties":{"city":"Hilton Head Island","country":"USA","geo_score":0.714,"id":"a7vablaksfba","geo_precision":"city","state":"SC"},"type":"Feature","geometry":{"type":"Point","coordinates":[-81.306209,34.137092]}},{"properties":{"city":"Trenton","country":"USA","geo_score":0.714,"id":"a7vabl17l2l9","geo_precision":"city","state":"SC"},"type":"Feature","geometry":{"type":"Point","coordinates":[-81.864218,33.698302]}},{"properties":{"city":"Dallas","country":"USA","geo_score":0.714,"id":"a7vabl9er9ge","geo_precision":"city","state":"GA"},"type":"Feature","geometry":{"type":"Point","coordinates":[-83.885177,31.699343]}},{"properties":{"city":"Porto Alegre","country":"Brazil","geo_score":0.571,"id":"a7vablg77oa7","geo_precision":"city","state":null},"type":"Feature","geometry":{"type":"Point","coordinates":[-87.890854,37.558379]}},{"properties":{"city":"Mason","country":"USA","geo_score":0.714,"id":"a7vabl7iwwno","geo_precision":"city","state":"OH"},"type":"Feature","geometry":{"type":"Point","coordinates":[-84.180906,39.397999]}},{"properties":{"city":"Ridgefield","country":"USA","geo_score":0.714,"id":"a7vabl107zg0","geo_precision":"city","state":"CT"},"type":"Feature","geometry":{"type":"Point","coordinates":[-73.494637,41.308201]}},{"properties":{"city":"Charleston","country":"USA","geo_score":0.714,"id":"a7vabl6b2bp1","geo_precision":"city","state":"SC"},"type":"Feature","geometry":{"type":"Point","coordinates":[-79.970643,32.85712]}},{"properties":{"city":"Fort Lauderdale","country":"USA","geo_score":0.714,"id":"a7vabl0fk742","geo_precision":"city","state":"FL"},"type":"Feature","geometry":{"type":"Point","coordinates":[-80.208381,26.166474]}},{"properties":{"city":"Pittsburgh","country":"USA","geo_score":0.714,"id":"a7vabl0dzg61","geo_precision":"city","state":"PA"},"type":"Feature","geometry":{"type":"Point","coordinates":[-80.024817,40.434436]}},{"properties":{"city":"Raleigh","country":"USA","geo_score":0.714,"id":"a7vablbfdesc","geo_precision":"city","state":"NC"},"type":"Feature","geometry":{"type":"Point","coordinates":[-82.293464,36.034279]}},{"properties":{"city":"Spartanburg","country":"USA","geo_score":0.714,"id":"a7vabl5ybnnp","geo_precision":"city","state":"SC"},"type":"Feature","geometry":{"type":"Point","coordinates":[-81.993403,35.011309]}},{"properties":{"city":"Lothian","country":"USA","geo_score":0.714,"id":"a7vabl1znmkb","geo_precision":"city","state":"MD"},"type":"Feature","geometry":{"type":"Point","coordinates":[-76.645735,38.802263]}},{"properties":{"city":"Glen Allen","country":"USA","geo_score":0.714,"id":"a7vabl16xf6k","geo_precision":"city","state":"VA"},"type":"Feature","geometry":{"type":"Point","coordinates":[-77.301368,37.813196]}},{"properties":{"city":"Greenville","country":"USA","geo_score":0.714,"id":"a7vabl1gdy30","geo_precision":"city","state":"SC"},"type":"Feature","geometry":{"type":"Point","coordinates":[-82.402871,34.848567]}},{"properties":{"city":"Wantagh","country":"USA","geo_score":0.0,"id":"a7vabl5aq7u3","geo_precision":"unmatched","state":"NY"},"type":"Feature","geometry":null},{"properties":{"city":"Mahwah","country":"USA","geo_score":0.714,"id":"a7vabl0f91re","geo_precision":"city","state":"NJ"},"type":"Feature","geometry":{"type":"Point","coordinates":[-74.172766,41.053446]}},{"properties":{"city":"Simpsonville","country":"USA","geo_score":0.714,"id":"a7vablb3l558","geo_precision":"city","state":"SC"},"type":"Feature","geometry":{"type":"Point","coordinates":[-81.045366,34.308481]}},{"properties":{"city":"Lexington","country":"USA","geo_score":0.0,"id":"a7vabl8w94v6","geo_precision":"unmatched","state":"KY"},"type":"Feature","geometry":null},{"properties":{"city":"Middleburg","country":"USA","geo_score":0.714,"id":"a7vabl5fai3k","geo_precision":"city","state":"VA"},"type":"Feature","geometry":{"type":"Point","coordinates":[-77.693844,39.029599]}},{"properties":{"city":"Scotch Plains","country":"USA","geo_score":0.714,"id":"a7vabl3ooa63","geo_precision":"city","state":"NJ"},"type":"Feature","geometry":{"type":"Point","coordinates":[-74.368244,40.637852]}},{"properties":{"city":"Cumming","country":"USA","geo_score":0.714,"id":"a7vabl2pg3uc","geo_precision":"city","state":"GA"},"type":"Feature","geometry":{"type":"Point","coordinates":[-84.092588,34.193041]}},{"properties":{"city":"Marietta","country":"USA","geo_score":0.714,"id":"a7vablc7os6v","geo_precision":"city","state":"SC"},"type":"Feature","geometry":{"type":"Point","coordinates":[-82.531215,35.071605]}},{"properties":{"city":"Simpsonville","country":"USA","geo_score":0.714,"id":"a7vabl25kbsz","geo_precision":"city","state":"SC"},"type":"Feature","geometry":{"type":"Point","coordinates":[-81.045366,34.308481]}},{"properties":{"city":"Simpsonville","country":"USA","geo_score":0.714,"id":"a7vabler5axi","geo_precision":"city","state":"SC"},"type":"Feature","geometry":{"type":"Point","coordinates":[-81.045366,34.308481]}},{"properties":{"city":"Charlotte","country":"USA","geo_score":0.714,"id":"a7vabl4ppp22","geo_precision":"city","state":"NC"},"type":"Feature","geometry":{"type":"Point","coordinates":[-80.804151,35.26002]}},{"properties":{"city":"Charlotte","country":"USA","geo_score":0.714,"id":"a7vabl78d7xt","geo_precision":"city","state":"NC"},"type":"Feature","geometry":{"type":"Point","coordinates":[-80.804151,35.26002]}},{"properties":{"city":"Greenville","country":"USA","geo_score":0.714,"id":"a7vabl83ybay","geo_precision":"city","state":"SC"},"type":"Feature","geometry":{"type":"Point","coordinates":[-82.402871,34.848567]}},{"properties":{"city":"Simpsonville","country":"USA","geo_score":0.714,"id":"a7vabld0uosc","geo_precision":"city","state":"SC"},"type":"Feature","geometry":{"type":"Point","coordinates":[-81.045366,34.308481]}},{"properties":{"city":"Myrtle Beach","country":"USA","geo_score":0.714,"id":"a7vabl45un4b","geo_precision":"city","state":"SC"},"type":"Feature","geometry":{"type":"Point","coordinates":[-78.852005,33.711741]}},{"properties":{"city":"Bryn Mawr","country":"USA","geo_score":0.714,"id":"a7vablel426b","geo_precision":"city","state":"PA"},"type":"Feature","geometry":{"type":"Point","coordinates":[-76.001602,40.523982]}},{"properties":{"city":"Marietta","country":"USA","geo_score":0.714,"id":"a7vabld1uqjj","geo_precision":"city","state":"GA"},"type":"Feature","geometry":{"type":"Point","coordinates":[-84.557181,33.912473]}},{"properties":{"city":"Wilson","country":"USA","geo_score":0.714,"id":"a7vabl6g4kod","geo_precision":"city","state":"NC"},"type":"Feature","geometry":{"type":"Point","coordinates":[-77.925269,35.723264]}},{"properties":{"city":"Baltimore","country":"USA","geo_score":0.714,"id":"a7vabl3ouj6g","geo_precision":"city","state":"MD"},"type":"Feature","geometry":{"type":"Point","coordinates":[-75.844658,39.058168]}},{"properties":{"city":"Lexington","country":"USA","geo_score":0.0,"id":"a7vabl9hkmux","geo_precision":"unmatched","state":"VA"},"type":"Feature","geometry":null},{"properties":{"city":"Greenville","country":"USA","geo_score":0.714,"id":"a7vabl3p3rgm","geo_precision":"city","state":"SC"},"type":"Feature","geometry":{"type":"Point","coordinates":[-82.402871,34.848567]}},{"properties":{"city":"Marietta","country":"USA","geo_score":0.714,"id":"a7vabl8rphj4","geo_precision":"city","state":"GA"},"type":"Feature","geometry":{"type":"Point","coordinates":[-84.557181,33.912473]}},{"properties":{"city":"Cleveland","country":"USA","geo_score":0.714,"id":"a7vabl2msj90","geo_precision":"city","state":"MO"},"type":"Feature","geometry":{"type":"Point","coordinates":[-94.559725,38.655025]}},{"properties":{"city":"Thousand Oaks","country":"USA","geo_score":0.714,"id":"a7vabl5feexf","geo_precision":"city","state":"CA"},"type":"Feature","geometry":{"type":"Point","coordinates":[-120.594892,35.118865]}},{"properties":{"city":"Ulaanbaatar","country":"Mongolia","geo_score":0.0,"id":"a7vablamr68s","geo_precision":"unmatched","state":null},"type":"Feature","geometry":null},{"properties":{"city":"Travelers Rest","country":"USA","geo_score":0.714,"id":"a7vablft7x8p","geo_precision":"city","state":"SC"},"type":"Feature","geometry":{"type":"Point","coordinates":[-80.737329,32.453247]}},{"properties":{"city":"Travelers Rest","country":"USA","geo_score":0.714,"id":"a7vable24swk","geo_precision":"city","state":"SC"},"type":"Feature","geometry":{"type":"Point","coordinates":[-80.737329,32.453247]}},{"properties":{"city":"Springfield","country":"USA","geo_score":0.714,"id":"a7vabl8fjyn7","geo_precision":"city","state":"OH"},"type":"Feature","geometry":{"type":"Point","coordinates":[-84.529111,39.218391]}},{"properties":{"city":"Mountain Brk","country":"USA","geo_score":0.714,"id":"a7vabl2be3i8","geo_precision":"city","state":"AL"},"type":"Feature","geometry":{"type":"Point","coordinates":[-86.752211,33.500938]}},{"properties":{"city":"Greenville","country":"USA","geo_score":0.714,"id":"a7vabl1gsbxf","geo_precision":"city","state":"SC"},"type":"Feature","geometry":{"type":"Point","coordinates":[-82.402871,34.848567]}},{"properties":{"city":"Lexington","country":"United States","geo_score":0.0,"id":"a7vablbbudbp","geo_precision":"unmatched","state":"KY"},"type":"Feature","geometry":null},{"properties":{"city":"Lake Forest","country":"USA","geo_score":0.714,"id":"a7vablgucwcq","geo_precision":"city","state":"IL"},"type":"Feature","geometry":{"type":"Point","coordinates":[-88.393085,40.754176]}},{"properties":{"city":"Addis Ababa","country":"Ethiopia","geo_score":0.571,"id":"a7vabl1n9qvg","geo_precision":"city","state":null},"type":"Feature","geometry":{"type":"Point","coordinates":[-94.494418,42.195259]}},{"properties":{"city":"Richmond","country":"USA","geo_score":0.714,"id":"a7vabl77bl5z","geo_precision":"city","state":"VA"},"type":"Feature","geometry":{"type":"Point","coordinates":[-76.83774,37.914858]}},{"properties":{"city":"Advance","country":"USA","geo_score":0.714,"id":"a7vabl5c3ojg","geo_precision":"city","state":"NC"},"type":"Feature","geometry":{"type":"Point","coordinates":[-80.448686,35.945381]}},{"properties":{"city":"Oakton","country":"USA","geo_score":0.714,"id":"a7vabl4rcfh7","geo_precision":"city","state":"VA"},"type":"Feature","geometry":{"type":"Point","coordinates":[-77.329906,38.892796]}},{"properties":{"city":"Tracy's Landing","country":"USA","geo_score":0.714,"id":"a7vabla10pqc","geo_precision":"city","state":"MD"},"type":"Feature","geometry":{"type":"Point","coordinates":[-76.558783,38.942878]}},{"properties":{"city":"Hendersonville","country":"USA","geo_score":0.714,"id":"a7vabl4rrisg","geo_precision":"city","state":"NC"},"type":"Feature","geometry":{"type":"Point","coordinates":[-78.396213,36.38698]}},{"properties":{"city":"Lexington","country":"USA","geo_score":0.0,"id":"a7vabl3yhojk","geo_precision":"unmatched","state":"KY"},"type":"Feature","geometry":null},{"properties":{"city":"Marietta","country":"USA","geo_score":0.714,"id":"a7vabl46e502","geo_precision":"city","state":"GA"},"type":"Feature","geometry":{"type":"Point","coordinates":[-84.557181,33.912473]}},{"properties":{"city":"Toronto","country":"Canada","geo_score":0.571,"id":"a7vabl503p6g","geo_precision":"city","state":null},"type":"Feature","geometry":{"type":"Point","coordinates":[-89.62982,39.71394]}},{"properties":{"city":"Fort Lauderdale","country":"USA","geo_score":0.714,"id":"a7vabl3rywaz","geo_precision":"city","state":"FL"},"type":"Feature","geometry":{"type":"Point","coordinates":[-80.208381,26.166474]}},{"properties":{"city":"Apex","country":"USA","geo_score":0.0,"id":"a7vabl0j4e2j","geo_precision":"unmatched","state":"NC"},"type":"Feature","geometry":null},{"properties":{"city":"Stamford","country":"USA","geo_score":0.714,"id":"a7vable75qxy","geo_precision":"city","state":"CT"},"type":"Feature","geometry":{"type":"Point","coordinates":[-73.536216,41.054082]}},{"properties":{"city":"Spartanburg","country":"USA","geo_score":0.714,"id":"a7vablajjfxl","geo_precision":"city","state":"SC"},"type":"Feature","geometry":{"type":"Point","coordinates":[-81.993403,35.011309]}},{"properties":{"city":"Oxford","country":"USA","geo_score":0.0,"id":"a7vabl68pz19","geo_precision":"unmatched","state":"NC"},"type":"Feature","geometry":null},{"properties":{"city":"Davidson","country":"USA","geo_score":0.714,"id":"a7vabl5oqp6m","geo_precision":"city","state":"NC"},"type":"Feature","geometry":{"type":"Point","coordinates":[-80.844594,35.283427]}},{"properties":{"city":"Tampa","country":"USA","geo_score":0.714,"id":"a7vablexc3yf","geo_precision":"city","state":"FL"},"type":"Feature","geometry":{"type":"Point","coordinates":[-82.582035,27.996097]}},{"properties":{"city":"Fort Mill","country":"USA","geo_score":0.714,"id":"a7vabl2ptmz7","geo_precision":"city","state":"SC"},"type":"Feature","geometry":{"type":"Point","coordinates":[-80.990828,35.050243]}},{"properties":{"city":"Chapel Hill","country":"USA","geo_score":0.714,"id":"a7vabl404xma","geo_precision":"city","state":"NC"},"type":"Feature","geometry":{"type":"Point","coordinates":[-79.054475,36.004647]}},{"properties":{"city":"Ringoes","country":"USA","geo_score":0.714,"id":"a7vablc97j6p","geo_precision":"city","state":"NJ"},"type":"Feature","geometry":{"type":"Point","coordinates":[-74.840322,40.445602]}},{"properties":{"city":"Greenfield","country":"USA","geo_score":0.714,"id":"a7vablfoxes0","geo_precision":"city","state":"MA"},"type":"Feature","geometry":{"type":"Point","coordinates":[-72.87871,42.067316]}},{"properties":{"city":"Aiken","country":"USA","geo_score":0.714,"id":"a7vabl31pitc","geo_precision":"city","state":"SC"},"type":"Feature","geometry":{"type":"Point","coordinates":[-81.69588,33.554433]}},{"properties":{"city":"Charlotte","country":"USA","geo_score":0.714,"id":"a7vablfl0fe9","geo_precision":"city","state":"NC"},"type":"Feature","geometry":{"type":"Point","coordinates":[-80.804151,35.26002]}},{"properties":{"city":"Gaffney","country":"USA","geo_score":0.714,"id":"a7vabl159nm9","geo_precision":"city","state":"SC"},"type":"Feature","geometry":{"type":"Point","coordinates":[-81.63383,35.00549]}},{"properties":{"city":"Blythewood","country":"USA","geo_score":0.714,"id":"a7vablexu36y","geo_precision":"city","state":"SC"},"type":"Feature","geometry":{"type":"Point","coordinates":[-80.918919,34.104758]}},{"properties":{"city":"Gastonia","country":"USA","geo_score":0.714,"id":"a7vabl10dl9a","geo_precision":"city","state":"NC"},"type":"Feature","geometry":{"type":"Point","coordinates":[-78.101382,34.583223]}},{"properties":{"city":"Gray Court","country":"USA","geo_score":0.714,"id":"a7vabl0l8yt9","geo_precision":"city","state":"SC"},"type":"Feature","geometry":{"type":"Point","coordinates":[-82.114703,34.595311]}},{"properties":{"city":"Plano","country":"USA","geo_score":0.714,"id":"a7vabl233iv4","geo_precision":"city","state":"TX"},"type":"Feature","geometry":{"type":"Point","coordinates":[-96.053859,32.337922]}},{"properties":{"city":"Seneca","country":"USA","geo_score":0.714,"id":"a7vablg78x9o","geo_precision":"city","state":"SC"},"type":"Feature","geometry":{"type":"Point","coordinates":[-82.945651,34.773984]}},{"properties":{"city":"Burlington","country":"USA","geo_score":0.714,"id":"a7vabl5myh3l","geo_precision":"city","state":"NC"},"type":"Feature","geometry":{"type":"Point","coordinates":[-79.430129,36.091025]}},{"properties":{"city":"Prospect","country":"USA","geo_score":0.714,"id":"a7vablcr5ed0","geo_precision":"city","state":"KY"},"type":"Feature","geometry":{"type":"Point","coordinates":[-85.598451,38.341558]}},{"properties":{"city":"Chapel Hill","country":"USA","geo_score":0.714,"id":"a7vablczqo7g","geo_precision":"city","state":"NC"},"type":"Feature","geometry":{"type":"Point","coordinates":[-79.054475,36.004647]}},{"properties":{"city":"Hudson","country":"USA","geo_score":0.714,"id":"a7vableb0w3a","geo_precision":"city","state":"OH"},"type":"Feature","geometry":{"type":"Point","coordinates":[-81.476335,41.244023]}},{"properties":{"city":"Wooster","country":"USA","geo_score":0.714,"id":"a7vabl6eqcb9","geo_precision":"city","state":"OH"},"type":"Feature","geometry":{"type":"Point","coordinates":[-81.895377,40.830699]}},{"properties":{"city":"Richmond","country":"USA","geo_score":0.714,"id":"a7vabl1q20lu","geo_precision":"city","state":"VA"},"type":"Feature","geometry":{"type":"Point","coordinates":[-76.83774,37.914858]}},{"properties":{"city":"Orlando","country":"USA","geo_score":0.714,"id":"a7vabl1olcet","geo_precision":"city","state":"FL"},"type":"Feature","geometry":{"type":"Point","coordinates":[-81.373291,28.545179]}},{"properties":{"city":"Manhattan Beach","country":"USA","geo_score":0.714,"id":"a7vabl4a6fy3","geo_precision":"city","state":"CA"},"type":"Feature","geometry":{"type":"Point","coordinates":[-118.298662,33.786594]}},{"properties":{"city":"Rome","country":"USA","geo_score":0.714,"id":"a7vabl1s16h5","geo_precision":"city","state":"GA"},"type":"Feature","geometry":{"type":"Point","coordinates":[-85.22089,34.262335]}},{"properties":{"city":"Gaston","country":"USA","geo_score":0.714,"id":"a7vabl8zinr9","geo_precision":"city","state":"SC"},"type":"Feature","geometry":{"type":"Point","coordinates":[-81.104235,33.815305]}},{"properties":{"city":"Easley","country":"USA","geo_score":0.714,"id":"a7vabl4l4nbz","geo_precision":"city","state":"SC"},"type":"Feature","geometry":{"type":"Point","coordinates":[-82.643754,34.843968]}},{"properties":{"city":"APO","country":"USA","geo_score":0.0,"id":"a7vabl8aze3y","geo_precision":"unmatched","state":"AE"},"type":"Feature","geometry":null},{"properties":{"city":"Duluth","country":"USA","geo_score":0.714,"id":"a7vabl6y2f3v","geo_precision":"city","state":"GA"},"type":"Feature","geometry":{"type":"Point","coordinates":[-84.092267,33.962979]}},{"properties":{"city":"Abbeville","country":"USA","geo_score":0.714,"id":"a7vableg94ud","geo_precision":"city","state":"SC"},"type":"Feature","geometry":{"type":"Point","coordinates":[-82.446307,34.215714]}},{"properties":{"city":"Mountain Brk","country":"USA","geo_score":0.714,"id":"a7vabl9ttxad","geo_precision":"city","state":"AL"},"type":"Feature","geometry":{"type":"Point","coordinates":[-86.752211,33.500938]}},{"properties":{"city":"Mt Pleasant","country":"USA","geo_score":0.714,"id":"a7vabler92a9","geo_precision":"city","state":"SC"},"type":"Feature","geometry":{"type":"Point","coordinates":[-81.990395,33.915963]}},{"properties":{"city":"Watertown","country":"USA","geo_score":0.714,"id":"a7vabl67ulm5","geo_precision":"city","state":"CT"},"type":"Feature","geometry":{"type":"Point","coordinates":[-73.162003,41.759427]}},{"properties":{"city":"Arlington","country":"USA","geo_score":0.714,"id":"a7vable5yzts","geo_precision":"city","state":"VA"},"type":"Feature","geometry":{"type":"Point","coordinates":[-77.099113,38.885484]}},{"properties":{"city":"Rock Hill","country":"USA","geo_score":0.0,"id":"a7vabl1b2dao","geo_precision":"unmatched","state":"SC"},"type":"Feature","geometry":null},{"properties":{"city":"Naples","country":"USA","geo_score":0.714,"id":"a7vabl17pfpi","geo_precision":"city","state":"FL"},"type":"Feature","geometry":{"type":"Point","coordinates":[-81.79481,26.142036]}},{"properties":{"city":"Tallahassee","country":"USA","geo_score":0.714,"id":"a7vabl0w5k29","geo_precision":"city","state":"FL"},"type":"Feature","geometry":{"type":"Point","coordinates":[-84.203379,30.418514]}},{"properties":{"city":"Statesville","country":"USA","geo_score":0.714,"id":"a7vabld6gtm5","geo_precision":"city","state":"NC"},"type":"Feature","geometry":{"type":"Point","coordinates":[-80.930908,35.785413]}},{"properties":{"city":"Kennett Square","country":"USA","geo_score":0.714,"id":"a7vabl38w65s","geo_precision":"city","state":"PA"},"type":"Feature","geometry":{"type":"Point","coordinates":[-75.716333,39.867864]}},{"properties":{"city":"Columbia","country":"USA","geo_score":0.714,"id":"a7vabl5y3piy","geo_precision":"city","state":"SC"},"type":"Feature","geometry":{"type":"Point","coordinates":[-81.024864,33.987454]}},{"properties":{"city":"Potomac","country":"USA","geo_score":0.714,"id":"a7vabld4ooyz","geo_precision":"city","state":"MD"},"type":"Feature","geometry":{"type":"Point","coordinates":[-77.234792,39.029839]}},{"properties":{"city":"Pawleys Island","country":"USA","geo_score":0.714,"id":"a7vablc8w3nc","geo_precision":"city","state":"SC"},"type":"Feature","geometry":{"type":"Point","coordinates":[-79.183904,33.464107]}},{"properties":{"city":"Winston Salem","country":"USA","geo_score":0.714,"id":"a7vablfzkr8w","geo_precision":"city","state":"NC"},"type":"Feature","geometry":{"type":"Point","coordinates":[-78.244459,35.563572]}},{"properties":{"city":"Shanghai","country":"China","geo_score":0.571,"id":"a7vablavni5a","geo_precision":"city","state":null},"type":"Feature","geometry":{"type":"Point","coordinates":[-156.648418,58.268704]}},{"properties":{"city":"Daniel Island","country":"USA","geo_score":0.714,"id":"a7vable2d24f","geo_precision":"city","state":"SC"},"type":"Feature","geometry":{"type":"Point","coordinates":[-80.948043,32.946307]}},{"properties":{"city":"Newton","country":"USA","geo_score":0.714,"id":"a7vabl5ojjyd","geo_precision":"city","state":"NJ"},"type":"Feature","geometry":{"type":"Point","coordinates":[-74.806938,41.069522]}},{"properties":{"city":"Simpsonville","country":"USA","geo_score":0.714,"id":"a7vabl7pvjbz","geo_precision":"city","state":"SC"},"type":"Feature","geometry":{"type":"Point","coordinates":[-81.045366,34.308481]}},{"properties":{"city":"Hangzhou","country":"China","geo_score":0.0,"id":"a7vablgmq1js","geo_precision":"unmatched","state":null},"type":"Feature","geometry":null},{"properties":{"city":"Douala","country":"Cameroon","geo_score":0.571,"id":"a7vabl4biskr","geo_precision":"city","state":null},"type":"Feature","geometry":{"type":"Point","coordinates":[-105.063611,35.193107]}},{"properties":{"city":"Martinez","country":"USA","geo_score":0.714,"id":"a7vablcu3lks","geo_precision":"city","state":"GA"},"type":"Feature","geometry":{"type":"Point","coordinates":[-82.075673,33.517358]}},{"properties":{"city":"Rhinebeck","country":"USA","geo_score":0.714,"id":"a7vablfeq297","geo_precision":"city","state":"NY"},"type":"Feature","geometry":{"type":"Point","coordinates":[-73.760423,41.836548]}},{"properties":{"city":"Charlotte","country":"USA","geo_score":0.714,"id":"a7vablfm8dzw","geo_precision":"city","state":"NC"},"type":"Feature","geometry":{"type":"Point","coordinates":[-80.804151,35.26002]}},{"properties":{"city":"Beaumont","country":"USA","geo_score":0.714,"id":"a7vabl5jngew","geo_precision":"city","state":"TX"},"type":"Feature","geometry":{"type":"Point","coordinates":[-94.109705,30.073712]}},{"properties":{"city":"Simpsonville","country":"USA","geo_score":0.714,"id":"a7vabl4xmc9p","geo_precision":"city","state":"SC"},"type":"Feature","geometry":{"type":"Point","coordinates":[-81.045366,34.308481]}},{"properties":{"city":"Greenville","country":"USA","geo_score":0.714,"id":"a7vablceuw5w","geo_precision":"city","state":"SC"},"type":"Feature","geometry":{"type":"Point","coordinates":[-82.402871,34.848567]}},{"properties":{"city":"Greer","country":"USA","geo_score":0.714,"id":"a7vable0xfjq","geo_precision":"city","state":"SC"},"type":"Feature","geometry":{"type":"Point","coordinates":[-82.368415,34.948738]}},{"properties":{"city":"Greer","country":"USA","geo_score":0.714,"id":"a7vabl5tldpf","geo_precision":"city","state":"SC"},"type":"Feature","geometry":{"type":"Point","coordinates":[-82.368415,34.948738]}},{"properties":{"city":"Columbia","country":"USA","geo_score":0.714,"id":"a7vabldihxwj","geo_precision":"city","state":"SC"},"type":"Feature","geometry":{"type":"Point","coordinates":[-81.024864,33.987454]}},{"properties":{"city":"Statesboro","country":"USA","geo_score":0.714,"id":"a7vabl452gb7","geo_precision":"city","state":"GA"},"type":"Feature","geometry":{"type":"Point","coordinates":[-81.784956,32.425]}},{"properties":{"city":"Marietta","country":"USA","geo_score":0.714,"id":"a7vabl4lojgu","geo_precision":"city","state":"GA"},"type":"Feature","geometry":{"type":"Point","coordinates":[-84.557181,33.912473]}},{"properties":{"city":"Burlington","country":"USA","geo_score":0.714,"id":"a7vabl8njklz","geo_precision":"city","state":"VT"},"type":"Feature","geometry":{"type":"Point","coordinates":[-73.151384,44.507404]}},{"properties":{"city":"Charlotte","country":"USA","geo_score":0.714,"id":"a7vabldca0ro","geo_precision":"city","state":"NC"},"type":"Feature","geometry":{"type":"Point","coordinates":[-80.804151,35.26002]}},{"properties":{"city":"Grand Prairie","country":"USA","geo_score":0.714,"id":"a7vable02xz6","geo_precision":"city","state":"TX"},"type":"Feature","geometry":{"type":"Point","coordinates":[-94.574646,33.12957]}},{"properties":{"city":"Atlanta","country":"USA","geo_score":0.714,"id":"a7vabl45mges","geo_precision":"city","state":"GA"},"type":"Feature","geometry":{"type":"Point","coordinates":[-84.47405,33.844371]}},{"properties":{"city":"Heathrow","country":"USA","geo_score":0.714,"id":"a7vabld6sow5","geo_precision":"city","state":"FL"},"type":"Feature","geometry":{"type":"Point","coordinates":[-81.372245,28.763333]}},{"properties":{"city":"Chesterfield","country":"USA","geo_score":0.714,"id":"a7vablg6vm1a","geo_precision":"city","state":"MO"},"type":"Feature","geometry":{"type":"Point","coordinates":[-90.650024,38.637002]}},{"properties":{"city":"Jacksonville","country":"USA","geo_score":0.0,"id":"a7vabl5apdot","geo_precision":"unmatched","state":"FL"},"type":"Feature","geometry":null},{"properties":{"city":"Simpsonville","country":"USA","geo_score":0.714,"id":"a7vabl7w8ic7","geo_precision":"city","state":"SC"},"type":"Feature","geometry":{"type":"Point","coordinates":[-81.045366,34.308481]}},{"properties":{"city":"Greensboro","country":"USA","geo_score":0.714,"id":"a7vabl6fnt0q","geo_precision":"city","state":"NC"},"type":"Feature","geometry":{"type":"Point","coordinates":[-79.831692,36.055285]}},{"properties":{"city":"Orlando","country":"USA","geo_score":0.714,"id":"a7vabl546dig","geo_precision":"city","state":"FL"},"type":"Feature","geometry":{"type":"Point","coordinates":[-81.373291,28.545179]}},{"properties":{"city":"Sharon","country":"USA","geo_score":0.714,"id":"a7vabl3sq6l0","geo_precision":"city","state":"MA"},"type":"Feature","geometry":{"type":"Point","coordinates":[-71.184785,42.105288]}},{"properties":{"city":"Kloof","country":"South Africa","geo_score":0.571,"id":"a7vablcexjn3","geo_precision":"city","state":null},"type":"Feature","geometry":{"type":"Point","coordinates":[-87.791636,42.058029]}},{"properties":{"city":"Ooltewah","country":"USA","geo_score":0.714,"id":"a7vabl7l2ip2","geo_precision":"city","state":"TN"},"type":"Feature","geometry":{"type":"Point","coordinates":[-85.060369,35.120227]}},{"properties":{"city":"Mountain Brk","country":"USA","geo_score":0.714,"id":"a7vabl8tgixq","geo_precision":"city","state":"AL"},"type":"Feature","geometry":{"type":"Point","coordinates":[-86.752211,33.500938]}},{"properties":{"city":"Wayzata","country":"USA","geo_score":0.714,"id":"a7vablc0crbq","geo_precision":"city","state":"MN"},"type":"Feature","geometry":{"type":"Point","coordinates":[-93.542233,44.984663]}},{"properties":{"city":"Blythewood","country":"USA","geo_score":0.714,"id":"a7vabl5gb5nq","geo_precision":"city","state":"SC"},"type":"Feature","geometry":{"type":"Point","coordinates":[-80.918919,34.104758]}},{"properties":{"city":"Atlanta","country":"USA","geo_score":0.714,"id":"a7vableo3cov","geo_precision":"city","state":"GA"},"type":"Feature","geometry":{"type":"Point","coordinates":[-84.47405,33.844371]}},{"properties":{"city":"Tampa","country":"USA","geo_score":0.714,"id":"a7vabla7hcai","geo_precision":"city","state":"FL"},"type":"Feature","geometry":{"type":"Point","coordinates":[-82.582035,27.996097]}},{"properties":{"city":"Wilmington","country":"USA","geo_score":0.714,"id":"a7vabl5wk8kx","geo_precision":"city","state":"NC"},"type":"Feature","geometry":{"type":"Point","coordinates":[-77.898597,34.018784]}},{"properties":{"city":"Falmouth","country":"USA","geo_score":0.714,"id":"a7vabl2wdf4d","geo_precision":"city","state":"ME"},"type":"Feature","geometry":{"type":"Point","coordinates":[-70.270696,43.73928]}},{"properties":{"city":"Ridgeway","country":"USA","geo_score":0.714,"id":"a7vabl9shpi7","geo_precision":"city","state":"SC"},"type":"Feature","geometry":{"type":"Point","coordinates":[-80.926792,34.306879]}},{"properties":{"city":"Lutherville","country":"USA","geo_score":0.714,"id":"a7vabl2vz4jy","geo_precision":"city","state":"MD"},"type":"Feature","geometry":{"type":"Point","coordinates":[-76.654593,39.433206]}},{"properties":{"city":"Memphis","country":"USA","geo_score":0.714,"id":"a7vabl39me8p","geo_precision":"city","state":"TN"},"type":"Feature","geometry":{"type":"Point","coordinates":[-89.990415,35.169255]}},{"properties":{"city":"Cheraw","country":"USA","geo_score":0.714,"id":"a7vablacczvb","geo_precision":"city","state":"SC"},"type":"Feature","geometry":{"type":"Point","coordinates":[-79.943741,34.691548]}},{"properties":{"city":"Dalton","country":"USA","geo_score":0.714,"id":"a7vabl23fw38","geo_precision":"city","state":"GA"},"type":"Feature","geometry":{"type":"Point","coordinates":[-83.863238,33.647336]}},{"properties":{"city":"Newport Beach","country":"USA","geo_score":0.714,"id":"a7vablfi56yu","geo_precision":"city","state":"CA"},"type":"Feature","geometry":{"type":"Point","coordinates":[-117.928947,33.61891]}},{"properties":{"city":"Mount Holly","country":"USA","geo_score":0.714,"id":"a7vabl0z28hi","geo_precision":"city","state":"NC"},"type":"Feature","geometry":{"type":"Point","coordinates":[-80.64729,35.179589]}},{"properties":{"city":"Cedarburg","country":"USA","geo_score":0.714,"id":"a7vabl3gcs43","geo_precision":"city","state":"WI"},"type":"Feature","geometry":{"type":"Point","coordinates":[-88.004033,43.321475]}},{"properties":{"city":"Zhuzhou","country":"China","geo_score":0.0,"id":"a7vabl3onv4p","geo_precision":"unmatched","state":null},"type":"Feature","geometry":null},{"properties":{"city":"Granville","country":"USA","geo_score":0.714,"id":"a7vablazaiad","geo_precision":"city","state":"OH"},"type":"Feature","geometry":{"type":"Point","coordinates":[-83.583223,39.288414]}},{"properties":{"city":"West Columbia","country":"USA","geo_score":0.714,"id":"a7vabla0fopd","geo_precision":"city","state":"SC"},"type":"Feature","geometry":{"type":"Point","coordinates":[-81.024864,33.987454]}},{"properties":{"city":"Jacksonville","country":"USA","geo_score":0.0,"id":"a7vabld6dsk9","geo_precision":"unmatched","state":"FL"},"type":"Feature","geometry":null},{"properties":{"city":"Greenville","country":"USA","geo_score":0.714,"id":"a7vablbie1ys","geo_precision":"city","state":"SC"},"type":"Feature","geometry":{"type":"Point","coordinates":[-82.402871,34.848567]}},{"properties":{"city":"Greenville","country":"USA","geo_score":0.714,"id":"a7vable0rzh5","geo_precision":"city","state":"SC"},"type":"Feature","geometry":{"type":"Point","coordinates":[-82.402871,34.848567]}},{"properties":{"city":"Cary","country":"USA","geo_score":0.714,"id":"a7vabl14m60u","geo_precision":"city","state":"NC"},"type":"Feature","geometry":{"type":"Point","coordinates":[-79.220017,36.211527]}},{"properties":{"city":"Gauteng","country":"South Africa","geo_score":0.571,"id":"a7vabl72jfjc","geo_precision":"city","state":null},"type":"Feature","geometry":{"type":"Point","coordinates":[-117.590487,44.874043]}},{"properties":{"city":"Atlanta","country":"USA","geo_score":0.714,"id":"a7vabl8h3jm8","geo_precision":"city","state":"GA"},"type":"Feature","geometry":{"type":"Point","coordinates":[-84.47405,33.844371]}},{"properties":{"city":"Hilton Head Island","country":"USA","geo_score":0.714,"id":"a7vablfayk0o","geo_precision":"city","state":"SC"},"type":"Feature","geometry":{"type":"Point","coordinates":[-81.306209,34.137092]}},{"properties":{"city":"Simpsonville","country":"USA","geo_score":0.714,"id":"a7vablc21i6k","geo_precision":"city","state":"SC"},"type":"Feature","geometry":{"type":"Point","coordinates":[-81.045366,34.308481]}},{"properties":{"city":"Sarasota","country":"USA","geo_score":0.714,"id":"a7vablcb4pzi","geo_precision":"city","state":"FL"},"type":"Feature","geometry":{"type":"Point","coordinates":[-82.537169,27.335023]}},{"properties":{"city":"Tucker","country":"USA","geo_score":0.0,"id":"a7vablf8inx1","geo_precision":"unmatched","state":"GA"},"type":"Feature","geometry":null},{"properties":{"city":"Lyman","country":"USA","geo_score":0.714,"id":"a7vabl5q1krw","geo_precision":"city","state":"SC"},"type":"Feature","geometry":{"type":"Point","coordinates":[-81.985214,35.006816]}},{"properties":{"city":"Greenville","country":"USA","geo_score":0.714,"id":"a7vablf6sc88","geo_precision":"city","state":"SC"},"type":"Feature","geometry":{"type":"Point","coordinates":[-82.402871,34.848567]}},{"properties":{"city":"Gainesville","country":"USA","geo_score":0.714,"id":"a7vabl1nf43w","geo_precision":"city","state":"GA"},"type":"Feature","geometry":{"type":"Point","coordinates":[-83.837912,34.334398]}},{"properties":{"city":"Simpsonville","country":"USA","geo_score":0.714,"id":"a7vabl4muy22","geo_precision":"city","state":"SC"},"type":"Feature","geometry":{"type":"Point","coordinates":[-81.045366,34.308481]}},{"properties":{"city":"Berlin","country":"USA","geo_score":0.714,"id":"a7vablb0gtbi","geo_precision":"city","state":"MD"},"type":"Feature","geometry":{"type":"Point","coordinates":[-75.320901,38.310447]}},{"properties":{"city":"Chicago","country":"USA","geo_score":0.714,"id":"a7vabl9a2ult","geo_precision":"city","state":"IL"},"type":"Feature","geometry":{"type":"Point","coordinates":[-87.68732,41.811929]}},{"properties":{"city":"Hendersonville","country":"USA","geo_score":0.714,"id":"a7vabld9ymwo","geo_precision":"city","state":"NC"},"type":"Feature","geometry":{"type":"Point","coordinates":[-78.396213,36.38698]}},{"properties":{"city":"Charleston","country":"USA","geo_score":0.714,"id":"a7vabl74etby","geo_precision":"city","state":"SC"},"type":"Feature","geometry":{"type":"Point","coordinates":[-79.970643,32.85712]}},{"properties":{"city":"Charlotte","country":"USA","geo_score":0.714,"id":"a7vablbu461r","geo_precision":"city","state":"NC"},"type":"Feature","geometry":{"type":"Point","coordinates":[-80.804151,35.26002]}},{"properties":{"city":"Dallas","country":"USA","geo_score":0.714,"id":"a7vabl1s3j4t","geo_precision":"city","state":"TX"},"type":"Feature","geometry":{"type":"Point","coordinates":[-96.240533,32.370699]}},{"properties":{"city":"Novelty","country":"USA","geo_score":0.714,"id":"a7vablbod72u","geo_precision":"city","state":"OH"},"type":"Feature","geometry":{"type":"Point","coordinates":[-81.328211,41.468754]}},{"properties":{"city":"Wayne","country":"USA","geo_score":0.714,"id":"a7vablfc8car","geo_precision":"city","state":"NJ"},"type":"Feature","geometry":{"type":"Point","coordinates":[-74.241168,40.948689]}},{"properties":{"city":"Media","country":"USA","geo_score":0.714,"id":"a7vabldnuh4b","geo_precision":"city","state":"PA"},"type":"Feature","geometry":{"type":"Point","coordinates":[-75.399118,39.918804]}},{"properties":{"city":"Media","country":"USA","geo_score":0.714,"id":"a7vabl5n1z5g","geo_precision":"city","state":"PA"},"type":"Feature","geometry":{"type":"Point","coordinates":[-75.399118,39.918804]}},{"properties":{"city":"Alpharetta","country":"USA","geo_score":0.714,"id":"a7vabl977gvd","geo_precision":"city","state":"GA"},"type":"Feature","geometry":{"type":"Point","coordinates":[-83.92379,31.462401]}},{"properties":{"city":"South Burlington","country":"USA","geo_score":0.714,"id":"a7vableqr94v","geo_precision":"city","state":"VT"},"type":"Feature","geometry":{"type":"Point","coordinates":[-73.151384,44.507404]}},{"properties":{"city":"Lexington","country":"USA","geo_score":0.0,"id":"a7vablb8rse7","geo_precision":"unmatched","state":"KY"},"type":"Feature","geometry":null},{"properties":{"city":"Aiken","country":"USA","geo_score":0.714,"id":"a7vabl96z5h5","geo_precision":"city","state":"SC"},"type":"Feature","geometry":{"type":"Point","coordinates":[-81.69588,33.554433]}},{"properties":{"city":"Mount Pleasant","country":"USA","geo_score":0.714,"id":"a7vabl604q8h","geo_precision":"city","state":"SC"},"type":"Feature","geometry":{"type":"Point","coordinates":[-81.990395,33.915963]}},{"properties":{"city":"Roswell","country":"USA","geo_score":0.714,"id":"a7vabl5prubd","geo_precision":"city","state":"GA"},"type":"Feature","geometry":{"type":"Point","coordinates":[-84.370475,34.055198]}},{"properties":{"city":"Edison","country":"USA","geo_score":0.714,"id":"a7vabl62bi9i","geo_precision":"city","state":"NJ"},"type":"Feature","geometry":{"type":"Point","coordinates":[-74.393444,40.519753]}},{"properties":{"city":"Mount Pleasant","country":"USA","geo_score":0.714,"id":"a7vablbb63pl","geo_precision":"city","state":"SC"},"type":"Feature","geometry":{"type":"Point","coordinates":[-81.990395,33.915963]}},{"properties":{"city":"Greenville","country":"USA","geo_score":0.714,"id":"a7vabl7kq7ep","geo_precision":"city","state":"SC"},"type":"Feature","geometry":{"type":"Point","coordinates":[-82.402871,34.848567]}},{"properties":{"city":"Simpsonville","country":"USA","geo_score":0.714,"id":"a7vablemjwcw","geo_precision":"city","state":"SC"},"type":"Feature","geometry":{"type":"Point","coordinates":[-81.045366,34.308481]}},{"properties":{"city":"Bradenton","country":"USA","geo_score":0.714,"id":"a7vabl6ycbln","geo_precision":"city","state":"FL"},"type":"Feature","geometry":{"type":"Point","coordinates":[-82.470456,27.404731]}},{"properties":{"city":"Charlotte","country":"USA","geo_score":0.714,"id":"a7vablfjdpz2","geo_precision":"city","state":"NC"},"type":"Feature","geometry":{"type":"Point","coordinates":[-80.804151,35.26002]}},{"properties":{"city":"Braintree","country":"USA","geo_score":0.714,"id":"a7vabl9e1v05","geo_precision":"city","state":"MA"},"type":"Feature","geometry":{"type":"Point","coordinates":[-70.643868,42.081825]}},{"properties":{"city":"Gastonia","country":"USA","geo_score":0.714,"id":"a7vablforg3q","geo_precision":"city","state":"NC"},"type":"Feature","geometry":{"type":"Point","coordinates":[-78.101382,34.583223]}},{"properties":{"city":"Johns Island","country":"USA","geo_score":0.714,"id":"a7vablccq3vq","geo_precision":"city","state":"SC"},"type":"Feature","geometry":{"type":"Point","coordinates":[-79.821702,32.835713]}},{"properties":{"city":"Seneca","country":"USA","geo_score":0.714,"id":"a7vabl4bbl2u","geo_precision":"city","state":"SC"},"type":"Feature","geometry":{"type":"Point","coordinates":[-82.945651,34.773984]}},{"properties":{"city":"Bogart","country":"USA","geo_score":0.714,"id":"a7vabl4gugz9","geo_precision":"city","state":"GA"},"type":"Feature","geometry":{"type":"Point","coordinates":[-83.518452,33.901988]}},{"properties":{"city":"Crestwood","country":"USA","geo_score":0.714,"id":"a7vabl53yp3h","geo_precision":"city","state":"KY"},"type":"Feature","geometry":{"type":"Point","coordinates":[-85.446974,38.358083]}},{"properties":{"city":"Greer","country":"USA","geo_score":0.714,"id":"a7vabl6re8lx","geo_precision":"city","state":"SC"},"type":"Feature","geometry":{"type":"Point","coordinates":[-82.368415,34.948738]}},{"properties":{"city":"Pooler","country":"USA","geo_score":0.714,"id":"a7vabl1t9y3h","geo_precision":"city","state":"GA"},"type":"Feature","geometry":{"type":"Point","coordinates":[-81.083881,32.071917]}},{"properties":{"city":"Fayetteville","country":"USA","geo_score":0.714,"id":"a7vablf3ynmp","geo_precision":"city","state":"GA"},"type":"Feature","geometry":{"type":"Point","coordinates":[-84.480626,33.467941]}},{"properties":{"city":"Charlotte","country":"USA","geo_score":0.714,"id":"a7vabl9za03y","geo_precision":"city","state":"NC"},"type":"Feature","geometry":{"type":"Point","coordinates":[-80.804151,35.26002]}},{"properties":{"city":"Winston Salem","country":"USA","geo_score":0.714,"id":"a7vabl13zfo1","geo_precision":"city","state":"NC"},"type":"Feature","geometry":{"type":"Point","coordinates":[-78.244459,35.563572]}},{"properties":{"city":"West Columbia","country":"USA","geo_score":0.714,"id":"a7vabldbf7in","geo_precision":"city","state":"SC"},"type":"Feature","geometry":{"type":"Point","coordinates":[-81.024864,33.987454]}},{"properties":{"city":"Spartanburg","country":"USA","geo_score":0.714,"id":"a7vablczxkfe","geo_precision":"city","state":"SC"},"type":"Feature","geometry":{"type":"Point","coordinates":[-81.993403,35.011309]}},{"properties":{"city":"Falls Church","country":"USA","geo_score":0.714,"id":"a7vabl5mufle","geo_precision":"city","state":"VA"},"type":"Feature","geometry":{"type":"Point","coordinates":[-78.324997,36.605976]}},{"properties":{"city":"Suwanee","country":"USA","geo_score":0.714,"id":"a7vabl33p4jw","geo_precision":"city","state":"GA"},"type":"Feature","geometry":{"type":"Point","coordinates":[-84.026171,34.042479]}},{"properties":{"city":"Savannah","country":"USA","geo_score":0.714,"id":"a7vablaeep2q","geo_precision":"city","state":"GA"},"type":"Feature","geometry":{"type":"Point","coordinates":[-81.135618,32.072257]}},{"properties":{"city":"Tuxedo Park","country":"USA","geo_score":0.0,"id":"a7vablczbid6","geo_precision":"unmatched","state":"NY"},"type":"Feature","geometry":null},{"properties":{"city":"Franklin","country":"USA","geo_score":0.714,"id":"a7vabl7wuhws","geo_precision":"city","state":"TN"},"type":"Feature","geometry":{"type":"Point","coordinates":[-86.965691,35.890746]}},{"properties":{"city":"Potomac Falls","country":"USA","geo_score":0.714,"id":"a7vabl5b5dwz","geo_precision":"city","state":"VA"},"type":"Feature","geometry":{"type":"Point","coordinates":[-78.324997,36.605976]}},{"properties":{"city":"Oakland","country":"USA","geo_score":0.714,"id":"a7vablaz0ohy","geo_precision":"city","state":"NJ"},"type":"Feature","geometry":{"type":"Point","coordinates":[-74.238623,41.023402]}},{"properties":{"city":"Birmingham","country":"USA","geo_score":0.714,"id":"a7vabld792p1","geo_precision":"city","state":"AL"},"type":"Feature","geometry":{"type":"Point","coordinates":[-86.801904,33.456412]}},{"properties":{"city":"Cape Coral","country":"USA","geo_score":0.714,"id":"a7vabl22kyo9","geo_precision":"city","state":"FL"},"type":"Feature","geometry":{"type":"Point","coordinates":[-81.95016,26.606491]}},{"properties":{"city":"Johnston","country":"USA","geo_score":0.714,"id":"a7vabl2kfpjc","geo_precision":"city","state":"IA"},"type":"Feature","geometry":{"type":"Point","coordinates":[-93.732559,41.714435]}},{"properties":{"city":"Canton","country":"USA","geo_score":0.714,"id":"a7vablg8lpec","geo_precision":"city","state":"MA"},"type":"Feature","geometry":{"type":"Point","coordinates":[-71.121185,42.179146]}},{"properties":{"city":"Chevy Chase","country":"USA","geo_score":0.714,"id":"a7vablb41nn8","geo_precision":"city","state":"MD"},"type":"Feature","geometry":{"type":"Point","coordinates":[-77.076367,38.971222]}},{"properties":{"city":"Louisville","country":"USA","geo_score":0.714,"id":"a7vablbvn5qt","geo_precision":"city","state":"KY"},"type":"Feature","geometry":{"type":"Point","coordinates":[-85.676819,38.188962]}},{"properties":{"city":"Franklinville","country":"USA","geo_score":0.714,"id":"a7vablfvl5ew","geo_precision":"city","state":"NJ"},"type":"Feature","geometry":{"type":"Point","coordinates":[-75.035749,39.59823]}},{"properties":{"city":"Katonah","country":"USA","geo_score":0.714,"id":"a7vabl6ms8qt","geo_precision":"city","state":"NY"},"type":"Feature","geometry":{"type":"Point","coordinates":[-76.207149,43.272569]}},{"properties":{"city":"Little River","country":"USA","geo_score":0.714,"id":"a7vabl3ypnhf","geo_precision":"city","state":"SC"},"type":"Feature","geometry":{"type":"Point","coordinates":[-78.758018,33.816472]}},{"properties":{"city":"Southern Shores","country":"USA","geo_score":0.714,"id":"a7vabl5kxatd","geo_precision":"city","state":"NC"},"type":"Feature","geometry":{"type":"Point","coordinates":[-75.731572,36.139053]}},{"properties":{"city":"East Lansing","country":"USA","geo_score":0.714,"id":"a7vablb87vnf","geo_precision":"city","state":"MI"},"type":"Feature","geometry":{"type":"Point","coordinates":[-84.555535,42.732535]}},{"properties":{"city":"Landrum","country":"USA","geo_score":0.714,"id":"a7vabl2odrh1","geo_precision":"city","state":"SC"},"type":"Feature","geometry":{"type":"Point","coordinates":[-82.153545,35.146058]}},{"properties":{"city":"Mount Pleasant","country":"USA","geo_score":0.714,"id":"a7vabl87udig","geo_precision":"city","state":"SC"},"type":"Feature","geometry":{"type":"Point","coordinates":[-81.990395,33.915963]}},{"properties":{"city":"Kennesaw","country":"USA","geo_score":0.714,"id":"a7vabl9mnxyf","geo_precision":"city","state":"GA"},"type":"Feature","geometry":{"type":"Point","coordinates":[-84.597433,34.03384]}},{"properties":{"city":"Kennesaw","country":"USA","geo_score":0.714,"id":"a7vabla6wnh6","geo_precision":"city","state":"GA"},"type":"Feature","geometry":{"type":"Point","coordinates":[-84.597433,34.03384]}},{"properties":{"city":"Fairforest","country":"USA","geo_score":0.714,"id":"a7vabl7j9q6u","geo_precision":"city","state":"SC"},"type":"Feature","geometry":{"type":"Point","coordinates":[-81.96902,34.888237]}},{"properties":{"city":"Morganton","country":"USA","geo_score":0.714,"id":"a7vablfyj3ul","geo_precision":"city","state":"NC"},"type":"Feature","geometry":{"type":"Point","coordinates":[-79.42891,36.122081]}},{"properties":{"city":"Lancaster","country":"USA","geo_score":0.714,"id":"a7vabl151xcy","geo_precision":"city","state":"PA"},"type":"Feature","geometry":{"type":"Point","coordinates":[-76.402184,40.131484]}},{"properties":{"city":"Brentwood","country":"USA","geo_score":0.714,"id":"a7vabl90lh31","geo_precision":"city","state":"TN"},"type":"Feature","geometry":{"type":"Point","coordinates":[-86.907565,35.874553]}},{"properties":{"city":"Columbia","country":"USA","geo_score":0.714,"id":"a7vablamkfxy","geo_precision":"city","state":"SC"},"type":"Feature","geometry":{"type":"Point","coordinates":[-81.024864,33.987454]}},{"properties":{"city":"Rock Hill","country":"USA","geo_score":0.0,"id":"a7vabl8rn00m","geo_precision":"unmatched","state":"SC"},"type":"Feature","geometry":null},{"properties":{"city":"Pipersville","country":"USA","geo_score":0.714,"id":"a7vablcfb2cy","geo_precision":"city","state":"PA"},"type":"Feature","geometry":{"type":"Point","coordinates":[-75.1172,40.43014]}},{"properties":{"city":"Garner","country":"USA","geo_score":0.714,"id":"a7vablef0kqd","geo_precision":"city","state":"IA"},"type":"Feature","geometry":{"type":"Point","coordinates":[-93.734009,43.089116]}},{"properties":{"city":"Norcross","country":"USA","geo_score":0.714,"id":"a7vabl9loxsw","geo_precision":"city","state":"GA"},"type":"Feature","geometry":{"type":"Point","coordinates":[-84.037859,33.960353]}},{"properties":{"city":"Narayangarh","country":"Nepal","geo_score":0.0,"id":"a7vablgho15a","geo_precision":"unmatched","state":null},"type":"Feature","geometry":null},{"properties":{"city":"Ridgefield","country":"USA","geo_score":0.714,"id":"a7vabl3r508m","geo_precision":"city","state":"CT"},"type":"Feature","geometry":{"type":"Point","coordinates":[-73.494637,41.308201]}},{"properties":{"city":"Lexington","country":"USA","geo_score":0.0,"id":"a7vabl21r21a","geo_precision":"unmatched","state":"KY"},"type":"Feature","geometry":null},{"properties":{"city":"Columbus","country":"USA","geo_score":0.714,"id":"a7vabl6jmsb4","geo_precision":"city","state":"NC"},"type":"Feature","geometry":{"type":"Point","coordinates":[-82.123534,35.261201]}},{"properties":{"city":"Greenville","country":"USA","geo_score":0.714,"id":"a7vabl9lybw7","geo_precision":"city","state":"SC"},"type":"Feature","geometry":{"type":"Point","coordinates":[-82.402871,34.848567]}},{"properties":{"city":"Grand Isle","country":"USA","geo_score":0.714,"id":"a7vabl1toflu","geo_precision":"city","state":"VT"},"type":"Feature","geometry":{"type":"Point","coordinates":[-73.303193,44.723391]}},{"properties":{"city":"Mountain Brk","country":"USA","geo_score":0.714,"id":"a7vable0mand","geo_precision":"city","state":"AL"},"type":"Feature","geometry":{"type":"Point","coordinates":[-86.752211,33.500938]}},{"properties":{"city":"Cancun","country":"Mexico","geo_score":0.571,"id":"a7vabl1febsa","geo_precision":"city","state":null},"type":"Feature","geometry":{"type":"Point","coordinates":[-99.762039,29.357005]}},{"properties":{"city":"Darlington","country":"USA","geo_score":0.714,"id":"a7vablg82hgz","geo_precision":"city","state":"SC"},"type":"Feature","geometry":{"type":"Point","coordinates":[-79.931655,34.317738]}},{"properties":{"city":"Greenville","country":"USA","geo_score":0.714,"id":"a7vabl3bsnvl","geo_precision":"city","state":"SC"},"type":"Feature","geometry":{"type":"Point","coordinates":[-82.402871,34.848567]}},{"properties":{"city":"Myrtle Beach","country":"USA","geo_score":0.714,"id":"a7vabl7n94dr","geo_precision":"city","state":"SC"},"type":"Feature","geometry":{"type":"Point","coordinates":[-78.852005,33.711741]}},{"properties":{"city":"St Augustine","country":"USA","geo_score":0.0,"id":"a7vabl19trqv","geo_precision":"unmatched","state":"FL"},"type":"Feature","geometry":null},{"properties":{"city":"Marietta","country":"USA","geo_score":0.714,"id":"a7vabl67rm6v","geo_precision":"city","state":"GA"},"type":"Feature","geometry":{"type":"Point","coordinates":[-84.557181,33.912473]}},{"properties":{"city":"Delray Beach","country":"USA","geo_score":0.714,"id":"a7vabl4xgxaf","geo_precision":"city","state":"FL"},"type":"Feature","geometry":{"type":"Point","coordinates":[-80.081614,26.457598]}},{"properties":{"city":"Orange","country":"USA","geo_score":0.714,"id":"a7vabl8dxeya","geo_precision":"city","state":"VA"},"type":"Feature","geometry":{"type":"Point","coordinates":[-78.046093,38.219183]}},{"properties":{"city":"Cartersville","country":"USA","geo_score":0.714,"id":"a7vabl6ksiaj","geo_precision":"city","state":"GA"},"type":"Feature","geometry":{"type":"Point","coordinates":[-84.847108,34.200787]}},{"properties":{"city":"Birmingham","country":"USA","geo_score":0.714,"id":"a7vabl8qc9e6","geo_precision":"city","state":"AL"},"type":"Feature","geometry":{"type":"Point","coordinates":[-86.801904,33.456412]}},{"properties":{"city":"Vestavia","country":"USA","geo_score":0.0,"id":"a7vabl5nxqw9","geo_precision":"unmatched","state":"AL"},"type":"Feature","geometry":null},{"properties":{"city":"Bamberg","country":"USA","geo_score":0.714,"id":"a7vabl5sviv7","geo_precision":"city","state":"SC"},"type":"Feature","geometry":{"type":"Point","coordinates":[-80.973559,33.206294]}},{"properties":{"city":"Arden","country":"USA","geo_score":0.714,"id":"a7vabl5x11zz","geo_precision":"city","state":"NC"},"type":"Feature","geometry":{"type":"Point","coordinates":[-82.541808,35.589686]}},{"properties":{"city":"Downingtown","country":"USA","geo_score":0.714,"id":"a7vablbju0vr","geo_precision":"city","state":"PA"},"type":"Feature","geometry":{"type":"Point","coordinates":[-75.722614,40.031265]}},{"properties":{"city":"Matthews","country":"USA","geo_score":0.0,"id":"a7vabl2mlexi","geo_precision":"unmatched","state":"NC"},"type":"Feature","geometry":null},{"properties":{"city":"Columbia","country":"USA","geo_score":0.714,"id":"a7vabl2qticf","geo_precision":"city","state":"SC"},"type":"Feature","geometry":{"type":"Point","coordinates":[-81.024864,33.987454]}},{"properties":{"city":"Pittsburgh","country":"USA","geo_score":0.714,"id":"a7vabldnxbnv","geo_precision":"city","state":"PA"},"type":"Feature","geometry":{"type":"Point","coordinates":[-80.024817,40.434436]}},{"properties":{"city":"Woodbridge","country":"USA","geo_score":0.714,"id":"a7vablb9fnjx","geo_precision":"city","state":"VA"},"type":"Feature","geometry":{"type":"Point","coordinates":[-77.271644,38.625541]}},{"properties":{"city":"Sandy Springs","country":"USA","geo_score":0.714,"id":"a7vablc9zbon","geo_precision":"city","state":"GA"},"type":"Feature","geometry":{"type":"Point","coordinates":[-84.378538,33.924269]}},{"properties":{"city":"Athens","country":"USA","geo_score":0.714,"id":"a7vabl5zmtu6","geo_precision":"city","state":"GA"},"type":"Feature","geometry":{"type":"Point","coordinates":[-83.353697,33.992902]}},{"properties":{"city":"Simpsonville","country":"USA","geo_score":0.714,"id":"a7vabla0ob8z","geo_precision":"city","state":"SC"},"type":"Feature","geometry":{"type":"Point","coordinates":[-81.045366,34.308481]}},{"properties":{"city":"Aiken","country":"USA","geo_score":0.714,"id":"a7vablf0n2bw","geo_precision":"city","state":"SC"},"type":"Feature","geometry":{"type":"Point","coordinates":[-81.69588,33.554433]}},{"properties":{"city":"Moore","country":"USA","geo_score":0.714,"id":"a7vabl0jshw9","geo_precision":"city","state":"SC"},"type":"Feature","geometry":{"type":"Point","coordinates":[-82.02732,34.970097]}},{"properties":{"city":"Madera","country":"USA","geo_score":0.714,"id":"a7vabl8wo3ve","geo_precision":"city","state":"CA"},"type":"Feature","geometry":{"type":"Point","coordinates":[-120.182423,36.928286]}},{"properties":{"city":"Windermere","country":"USA","geo_score":0.714,"id":"a7vabl87j95f","geo_precision":"city","state":"FL"},"type":"Feature","geometry":{"type":"Point","coordinates":[-81.543979,28.481031]}},{"properties":{"city":"Lake Bluff","country":"USA","geo_score":0.714,"id":"a7vablb7v1ls","geo_precision":"city","state":"IL"},"type":"Feature","geometry":{"type":"Point","coordinates":[-89.680102,40.684482]}},{"properties":{"city":"Greenville","country":"USA","geo_score":0.714,"id":"a7vabl8favlf","geo_precision":"city","state":"SC"},"type":"Feature","geometry":{"type":"Point","coordinates":[-82.402871,34.848567]}},{"properties":{"city":"Belmont","country":"USA","geo_score":0.714,"id":"a7vabl8q5eis","geo_precision":"city","state":"NC"},"type":"Feature","geometry":{"type":"Point","coordinates":[-79.443076,36.025692]}},{"properties":{"city":"Columbia","country":"USA","geo_score":0.714,"id":"a7vablg0gssj","geo_precision":"city","state":"SC"},"type":"Feature","geometry":{"type":"Point","coordinates":[-81.024864,33.987454]}},{"properties":{"city":"Gainesville","country":"USA","geo_score":0.714,"id":"a7vabl8sn3f3","geo_precision":"city","state":"GA"},"type":"Feature","geometry":{"type":"Point","coordinates":[-83.837912,34.334398]}},{"properties":{"city":"Greenville","country":"USA","geo_score":0.714,"id":"a7vablec9h8c","geo_precision":"city","state":"SC"},"type":"Feature","geometry":{"type":"Point","coordinates":[-82.402871,34.848567]}},{"properties":{"city":"Simpsonville","country":"USA","geo_score":0.714,"id":"a7vabl4zbz23","geo_precision":"city","state":"SC"},"type":"Feature","geometry":{"type":"Point","coordinates":[-81.045366,34.308481]}},{"properties":{"city":"Plain City","country":"USA","geo_score":0.714,"id":"a7vablaurg6h","geo_precision":"city","state":"OH"},"type":"Feature","geometry":{"type":"Point","coordinates":[-81.450184,41.172402]}},{"properties":{"city":"Olive Branch","country":"USA","geo_score":0.714,"id":"a7vabl8p4cfp","geo_precision":"city","state":"MS"},"type":"Feature","geometry":{"type":"Point","coordinates":[-89.711463,32.43042]}},{"properties":{"city":"Oviedo","country":"USA","geo_score":0.714,"id":"a7vableziorm","geo_precision":"city","state":"FL"},"type":"Feature","geometry":{"type":"Point","coordinates":[-81.22328,28.744752]}},{"properties":{"city":"Augusta","country":"USA","geo_score":0.714,"id":"a7vabl0ndexb","geo_precision":"city","state":"GA"},"type":"Feature","geometry":{"type":"Point","coordinates":[-81.969184,33.456687]}},{"properties":{"city":"Martinez","country":"USA","geo_score":0.714,"id":"a7vabl7m6qqb","geo_precision":"city","state":"GA"},"type":"Feature","geometry":{"type":"Point","coordinates":[-82.075673,33.517358]}},{"properties":{"city":"Aiken","country":"USA","geo_score":0.714,"id":"a7vabl30lawl","geo_precision":"city","state":"SC"},"type":"Feature","geometry":{"type":"Point","coordinates":[-81.69588,33.554433]}},{"properties":{"city":"Wilmette","country":"USA","geo_score":0.714,"id":"a7vablexjtfp","geo_precision":"city","state":"IL"},"type":"Feature","geometry":{"type":"Point","coordinates":[-87.72836,42.079228]}},{"properties":{"city":"Columbia","country":"USA","geo_score":0.714,"id":"a7vabl1r7yda","geo_precision":"city","state":"SC"},"type":"Feature","geometry":{"type":"Point","coordinates":[-81.024864,33.987454]}},{"properties":{"city":"Wilbraham","country":"USA","geo_score":0.714,"id":"a7vabl0onygs","geo_precision":"city","state":"MA"},"type":"Feature","geometry":{"type":"Point","coordinates":[-72.489988,42.125974]}},{"properties":{"city":"Novelty","country":"USA","geo_score":0.714,"id":"a7vablaj68ka","geo_precision":"city","state":"OH"},"type":"Feature","geometry":{"type":"Point","coordinates":[-81.328211,41.468754]}},{"properties":{"city":"Knoxville","country":"USA","geo_score":0.0,"id":"a7vabl8m2vr3","geo_precision":"unmatched","state":"TN"},"type":"Feature","geometry":null},{"properties":{"city":"Spring","country":"USA","geo_score":0.714,"id":"a7vablg7phop","geo_precision":"city","state":"TX"},"type":"Feature","geometry":{"type":"Point","coordinates":[-98.961457,33.370103]}},{"properties":{"city":"Anderson","country":"USA","geo_score":0.714,"id":"a7vabl2pqeiq","geo_precision":"city","state":"SC"},"type":"Feature","geometry":{"type":"Point","coordinates":[-79.409083,33.435562]}},{"properties":{"city":"Greer","country":"USA","geo_score":0.714,"id":"a7vablc30pw1","geo_precision":"city","state":"SC"},"type":"Feature","geometry":{"type":"Point","coordinates":[-82.368415,34.948738]}},{"properties":{"city":"Greenville","country":"USA","geo_score":0.714,"id":"a7vabl9qa3w0","geo_precision":"city","state":"SC"},"type":"Feature","geometry":{"type":"Point","coordinates":[-82.402871,34.848567]}},{"properties":{"city":"Hartsville","country":"USA","geo_score":0.714,"id":"a7vabl4q2vpr","geo_precision":"city","state":"SC"},"type":"Feature","geometry":{"type":"Point","coordinates":[-80.073953,34.345106]}},{"properties":{"city":"Marietta","country":"USA","geo_score":0.714,"id":"a7vablfcao5f","geo_precision":"city","state":"GA"},"type":"Feature","geometry":{"type":"Point","coordinates":[-84.557181,33.912473]}},{"properties":{"city":"East Grinstead","country":"United Kingdom","geo_score":0.571,"id":"a7vabl3axcyl","geo_precision":"city","state":null},"type":"Feature","geometry":{"type":"Point","coordinates":[-72.343162,44.642551]}},{"properties":{"city":"Desoto","country":"USA","geo_score":0.714,"id":"a7vablc3hsy4","geo_precision":"city","state":"TX"},"type":"Feature","geometry":{"type":"Point","coordinates":[-94.427902,30.808063]}},{"properties":{"city":"Asheville","country":"USA","geo_score":0.714,"id":"a7vabl0m50a2","geo_precision":"city","state":"NC"},"type":"Feature","geometry":{"type":"Point","coordinates":[-82.567281,35.602711]}},{"properties":{"city":"Summerville","country":"USA","geo_score":0.714,"id":"a7vabl86zm81","geo_precision":"city","state":"SC"},"type":"Feature","geometry":{"type":"Point","coordinates":[-80.431751,33.040201]}},{"properties":{"city":"Park Ridge","country":"USA","geo_score":0.714,"id":"a7vabl7vz34v","geo_precision":"city","state":"IL"},"type":"Feature","geometry":{"type":"Point","coordinates":[-87.843714,42.037228]}},{"properties":{"city":"Greenville","country":"USA","geo_score":0.714,"id":"a7vablg7cyq1","geo_precision":"city","state":"SC"},"type":"Feature","geometry":{"type":"Point","coordinates":[-82.402871,34.848567]}},{"properties":{"city":"Plano","country":"USA","geo_score":0.714,"id":"a7vablf7orzd","geo_precision":"city","state":"TX"},"type":"Feature","geometry":{"type":"Point","coordinates":[-96.053859,32.337922]}},{"properties":{"city":"Isle of Palms","country":"USA","geo_score":0.714,"id":"a7vabl4spb9y","geo_precision":"city","state":"SC"},"type":"Feature","geometry":{"type":"Point","coordinates":[-79.760516,32.807206]}},{"properties":{"city":"Nashville","country":"USA","geo_score":0.714,"id":"a7vabl4sxwmh","geo_precision":"city","state":"TN"},"type":"Feature","geometry":{"type":"Point","coordinates":[-86.778098,36.165688]}},{"properties":{"city":"North Potomac","country":"USA","geo_score":0.714,"id":"a7vabl9xumff","geo_precision":"city","state":"MD"},"type":"Feature","geometry":{"type":"Point","coordinates":[-77.264982,39.082886]}},{"properties":{"city":"Clearwater","country":"USA","geo_score":0.714,"id":"a7vablbeix01","geo_precision":"city","state":"FL"},"type":"Feature","geometry":{"type":"Point","coordinates":[-82.781523,27.978147]}},{"properties":{"city":"Sandy Springs","country":"USA","geo_score":0.714,"id":"a7vabl2t792o","geo_precision":"city","state":"GA"},"type":"Feature","geometry":{"type":"Point","coordinates":[-84.378538,33.924269]}},{"properties":{"city":"Port Perry","country":"Canada","geo_score":0.571,"id":"a7vabl3t5n0e","geo_precision":"city","state":null},"type":"Feature","geometry":{"type":"Point","coordinates":[-92.801306,41.461943]}},{"properties":{"city":"Sumter","country":"USA","geo_score":0.714,"id":"a7vabl6wu3kz","geo_precision":"city","state":"SC"},"type":"Feature","geometry":{"type":"Point","coordinates":[-80.354238,33.913678]}},{"properties":{"city":"Rock Hill","country":"USA","geo_score":0.0,"id":"a7vablfy83au","geo_precision":"unmatched","state":"SC"},"type":"Feature","geometry":null},{"properties":{"city":"Greenville","country":"USA","geo_score":0.714,"id":"a7vablcplsn6","geo_precision":"city","state":"SC"},"type":"Feature","geometry":{"type":"Point","coordinates":[-82.402871,34.848567]}},{"properties":{"city":"Fort Lauderdale","country":"USA","geo_score":0.714,"id":"a7vabl5zy05t","geo_precision":"city","state":"FL"},"type":"Feature","geometry":{"type":"Point","coordinates":[-80.208381,26.166474]}},{"properties":{"city":"Mt Pleasant","country":"USA","geo_score":0.714,"id":"a7vabldw0j4x","geo_precision":"city","state":"SC"},"type":"Feature","geometry":{"type":"Point","coordinates":[-81.990395,33.915963]}},{"properties":{"city":"Rumson","country":"USA","geo_score":0.714,"id":"a7vablfgw6oj","geo_precision":"city","state":"NJ"},"type":"Feature","geometry":{"type":"Point","coordinates":[-74.008432,40.370684]}},{"properties":{"city":"Duluth","country":"USA","geo_score":0.714,"id":"a7vabl8n1u6a","geo_precision":"city","state":"GA"},"type":"Feature","geometry":{"type":"Point","coordinates":[-84.092267,33.962979]}},{"properties":{"city":"Golden Valley","country":"USA","geo_score":0.714,"id":"a7vabl4pdk1h","geo_precision":"city","state":"MN"},"type":"Feature","geometry":{"type":"Point","coordinates":[-91.458938,43.635474]}},{"properties":{"city":"Central","country":"USA","geo_score":0.714,"id":"a7vablfwtwaz","geo_precision":"city","state":"SC"},"type":"Feature","geometry":{"type":"Point","coordinates":[-81.748435,34.913463]}},{"properties":{"city":"Greenville","country":"USA","geo_score":0.714,"id":"a7vabl32gajz","geo_precision":"city","state":"SC"},"type":"Feature","geometry":{"type":"Point","coordinates":[-82.402871,34.848567]}},{"properties":{"city":"Richmond","country":"USA","geo_score":0.714,"id":"a7vabl9y1pv2","geo_precision":"city","state":"VA"},"type":"Feature","geometry":{"type":"Point","coordinates":[-76.83774,37.914858]}},{"properties":{"city":"Crozier","country":"USA","geo_score":0.714,"id":"a7vabl8hxwqj","geo_precision":"city","state":"VA"},"type":"Feature","geometry":{"type":"Point","coordinates":[-77.794731,37.657031]}},{"properties":{"city":"Winston Salem","country":"USA","geo_score":0.714,"id":"a7vablgi3d9b","geo_precision":"city","state":"NC"},"type":"Feature","geometry":{"type":"Point","coordinates":[-78.244459,35.563572]}},{"properties":{"city":"Fort Mill","country":"USA","geo_score":0.714,"id":"a7vablcl8hij","geo_precision":"city","state":"SC"},"type":"Feature","geometry":{"type":"Point","coordinates":[-80.990828,35.050243]}},{"properties":{"city":"Philadelphia","country":"USA","geo_score":0.714,"id":"a7vable1wehi","geo_precision":"city","state":"PA"},"type":"Feature","geometry":{"type":"Point","coordinates":[-75.11787,40.001811]}},{"properties":{"city":"Hillsborough","country":"USA","geo_score":0.714,"id":"a7vabl60x7aq","geo_precision":"city","state":"NC"},"type":"Feature","geometry":{"type":"Point","coordinates":[-79.085469,36.077432]}},{"properties":{"city":"Plano","country":"USA","geo_score":0.714,"id":"a7vabl2c1kmc","geo_precision":"city","state":"TX"},"type":"Feature","geometry":{"type":"Point","coordinates":[-96.053859,32.337922]}},{"properties":{"city":"Atlanta","country":"USA","geo_score":0.714,"id":"a7vablc9xm7a","geo_precision":"city","state":"GA"},"type":"Feature","geometry":{"type":"Point","coordinates":[-84.47405,33.844371]}},{"properties":{"city":"Mclean","country":"USA","geo_score":0.714,"id":"a7vablcyk8tn","geo_precision":"city","state":"VA"},"type":"Feature","geometry":{"type":"Point","coordinates":[-77.18672,38.935202]}},{"properties":{"city":"Eads","country":"USA","geo_score":0.714,"id":"a7vabl5y2c40","geo_precision":"city","state":"TN"},"type":"Feature","geometry":{"type":"Point","coordinates":[-89.684982,35.175796]}},{"properties":{"city":"Chesterfield","country":"USA","geo_score":0.714,"id":"a7vabl7qlt5x","geo_precision":"city","state":"MO"},"type":"Feature","geometry":{"type":"Point","coordinates":[-90.650024,38.637002]}},{"properties":{"city":"Tampa","country":"USA","geo_score":0.714,"id":"a7vableqkwle","geo_precision":"city","state":"FL"},"type":"Feature","geometry":{"type":"Point","coordinates":[-82.582035,27.996097]}},{"properties":{"city":"East Point","country":"USA","geo_score":0.714,"id":"a7vabl5vdxg9","geo_precision":"city","state":"GA"},"type":"Feature","geometry":{"type":"Point","coordinates":[-84.439372,33.679553]}},{"properties":{"city":"Waxhaw","country":"USA","geo_score":0.0,"id":"a7vabl8y80es","geo_precision":"unmatched","state":"NC"},"type":"Feature","geometry":null},{"properties":{"city":"Summerville","country":"USA","geo_score":0.714,"id":"a7vabl8se3tz","geo_precision":"city","state":"SC"},"type":"Feature","geometry":{"type":"Point","coordinates":[-80.431751,33.040201]}},{"properties":{"city":"Greenville","country":"USA","geo_score":0.714,"id":"a7vablgseng4","geo_precision":"city","state":"SC"},"type":"Feature","geometry":{"type":"Point","coordinates":[-82.402871,34.848567]}},{"properties":{"city":"Austin","country":"USA","geo_score":0.714,"id":"a7vablf47sql","geo_precision":"city","state":"TX"},"type":"Feature","geometry":{"type":"Point","coordinates":[-97.771258,30.326374]}},{"properties":{"city":"Gaffney","country":"USA","geo_score":0.714,"id":"a7vabl5ykegg","geo_precision":"city","state":"SC"},"type":"Feature","geometry":{"type":"Point","coordinates":[-81.63383,35.00549]}},{"properties":{"city":"Columbia","country":"USA","geo_score":0.714,"id":"a7vabl4r57w1","geo_precision":"city","state":"SC"},"type":"Feature","geometry":{"type":"Point","coordinates":[-81.024864,33.987454]}},{"properties":{"city":"Fort Worth","country":"USA","geo_score":0.714,"id":"a7vabl5lbo7e","geo_precision":"city","state":"TX"},"type":"Feature","geometry":{"type":"Point","coordinates":[-98.399458,29.049969]}},{"properties":{"city":"Richmond","country":"USA","geo_score":0.714,"id":"a7vabl9zm22d","geo_precision":"city","state":"KY"},"type":"Feature","geometry":{"type":"Point","coordinates":[-84.296913,37.764867]}},{"properties":{"city":"Hangzhou","country":"China","geo_score":0.0,"id":"a7vablc29r6h","geo_precision":"unmatched","state":null},"type":"Feature","geometry":null},{"properties":{"city":"Ningbo","country":"China","geo_score":0.0,"id":"a7vabl3ku6ri","geo_precision":"unmatched","state":null},"type":"Feature","geometry":null},{"properties":{"city":"Piedmont","country":"USA","geo_score":0.714,"id":"a7vablgpbee5","geo_precision":"city","state":"SC"},"type":"Feature","geometry":{"type":"Point","coordinates":[-82.392453,34.72209]}},{"properties":{"city":"Raleigh","country":"USA","geo_score":0.714,"id":"a7vabl7yi5hp","geo_precision":"city","state":"NC"},"type":"Feature","geometry":{"type":"Point","coordinates":[-82.293464,36.034279]}},{"properties":{"city":"Alpharetta","country":"USA","geo_score":0.714,"id":"a7vabl6utxum","geo_precision":"city","state":"GA"},"type":"Feature","geometry":{"type":"Point","coordinates":[-83.92379,31.462401]}},{"properties":{"city":"Brentwood","country":"USA","geo_score":0.714,"id":"a7vabl80k4tm","geo_precision":"city","state":"TN"},"type":"Feature","geometry":{"type":"Point","coordinates":[-86.907565,35.874553]}},{"properties":{"city":"Hilton Head","country":"USA","geo_score":0.714,"id":"a7vabla9hhba","geo_precision":"city","state":"SC"},"type":"Feature","geometry":{"type":"Point","coordinates":[-81.306209,34.137092]}},{"properties":{"city":"Naples","country":"USA","geo_score":0.714,"id":"a7vabldfx3ye","geo_precision":"city","state":"FL"},"type":"Feature","geometry":{"type":"Point","coordinates":[-81.79481,26.142036]}},{"properties":{"city":"Hamburg","country":"Germany","geo_score":0.571,"id":"a7vabl8u885l","geo_precision":"city","state":null},"type":"Feature","geometry":{"type":"Point","coordinates":[-91.804371,33.215895]}},{"properties":{"city":"Fort Mill","country":"USA","geo_score":0.714,"id":"a7vabl3uhhh3","geo_precision":"city","state":"SC"},"type":"Feature","geometry":{"type":"Point","coordinates":[-80.990828,35.050243]}},{"properties":{"city":"Wilbraham","country":"USA","geo_score":0.714,"id":"a7vablbf4fjm","geo_precision":"city","state":"MA"},"type":"Feature","geometry":{"type":"Point","coordinates":[-72.489988,42.125974]}},{"properties":{"city":"Vestavia","country":"USA","geo_score":0.0,"id":"a7vablbyvumv","geo_precision":"unmatched","state":"AL"},"type":"Feature","geometry":null},{"properties":{"city":"Lancaster","country":"USA","geo_score":0.714,"id":"a7vablcngd3j","geo_precision":"city","state":"SC"},"type":"Feature","geometry":{"type":"Point","coordinates":[-80.794792,34.709314]}},{"properties":{"city":"Bogart","country":"USA","geo_score":0.714,"id":"a7vabl640nha","geo_precision":"city","state":"GA"},"type":"Feature","geometry":{"type":"Point","coordinates":[-83.518452,33.901988]}},{"properties":{"city":"Johns Island","country":"USA","geo_score":0.714,"id":"a7vabl9raqzj","geo_precision":"city","state":"SC"},"type":"Feature","geometry":{"type":"Point","coordinates":[-79.821702,32.835713]}},{"properties":{"city":"Cookeville","country":"USA","geo_score":0.714,"id":"a7vablf2cs8z","geo_precision":"city","state":"TN"},"type":"Feature","geometry":{"type":"Point","coordinates":[-85.542327,36.217846]}},{"properties":{"city":"Hangzhou","country":"China","geo_score":0.0,"id":"a7vablab2qsc","geo_precision":"unmatched","state":null},"type":"Feature","geometry":null},{"properties":{"city":"Xi Ning","country":"China","geo_score":0.571,"id":"a7vabl8pc8zi","geo_precision":"city","state":null},"type":"Feature","geometry":{"type":"Point","coordinates":[-94.628282,34.767881]}},{"properties":{"city":"Nanjing","country":"China","geo_score":0.571,"id":"a7vablefe6js","geo_precision":"city","state":null},"type":"Feature","geometry":{"type":"Point","coordinates":[-82.713768,37.179547]}},{"properties":{"city":"Lake Bluff","country":"USA","geo_score":0.714,"id":"a7vabl3jnki9","geo_precision":"city","state":"IL"},"type":"Feature","geometry":{"type":"Point","coordinates":[-89.680102,40.684482]}},{"properties":{"city":"Wellford","country":"USA","geo_score":0.714,"id":"a7vabldfu1db","geo_precision":"city","state":"SC"},"type":"Feature","geometry":{"type":"Point","coordinates":[-82.009137,34.834143]}},{"properties":{"city":"Aiken","country":"USA","geo_score":0.714,"id":"a7vablf7t28x","geo_precision":"city","state":"SC"},"type":"Feature","geometry":{"type":"Point","coordinates":[-81.69588,33.554433]}},{"properties":{"city":"Forestville","country":"USA","geo_score":0.714,"id":"a7vablekyfi3","geo_precision":"city","state":"MD"},"type":"Feature","geometry":{"type":"Point","coordinates":[-76.874972,38.845113]}},{"properties":{"city":"Potomac","country":"USA","geo_score":0.714,"id":"a7vabl6csjwq","geo_precision":"city","state":"MD"},"type":"Feature","geometry":{"type":"Point","coordinates":[-77.234792,39.029839]}},{"properties":{"city":"Ponte Vedra Beach","country":"USA","geo_score":0.714,"id":"a7vabl6vl45t","geo_precision":"city","state":"FL"},"type":"Feature","geometry":{"type":"Point","coordinates":[-83.328781,30.584683]}},{"properties":{"city":"Marietta","country":"USA","geo_score":0.714,"id":"a7vabl9a5m8i","geo_precision":"city","state":"GA"},"type":"Feature","geometry":{"type":"Point","coordinates":[-84.557181,33.912473]}},{"properties":{"city":"Greer","country":"USA","geo_score":0.714,"id":"a7vablbn3oaw","geo_precision":"city","state":"SC"},"type":"Feature","geometry":{"type":"Point","coordinates":[-82.368415,34.948738]}},{"properties":{"city":"Greenville","country":"USA","geo_score":0.714,"id":"a7vabl5u1i7k","geo_precision":"city","state":"SC"},"type":"Feature","geometry":{"type":"Point","coordinates":[-82.402871,34.848567]}},{"properties":{"city":"Cincinnati","country":"USA","geo_score":0.714,"id":"a7vablfig8mj","geo_precision":"city","state":"OH"},"type":"Feature","geometry":{"type":"Point","coordinates":[-84.53822,39.166759]}},{"properties":{"city":"Glenshaw","country":"USA","geo_score":0.714,"id":"a7vablgpqwee","geo_precision":"city","state":"PA"},"type":"Feature","geometry":{"type":"Point","coordinates":[-79.979974,40.357719]}},{"properties":{"city":"Sarasota","country":"USA","geo_score":0.714,"id":"a7vabl37r5rn","geo_precision":"city","state":"FL"},"type":"Feature","geometry":{"type":"Point","coordinates":[-82.537169,27.335023]}},{"properties":{"city":"Kafue","country":"Zambia","geo_score":0.571,"id":"a7vablfrx0xq","geo_precision":"city","state":null},"type":"Feature","geometry":{"type":"Point","coordinates":[-87.254443,37.604213]}},{"properties":{"city":"Mechanicsburg","country":"USA","geo_score":0.714,"id":"a7vablc9muxf","geo_precision":"city","state":"PA"},"type":"Feature","geometry":{"type":"Point","coordinates":[-76.158565,39.848715]}},{"properties":{"city":"Piedmont","country":"USA","geo_score":0.714,"id":"a7vablgmuvvu","geo_precision":"city","state":"CA"},"type":"Feature","geometry":{"type":"Point","coordinates":[-122.231635,37.824372]}},{"properties":{"city":"Tokyo","country":"Japan","geo_score":0.0,"id":"a7vabla4mwna","geo_precision":"unmatched","state":null},"type":"Feature","geometry":null},{"properties":{"city":"Atlanta","country":"USA","geo_score":0.714,"id":"a7vablde73lf","geo_precision":"city","state":"GA"},"type":"Feature","geometry":{"type":"Point","coordinates":[-84.47405,33.844371]}},{"properties":{"city":"Norcross","country":"USA","geo_score":0.714,"id":"a7vabl0tatuq","geo_precision":"city","state":"GA"},"type":"Feature","geometry":{"type":"Point","coordinates":[-84.037859,33.960353]}},{"properties":{"city":"Mullica Hill","country":"USA","geo_score":0.714,"id":"a7vabld72jpx","geo_precision":"city","state":"NJ"},"type":"Feature","geometry":{"type":"Point","coordinates":[-75.235017,39.715857]}},{"properties":{"city":"Garner","country":"USA","geo_score":0.714,"id":"a7vabl7ut7gz","geo_precision":"city","state":"NC"},"type":"Feature","geometry":{"type":"Point","coordinates":[-78.66304,35.714139]}},{"properties":{"city":"Loveland","country":"USA","geo_score":0.714,"id":"a7vabl7fsh8n","geo_precision":"city","state":"OH"},"type":"Feature","geometry":{"type":"Point","coordinates":[-84.263271,39.299781]}},{"properties":{"city":"Yardley","country":"USA","geo_score":0.714,"id":"a7vablcpav32","geo_precision":"city","state":"PA"},"type":"Feature","geometry":{"type":"Point","coordinates":[-74.845997,40.245664]}},{"properties":{"city":"Davidson","country":"USA","geo_score":0.714,"id":"a7vabl3c22l7","geo_precision":"city","state":"NC"},"type":"Feature","geometry":{"type":"Point","coordinates":[-80.844594,35.283427]}},{"properties":{"city":"Spartanburg","country":"USA","geo_score":0.714,"id":"a7vablgrxnpd","geo_precision":"city","state":"SC"},"type":"Feature","geometry":{"type":"Point","coordinates":[-81.993403,35.011309]}},{"properties":{"city":"Cranston","country":"USA","geo_score":0.714,"id":"a7vablb1rf8k","geo_precision":"city","state":"RI"},"type":"Feature","geometry":{"type":"Point","coordinates":[-71.435251,41.7917]}},{"properties":{"city":"Brooks","country":"USA","geo_score":0.714,"id":"a7vabl8c65np","geo_precision":"city","state":"GA"},"type":"Feature","geometry":{"type":"Point","coordinates":[-84.453196,33.30009]}},{"properties":{"city":"Brentwood","country":"USA","geo_score":0.714,"id":"a7vabl96bscs","geo_precision":"city","state":"TN"},"type":"Feature","geometry":{"type":"Point","coordinates":[-86.907565,35.874553]}},{"properties":{"city":"Alpharetta","country":"USA","geo_score":0.714,"id":"a7vablglb9ws","geo_precision":"city","state":"GA"},"type":"Feature","geometry":{"type":"Point","coordinates":[-83.92379,31.462401]}},{"properties":{"city":"Mountain Brk","country":"USA","geo_score":0.714,"id":"a7vablgtwf1h","geo_precision":"city","state":"AL"},"type":"Feature","geometry":{"type":"Point","coordinates":[-86.752211,33.500938]}},{"properties":{"city":"Cornelius","country":"USA","geo_score":0.714,"id":"a7vabl49c1xx","geo_precision":"city","state":"NC"},"type":"Feature","geometry":{"type":"Point","coordinates":[-80.872585,35.473286]}},{"properties":{"city":"Columbus","country":"USA","geo_score":0.714,"id":"a7vabl8g91c8","geo_precision":"city","state":"GA"},"type":"Feature","geometry":{"type":"Point","coordinates":[-84.97823,32.472864]}},{"properties":{"city":"Shreveport","country":"USA","geo_score":0.714,"id":"a7vablfdloxw","geo_precision":"city","state":"LA"},"type":"Feature","geometry":{"type":"Point","coordinates":[-93.750228,32.498202]}},{"properties":{"city":"Jacksonville","country":"USA","geo_score":0.0,"id":"a7vabl8ki315","geo_precision":"unmatched","state":"FL"},"type":"Feature","geometry":null},{"properties":{"city":"Knoxville","country":"USA","geo_score":0.0,"id":"a7vabl2kks9c","geo_precision":"unmatched","state":"TN"},"type":"Feature","geometry":null},{"properties":{"city":"Sumter","country":"USA","geo_score":0.714,"id":"a7vablee5ndf","geo_precision":"city","state":"SC"},"type":"Feature","geometry":{"type":"Point","coordinates":[-80.354238,33.913678]}},{"properties":{"city":"Tampa","country":"USA","geo_score":0.714,"id":"a7vabl3ho3oe","geo_precision":"city","state":"FL"},"type":"Feature","geometry":{"type":"Point","coordinates":[-82.582035,27.996097]}},{"properties":{"city":"Greenville","country":"USA","geo_score":0.714,"id":"a7vablcwnv9z","geo_precision":"city","state":"SC"},"type":"Feature","geometry":{"type":"Point","coordinates":[-82.402871,34.848567]}},{"properties":{"city":"Williamsburg","country":"USA","geo_score":0.714,"id":"a7vabl9asbnr","geo_precision":"city","state":"VA"},"type":"Feature","geometry":{"type":"Point","coordinates":[-76.746769,37.310451]}},{"properties":{"city":"Satellite Beach","country":"USA","geo_score":0.714,"id":"a7vabl9pa7as","geo_precision":"city","state":"FL"},"type":"Feature","geometry":{"type":"Point","coordinates":[-80.615835,28.167091]}},{"properties":{"city":"Dallas","country":"USA","geo_score":0.714,"id":"a7vablb9g81b","geo_precision":"city","state":"TX"},"type":"Feature","geometry":{"type":"Point","coordinates":[-96.240533,32.370699]}},{"properties":{"city":"Hamden","country":"USA","geo_score":0.714,"id":"a7vablc4697k","geo_precision":"city","state":"CT"},"type":"Feature","geometry":{"type":"Point","coordinates":[-72.938747,41.372723]}},{"properties":{"city":"Marietta","country":"USA","geo_score":0.714,"id":"a7vabl5rvrlx","geo_precision":"city","state":"GA"},"type":"Feature","geometry":{"type":"Point","coordinates":[-84.557181,33.912473]}},{"properties":{"city":"Bethesda","country":"USA","geo_score":0.714,"id":"a7vabldtljmn","geo_precision":"city","state":"MD"},"type":"Feature","geometry":{"type":"Point","coordinates":[-77.207617,39.143979]}},{"properties":{"city":"Kijabe","country":"Kenya","geo_score":0.0,"id":"a7vabl7gy6i4","geo_precision":"unmatched","state":null},"type":"Feature","geometry":null},{"properties":{"city":"Doral","country":"USA","geo_score":0.0,"id":"a7vablditmq0","geo_precision":"unmatched","state":"FL"},"type":"Feature","geometry":null},{"properties":{"city":"Myanmar","country":"USA","geo_score":0.0,"id":"a7vabl5prvfp","geo_precision":"unmatched","state":null},"type":"Feature","geometry":null},{"properties":{"city":"Commerce","country":"USA","geo_score":0.714,"id":"a7vablcle28l","geo_precision":"city","state":"GA"},"type":"Feature","geometry":{"type":"Point","coordinates":[-83.570671,34.169691]}},{"properties":{"city":"Greer","country":"USA","geo_score":0.714,"id":"a7vabl801g4q","geo_precision":"city","state":"SC"},"type":"Feature","geometry":{"type":"Point","coordinates":[-82.368415,34.948738]}},{"properties":{"city":"Elizabethton","country":"USA","geo_score":0.714,"id":"a7vabl1f6d5r","geo_precision":"city","state":"TN"},"type":"Feature","geometry":{"type":"Point","coordinates":[-89.177569,35.964516]}},{"properties":{"city":"Moundsville","country":"USA","geo_score":0.714,"id":"a7vabledz88v","geo_precision":"city","state":"WV"},"type":"Feature","geometry":{"type":"Point","coordinates":[-80.737134,39.916748]}},{"properties":{"city":"Lawrenceville","country":"USA","geo_score":0.714,"id":"a7vabl37uhob","geo_precision":"city","state":"GA"},"type":"Feature","geometry":{"type":"Point","coordinates":[-84.103226,33.929464]}},{"properties":{"city":"Laurens","country":"USA","geo_score":0.714,"id":"a7vablfjdcn9","geo_precision":"city","state":"SC"},"type":"Feature","geometry":{"type":"Point","coordinates":[-82.055091,34.528882]}},{"properties":{"city":"Greer","country":"USA","geo_score":0.714,"id":"a7vabl2iumsr","geo_precision":"city","state":"SC"},"type":"Feature","geometry":{"type":"Point","coordinates":[-82.368415,34.948738]}},{"properties":{"city":"Lexington","country":"USA","geo_score":0.0,"id":"a7vabl3zvv5u","geo_precision":"unmatched","state":"KY"},"type":"Feature","geometry":null},{"properties":{"city":"Sudbury","country":"USA","geo_score":0.714,"id":"a7vablgs4u24","geo_precision":"city","state":"MA"},"type":"Feature","geometry":{"type":"Point","coordinates":[-71.459405,42.446396]}},{"properties":{"city":"Glen Ellyn","country":"USA","geo_score":0.714,"id":"a7vableqim7x","geo_precision":"city","state":"IL"},"type":"Feature","geometry":{"type":"Point","coordinates":[-88.029385,41.872034]}},{"properties":{"city":"Jacksonville","country":"USA","geo_score":0.0,"id":"a7vabla5vy17","geo_precision":"unmatched","state":"FL"},"type":"Feature","geometry":null},{"properties":{"city":"Cobham","country":"United Kingdom","geo_score":0.571,"id":"a7vabl2rcnnp","geo_precision":"city","state":null},"type":"Feature","geometry":{"type":"Point","coordinates":[-78.268061,38.062916]}},{"properties":{"city":"Mauldin","country":"USA","geo_score":0.714,"id":"a7vabl4cxw5c","geo_precision":"city","state":"SC"},"type":"Feature","geometry":{"type":"Point","coordinates":[-82.267062,34.750238]}},{"properties":{"city":"Ellicott City","country":"USA","geo_score":0.714,"id":"a7vabl4wyo64","geo_precision":"city","state":"MD"},"type":"Feature","geometry":{"type":"Point","coordinates":[-76.941902,39.236405]}},{"properties":{"city":"Columbia","country":"USA","geo_score":0.714,"id":"a7vablefdp5k","geo_precision":"city","state":"SC"},"type":"Feature","geometry":{"type":"Point","coordinates":[-81.024864,33.987454]}},{"properties":{"city":"Greer","country":"USA","geo_score":0.714,"id":"a7vabl8o02b7","geo_precision":"city","state":"SC"},"type":"Feature","geometry":{"type":"Point","coordinates":[-82.368415,34.948738]}},{"properties":{"city":"Lighthouse Point","country":"USA","geo_score":0.0,"id":"a7vabl84ue9c","geo_precision":"unmatched","state":"FL"},"type":"Feature","geometry":null},{"properties":{"city":"Greer","country":"USA","geo_score":0.714,"id":"a7vabl0z3tnx","geo_precision":"city","state":"SC"},"type":"Feature","geometry":{"type":"Point","coordinates":[-82.368415,34.948738]}},{"properties":{"city":"Suzhou","country":"China","geo_score":0.0,"id":"a7vabl1bwaxq","geo_precision":"unmatched","state":null},"type":"Feature","geometry":null},{"properties":{"city":"Macon","country":"USA","geo_score":0.714,"id":"a7vablft8xmg","geo_precision":"city","state":"GA"},"type":"Feature","geometry":{"type":"Point","coordinates":[-83.595066,32.827949]}},{"properties":{"city":"Atlanta","country":"USA","geo_score":0.714,"id":"a7vablc06dwy","geo_precision":"city","state":"GA"},"type":"Feature","geometry":{"type":"Point","coordinates":[-84.47405,33.844371]}},{"properties":{"city":"Galloway","country":"USA","geo_score":0.714,"id":"a7vabl17r1yj","geo_precision":"city","state":"OH"},"type":"Feature","geometry":{"type":"Point","coordinates":[-83.011389,39.969036]}},{"properties":{"city":"Charlotte","country":"USA","geo_score":0.714,"id":"a7vabl3uwaq1","geo_precision":"city","state":"NC"},"type":"Feature","geometry":{"type":"Point","coordinates":[-80.804151,35.26002]}},{"properties":{"city":"Branford","country":"USA","geo_score":0.714,"id":"a7vablc125d4","geo_precision":"city","state":"CT"},"type":"Feature","geometry":{"type":"Point","coordinates":[-72.815113,41.277376]}},{"properties":{"city":"Aberdeen","country":"USA","geo_score":0.714,"id":"a7vabl2rp197","geo_precision":"city","state":"NC"},"type":"Feature","geometry":{"type":"Point","coordinates":[-79.517795,35.203802]}},{"properties":{"city":"Winter Park","country":"USA","geo_score":0.714,"id":"a7vabl5h86a1","geo_precision":"city","state":"FL"},"type":"Feature","geometry":{"type":"Point","coordinates":[-81.35874,28.602327]}},{"properties":{"city":"Houston","country":"USA","geo_score":0.714,"id":"a7vabl87bpl7","geo_precision":"city","state":"TX"},"type":"Feature","geometry":{"type":"Point","coordinates":[-96.919704,29.845783]}},{"properties":{"city":"Nashville","country":"USA","geo_score":0.714,"id":"a7vabl37vols","geo_precision":"city","state":"TN"},"type":"Feature","geometry":{"type":"Point","coordinates":[-86.778098,36.165688]}},{"properties":{"city":"Marietta","country":"USA","geo_score":0.714,"id":"a7vabldvkw21","geo_precision":"city","state":"GA"},"type":"Feature","geometry":{"type":"Point","coordinates":[-84.557181,33.912473]}},{"properties":{"city":"Charlotte","country":"USA","geo_score":0.714,"id":"a7vabl1mvgch","geo_precision":"city","state":"NC"},"type":"Feature","geometry":{"type":"Point","coordinates":[-80.804151,35.26002]}},{"properties":{"city":"Varnville","country":"USA","geo_score":0.714,"id":"a7vabl6dskl5","geo_precision":"city","state":"SC"},"type":"Feature","geometry":{"type":"Point","coordinates":[-81.079803,32.797222]}},{"properties":{"city":"Greer","country":"USA","geo_score":0.714,"id":"a7vablfzwz9w","geo_precision":"city","state":"SC"},"type":"Feature","geometry":{"type":"Point","coordinates":[-82.368415,34.948738]}},{"properties":{"city":"Melbourne","country":"USA","geo_score":0.714,"id":"a7vabl8tgi0c","geo_precision":"city","state":"FL"},"type":"Feature","geometry":{"type":"Point","coordinates":[-80.666444,28.085294]}},{"properties":{"city":"Prospect","country":"USA","geo_score":0.714,"id":"a7vablg5tdka","geo_precision":"city","state":"KY"},"type":"Feature","geometry":{"type":"Point","coordinates":[-85.598451,38.341558]}},{"properties":{"city":"The Woodlands","country":"USA","geo_score":0.714,"id":"a7vabldnd9w4","geo_precision":"city","state":"TX"},"type":"Feature","geometry":{"type":"Point","coordinates":[-95.489385,30.157994]}},{"properties":{"city":"The Woodlands","country":"USA","geo_score":0.714,"id":"a7vabld9nxkt","geo_precision":"city","state":"TX"},"type":"Feature","geometry":{"type":"Point","coordinates":[-95.489385,30.157994]}},{"properties":{"city":"Fort Mill","country":"USA","geo_score":0.714,"id":"a7vabl7fjl9g","geo_precision":"city","state":"SC"},"type":"Feature","geometry":{"type":"Point","coordinates":[-80.990828,35.050243]}},{"properties":{"city":"Greenville","country":"USA","geo_score":0.714,"id":"a7vablds06qb","geo_precision":"city","state":"SC"},"type":"Feature","geometry":{"type":"Point","coordinates":[-82.402871,34.848567]}},{"properties":{"city":"Lakeland","country":"USA","geo_score":0.714,"id":"a7vabl39j19o","geo_precision":"city","state":"FL"},"type":"Feature","geometry":{"type":"Point","coordinates":[-81.956122,28.059997]}},{"properties":{"city":"Weaverville","country":"USA","geo_score":0.714,"id":"a7vablebbrv1","geo_precision":"city","state":"NC"},"type":"Feature","geometry":{"type":"Point","coordinates":[-82.588915,35.702704]}},{"properties":{"city":"Simpsonville","country":"USA","geo_score":0.714,"id":"a7vabl8dq3tj","geo_precision":"city","state":"SC"},"type":"Feature","geometry":{"type":"Point","coordinates":[-81.045366,34.308481]}},{"properties":{"city":"Atlanta","country":"USA","geo_score":0.714,"id":"a7vabl6k3pba","geo_precision":"city","state":"GA"},"type":"Feature","geometry":{"type":"Point","coordinates":[-84.47405,33.844371]}},{"properties":{"city":"Sarasota","country":"USA","geo_score":0.714,"id":"a7vablaklgw3","geo_precision":"city","state":"FL"},"type":"Feature","geometry":{"type":"Point","coordinates":[-82.537169,27.335023]}},{"properties":{"city":"Carrollton","country":"USA","geo_score":0.714,"id":"a7vabl3fry1l","geo_precision":"city","state":"TX"},"type":"Feature","geometry":{"type":"Point","coordinates":[-96.777626,32.767268]}},{"properties":{"city":"Charlotte","country":"USA","geo_score":0.714,"id":"a7vablfep41d","geo_precision":"city","state":"NC"},"type":"Feature","geometry":{"type":"Point","coordinates":[-80.804151,35.26002]}},{"properties":{"city":"Sevierville","country":"USA","geo_score":0.714,"id":"a7vabl2c97n9","geo_precision":"city","state":"TN"},"type":"Feature","geometry":{"type":"Point","coordinates":[-83.572214,35.833278]}},{"properties":{"city":"Winston Salem","country":"USA","geo_score":0.714,"id":"a7vabl9mw50x","geo_precision":"city","state":"NC"},"type":"Feature","geometry":{"type":"Point","coordinates":[-78.244459,35.563572]}},{"properties":{"city":"Nokomis","country":"USA","geo_score":0.714,"id":"a7vabl5q0vi0","geo_precision":"city","state":"FL"},"type":"Feature","geometry":{"type":"Point","coordinates":[-82.464468,27.144031]}},{"properties":{"city":"Anderson","country":"USA","geo_score":0.714,"id":"a7vabl5d3ky0","geo_precision":"city","state":"SC"},"type":"Feature","geometry":{"type":"Point","coordinates":[-79.409083,33.435562]}},{"properties":{"city":"Blythewood","country":"USA","geo_score":0.714,"id":"a7vabl1noccw","geo_precision":"city","state":"SC"},"type":"Feature","geometry":{"type":"Point","coordinates":[-80.918919,34.104758]}},{"properties":{"city":"Alpharetta","country":"USA","geo_score":0.714,"id":"a7vablf1clgq","geo_precision":"city","state":"GA"},"type":"Feature","geometry":{"type":"Point","coordinates":[-83.92379,31.462401]}},{"properties":{"city":"Greensboro","country":"USA","geo_score":0.714,"id":"a7vabla1ow83","geo_precision":"city","state":"NC"},"type":"Feature","geometry":{"type":"Point","coordinates":[-79.831692,36.055285]}},{"properties":{"city":"Columbia","country":"USA","geo_score":0.714,"id":"a7vablfq9xi2","geo_precision":"city","state":"SC"},"type":"Feature","geometry":{"type":"Point","coordinates":[-81.024864,33.987454]}},{"properties":{"city":"Southlake","country":"USA","geo_score":0.714,"id":"a7vabl3z187p","geo_precision":"city","state":"TX"},"type":"Feature","geometry":{"type":"Point","coordinates":[-97.152368,32.948474]}},{"properties":{"city":"Millwood","country":"USA","geo_score":0.714,"id":"a7vabl1whvko","geo_precision":"city","state":"VA"},"type":"Feature","geometry":{"type":"Point","coordinates":[-77.990069,39.121941]}},{"properties":{"city":"Ancaster","country":"Canada","geo_score":0.571,"id":"a7vablb2bzhs","geo_precision":"city","state":null},"type":"Feature","geometry":{"type":"Point","coordinates":[-105.486403,36.101696]}},{"properties":{"city":"Vestavia","country":"USA","geo_score":0.0,"id":"a7vablf96rls","geo_precision":"unmatched","state":"AL"},"type":"Feature","geometry":null},{"properties":{"city":"Williamsville","country":"USA","geo_score":0.714,"id":"a7vabldk7v8b","geo_precision":"city","state":"NY"},"type":"Feature","geometry":{"type":"Point","coordinates":[-78.737809,42.963947]}},{"properties":{"city":"Needham","country":"USA","geo_score":0.714,"id":"a7vabl733qy5","geo_precision":"city","state":"MA"},"type":"Feature","geometry":{"type":"Point","coordinates":[-71.08923,42.180048]}},{"properties":{"city":"Charlotte","country":"USA","geo_score":0.714,"id":"a7vablbjxgtv","geo_precision":"city","state":"NC"},"type":"Feature","geometry":{"type":"Point","coordinates":[-80.804151,35.26002]}},{"properties":{"city":"Long Lake","country":"USA","geo_score":0.714,"id":"a7vabl80w2qn","geo_precision":"city","state":"MN"},"type":"Feature","geometry":{"type":"Point","coordinates":[-93.593836,44.995129]}},{"properties":{"city":"Mount Pleasant","country":"USA","geo_score":0.714,"id":"a7vabldyy3qw","geo_precision":"city","state":"SC"},"type":"Feature","geometry":{"type":"Point","coordinates":[-81.990395,33.915963]}},{"properties":{"city":"Tuscaloosa","country":"USA","geo_score":0.714,"id":"a7vablar5nuh","geo_precision":"city","state":"AL"},"type":"Feature","geometry":{"type":"Point","coordinates":[-87.597599,33.241899]}},{"properties":{"city":"Cedar Grove","country":"USA","geo_score":0.714,"id":"a7vablc9dsai","geo_precision":"city","state":"NJ"},"type":"Feature","geometry":{"type":"Point","coordinates":[-75.475752,39.677336]}},{"properties":{"city":"Bogart","country":"USA","geo_score":0.714,"id":"a7vabl5sxnww","geo_precision":"city","state":"GA"},"type":"Feature","geometry":{"type":"Point","coordinates":[-83.518452,33.901988]}},{"properties":{"city":"Charlotte","country":"USA","geo_score":0.714,"id":"a7vablbdumas","geo_precision":"city","state":"NC"},"type":"Feature","geometry":{"type":"Point","coordinates":[-80.804151,35.26002]}},{"properties":{"city":"Greer","country":"USA","geo_score":0.714,"id":"a7vabl7apnfn","geo_precision":"city","state":"SC"},"type":"Feature","geometry":{"type":"Point","coordinates":[-82.368415,34.948738]}},{"properties":{"city":"Olive Branch","country":"USA","geo_score":0.714,"id":"a7vabl75j5q7","geo_precision":"city","state":"MS"},"type":"Feature","geometry":{"type":"Point","coordinates":[-89.711463,32.43042]}},{"properties":{"city":"Mountain Brk","country":"USA","geo_score":0.714,"id":"a7vablfxx999","geo_precision":"city","state":"AL"},"type":"Feature","geometry":{"type":"Point","coordinates":[-86.752211,33.500938]}},{"properties":{"city":"High Point","country":"USA","geo_score":0.0,"id":"a7vablgp823e","geo_precision":"unmatched","state":"NC"},"type":"Feature","geometry":null},{"properties":{"city":"Bear","country":"USA","geo_score":0.714,"id":"a7vabl1pkyb0","geo_precision":"city","state":"DE"},"type":"Feature","geometry":{"type":"Point","coordinates":[-75.693903,39.594736]}},{"properties":{"city":"Mattituck","country":"USA","geo_score":0.0,"id":"a7vablfgqhpp","geo_precision":"unmatched","state":"NY"},"type":"Feature","geometry":null},{"properties":{"city":"Simpsonville","country":"USA","geo_score":0.714,"id":"a7vablb8erzc","geo_precision":"city","state":"SC"},"type":"Feature","geometry":{"type":"Point","coordinates":[-81.045366,34.308481]}},{"properties":{"city":"New Albany","country":"USA","geo_score":0.714,"id":"a7vablbds9hl","geo_precision":"city","state":"OH"},"type":"Feature","geometry":{"type":"Point","coordinates":[-82.177096,39.240816]}},{"properties":{"city":"Greenwood","country":"USA","geo_score":0.714,"id":"a7vabl4xq8le","geo_precision":"city","state":"SC"},"type":"Feature","geometry":{"type":"Point","coordinates":[-81.93206,34.182352]}},{"properties":{"city":"Belmont","country":"USA","geo_score":0.714,"id":"a7vabl48vac6","geo_precision":"city","state":"NC"},"type":"Feature","geometry":{"type":"Point","coordinates":[-79.443076,36.025692]}},{"properties":{"city":"Charlotte","country":"USA","geo_score":0.714,"id":"a7vabl8xfp1f","geo_precision":"city","state":"NC"},"type":"Feature","geometry":{"type":"Point","coordinates":[-80.804151,35.26002]}},{"properties":{"city":"Landrum","country":"USA","geo_score":0.714,"id":"a7vabl46qr3a","geo_precision":"city","state":"SC"},"type":"Feature","geometry":{"type":"Point","coordinates":[-82.153545,35.146058]}},{"properties":{"city":"Baltimore","country":"USA","geo_score":0.714,"id":"a7vabl2w20cx","geo_precision":"city","state":"MD"},"type":"Feature","geometry":{"type":"Point","coordinates":[-75.844658,39.058168]}},{"properties":{"city":"Houston","country":"USA","geo_score":0.714,"id":"a7vabl34ere9","geo_precision":"city","state":"TX"},"type":"Feature","geometry":{"type":"Point","coordinates":[-96.919704,29.845783]}},{"properties":{"city":"Birmingham","country":"USA","geo_score":0.714,"id":"a7vablee70j4","geo_precision":"city","state":"AL"},"type":"Feature","geometry":{"type":"Point","coordinates":[-86.801904,33.456412]}},{"properties":{"city":"Mendham","country":"USA","geo_score":0.714,"id":"a7vabl4z8ajl","geo_precision":"city","state":"NJ"},"type":"Feature","geometry":{"type":"Point","coordinates":[-74.5938,40.786699]}},{"properties":{"city":"Myrtle Beach","country":"USA","geo_score":0.714,"id":"a7vabl8eccm9","geo_precision":"city","state":"SC"},"type":"Feature","geometry":{"type":"Point","coordinates":[-78.852005,33.711741]}},{"properties":{"city":"Clinton","country":"USA","geo_score":0.714,"id":"a7vabl99epfh","geo_precision":"city","state":"SC"},"type":"Feature","geometry":{"type":"Point","coordinates":[-81.893558,34.43492]}},{"properties":{"city":"Irving","country":"USA","geo_score":0.714,"id":"a7vablfe6f7d","geo_precision":"city","state":"TX"},"type":"Feature","geometry":{"type":"Point","coordinates":[-96.777626,32.767268]}},{"properties":{"city":"Nashville","country":"USA","geo_score":0.714,"id":"a7vableienuz","geo_precision":"city","state":"TN"},"type":"Feature","geometry":{"type":"Point","coordinates":[-86.778098,36.165688]}},{"properties":{"city":"Smoaks","country":"USA","geo_score":0.714,"id":"a7vabl75y5ll","geo_precision":"city","state":"SC"},"type":"Feature","geometry":{"type":"Point","coordinates":[-80.682465,33.098059]}},{"properties":{"city":"Thomasville","country":"USA","geo_score":0.714,"id":"a7vablb3kpta","geo_precision":"city","state":"GA"},"type":"Feature","geometry":{"type":"Point","coordinates":[-83.888269,30.853592]}},{"properties":{"city":"Houston","country":"USA","geo_score":0.714,"id":"a7vabl2k1sak","geo_precision":"city","state":"TX"},"type":"Feature","geometry":{"type":"Point","coordinates":[-96.919704,29.845783]}},{"properties":{"city":"Sarasota","country":"USA","geo_score":0.714,"id":"a7vabld9upsb","geo_precision":"city","state":"FL"},"type":"Feature","geometry":{"type":"Point","coordinates":[-82.537169,27.335023]}},{"properties":{"city":"West Chester","country":"USA","geo_score":0.714,"id":"a7vabld33xvj","geo_precision":"city","state":"OH"},"type":"Feature","geometry":{"type":"Point","coordinates":[-81.344278,40.23368]}},{"properties":{"city":"Brookfield","country":"USA","geo_score":0.714,"id":"a7vabl465l37","geo_precision":"city","state":"CT"},"type":"Feature","geometry":{"type":"Point","coordinates":[-73.38762,41.466206]}},{"properties":{"city":"Hockessin","country":"USA","geo_score":0.0,"id":"a7vabl97dqng","geo_precision":"unmatched","state":"DE"},"type":"Feature","geometry":null},{"properties":{"city":"Kijabe","country":"Kenya","geo_score":0.0,"id":"a7vabl2ss9kw","geo_precision":"unmatched","state":null},"type":"Feature","geometry":null},{"properties":{"city":"Jinan","country":"China","geo_score":0.0,"id":"a7vablcwfnj5","geo_precision":"unmatched","state":null},"type":"Feature","geometry":null},{"properties":{"city":"Chesterfield","country":"USA","geo_score":0.714,"id":"a7vablchtkzb","geo_precision":"city","state":"VA"},"type":"Feature","geometry":{"type":"Point","coordinates":[-77.605362,37.392683]}},{"properties":{"city":"Lake Oswego","country":"USA","geo_score":0.714,"id":"a7vablbbbhim","geo_precision":"city","state":"OR"},"type":"Feature","geometry":{"type":"Point","coordinates":[-122.691388,45.408374]}},{"properties":{"city":"Roswell","country":"USA","geo_score":0.714,"id":"a7vablctlpgj","geo_precision":"city","state":"GA"},"type":"Feature","geometry":{"type":"Point","coordinates":[-84.370475,34.055198]}},{"properties":{"city":"Qingdao","country":"China","geo_score":0.571,"id":"a7vabl17j25z","geo_precision":"city","state":null},"type":"Feature","geometry":{"type":"Point","coordinates":[-142.886389,61.486389]}},{"properties":{"city":"Montgomery","country":"USA","geo_score":0.714,"id":"a7vabl1atbfe","geo_precision":"city","state":"AL"},"type":"Feature","geometry":{"type":"Point","coordinates":[-86.257817,32.356988]}},{"properties":{"city":"Smyrna","country":"USA","geo_score":0.714,"id":"a7vableiebjq","geo_precision":"city","state":"GA"},"type":"Feature","geometry":{"type":"Point","coordinates":[-84.556181,33.864604]}},{"properties":{"city":"Ocean Ridge","country":"USA","geo_score":0.714,"id":"a7vabl2iq43s","geo_precision":"city","state":"FL"},"type":"Feature","geometry":{"type":"Point","coordinates":[-82.778424,28.067043]}},{"properties":{"city":"Pelzer","country":"USA","geo_score":0.714,"id":"a7vablefcn11","geo_precision":"city","state":"SC"},"type":"Feature","geometry":{"type":"Point","coordinates":[-82.535325,34.656799]}},{"properties":{"city":"Columbia","country":"USA","geo_score":0.714,"id":"a7vabl6drvn6","geo_precision":"city","state":"SC"},"type":"Feature","geometry":{"type":"Point","coordinates":[-81.024864,33.987454]}},{"properties":{"city":"Mauldin","country":"USA","geo_score":0.714,"id":"a7vabl4a56ul","geo_precision":"city","state":"SC"},"type":"Feature","geometry":{"type":"Point","coordinates":[-82.267062,34.750238]}},{"properties":{"city":"Mount Holly","country":"USA","geo_score":0.714,"id":"a7vabl99s68a","geo_precision":"city","state":"NC"},"type":"Feature","geometry":{"type":"Point","coordinates":[-80.64729,35.179589]}},{"properties":{"city":"Chiang Mai","country":"Thailand","geo_score":0.571,"id":"a7vabl7ehhls","geo_precision":"city","state":null},"type":"Feature","geometry":{"type":"Point","coordinates":[-82.863215,37.271212]}},{"properties":{"city":"Abuja","country":"Nigeria","geo_score":0.0,"id":"a7vabl11kb25","geo_precision":"unmatched","state":null},"type":"Feature","geometry":null},{"properties":{"city":"Charleston","country":"USA","geo_score":0.714,"id":"a7vabldfa31v","geo_precision":"city","state":"WV"},"type":"Feature","geometry":{"type":"Point","coordinates":[-77.860278,39.313538]}},{"properties":{"city":"Germantown","country":"USA","geo_score":0.714,"id":"a7vabl79u4o8","geo_precision":"city","state":"TN"},"type":"Feature","geometry":{"type":"Point","coordinates":[-86.873611,36.279498]}},{"properties":{"city":"Warren","country":"USA","geo_score":0.714,"id":"a7vabla5ibkv","geo_precision":"city","state":"NJ"},"type":"Feature","geometry":{"type":"Point","coordinates":[-74.532449,40.629101]}},{"properties":{"city":"Greenville","country":"USA","geo_score":0.714,"id":"a7vabldi0iqw","geo_precision":"city","state":"SC"},"type":"Feature","geometry":{"type":"Point","coordinates":[-82.402871,34.848567]}},{"properties":{"city":"Plainsboro","country":"USA","geo_score":0.714,"id":"a7vablbsfcpu","geo_precision":"city","state":"NJ"},"type":"Feature","geometry":{"type":"Point","coordinates":[-74.582062,40.342197]}},{"properties":{"city":"Greenville","country":"USA","geo_score":0.714,"id":"a7vablecqdqa","geo_precision":"city","state":"SC"},"type":"Feature","geometry":{"type":"Point","coordinates":[-82.402871,34.848567]}},{"properties":{"city":"Roanoke","country":"USA","geo_score":0.714,"id":"a7vabl9jpepo","geo_precision":"city","state":"VA"},"type":"Feature","geometry":{"type":"Point","coordinates":[-79.95786,37.274175]}},{"properties":{"city":"Fairhope","country":"USA","geo_score":0.714,"id":"a7vabld42f94","geo_precision":"city","state":"AL"},"type":"Feature","geometry":{"type":"Point","coordinates":[-87.810464,30.562883]}},{"properties":{"city":"Bogart","country":"USA","geo_score":0.714,"id":"a7vablgjmb22","geo_precision":"city","state":"GA"},"type":"Feature","geometry":{"type":"Point","coordinates":[-83.518452,33.901988]}},{"properties":{"city":"Easley","country":"USA","geo_score":0.714,"id":"a7vabldgs6rm","geo_precision":"city","state":"SC"},"type":"Feature","geometry":{"type":"Point","coordinates":[-82.643754,34.843968]}},{"properties":{"city":"Summerville","country":"USA","geo_score":0.714,"id":"a7vabl3a76xm","geo_precision":"city","state":"SC"},"type":"Feature","geometry":{"type":"Point","coordinates":[-80.431751,33.040201]}},{"properties":{"city":"Cary","country":"USA","geo_score":0.714,"id":"a7vablazfxbt","geo_precision":"city","state":"NC"},"type":"Feature","geometry":{"type":"Point","coordinates":[-79.220017,36.211527]}},{"properties":{"city":"Lutherville","country":"USA","geo_score":0.714,"id":"a7vabl0dvzrp","geo_precision":"city","state":"MD"},"type":"Feature","geometry":{"type":"Point","coordinates":[-76.654593,39.433206]}},{"properties":{"city":"Columbia","country":"USA","geo_score":0.714,"id":"a7vablfv7ivu","geo_precision":"city","state":"SC"},"type":"Feature","geometry":{"type":"Point","coordinates":[-81.024864,33.987454]}},{"properties":{"city":"Roswell","country":"USA","geo_score":0.714,"id":"a7vabl1l71my","geo_precision":"city","state":"GA"},"type":"Feature","geometry":{"type":"Point","coordinates":[-84.370475,34.055198]}},{"properties":{"city":"Little Rock","country":"USA","geo_score":0.714,"id":"a7vablaxis1y","geo_precision":"city","state":"AR"},"type":"Feature","geometry":{"type":"Point","coordinates":[-91.793741,33.464557]}},{"properties":{"city":"Cogan Station","country":"USA","geo_score":0.714,"id":"a7vablcuyx9q","geo_precision":"city","state":"PA"},"type":"Feature","geometry":{"type":"Point","coordinates":[-76.948034,41.255299]}},{"properties":{"city":"Spartanburg","country":"USA","geo_score":0.714,"id":"a7vabl992z21","geo_precision":"city","state":"SC"},"type":"Feature","geometry":{"type":"Point","coordinates":[-81.993403,35.011309]}},{"properties":{"city":"Sarasota","country":"USA","geo_score":0.714,"id":"a7vablesdt03","geo_precision":"city","state":"FL"},"type":"Feature","geometry":{"type":"Point","coordinates":[-82.537169,27.335023]}},{"properties":{"city":"Sarasota","country":"USA","geo_score":0.714,"id":"a7vabldjhh4c","geo_precision":"city","state":"FL"},"type":"Feature","geometry":{"type":"Point","coordinates":[-82.537169,27.335023]}},{"properties":{"city":"Water Mill","country":"USA","geo_score":0.714,"id":"a7vabl1cu262","geo_precision":"city","state":"NY"},"type":"Feature","geometry":{"type":"Point","coordinates":[-74.197644,40.543439]}},{"properties":{"city":"London","country":"United Kingdom","geo_score":0.571,"id":"a7vabl5oac6s","geo_precision":"city","state":null},"type":"Feature","geometry":{"type":"Point","coordinates":[-86.050237,32.273198]}},{"properties":{"city":"Atlanta","country":"USA","geo_score":0.714,"id":"a7vablgk5y0h","geo_precision":"city","state":"GA"},"type":"Feature","geometry":{"type":"Point","coordinates":[-84.47405,33.844371]}},{"properties":{"city":"Great Falls","country":"USA","geo_score":0.714,"id":"a7vabl5fk54x","geo_precision":"city","state":"VA"},"type":"Feature","geometry":{"type":"Point","coordinates":[-77.306416,39.001609]}},{"properties":{"city":"Concord","country":"USA","geo_score":0.714,"id":"a7vabl1ws4pk","geo_precision":"city","state":"NC"},"type":"Feature","geometry":{"type":"Point","coordinates":[-79.066402,36.445974]}},{"properties":{"city":"Portland","country":"USA","geo_score":0.714,"id":"a7vabl6p0lpt","geo_precision":"city","state":"OR"},"type":"Feature","geometry":{"type":"Point","coordinates":[-122.693157,45.498931]}},{"properties":{"city":"Tampa","country":"USA","geo_score":0.714,"id":"a7vablb9njm5","geo_precision":"city","state":"FL"},"type":"Feature","geometry":{"type":"Point","coordinates":[-82.582035,27.996097]}},{"properties":{"city":"Gaithersburg","country":"USA","geo_score":0.714,"id":"a7vabl994p4a","geo_precision":"city","state":"MD"},"type":"Feature","geometry":{"type":"Point","coordinates":[-77.182953,39.139336]}},{"properties":{"city":"Norfolk","country":"USA","geo_score":0.714,"id":"a7vabl2jun5r","geo_precision":"city","state":"VA"},"type":"Feature","geometry":{"type":"Point","coordinates":[-76.208521,36.895911]}},{"properties":{"city":"Atlanta","country":"USA","geo_score":0.714,"id":"a7vabl7zg9vz","geo_precision":"city","state":"GA"},"type":"Feature","geometry":{"type":"Point","coordinates":[-84.47405,33.844371]}},{"properties":{"city":"Columbia","country":"USA","geo_score":0.714,"id":"a7vabl9quybl","geo_precision":"city","state":"SC"},"type":"Feature","geometry":{"type":"Point","coordinates":[-81.024864,33.987454]}},{"properties":{"city":"Birmingham","country":"USA","geo_score":0.714,"id":"a7vabl3e31xq","geo_precision":"city","state":"AL"},"type":"Feature","geometry":{"type":"Point","coordinates":[-86.801904,33.456412]}},{"properties":{"city":"Fort Mill","country":"USA","geo_score":0.714,"id":"a7vabl8derph","geo_precision":"city","state":"SC"},"type":"Feature","geometry":{"type":"Point","coordinates":[-80.990828,35.050243]}},{"properties":{"city":"Columbia","country":"USA","geo_score":0.714,"id":"a7vabl0t7y3m","geo_precision":"city","state":"SC"},"type":"Feature","geometry":{"type":"Point","coordinates":[-81.024864,33.987454]}},{"properties":{"city":"Summit","country":"USA","geo_score":0.714,"id":"a7vableyw8yq","geo_precision":"city","state":"NJ"},"type":"Feature","geometry":{"type":"Point","coordinates":[-74.361594,40.71275]}},{"properties":{"city":"Summerfield","country":"USA","geo_score":0.714,"id":"a7vablgw2bo4","geo_precision":"city","state":"NC"},"type":"Feature","geometry":{"type":"Point","coordinates":[-79.880028,36.200019]}},{"properties":{"city":"Nanjing","country":"China","geo_score":0.571,"id":"a7vablb55b1e","geo_precision":"city","state":null},"type":"Feature","geometry":{"type":"Point","coordinates":[-82.713768,37.179547]}},{"properties":{"city":"Dalian","country":"China","geo_score":0.571,"id":"a7vabl2ot30a","geo_precision":"city","state":null},"type":"Feature","geometry":{"type":"Point","coordinates":[-105.974117,39.595212]}},{"properties":{"city":"Simpsonville","country":"USA","geo_score":0.714,"id":"a7vabldsw5y8","geo_precision":"city","state":"SC"},"type":"Feature","geometry":{"type":"Point","coordinates":[-81.045366,34.308481]}},{"properties":{"city":"Florence","country":"USA","geo_score":0.714,"id":"a7vabl693471","geo_precision":"city","state":"SC"},"type":"Feature","geometry":{"type":"Point","coordinates":[-79.685361,34.049849]}},{"properties":{"city":"Hickory","country":"USA","geo_score":0.0,"id":"a7vabl8jw9ad","geo_precision":"unmatched","state":"NC"},"type":"Feature","geometry":null},{"properties":{"city":"Kansas City","country":"USA","geo_score":0.714,"id":"a7vablg56nw6","geo_precision":"city","state":"MO"},"type":"Feature","geometry":{"type":"Point","coordinates":[-94.598583,39.102404]}},{"properties":{"city":"Belleair Bluffs","country":"USA","geo_score":0.714,"id":"a7vabl221br6","geo_precision":"city","state":"FL"},"type":"Feature","geometry":{"type":"Point","coordinates":[-81.254509,28.794993]}},{"properties":{"city":"Mountain Brk","country":"USA","geo_score":0.714,"id":"a7vabl0wbfds","geo_precision":"city","state":"AL"},"type":"Feature","geometry":{"type":"Point","coordinates":[-86.752211,33.500938]}},{"properties":{"city":"Allentown","country":"USA","geo_score":0.714,"id":"a7vabl3d135b","geo_precision":"city","state":"PA"},"type":"Feature","geometry":{"type":"Point","coordinates":[-75.470026,40.607497]}},{"properties":{"city":"Fort Mill","country":"USA","geo_score":0.714,"id":"a7vabl8z1o26","geo_precision":"city","state":"SC"},"type":"Feature","geometry":{"type":"Point","coordinates":[-80.990828,35.050243]}},{"properties":{"city":"College Park","country":"USA","geo_score":0.714,"id":"a7vabl7vnh61","geo_precision":"city","state":"GA"},"type":"Feature","geometry":{"type":"Point","coordinates":[-83.871284,30.976287]}},{"properties":{"city":"Grayson","country":"USA","geo_score":0.714,"id":"a7vabl5dcrwr","geo_precision":"city","state":"GA"},"type":"Feature","geometry":{"type":"Point","coordinates":[-84.040973,33.916922]}},{"properties":{"city":"Austin","country":"USA","geo_score":0.714,"id":"a7vablek1w5i","geo_precision":"city","state":"TX"},"type":"Feature","geometry":{"type":"Point","coordinates":[-97.771258,30.326374]}},{"properties":{"city":"Wallingford","country":"USA","geo_score":0.714,"id":"a7vablgtu54v","geo_precision":"city","state":"CT"},"type":"Feature","geometry":{"type":"Point","coordinates":[-72.81892,41.449868]}},{"properties":{"city":"Highlands","country":"USA","geo_score":0.0,"id":"a7vabl72r6d7","geo_precision":"unmatched","state":"NC"},"type":"Feature","geometry":null},{"properties":{"city":"Greenville","country":"USA","geo_score":0.714,"id":"a7vabl50txs0","geo_precision":"city","state":"SC"},"type":"Feature","geometry":{"type":"Point","coordinates":[-82.402871,34.848567]}},{"properties":{"city":"Buford","country":"USA","geo_score":0.714,"id":"a7vabl3rvx9a","geo_precision":"city","state":"GA"},"type":"Feature","geometry":{"type":"Point","coordinates":[-84.037859,33.960353]}},{"properties":{"city":"Hagerstown","country":"USA","geo_score":0.714,"id":"a7vabla5wa2g","geo_precision":"city","state":"MD"},"type":"Feature","geometry":{"type":"Point","coordinates":[-77.700213,39.58887]}},{"properties":{"city":"Raleigh","country":"USA","geo_score":0.714,"id":"a7vabl6s18gc","geo_precision":"city","state":"NC"},"type":"Feature","geometry":{"type":"Point","coordinates":[-82.293464,36.034279]}},{"properties":{"city":"Richmond","country":"USA","geo_score":0.714,"id":"a7vabl3tirb1","geo_precision":"city","state":"VA"},"type":"Feature","geometry":{"type":"Point","coordinates":[-76.83774,37.914858]}},{"properties":{"city":"Boone","country":"USA","geo_score":0.714,"id":"a7vabl2c94dp","geo_precision":"city","state":"NC"},"type":"Feature","geometry":{"type":"Point","coordinates":[-78.208581,35.982555]}},{"properties":{"city":"Atlanta","country":"USA","geo_score":0.714,"id":"a7vabl1l3h53","geo_precision":"city","state":"GA"},"type":"Feature","geometry":{"type":"Point","coordinates":[-84.47405,33.844371]}},{"properties":{"city":"Ocala","country":"USA","geo_score":0.714,"id":"a7vablgr4049","geo_precision":"city","state":"FL"},"type":"Feature","geometry":{"type":"Point","coordinates":[-82.169401,29.238672]}},{"properties":{"city":"Summerville","country":"USA","geo_score":0.714,"id":"a7vabl6cu899","geo_precision":"city","state":"SC"},"type":"Feature","geometry":{"type":"Point","coordinates":[-80.431751,33.040201]}},{"properties":{"city":"Greensboro","country":"USA","geo_score":0.714,"id":"a7vabl3r2gw0","geo_precision":"city","state":"NC"},"type":"Feature","geometry":{"type":"Point","coordinates":[-79.831692,36.055285]}},{"properties":{"city":"Hephzibah","country":"USA","geo_score":0.714,"id":"a7vabl9bntod","geo_precision":"city","state":"GA"},"type":"Feature","geometry":{"type":"Point","coordinates":[-82.058032,33.32229]}},{"properties":{"city":"Columbus","country":"USA","geo_score":0.714,"id":"a7vabl30t5u0","geo_precision":"city","state":"OH"},"type":"Feature","geometry":{"type":"Point","coordinates":[-84.15053,40.97793]}},{"properties":{"city":"North Charleston","country":"USA","geo_score":0.714,"id":"a7vabl1c0p08","geo_precision":"city","state":"SC"},"type":"Feature","geometry":{"type":"Point","coordinates":[-79.991295,32.853019]}},{"properties":{"city":"Houston","country":"USA","geo_score":0.714,"id":"a7vablcwyyvw","geo_precision":"city","state":"TX"},"type":"Feature","geometry":{"type":"Point","coordinates":[-96.919704,29.845783]}},{"properties":{"city":"Mt Pleasant","country":"USA","geo_score":0.714,"id":"a7vabl7crq20","geo_precision":"city","state":"SC"},"type":"Feature","geometry":{"type":"Point","coordinates":[-81.990395,33.915963]}},{"properties":{"city":"Cali","country":"Colombia","geo_score":0.571,"id":"a7vablcii3ve","geo_precision":"city","state":null},"type":"Feature","geometry":{"type":"Point","coordinates":[-89.036721,31.70044]}},{"properties":{"city":"Century","country":"USA","geo_score":0.714,"id":"a7vabl8uhcww","geo_precision":"city","state":"FL"},"type":"Feature","geometry":{"type":"Point","coordinates":[-87.364552,30.955907]}},{"properties":{"city":"Greer","country":"USA","geo_score":0.714,"id":"a7vablduzxou","geo_precision":"city","state":"SC"},"type":"Feature","geometry":{"type":"Point","coordinates":[-82.368415,34.948738]}},{"properties":{"city":"Chapin","country":"USA","geo_score":0.714,"id":"a7vablc4jp0t","geo_precision":"city","state":"SC"},"type":"Feature","geometry":{"type":"Point","coordinates":[-81.334355,34.135909]}},{"properties":{"city":"Suffield","country":"USA","geo_score":0.714,"id":"a7vabl4s16o0","geo_precision":"city","state":"CT"},"type":"Feature","geometry":{"type":"Point","coordinates":[-72.658135,41.989646]}},{"properties":{"city":"New Orleans","country":"USA","geo_score":0.714,"id":"a7vablazijvj","geo_precision":"city","state":"LA"},"type":"Feature","geometry":{"type":"Point","coordinates":[-89.930956,30.068812]}},{"properties":{"city":"Arden","country":"USA","geo_score":0.714,"id":"a7vabl9e6p89","geo_precision":"city","state":"NC"},"type":"Feature","geometry":{"type":"Point","coordinates":[-82.541808,35.589686]}},{"properties":{"city":"Houston","country":"USA","geo_score":0.714,"id":"a7vablc5d9zg","geo_precision":"city","state":"TX"},"type":"Feature","geometry":{"type":"Point","coordinates":[-96.919704,29.845783]}},{"properties":{"city":"Rome","country":"USA","geo_score":0.714,"id":"a7vablajxcqq","geo_precision":"city","state":"GA"},"type":"Feature","geometry":{"type":"Point","coordinates":[-85.22089,34.262335]}},{"properties":{"city":"Columbia","country":"USA","geo_score":0.714,"id":"a7vabl6pwpeh","geo_precision":"city","state":"SC"},"type":"Feature","geometry":{"type":"Point","coordinates":[-81.024864,33.987454]}},{"properties":{"city":"Yangon","country":"Myanmar","geo_score":0.0,"id":"a7vabl2s0b67","geo_precision":"unmatched","state":null},"type":"Feature","geometry":null},{"properties":{"city":"Towson","country":"USA","geo_score":0.714,"id":"a7vabl2bpv4x","geo_precision":"city","state":"MD"},"type":"Feature","geometry":{"type":"Point","coordinates":[-78.943637,39.477593]}},{"properties":{"city":"Greenville","country":"USA","geo_score":0.714,"id":"a7vabl6hp9t6","geo_precision":"city","state":"SC"},"type":"Feature","geometry":{"type":"Point","coordinates":[-82.402871,34.848567]}},{"properties":{"city":"Vero Beach","country":"USA","geo_score":0.714,"id":"a7vablak456j","geo_precision":"city","state":"FL"},"type":"Feature","geometry":{"type":"Point","coordinates":[-80.40294,27.638005]}},{"properties":{"city":"Houston","country":"USA","geo_score":0.714,"id":"a7vabl75bfbs","geo_precision":"city","state":"TX"},"type":"Feature","geometry":{"type":"Point","coordinates":[-96.919704,29.845783]}},{"properties":{"city":"Brookfield","country":"USA","geo_score":0.714,"id":"a7vablg6h6gw","geo_precision":"city","state":"WI"},"type":"Feature","geometry":{"type":"Point","coordinates":[-88.105906,43.062707]}},{"properties":{"city":"Germantown","country":"USA","geo_score":0.714,"id":"a7vablaem8v7","geo_precision":"city","state":"TN"},"type":"Feature","geometry":{"type":"Point","coordinates":[-86.873611,36.279498]}},{"properties":{"city":"Hilton Head Island","country":"USA","geo_score":0.714,"id":"a7vabl59tfts","geo_precision":"city","state":"SC"},"type":"Feature","geometry":{"type":"Point","coordinates":[-81.306209,34.137092]}},{"properties":{"city":"Villanova","country":"USA","geo_score":0.714,"id":"a7vableo5ia6","geo_precision":"city","state":"PA"},"type":"Feature","geometry":{"type":"Point","coordinates":[-75.369458,40.027909]}},{"properties":{"city":"Greer","country":"USA","geo_score":0.714,"id":"a7vabl2jyqvc","geo_precision":"city","state":"SC"},"type":"Feature","geometry":{"type":"Point","coordinates":[-82.368415,34.948738]}},{"properties":{"city":"Honeoye Falls","country":"USA","geo_score":0.714,"id":"a7vabldim0fg","geo_precision":"city","state":"NY"},"type":"Feature","geometry":{"type":"Point","coordinates":[-77.606771,42.982513]}},{"properties":{"city":"Carlisle","country":"USA","geo_score":0.714,"id":"a7vablc3sada","geo_precision":"city","state":"PA"},"type":"Feature","geometry":{"type":"Point","coordinates":[-77.164425,40.27092]}},{"properties":{"city":"Gibsonia","country":"USA","geo_score":0.714,"id":"a7vabl87cux7","geo_precision":"city","state":"PA"},"type":"Feature","geometry":{"type":"Point","coordinates":[-79.994218,40.134239]}},{"properties":{"city":"Suwanee","country":"USA","geo_score":0.714,"id":"a7vabl9uoaec","geo_precision":"city","state":"GA"},"type":"Feature","geometry":{"type":"Point","coordinates":[-84.026171,34.042479]}},{"properties":{"city":"Redan","country":"USA","geo_score":0.714,"id":"a7vabler1xix","geo_precision":"city","state":"GA"},"type":"Feature","geometry":{"type":"Point","coordinates":[-83.333496,33.438464]}},{"properties":{"city":"Timonium","country":"USA","geo_score":0.714,"id":"a7vabl9cxmqs","geo_precision":"city","state":"MD"},"type":"Feature","geometry":{"type":"Point","coordinates":[-76.619692,39.437051]}},{"properties":{"city":"Phoenix","country":"USA","geo_score":0.0,"id":"a7vablfhumi7","geo_precision":"unmatched","state":"MD"},"type":"Feature","geometry":null},{"properties":{"city":"Sylva","country":"USA","geo_score":0.714,"id":"a7vabl5xlkyt","geo_precision":"city","state":"NC"},"type":"Feature","geometry":{"type":"Point","coordinates":[-83.187963,35.275674]}},{"properties":{"city":"Hagerstown","country":"USA","geo_score":0.714,"id":"a7vabl196dbb","geo_precision":"city","state":"MD"},"type":"Feature","geometry":{"type":"Point","coordinates":[-77.700213,39.58887]}},{"properties":{"city":"Columbia","country":"USA","geo_score":0.714,"id":"a7vabl1zq1lg","geo_precision":"city","state":"SC"},"type":"Feature","geometry":{"type":"Point","coordinates":[-81.024864,33.987454]}},{"properties":{"city":"Atlanta","country":"USA","geo_score":0.714,"id":"a7vablg1386j","geo_precision":"city","state":"GA"},"type":"Feature","geometry":{"type":"Point","coordinates":[-84.47405,33.844371]}},{"properties":{"city":"Princeton Jct","country":"USA","geo_score":0.714,"id":"a7vabl46j0v4","geo_precision":"city","state":"NJ"},"type":"Feature","geometry":{"type":"Point","coordinates":[-74.64795,40.363882]}},{"properties":{"city":"Saint Simons Island","country":"USA","geo_score":0.714,"id":"a7vabl6z84jr","geo_precision":"city","state":"GA"},"type":"Feature","geometry":{"type":"Point","coordinates":[-81.449141,31.213223]}},{"properties":{"city":"Easley","country":"USA","geo_score":0.714,"id":"a7vablgsxg55","geo_precision":"city","state":"SC"},"type":"Feature","geometry":{"type":"Point","coordinates":[-82.643754,34.843968]}},{"properties":{"city":"Campobello","country":"USA","geo_score":0.714,"id":"a7vabl8144kb","geo_precision":"city","state":"SC"},"type":"Feature","geometry":{"type":"Point","coordinates":[-82.040137,35.113668]}},{"properties":{"city":"Mason","country":"USA","geo_score":0.714,"id":"a7vabl5a9vrl","geo_precision":"city","state":"OH"},"type":"Feature","geometry":{"type":"Point","coordinates":[-84.180906,39.397999]}},{"properties":{"city":"Ooltewah","country":"USA","geo_score":0.714,"id":"a7vabl5m4b44","geo_precision":"city","state":"TN"},"type":"Feature","geometry":{"type":"Point","coordinates":[-85.060369,35.120227]}},{"properties":{"city":"York","country":"USA","geo_score":0.714,"id":"a7vabl1u2gy7","geo_precision":"city","state":"SC"},"type":"Feature","geometry":{"type":"Point","coordinates":[-81.208605,34.991814]}},{"properties":{"city":"Wilmette","country":"USA","geo_score":0.714,"id":"a7vabl9yl9ql","geo_precision":"city","state":"IL"},"type":"Feature","geometry":{"type":"Point","coordinates":[-87.72836,42.079228]}},{"properties":{"city":"College Park","country":"USA","geo_score":0.714,"id":"a7vabl4rtez3","geo_precision":"city","state":"GA"},"type":"Feature","geometry":{"type":"Point","coordinates":[-83.871284,30.976287]}},{"properties":{"city":"Columbia","country":"USA","geo_score":0.714,"id":"a7vabldmn40m","geo_precision":"city","state":"SC"},"type":"Feature","geometry":{"type":"Point","coordinates":[-81.024864,33.987454]}},{"properties":{"city":"Columbia","country":"USA","geo_score":0.714,"id":"a7vabl99thx6","geo_precision":"city","state":"SC"},"type":"Feature","geometry":{"type":"Point","coordinates":[-81.024864,33.987454]}},{"properties":{"city":"Louisville","country":"USA","geo_score":0.714,"id":"a7vabl10pur2","geo_precision":"city","state":"KY"},"type":"Feature","geometry":{"type":"Point","coordinates":[-85.676819,38.188962]}},{"properties":{"city":"Altadena","country":"USA","geo_score":0.714,"id":"a7vablb3zy0p","geo_precision":"city","state":"CA"},"type":"Feature","geometry":{"type":"Point","coordinates":[-118.298662,33.786594]}},{"properties":{"city":"Mombasa","country":"Kenya","geo_score":0.0,"id":"a7vabl59v4ui","geo_precision":"unmatched","state":null},"type":"Feature","geometry":null},{"properties":{"city":"Villanova","country":"USA","geo_score":0.714,"id":"a7vabl7e690t","geo_precision":"city","state":"PA"},"type":"Feature","geometry":{"type":"Point","coordinates":[-75.369458,40.027909]}},{"properties":{"city":"Laurens","country":"USA","geo_score":0.714,"id":"a7vabl9ejhk6","geo_precision":"city","state":"SC"},"type":"Feature","geometry":{"type":"Point","coordinates":[-82.055091,34.528882]}},{"properties":{"city":"Clemson","country":"USA","geo_score":0.714,"id":"a7vablfpsx11","geo_precision":"city","state":"SC"},"type":"Feature","geometry":{"type":"Point","coordinates":[-82.802154,34.75974]}},{"properties":{"city":"Winston Salem","country":"USA","geo_score":0.714,"id":"a7vabl4nnxuk","geo_precision":"city","state":"NC"},"type":"Feature","geometry":{"type":"Point","coordinates":[-78.244459,35.563572]}},{"properties":{"city":"Columbia","country":"USA","geo_score":0.714,"id":"a7vabla9xx5r","geo_precision":"city","state":"SC"},"type":"Feature","geometry":{"type":"Point","coordinates":[-81.024864,33.987454]}},{"properties":{"city":"Newbury Park","country":"USA","geo_score":0.714,"id":"a7vabl4208ra","geo_precision":"city","state":"CA"},"type":"Feature","geometry":{"type":"Point","coordinates":[-119.1343,34.032383]}},{"properties":{"city":"Stamford","country":"USA","geo_score":0.714,"id":"a7vablgw3fku","geo_precision":"city","state":"CT"},"type":"Feature","geometry":{"type":"Point","coordinates":[-73.536216,41.054082]}},{"properties":{"city":"Durham","country":"USA","geo_score":0.714,"id":"a7vablgkg5tv","geo_precision":"city","state":"NC"},"type":"Feature","geometry":{"type":"Point","coordinates":[-78.906933,35.981803]}},{"properties":{"city":"Marietta","country":"USA","geo_score":0.714,"id":"a7vablc5kqd4","geo_precision":"city","state":"GA"},"type":"Feature","geometry":{"type":"Point","coordinates":[-84.557181,33.912473]}},{"properties":{"city":"Wilkesboro","country":"USA","geo_score":0.714,"id":"a7vabldox61l","geo_precision":"city","state":"NC"},"type":"Feature","geometry":{"type":"Point","coordinates":[-81.129235,36.211148]}},{"properties":{"city":"Greenville","country":"USA","geo_score":0.714,"id":"a7vabl67tc10","geo_precision":"city","state":"SC"},"type":"Feature","geometry":{"type":"Point","coordinates":[-82.402871,34.848567]}},{"properties":{"city":"Emory","country":"USA","geo_score":0.714,"id":"a7vablgjp8ks","geo_precision":"city","state":"VA"},"type":"Feature","geometry":{"type":"Point","coordinates":[-81.817064,36.779961]}},{"properties":{"city":"Matthews","country":"USA","geo_score":0.0,"id":"a7vabl6uo2tq","geo_precision":"unmatched","state":"NC"},"type":"Feature","geometry":null},{"properties":{"city":"Washington Dc","country":"USA","geo_score":0.714,"id":"a7vablcqs9lv","geo_precision":"city","state":"DC"},"type":"Feature","geometry":{"type":"Point","coordinates":[-77.036366,38.895112]}},{"properties":{"city":"Jacksonville","country":"USA","geo_score":0.0,"id":"a7vablgroiup","geo_precision":"unmatched","state":"FL"},"type":"Feature","geometry":null},{"properties":{"city":"Cockeysville","country":"USA","geo_score":0.714,"id":"a7vabl2ihnni","geo_precision":"city","state":"MD"},"type":"Feature","geometry":{"type":"Point","coordinates":[-77.0142,39.328104]}},{"properties":{"city":"Milton","country":"USA","geo_score":0.0,"id":"a7vablcrujxe","geo_precision":"unmatched","state":"GA"},"type":"Feature","geometry":null},{"properties":{"city":"Sudbury","country":"USA","geo_score":0.714,"id":"a7vabl87nj42","geo_precision":"city","state":"MA"},"type":"Feature","geometry":{"type":"Point","coordinates":[-71.459405,42.446396]}},{"properties":{"city":"Columbia","country":"USA","geo_score":0.714,"id":"a7vablgsoddy","geo_precision":"city","state":"SC"},"type":"Feature","geometry":{"type":"Point","coordinates":[-81.024864,33.987454]}},{"properties":{"city":"Point Clear","country":"USA","geo_score":0.714,"id":"a7vabl7tnfmz","geo_precision":"city","state":"AL"},"type":"Feature","geometry":{"type":"Point","coordinates":[-87.917867,30.475955]}},{"properties":{"city":"Greenville","country":"USA","geo_score":0.714,"id":"a7vablf62qtk","geo_precision":"city","state":"SC"},"type":"Feature","geometry":{"type":"Point","coordinates":[-82.402871,34.848567]}},{"properties":{"city":"Lancaster","country":"USA","geo_score":0.714,"id":"a7vabld4ino4","geo_precision":"city","state":"PA"},"type":"Feature","geometry":{"type":"Point","coordinates":[-76.402184,40.131484]}},{"properties":{"city":"Ridgewood","country":"USA","geo_score":0.714,"id":"a7vabl0qc61g","geo_precision":"city","state":"NJ"},"type":"Feature","geometry":{"type":"Point","coordinates":[-74.11207,40.982247]}},{"properties":{"city":"Kings Mountain","country":"USA","geo_score":0.714,"id":"a7vablbg9d4p","geo_precision":"city","state":"NC"},"type":"Feature","geometry":{"type":"Point","coordinates":[-81.491436,35.296207]}},{"properties":{"city":"Nichols","country":"USA","geo_score":0.714,"id":"a7vabl2mthyv","geo_precision":"city","state":"SC"},"type":"Feature","geometry":{"type":"Point","coordinates":[-79.14865,34.233775]}},{"properties":{"city":"Greenville","country":"USA","geo_score":0.714,"id":"a7vablgw3tky","geo_precision":"city","state":"SC"},"type":"Feature","geometry":{"type":"Point","coordinates":[-82.402871,34.848567]}},{"properties":{"city":"Houston","country":"USA","geo_score":0.714,"id":"a7vabl99nhw0","geo_precision":"city","state":"TX"},"type":"Feature","geometry":{"type":"Point","coordinates":[-96.919704,29.845783]}},{"properties":{"city":"Davidson","country":"USA","geo_score":0.714,"id":"a7vablfsgnmo","geo_precision":"city","state":"NC"},"type":"Feature","geometry":{"type":"Point","coordinates":[-80.844594,35.283427]}},{"properties":{"city":"Knoxville","country":"USA","geo_score":0.0,"id":"a7vablcrijiq","geo_precision":"unmatched","state":"TN"},"type":"Feature","geometry":null},{"properties":{"city":"Duluth","country":"USA","geo_score":0.714,"id":"a7vabl8lpwj1","geo_precision":"city","state":"GA"},"type":"Feature","geometry":{"type":"Point","coordinates":[-84.092267,33.962979]}},{"properties":{"city":"Rome","country":"USA","geo_score":0.714,"id":"a7vabl7pfceo","geo_precision":"city","state":"GA"},"type":"Feature","geometry":{"type":"Point","coordinates":[-85.22089,34.262335]}},{"properties":{"city":"Vancouver","country":"Canada","geo_score":0.571,"id":"a7vabl7m9482","geo_precision":"city","state":null},"type":"Feature","geometry":{"type":"Point","coordinates":[-122.713366,45.74327]}},{"properties":{"city":"Jacksonville","country":"USA","geo_score":0.0,"id":"a7vablbk87v9","geo_precision":"unmatched","state":"FL"},"type":"Feature","geometry":null},{"properties":{"city":"Murrells Inlet","country":"USA","geo_score":0.714,"id":"a7vabl8ynia5","geo_precision":"city","state":"SC"},"type":"Feature","geometry":{"type":"Point","coordinates":[-79.04822,33.529642]}},{"properties":{"city":"Saddle River","country":"USA","geo_score":0.714,"id":"a7vablf7gpnx","geo_precision":"city","state":"NJ"},"type":"Feature","geometry":{"type":"Point","coordinates":[-74.098093,41.044324]}},{"properties":{"city":"York","country":"USA","geo_score":0.714,"id":"a7vabldxoo1i","geo_precision":"city","state":"ME"},"type":"Feature","geometry":{"type":"Point","coordinates":[-70.69099,43.237891]}},{"properties":{"city":"Inman","country":"USA","geo_score":0.714,"id":"a7vabl6f8m0b","geo_precision":"city","state":"SC"},"type":"Feature","geometry":{"type":"Point","coordinates":[-82.02964,35.075367]}},{"properties":{"city":"Weddington","country":"USA","geo_score":0.714,"id":"a7vabla4f0cc","geo_precision":"city","state":"NC"},"type":"Feature","geometry":{"type":"Point","coordinates":[-80.760904,35.022371]}},{"properties":{"city":"Mount Dora","country":"USA","geo_score":0.714,"id":"a7vablevh449","geo_precision":"city","state":"FL"},"type":"Feature","geometry":{"type":"Point","coordinates":[-81.653642,28.811078]}},{"properties":{"city":"Greenville","country":"USA","geo_score":0.714,"id":"a7vabl5fqeev","geo_precision":"city","state":"SC"},"type":"Feature","geometry":{"type":"Point","coordinates":[-82.402871,34.848567]}},{"properties":{"city":"Greenville","country":"USA","geo_score":0.714,"id":"a7vablenk0yf","geo_precision":"city","state":"SC"},"type":"Feature","geometry":{"type":"Point","coordinates":[-82.402871,34.848567]}},{"properties":{"city":"Atlanta","country":"USA","geo_score":0.714,"id":"a7vabl2gxkw9","geo_precision":"city","state":"GA"},"type":"Feature","geometry":{"type":"Point","coordinates":[-84.47405,33.844371]}},{"properties":{"city":"Irmo","country":"USA","geo_score":0.714,"id":"a7vablducjxc","geo_precision":"city","state":"SC"},"type":"Feature","geometry":{"type":"Point","coordinates":[-81.131151,34.085949]}},{"properties":{"city":"Anderson","country":"USA","geo_score":0.714,"id":"a7vabl9hdwsi","geo_precision":"city","state":"SC"},"type":"Feature","geometry":{"type":"Point","coordinates":[-79.409083,33.435562]}},{"properties":{"city":"Weston","country":"USA","geo_score":0.714,"id":"a7vablegv9z2","geo_precision":"city","state":"MA"},"type":"Feature","geometry":{"type":"Point","coordinates":[-71.459405,42.446396]}},{"properties":{"city":"Winter Haven","country":"USA","geo_score":0.714,"id":"a7vablamaee2","geo_precision":"city","state":"FL"},"type":"Feature","geometry":{"type":"Point","coordinates":[-81.762456,27.987284]}},{"properties":{"city":"Abbeville","country":"USA","geo_score":0.714,"id":"a7vabl2pzi2c","geo_precision":"city","state":"SC"},"type":"Feature","geometry":{"type":"Point","coordinates":[-82.446307,34.215714]}},{"properties":{"city":"Columbia","country":"USA","geo_score":0.714,"id":"a7vabl1q4o09","geo_precision":"city","state":"SC"},"type":"Feature","geometry":{"type":"Point","coordinates":[-81.024864,33.987454]}},{"properties":{"city":"Charlotte","country":"USA","geo_score":0.714,"id":"a7vabl4cnhy8","geo_precision":"city","state":"NC"},"type":"Feature","geometry":{"type":"Point","coordinates":[-80.804151,35.26002]}},{"properties":{"city":"Arlington","country":"USA","geo_score":0.714,"id":"a7vabl1rtj7e","geo_precision":"city","state":"VA"},"type":"Feature","geometry":{"type":"Point","coordinates":[-77.099113,38.885484]}},{"properties":{"city":"Ponte Vedra","country":"USA","geo_score":0.714,"id":"a7vabl6bxzhk","geo_precision":"city","state":"FL"},"type":"Feature","geometry":{"type":"Point","coordinates":[-83.328781,30.584683]}},{"properties":{"city":"Port Jefferson Station","country":"USA","geo_score":0.714,"id":"a7vabl2bz847","geo_precision":"city","state":"NY"},"type":"Feature","geometry":{"type":"Point","coordinates":[-74.905417,41.782874]}},{"properties":{"city":"Wilmington","country":"USA","geo_score":0.714,"id":"a7vablc9ciyh","geo_precision":"city","state":"NC"},"type":"Feature","geometry":{"type":"Point","coordinates":[-77.898597,34.018784]}},{"properties":{"city":"Chicago","country":"USA","geo_score":0.714,"id":"a7vablcymlbi","geo_precision":"city","state":"IL"},"type":"Feature","geometry":{"type":"Point","coordinates":[-87.68732,41.811929]}},{"properties":{"city":"Clinton","country":"USA","geo_score":0.714,"id":"a7vabldcwlt1","geo_precision":"city","state":"NY"},"type":"Feature","geometry":{"type":"Point","coordinates":[-73.815966,41.845093]}},{"properties":{"city":"Monroe Township","country":"USA","geo_score":0.714,"id":"a7vabl8l9afu","geo_precision":"city","state":"NJ"},"type":"Feature","geometry":{"type":"Point","coordinates":[-74.634051,41.114541]}},{"properties":{"city":"New Bern","country":"USA","geo_score":0.714,"id":"a7vabl2rgq1v","geo_precision":"city","state":"NC"},"type":"Feature","geometry":{"type":"Point","coordinates":[-77.178429,35.098109]}},{"properties":{"city":"Greenville","country":"USA","geo_score":0.714,"id":"a7vablenp8l6","geo_precision":"city","state":"SC"},"type":"Feature","geometry":{"type":"Point","coordinates":[-82.402871,34.848567]}},{"properties":{"city":"Woodbury","country":"USA","geo_score":0.714,"id":"a7vablakpryl","geo_precision":"city","state":"NJ"},"type":"Feature","geometry":{"type":"Point","coordinates":[-75.129669,39.822013]}},{"properties":{"city":"Spring Lake","country":"USA","geo_score":0.714,"id":"a7vabl4whsdk","geo_precision":"city","state":"MI"},"type":"Feature","geometry":{"type":"Point","coordinates":[-86.19538,43.076609]}},{"properties":{"city":"Mills River","country":"USA","geo_score":0.714,"id":"a7vabl0ehopb","geo_precision":"city","state":"NC"},"type":"Feature","geometry":{"type":"Point","coordinates":[-82.566789,35.388448]}},{"properties":{"city":"Greenville","country":"USA","geo_score":0.714,"id":"a7vabl3fe4r5","geo_precision":"city","state":"SC"},"type":"Feature","geometry":{"type":"Point","coordinates":[-82.402871,34.848567]}},{"properties":{"city":"Matthews","country":"USA","geo_score":0.0,"id":"a7vabl7tyul2","geo_precision":"unmatched","state":"NC"},"type":"Feature","geometry":null},{"properties":{"city":"Norwood","country":"USA","geo_score":0.714,"id":"a7vablgkmnda","geo_precision":"city","state":"NJ"},"type":"Feature","geometry":{"type":"Point","coordinates":[-73.949747,40.992921]}},{"properties":{"city":"Chicago","country":"USA","geo_score":0.714,"id":"a7vabl4k7tvc","geo_precision":"city","state":"IL"},"type":"Feature","geometry":{"type":"Point","coordinates":[-87.68732,41.811929]}},{"properties":{"city":"Dokkum","country":"Netherlands","geo_score":0.571,"id":"a7vablcvx81b","geo_precision":"city","state":null},"type":"Feature","geometry":{"type":"Point","coordinates":[-98.562972,36.662062]}},{"properties":{"city":"Morristown","country":"USA","geo_score":0.714,"id":"a7vablbvllsd","geo_precision":"city","state":"NJ"},"type":"Feature","geometry":{"type":"Point","coordinates":[-74.253756,40.425107]}},{"properties":{"city":"Geneva","country":"USA","geo_score":0.714,"id":"a7vabldq9iw3","geo_precision":"city","state":"FL"},"type":"Feature","geometry":{"type":"Point","coordinates":[-81.107884,28.751078]}},{"properties":{"city":"Charlotte","country":"USA","geo_score":0.714,"id":"a7vabl0r2j87","geo_precision":"city","state":"NC"},"type":"Feature","geometry":{"type":"Point","coordinates":[-80.804151,35.26002]}},{"properties":{"city":"Durham","country":"USA","geo_score":0.714,"id":"a7vabl6rgjck","geo_precision":"city","state":"NC"},"type":"Feature","geometry":{"type":"Point","coordinates":[-78.906933,35.981803]}},{"properties":{"city":"Milton","country":"USA","geo_score":0.0,"id":"a7vablaqam33","geo_precision":"unmatched","state":"GA"},"type":"Feature","geometry":null},{"properties":{"city":"Savannah","country":"USA","geo_score":0.714,"id":"a7vablf2ixbi","geo_precision":"city","state":"GA"},"type":"Feature","geometry":{"type":"Point","coordinates":[-81.135618,32.072257]}},{"properties":{"city":"Charleston","country":"USA","geo_score":0.714,"id":"a7vabl4z9lpe","geo_precision":"city","state":"SC"},"type":"Feature","geometry":{"type":"Point","coordinates":[-79.970643,32.85712]}},{"properties":{"city":"Indianapolis","country":"USA","geo_score":0.714,"id":"a7vabl3t8icf","geo_precision":"city","state":"IN"},"type":"Feature","geometry":{"type":"Point","coordinates":[-86.13216,39.775092]}},{"properties":{"city":"Irmo","country":"USA","geo_score":0.714,"id":"a7vabl4ctu3t","geo_precision":"city","state":"SC"},"type":"Feature","geometry":{"type":"Point","coordinates":[-81.131151,34.085949]}},{"properties":{"city":"Simpsonville","country":"USA","geo_score":0.714,"id":"a7vabl993f7c","geo_precision":"city","state":"SC"},"type":"Feature","geometry":{"type":"Point","coordinates":[-81.045366,34.308481]}},{"properties":{"city":"Alpharetta","country":"USA","geo_score":0.714,"id":"a7vabl2s1eeh","geo_precision":"city","state":"GA"},"type":"Feature","geometry":{"type":"Point","coordinates":[-83.92379,31.462401]}},{"properties":{"city":"Playa Del Rey","country":"USA","geo_score":0.714,"id":"a7vabl6yzich","geo_precision":"city","state":"CA"},"type":"Feature","geometry":{"type":"Point","coordinates":[-118.298662,33.786594]}},{"properties":{"city":"Towson","country":"USA","geo_score":0.714,"id":"a7vabl1b3ilo","geo_precision":"city","state":"MD"},"type":"Feature","geometry":{"type":"Point","coordinates":[-78.943637,39.477593]}},{"properties":{"city":"Charlotte","country":"USA","geo_score":0.714,"id":"a7vablghqg5i","geo_precision":"city","state":"NC"},"type":"Feature","geometry":{"type":"Point","coordinates":[-80.804151,35.26002]}},{"properties":{"city":"Saint Louis","country":"USA","geo_score":0.714,"id":"a7vablal62wd","geo_precision":"city","state":"MO"},"type":"Feature","geometry":{"type":"Point","coordinates":[-92.254481,38.251613]}},{"properties":{"city":"Beijing","country":"China","geo_score":0.0,"id":"a7vablclfdfw","geo_precision":"unmatched","state":null},"type":"Feature","geometry":null},{"properties":{"city":"Xuzhou","country":"China","geo_score":0.0,"id":"a7vabl30dxg5","geo_precision":"unmatched","state":null},"type":"Feature","geometry":null},{"properties":{"city":"Xi'an","country":"China","geo_score":0.571,"id":"a7vabl3cz4ii","geo_precision":"city","state":null},"type":"Feature","geometry":{"type":"Point","coordinates":[-81.408163,32.475738]}},{"properties":{"city":"Qingdao","country":"China","geo_score":0.571,"id":"a7vabl7zkk0u","geo_precision":"city","state":null},"type":"Feature","geometry":{"type":"Point","coordinates":[-142.886389,61.486389]}},{"properties":{"city":"Beaufort","country":"USA","geo_score":0.714,"id":"a7vabl6ou5yc","geo_precision":"city","state":"SC"},"type":"Feature","geometry":{"type":"Point","coordinates":[-80.565343,32.424353]}},{"properties":{"city":"Atlanta","country":"USA","geo_score":0.714,"id":"a7vabl8a0a6t","geo_precision":"city","state":"GA"},"type":"Feature","geometry":{"type":"Point","coordinates":[-84.47405,33.844371]}},{"properties":{"city":"Chattanooga","country":"USA","geo_score":0.714,"id":"a7vabl1je2ek","geo_precision":"city","state":"TN"},"type":"Feature","geometry":{"type":"Point","coordinates":[-85.206426,35.017818]}},{"properties":{"city":"Simpsonville","country":"USA","geo_score":0.714,"id":"a7vablcu58ln","geo_precision":"city","state":"SC"},"type":"Feature","geometry":{"type":"Point","coordinates":[-81.045366,34.308481]}},{"properties":{"city":"Pfafftown","country":"USA","geo_score":0.714,"id":"a7vablccmdwg","geo_precision":"city","state":"NC"},"type":"Feature","geometry":{"type":"Point","coordinates":[-80.378143,36.160959]}},{"properties":{"city":"Naples","country":"USA","geo_score":0.714,"id":"a7vabl1n8ms0","geo_precision":"city","state":"FL"},"type":"Feature","geometry":{"type":"Point","coordinates":[-81.79481,26.142036]}},{"properties":{"city":"Oxford","country":"USA","geo_score":0.0,"id":"a7vabl2xmme3","geo_precision":"unmatched","state":"MS"},"type":"Feature","geometry":null},{"properties":{"city":"Evans","country":"USA","geo_score":0.714,"id":"a7vable51ntv","geo_precision":"city","state":"GA"},"type":"Feature","geometry":{"type":"Point","coordinates":[-82.143617,33.551132]}},{"properties":{"city":"Shanghai","country":"China","geo_score":0.571,"id":"a7vabl5ixo4c","geo_precision":"city","state":null},"type":"Feature","geometry":{"type":"Point","coordinates":[-156.648418,58.268704]}},{"properties":{"city":"Old Tappan","country":"USA","geo_score":0.714,"id":"a7vabla2m2ep","geo_precision":"city","state":"NJ"},"type":"Feature","geometry":{"type":"Point","coordinates":[-73.991249,41.010653]}},{"properties":{"city":"Myrtle Beach","country":"USA","geo_score":0.714,"id":"a7vabld5ap77","geo_precision":"city","state":"SC"},"type":"Feature","geometry":{"type":"Point","coordinates":[-78.852005,33.711741]}},{"properties":{"city":"Dallas","country":"USA","geo_score":0.714,"id":"a7vabl46i6cd","geo_precision":"city","state":"TX"},"type":"Feature","geometry":{"type":"Point","coordinates":[-96.240533,32.370699]}},{"properties":{"city":"Greensboro","country":"USA","geo_score":0.714,"id":"a7vablbau8fc","geo_precision":"city","state":"NC"},"type":"Feature","geometry":{"type":"Point","coordinates":[-79.831692,36.055285]}},{"properties":{"city":"Wellford","country":"USA","geo_score":0.714,"id":"a7vabl3bfwpu","geo_precision":"city","state":"SC"},"type":"Feature","geometry":{"type":"Point","coordinates":[-82.009137,34.834143]}},{"properties":{"city":"Atlanta","country":"USA","geo_score":0.714,"id":"a7vabl8r1kzm","geo_precision":"city","state":"GA"},"type":"Feature","geometry":{"type":"Point","coordinates":[-84.47405,33.844371]}},{"properties":{"city":"Newnan","country":"USA","geo_score":0.714,"id":"a7vabl2nok23","geo_precision":"city","state":"GA"},"type":"Feature","geometry":{"type":"Point","coordinates":[-84.819397,33.369595]}},{"properties":{"city":"Grosse Pointe Park","country":"USA","geo_score":0.714,"id":"a7vabl4b0r87","geo_precision":"city","state":"MI"},"type":"Feature","geometry":{"type":"Point","coordinates":[-82.90686,42.443648]}},{"properties":{"city":"Boca Raton","country":"USA","geo_score":0.714,"id":"a7vabl0x4vys","geo_precision":"city","state":"FL"},"type":"Feature","geometry":{"type":"Point","coordinates":[-81.331733,28.828325]}},{"properties":{"city":"Mount Pleasant","country":"USA","geo_score":0.714,"id":"a7vabla6ll21","geo_precision":"city","state":"SC"},"type":"Feature","geometry":{"type":"Point","coordinates":[-81.990395,33.915963]}},{"properties":{"city":"Charlotte","country":"USA","geo_score":0.714,"id":"a7vablg9en1p","geo_precision":"city","state":"NC"},"type":"Feature","geometry":{"type":"Point","coordinates":[-80.804151,35.26002]}},{"properties":{"city":"Kingston","country":"Jamaica","geo_score":0.571,"id":"a7vabl62itaj","geo_precision":"city","state":null},"type":"Feature","geometry":{"type":"Point","coordinates":[-91.040422,40.977536]}},{"properties":{"city":"Apex","country":"USA","geo_score":0.0,"id":"a7vabl9dxxvt","geo_precision":"unmatched","state":"NC"},"type":"Feature","geometry":null},{"properties":{"city":"Canton","country":"USA","geo_score":0.714,"id":"a7vabl4l9xfj","geo_precision":"city","state":"GA"},"type":"Feature","geometry":{"type":"Point","coordinates":[-84.49093,34.250547]}},{"properties":{"city":"Loris","country":"USA","geo_score":0.714,"id":"a7vablcbnaxv","geo_precision":"city","state":"SC"},"type":"Feature","geometry":{"type":"Point","coordinates":[-78.918109,33.977392]}},{"properties":{"city":"Ellicott City","country":"USA","geo_score":0.714,"id":"a7vablfgvnm2","geo_precision":"city","state":"MD"},"type":"Feature","geometry":{"type":"Point","coordinates":[-76.941902,39.236405]}},{"properties":{"city":"Lexington","country":"USA","geo_score":0.0,"id":"a7vablfx44r9","geo_precision":"unmatched","state":"KY"},"type":"Feature","geometry":null},{"properties":{"city":"Rock Hill","country":"USA","geo_score":0.0,"id":"a7vabl32y953","geo_precision":"unmatched","state":"SC"},"type":"Feature","geometry":null},{"properties":{"city":"Deland","country":"USA","geo_score":0.714,"id":"a7vabl4sbq4d","geo_precision":"city","state":"FL"},"type":"Feature","geometry":{"type":"Point","coordinates":[-81.403355,29.07198]}},{"properties":{"city":"Louisville","country":"USA","geo_score":0.714,"id":"a7vabl74shxh","geo_precision":"city","state":"KY"},"type":"Feature","geometry":{"type":"Point","coordinates":[-85.676819,38.188962]}},{"properties":{"city":"Duluth","country":"USA","geo_score":0.714,"id":"a7vabl9rjqbm","geo_precision":"city","state":"GA"},"type":"Feature","geometry":{"type":"Point","coordinates":[-84.092267,33.962979]}},{"properties":{"city":"Union Grove","country":"USA","geo_score":0.714,"id":"a7vablf90p1t","geo_precision":"city","state":"WI"},"type":"Feature","geometry":{"type":"Point","coordinates":[-88.083092,42.739435]}},{"properties":{"city":"Watkinsville","country":"USA","geo_score":0.714,"id":"a7vabl526021","geo_precision":"city","state":"GA"},"type":"Feature","geometry":{"type":"Point","coordinates":[-83.43347,33.81673]}},{"properties":{"city":"Cross Hill","country":"USA","geo_score":0.714,"id":"a7vabl67n1jn","geo_precision":"city","state":"SC"},"type":"Feature","geometry":{"type":"Point","coordinates":[-80.123972,33.298903]}},{"properties":{"city":"Mountain Brk","country":"USA","geo_score":0.714,"id":"a7vabl41mily","geo_precision":"city","state":"AL"},"type":"Feature","geometry":{"type":"Point","coordinates":[-86.752211,33.500938]}},{"properties":{"city":"Greenville","country":"USA","geo_score":0.714,"id":"a7vabl0qxpm1","geo_precision":"city","state":"SC"},"type":"Feature","geometry":{"type":"Point","coordinates":[-82.402871,34.848567]}},{"properties":{"city":"Mountain Brk","country":"USA","geo_score":0.714,"id":"a7vabl2p4cqp","geo_precision":"city","state":"AL"},"type":"Feature","geometry":{"type":"Point","coordinates":[-86.752211,33.500938]}},{"properties":{"city":"New Albany","country":"USA","geo_score":0.714,"id":"a7vabl3kbsnb","geo_precision":"city","state":"OH"},"type":"Feature","geometry":{"type":"Point","coordinates":[-82.177096,39.240816]}},{"properties":{"city":"Dayton","country":"USA","geo_score":0.714,"id":"a7vabl5jf69s","geo_precision":"city","state":"OH"},"type":"Feature","geometry":{"type":"Point","coordinates":[-84.268593,39.750471]}},{"properties":{"city":"Greer","country":"USA","geo_score":0.714,"id":"a7vabl71w38v","geo_precision":"city","state":"SC"},"type":"Feature","geometry":{"type":"Point","coordinates":[-82.368415,34.948738]}},{"properties":{"city":"Wilmington","country":"USA","geo_score":0.714,"id":"a7vabl71jag9","geo_precision":"city","state":"DE"},"type":"Feature","geometry":{"type":"Point","coordinates":[-75.58437,39.68678]}},{"properties":{"city":"Marietta","country":"USA","geo_score":0.714,"id":"a7vablaytddw","geo_precision":"city","state":"GA"},"type":"Feature","geometry":{"type":"Point","coordinates":[-84.557181,33.912473]}},{"properties":{"city":"Jacksonville","country":"USA","geo_score":0.0,"id":"a7vabla84r9z","geo_precision":"unmatched","state":"FL"},"type":"Feature","geometry":null},{"properties":{"city":"Richmond","country":"USA","geo_score":0.714,"id":"a7vabl8ve0o0","geo_precision":"city","state":"VA"},"type":"Feature","geometry":{"type":"Point","coordinates":[-76.83774,37.914858]}},{"properties":{"city":"Saint Matthews","country":"USA","geo_score":0.714,"id":"a7vabl2uk18v","geo_precision":"city","state":"SC"},"type":"Feature","geometry":{"type":"Point","coordinates":[-80.782531,33.466571]}},{"properties":{"city":"Greenville","country":"USA","geo_score":0.714,"id":"a7vabl5uj4w0","geo_precision":"city","state":"SC"},"type":"Feature","geometry":{"type":"Point","coordinates":[-82.402871,34.848567]}},{"properties":{"city":"Somerset","country":"USA","geo_score":0.714,"id":"a7vable8hp6l","geo_precision":"city","state":"WI"},"type":"Feature","geometry":{"type":"Point","coordinates":[-92.474419,45.081379]}},{"properties":{"city":"Greer","country":"USA","geo_score":0.714,"id":"a7vablcb261g","geo_precision":"city","state":"SC"},"type":"Feature","geometry":{"type":"Point","coordinates":[-82.368415,34.948738]}},{"properties":{"city":"Nashville","country":"USA","geo_score":0.714,"id":"a7vablcdlzf1","geo_precision":"city","state":"TN"},"type":"Feature","geometry":{"type":"Point","coordinates":[-86.778098,36.165688]}},{"properties":{"city":"Zhengzhou","country":"China","geo_score":0.0,"id":"a7vabl2ua8iu","geo_precision":"unmatched","state":null},"type":"Feature","geometry":null},{"properties":{"city":"Avon","country":"USA","geo_score":0.714,"id":"a7vable9wx5i","geo_precision":"city","state":"CT"},"type":"Feature","geometry":{"type":"Point","coordinates":[-72.728272,41.757944]}},{"properties":{"city":"Charlotte","country":"USA","geo_score":0.714,"id":"a7vabl0oua9y","geo_precision":"city","state":"NC"},"type":"Feature","geometry":{"type":"Point","coordinates":[-80.804151,35.26002]}},{"properties":{"city":"Fort Worth","country":"USA","geo_score":0.714,"id":"a7vabl76saev","geo_precision":"city","state":"TX"},"type":"Feature","geometry":{"type":"Point","coordinates":[-98.399458,29.049969]}},{"properties":{"city":"Knoxville","country":"USA","geo_score":0.0,"id":"a7vabl78ctql","geo_precision":"unmatched","state":"TN"},"type":"Feature","geometry":null},{"properties":{"city":"Travelers Rest","country":"USA","geo_score":0.714,"id":"a7vabl2jf0as","geo_precision":"city","state":"SC"},"type":"Feature","geometry":{"type":"Point","coordinates":[-80.737329,32.453247]}},{"properties":{"city":"Lakewood Ranch","country":"USA","geo_score":0.714,"id":"a7vabl335dkj","geo_precision":"city","state":"FL"},"type":"Feature","geometry":{"type":"Point","coordinates":[-81.634816,30.261074]}},{"properties":{"city":"Beijing","country":"China","geo_score":0.0,"id":"a7vabl9uhuo3","geo_precision":"unmatched","state":null},"type":"Feature","geometry":null},{"properties":{"city":"Chapel Hill","country":"USA","geo_score":0.714,"id":"a7vablbyeetz","geo_precision":"city","state":"NC"},"type":"Feature","geometry":{"type":"Point","coordinates":[-79.054475,36.004647]}},{"properties":{"city":"Qingdao","country":"China","geo_score":0.571,"id":"a7vabl59i8i7","geo_precision":"city","state":null},"type":"Feature","geometry":{"type":"Point","coordinates":[-142.886389,61.486389]}},{"properties":{"city":"Jining","country":"China","geo_score":0.0,"id":"a7vabl87wcqz","geo_precision":"unmatched","state":null},"type":"Feature","geometry":null},{"properties":{"city":"Clinton","country":"USA","geo_score":0.714,"id":"a7vabl82bun4","geo_precision":"city","state":"SC"},"type":"Feature","geometry":{"type":"Point","coordinates":[-81.893558,34.43492]}},{"properties":{"city":"Winchester","country":"USA","geo_score":0.714,"id":"a7vablaeitgy","geo_precision":"city","state":"KY"},"type":"Feature","geometry":{"type":"Point","coordinates":[-84.160724,37.964922]}},{"properties":{"city":"Shenzhen","country":"China","geo_score":0.0,"id":"a7vabl1q5yg6","geo_precision":"unmatched","state":null},"type":"Feature","geometry":null}],"is_temporal":false,"author":{"url":"","metadata":"","contact_name":"","contact_address":"","source":"","contact_phone":""},"source":"","pagination":{"sort":null,"start":0,"total":773,"limit":1000000},"state":"complete","tags":"","published":"2014-08-15T01:24:41-04:00","id":267782}