{"type":"FeatureCollection","data_type":"Dataset","url_type":null,"permissions":[{"permissions":{"download":true,"view":true},"group_id":"everyone"}],"classification":null,"title":"Tester UK2 - Zumba 2 = 1","count":174,"stream_id":268320,"contributor":{"url":"http://geocommons.com/users/695","name":"Bill"},"data_attributes":null,"calculation_params":[{"input":{"max":1,"min":1,"atr":"zumba basic 2"},"calculation":"filter"}],"icon_link":null,"link":"http://geocommons.com/overlays/268320.json","extent":[-7.06667,49.9667,1.62053,60.4],"geometry_types":["point"],"unique_name":null,"name":"Tester UK2 - Zumba 2 = 1","feature_count":174,"description":"","next_feature":null,"is_raster":false,"short_classification":"Y","stats":{"gold":{"max":1,"variance":0.235366420835825,"mean":0.373563218390805,"stdev":0.485145772769201,"min":0,"median":0},"jsg":{"max":0,"variance":0.0,"mean":0.0,"stdev":0.0,"min":0,"median":0},"toning":{"max":2,"variance":0.261809846521825,"mean":0.53448275862069,"stdev":0.511673574187514,"min":0,"median":1},"zumbatomic":{"max":3,"variance":0.292904125971696,"mean":0.568965517241379,"stdev":0.541206176952643,"min":0,"median":1},"sentao":{"max":1,"variance":0.119593382499502,"mean":0.137931034482759,"stdev":0.345822761685089,"min":0,"median":0},"aqua":{"max":1,"variance":0.115374393727992,"mean":0.132183908045977,"stdev":0.339668064038985,"min":0,"median":0},"zumba basic 2":{"max":1,"variance":0.0,"mean":1.0,"stdev":0.0,"min":1,"median":1}},"features":[{"properties":{"city":"Nuneaton Warwickshire","postal_code":"CV116JE","geo_score":0.857,"gold":0,"jsg":0,"toning":1,"user_id":"000354fc-f7b9-11df-88fb-123139181c25","id":"a7vwwglcrbm0","geo_precision":"zip","zumbatomic":1,"sentao":0,"aqua":0,"zumba basic 2":1},"type":"Feature","geometry":{"type":"Point","coordinates":[-1.8333333,51.9]}},{"properties":{"city":"Kent","postal_code":"CT92JN","geo_score":0.857,"gold":1,"jsg":0,"toning":0,"user_id":"00114e68-f7b9-11df-88fb-123139181c25","id":"a7vwwgmlr4ua","geo_precision":"zip","zumbatomic":0,"sentao":0,"aqua":0,"zumba basic 2":1},"type":"Feature","geometry":{"type":"Point","coordinates":[-3.75,56.0666667]}},{"properties":{"city":"Dunfermline","postal_code":"KY118HZ","geo_score":0.857,"gold":1,"jsg":0,"toning":1,"user_id":"00118c0c-f7b9-11df-88fb-123139181c25","id":"a7vwwgjkvlzi","geo_precision":"zip","zumbatomic":0,"sentao":0,"aqua":1,"zumba basic 2":1},"type":"Feature","geometry":{"type":"Point","coordinates":[-3.4666667,56.0833333]}},{"properties":{"city":"canvey island","postal_code":"ss87ea","geo_score":0.857,"gold":0,"jsg":0,"toning":1,"user_id":"0028c020-f7b9-11df-88fb-123139181c25","id":"a7vwwgqknvul","geo_precision":"zip","zumbatomic":0,"sentao":0,"aqua":0,"zumba basic 2":1},"type":"Feature","geometry":{"type":"Point","coordinates":[-2.2333333,56.8666667]}},{"properties":{"city":"Essex","postal_code":"ss88hb","geo_score":0.0,"gold":1,"jsg":0,"toning":0,"user_id":"002901b6-f7b9-11df-88fb-123139181c25","id":"a7vwwgg45uzo","geo_precision":"unmatched","zumbatomic":2,"sentao":0,"aqua":0,"zumba basic 2":1},"type":"Feature","geometry":null},{"properties":{"city":"Ash Vale","postal_code":"GU125ND","geo_score":0.857,"gold":0,"jsg":0,"toning":1,"user_id":"00c0b70e-f7b9-11df-88fb-123139181c25","id":"a7vwwgg2ddeo","geo_precision":"zip","zumbatomic":1,"sentao":0,"aqua":0,"zumba basic 2":1},"type":"Feature","geometry":{"type":"Point","coordinates":[-0.8,60.4]}},{"properties":{"city":"Newport","postal_code":"np115fL","geo_score":0.857,"gold":1,"jsg":0,"toning":1,"user_id":"00c175ae-f7b9-11df-88fb-123139181c25","id":"a7vwwgfqfr5b","geo_precision":"zip","zumbatomic":1,"sentao":0,"aqua":0,"zumba basic 2":1},"type":"Feature","geometry":{"type":"Point","coordinates":[0.25,51.9833333]}},{"properties":{"city":"Caistor Lincolnshire","postal_code":"LN76RG","geo_score":0.857,"gold":1,"jsg":0,"toning":0,"user_id":"00d43da6-f7b9-11df-88fb-123139181c25","id":"a7vwwgjypyny","geo_precision":"zip","zumbatomic":0,"sentao":0,"aqua":0,"zumba basic 2":1},"type":"Feature","geometry":{"type":"Point","coordinates":[-4.0086111,51.565]}},{"properties":{"city":"Plymouth","postal_code":"PL22JJ","geo_score":0.857,"gold":1,"jsg":0,"toning":0,"user_id":"00db7e4a-f7b9-11df-88fb-123139181c25","id":"a7vwwgnivdhn","geo_precision":"zip","zumbatomic":0,"sentao":0,"aqua":1,"zumba basic 2":1},"type":"Feature","geometry":{"type":"Point","coordinates":[-4.11666666666667,50.35]}},{"properties":{"city":"Brighton, Saltdean","postal_code":"BN28SQ","geo_score":0.857,"gold":1,"jsg":0,"toning":0,"user_id":"00e9c838-f7b9-11df-88fb-123139181c25","id":"a7vwwgixwl6k","geo_precision":"zip","zumbatomic":0,"sentao":0,"aqua":0,"zumba basic 2":1},"type":"Feature","geometry":{"type":"Point","coordinates":[-0.55954,53.56535]}},{"properties":{"city":"Milton Keynes","postal_code":"MK44GB","geo_score":0.857,"gold":0,"jsg":0,"toning":0,"user_id":"00e9d404-f7b9-11df-88fb-123139181c25","id":"a7vwwgn799me","geo_precision":"zip","zumbatomic":1,"sentao":0,"aqua":0,"zumba basic 2":1},"type":"Feature","geometry":{"type":"Point","coordinates":[-0.755825042724609,52.0417219233052]}},{"properties":{"city":"Nottinghamshire","postal_code":"NG196AB","geo_score":0.857,"gold":1,"jsg":0,"toning":1,"user_id":"00e9f9ca-f7b9-11df-88fb-123139181c25","id":"a7vwwgj7ioau","geo_precision":"zip","zumbatomic":1,"sentao":1,"aqua":0,"zumba basic 2":1},"type":"Feature","geometry":{"type":"Point","coordinates":[-2.63543,53.44457]}},{"properties":{"city":"Coventry","postal_code":"CV78RG","geo_score":0.857,"gold":1,"jsg":0,"toning":1,"user_id":"010cb578-f7b9-11df-88fb-123139181c25","id":"a7vwwgrjbpg4","geo_precision":"zip","zumbatomic":1,"sentao":0,"aqua":0,"zumba basic 2":1},"type":"Feature","geometry":{"type":"Point","coordinates":[-1.4337,52.4365]}},{"properties":{"city":"Peterborough","postal_code":"PE67LG","geo_score":0.857,"gold":0,"jsg":0,"toning":0,"user_id":"010d861a-f7b9-11df-88fb-123139181c25","id":"a7vwwgsfpalp","geo_precision":"zip","zumbatomic":1,"sentao":0,"aqua":0,"zumba basic 2":1},"type":"Feature","geometry":{"type":"Point","coordinates":[-0.31996,52.57278]}},{"properties":{"city":"Runcorn","postal_code":"WA76NN","geo_score":0.857,"gold":1,"jsg":0,"toning":0,"user_id":"0133f160-f7b9-11df-88fb-123139181c25","id":"a7vwwgnzfi0z","geo_precision":"zip","zumbatomic":0,"sentao":0,"aqua":0,"zumba basic 2":1},"type":"Feature","geometry":{"type":"Point","coordinates":[-2.75,53.3333333]}},{"properties":{"city":"Trowbridge","postal_code":"BA149GA","geo_score":0.857,"gold":0,"jsg":0,"toning":0,"user_id":"015c93ae-2a4f-11e0-8b28-123139181c25","id":"a7vwwgms9093","geo_precision":"zip","zumbatomic":0,"sentao":0,"aqua":0,"zumba basic 2":1},"type":"Feature","geometry":{"type":"Point","coordinates":[-2.2086111,51.3188889]}},{"properties":{"city":"Sompting, West Sussex","postal_code":"BN150LT","geo_score":0.857,"gold":1,"jsg":0,"toning":0,"user_id":"017da24c-3107-11e0-8b28-123139181c25","id":"a7vwwgjl2txm","geo_precision":"zip","zumbatomic":0,"sentao":0,"aqua":0,"zumba basic 2":1},"type":"Feature","geometry":{"type":"Point","coordinates":[-0.342378616333008,50.8346192043696]}},{"properties":{"city":"Beaconsfield Bucks","postal_code":"HP92TH","geo_score":0.857,"gold":0,"jsg":0,"toning":1,"user_id":"01aa03e6-f7b9-11df-88fb-123139181c25","id":"a7vwwggtsebe","geo_precision":"zip","zumbatomic":0,"sentao":1,"aqua":0,"zumba basic 2":1},"type":"Feature","geometry":{"type":"Point","coordinates":[-0.6333333,51.6]}},{"properties":{"city":"Wrexham","postal_code":"LL130LE","geo_score":0.857,"gold":0,"jsg":0,"toning":1,"user_id":"01b10fd8-f7b9-11df-88fb-123139181c25","id":"a7vwwgtv2brl","geo_precision":"zip","zumbatomic":1,"sentao":0,"aqua":0,"zumba basic 2":1},"type":"Feature","geometry":{"type":"Point","coordinates":[0.801658630371094,52.224224288994]}},{"properties":{"city":"Bracknell","postal_code":"RG422PR","geo_score":0.0,"gold":0,"jsg":0,"toning":1,"user_id":"01b121d0-f7b9-11df-88fb-123139181c25","id":"a7vwwgein7yt","geo_precision":"unmatched","zumbatomic":1,"sentao":0,"aqua":0,"zumba basic 2":1},"type":"Feature","geometry":null},{"properties":{"city":"STONEHAVEN","postal_code":"AB392BZ","geo_score":0.857,"gold":1,"jsg":0,"toning":0,"user_id":"01bfe0b2-f7b9-11df-88fb-123139181c25","id":"a7vwwgmc2pg9","geo_precision":"zip","zumbatomic":1,"sentao":0,"aqua":0,"zumba basic 2":1},"type":"Feature","geometry":{"type":"Point","coordinates":[-2.2,56.9666667]}},{"properties":{"city":"Stonehaven","postal_code":"AB392PG","geo_score":0.857,"gold":0,"jsg":0,"toning":1,"user_id":"01bfe95e-f7b9-11df-88fb-123139181c25","id":"a7vwwgiqadda","geo_precision":"zip","zumbatomic":0,"sentao":1,"aqua":0,"zumba basic 2":1},"type":"Feature","geometry":{"type":"Point","coordinates":[-2.2,56.9666667]}},{"properties":{"city":"Penn","postal_code":"HP108BP","geo_score":0.857,"gold":0,"jsg":0,"toning":1,"user_id":"01c0250e-f7b9-11df-88fb-123139181c25","id":"a7vwwgq1t1le","geo_precision":"zip","zumbatomic":0,"sentao":1,"aqua":0,"zumba basic 2":1},"type":"Feature","geometry":{"type":"Point","coordinates":[-0.6833333,51.6166667]}},{"properties":{"city":"Cirencester","postal_code":"GL75QY","geo_score":0.857,"gold":1,"jsg":0,"toning":0,"user_id":"01c70fc2-f7b9-11df-88fb-123139181c25","id":"a7vwwgpji6rs","geo_precision":"zip","zumbatomic":1,"sentao":0,"aqua":0,"zumba basic 2":1},"type":"Feature","geometry":{"type":"Point","coordinates":[-1.9833333,51.7333333]}},{"properties":{"city":"Stirling","postal_code":"FK78GB","geo_score":0.857,"gold":1,"jsg":0,"toning":1,"user_id":"01e3e1c4-f7b9-11df-88fb-123139181c25","id":"a7vwwgpog0q5","geo_precision":"zip","zumbatomic":1,"sentao":1,"aqua":0,"zumba basic 2":1},"type":"Feature","geometry":{"type":"Point","coordinates":[-3.3291666,54.5308333]}},{"properties":{"city":"Manchester","postal_code":"M345PG","geo_score":0.857,"gold":1,"jsg":0,"toning":1,"user_id":"01ea99ec-f7b9-11df-88fb-123139181c25","id":"a7vwwgt1b07u","geo_precision":"zip","zumbatomic":1,"sentao":0,"aqua":0,"zumba basic 2":1},"type":"Feature","geometry":{"type":"Point","coordinates":[-2.23743438720703,53.4809464283615]}},{"properties":{"city":"Flintshire","postal_code":"CH54BJ","geo_score":0.0,"gold":1,"jsg":0,"toning":1,"user_id":"01f25d4e-f7b9-11df-88fb-123139181c25","id":"a7vwwgk4aav5","geo_precision":"unmatched","zumbatomic":1,"sentao":0,"aqua":1,"zumba basic 2":1},"type":"Feature","geometry":null},{"properties":{"city":"County Antrim","postal_code":"BT294FS","geo_score":0.857,"gold":0,"jsg":0,"toning":1,"user_id":"01f28fa8-f7b9-11df-88fb-123139181c25","id":"a7vwwgggo3g5","geo_precision":"zip","zumbatomic":1,"sentao":0,"aqua":0,"zumba basic 2":1},"type":"Feature","geometry":{"type":"Point","coordinates":[-3.75,56.0666667]}},{"properties":{"city":"TULLIBODY","postal_code":"FK102PX","geo_score":0.857,"gold":0,"jsg":0,"toning":1,"user_id":"01f90acc-f7b9-11df-88fb-123139181c25","id":"a7vwwgh7svih","geo_precision":"zip","zumbatomic":0,"sentao":0,"aqua":0,"zumba basic 2":1},"type":"Feature","geometry":{"type":"Point","coordinates":[-3.8333333,54.9333333]}},{"properties":{"city":"Renfrewshire","postal_code":"Pa48az","geo_score":0.857,"gold":0,"jsg":0,"toning":0,"user_id":"02070668-f7b9-11df-88fb-123139181c25","id":"a7vwwge8as5e","geo_precision":"zip","zumbatomic":1,"sentao":0,"aqua":0,"zumba basic 2":1},"type":"Feature","geometry":{"type":"Point","coordinates":[-4.5,55.8333333]}},{"properties":{"city":"Pinner","postal_code":"HA53UT","geo_score":0.857,"gold":1,"jsg":0,"toning":1,"user_id":"02072e40-f7b9-11df-88fb-123139181c25","id":"a7vwwgnkf7x5","geo_precision":"zip","zumbatomic":1,"sentao":1,"aqua":0,"zumba basic 2":1},"type":"Feature","geometry":{"type":"Point","coordinates":[-0.38215845823288,51.5938370164925]}},{"properties":{"city":"London Borough of Ealing","postal_code":"W71BU","geo_score":0.857,"gold":1,"jsg":0,"toning":1,"user_id":"020740b0-f7b9-11df-88fb-123139181c25","id":"a7vwwgniz0qp","geo_precision":"zip","zumbatomic":1,"sentao":1,"aqua":1,"zumba basic 2":1},"type":"Feature","geometry":{"type":"Point","coordinates":[0.1508,52.19712]}},{"properties":{"city":"Biggar","postal_code":"ML126NA","geo_score":0.857,"gold":1,"jsg":0,"toning":0,"user_id":"024556c0-f7b9-11df-88fb-123139181c25","id":"a7vwwgf1yr6p","geo_precision":"zip","zumbatomic":0,"sentao":0,"aqua":0,"zumba basic 2":1},"type":"Feature","geometry":{"type":"Point","coordinates":[-3.5166667,55.6166667]}},{"properties":{"city":"wales","postal_code":"g743es","geo_score":0.857,"gold":0,"jsg":0,"toning":0,"user_id":"024bf14c-f7b9-11df-88fb-123139181c25","id":"a7vwwgmnewek","geo_precision":"zip","zumbatomic":1,"sentao":0,"aqua":0,"zumba basic 2":1},"type":"Feature","geometry":{"type":"Point","coordinates":[-0.9833333,60.3333333]}},{"properties":{"city":"Hinckley","postal_code":"LE102UA","geo_score":0.857,"gold":0,"jsg":0,"toning":1,"user_id":"024c1c26-f7b9-11df-88fb-123139181c25","id":"a7vwwgtrwe1k","geo_precision":"zip","zumbatomic":0,"sentao":0,"aqua":0,"zumba basic 2":1},"type":"Feature","geometry":{"type":"Point","coordinates":[-2.5,53.0]}},{"properties":{"city":"MARGATE","postal_code":"CT92ST","geo_score":0.857,"gold":0,"jsg":0,"toning":0,"user_id":"024c579a-f7b9-11df-88fb-123139181c25","id":"a7vwwghy15zf","geo_precision":"zip","zumbatomic":0,"sentao":0,"aqua":0,"zumba basic 2":1},"type":"Feature","geometry":{"type":"Point","coordinates":[-0.637035369873047,52.5966874731547]}},{"properties":{"city":"Glasgow","postal_code":"G133RA","geo_score":0.857,"gold":0,"jsg":0,"toning":1,"user_id":"025a0318-f7b9-11df-88fb-123139181c25","id":"a7vwwgfczalu","geo_precision":"zip","zumbatomic":1,"sentao":0,"aqua":0,"zumba basic 2":1},"type":"Feature","geometry":{"type":"Point","coordinates":[-4.25763130187988,55.8651497187961]}},{"properties":{"city":"EDINBURGH","postal_code":"EH111ST","geo_score":0.857,"gold":1,"jsg":0,"toning":2,"user_id":"025a0e9e-f7b9-11df-88fb-123139181c25","id":"a7vwwghqmibd","geo_precision":"zip","zumbatomic":1,"sentao":0,"aqua":1,"zumba basic 2":1},"type":"Feature","geometry":{"type":"Point","coordinates":[-3.3725,55.95]}},{"properties":{"city":"Edinburgh","postal_code":"EH39LS","geo_score":0.857,"gold":0,"jsg":0,"toning":0,"user_id":"025a142a-f7b9-11df-88fb-123139181c25","id":"a7vwwgm78f4q","geo_precision":"zip","zumbatomic":1,"sentao":0,"aqua":0,"zumba basic 2":1},"type":"Feature","geometry":{"type":"Point","coordinates":[-3.3725,55.95]}},{"properties":{"city":"Cumbernauld","postal_code":"G674EP","geo_score":0.857,"gold":0,"jsg":0,"toning":0,"user_id":"030bed80-f7b9-11df-88fb-123139181c25","id":"a7vwwgksqnh8","geo_precision":"zip","zumbatomic":1,"sentao":0,"aqua":0,"zumba basic 2":1},"type":"Feature","geometry":{"type":"Point","coordinates":[-3.2,57.3]}},{"properties":{"city":"London","postal_code":"W140SY","geo_score":0.857,"gold":1,"jsg":0,"toning":1,"user_id":"032050c2-f7b9-11df-88fb-123139181c25","id":"a7vwwgjxzj4t","geo_precision":"zip","zumbatomic":0,"sentao":0,"aqua":0,"zumba basic 2":1},"type":"Feature","geometry":{"type":"Point","coordinates":[-2.8508333,51.7316667]}},{"properties":{"city":"Airdrie","postal_code":"ML60EB","geo_score":0.857,"gold":0,"jsg":0,"toning":1,"user_id":"03209b0e-f7b9-11df-88fb-123139181c25","id":"a7vwwgjnhzek","geo_precision":"zip","zumbatomic":0,"sentao":0,"aqua":0,"zumba basic 2":1},"type":"Feature","geometry":{"type":"Point","coordinates":[-6.6833333,54.6333333]}},{"properties":{"city":"Rayleigh Essex","postal_code":"SS69LW","geo_score":0.0,"gold":0,"jsg":0,"toning":1,"user_id":"033c743c-f7b9-11df-88fb-123139181c25","id":"a7vwwgsclgh6","geo_precision":"unmatched","zumbatomic":1,"sentao":0,"aqua":0,"zumba basic 2":1},"type":"Feature","geometry":null},{"properties":{"city":"London","postal_code":"TW107NN","geo_score":0.857,"gold":0,"jsg":0,"toning":0,"user_id":"033ca33a-f7b9-11df-88fb-123139181c25","id":"a7vwwgs8v6p0","geo_precision":"zip","zumbatomic":1,"sentao":1,"aqua":0,"zumba basic 2":1},"type":"Feature","geometry":{"type":"Point","coordinates":[-2.8508333,51.7316667]}},{"properties":{"city":"Falkirk","postal_code":"FK29FH","geo_score":0.857,"gold":0,"jsg":0,"toning":0,"user_id":"0351c0c6-f7b9-11df-88fb-123139181c25","id":"a7vwwgqirc4j","geo_precision":"zip","zumbatomic":1,"sentao":1,"aqua":0,"zumba basic 2":1},"type":"Feature","geometry":{"type":"Point","coordinates":[-3.75,56.0]}},{"properties":{"city":"Cheltenham","postal_code":"GL522HA","geo_score":0.857,"gold":0,"jsg":0,"toning":0,"user_id":"0351eaa6-f7b9-11df-88fb-123139181c25","id":"a7vwwgsj9kkp","geo_precision":"zip","zumbatomic":0,"sentao":0,"aqua":0,"zumba basic 2":1},"type":"Feature","geometry":{"type":"Point","coordinates":[-2.0833333,51.9]}},{"properties":{"city":"Verwood","postal_code":"BH316HX","geo_score":0.857,"gold":1,"jsg":0,"toning":0,"user_id":"035c361e-f7b9-11df-88fb-123139181c25","id":"a7vwwgfwt8b7","geo_precision":"zip","zumbatomic":1,"sentao":0,"aqua":0,"zumba basic 2":1},"type":"Feature","geometry":{"type":"Point","coordinates":[-1.8666667,50.8666667]}},{"properties":{"city":"tarporley","postal_code":"cw60hz","geo_score":0.857,"gold":0,"jsg":0,"toning":0,"user_id":"0363d68a-f7b9-11df-88fb-123139181c25","id":"a7vwwgsgebnw","geo_precision":"zip","zumbatomic":1,"sentao":0,"aqua":0,"zumba basic 2":1},"type":"Feature","geometry":{"type":"Point","coordinates":[-2.66677,53.15922]}},{"properties":{"city":"Edinburgh","postal_code":"EH112HX","geo_score":0.857,"gold":0,"jsg":0,"toning":1,"user_id":"03b490d4-f7b9-11df-88fb-123139181c25","id":"a7vwwgk66awu","geo_precision":"zip","zumbatomic":0,"sentao":0,"aqua":0,"zumba basic 2":1},"type":"Feature","geometry":{"type":"Point","coordinates":[-3.3725,55.95]}},{"properties":{"city":"North East Lincolnshire","postal_code":"DN417QS","geo_score":0.857,"gold":0,"jsg":0,"toning":1,"user_id":"03bb7ed0-f7b9-11df-88fb-123139181c25","id":"a7vwwgnhvks2","geo_precision":"zip","zumbatomic":1,"sentao":0,"aqua":0,"zumba basic 2":1},"type":"Feature","geometry":{"type":"Point","coordinates":[-0.9166667,52.5166667]}},{"properties":{"city":"Manchester","postal_code":"M469AQ","geo_score":0.857,"gold":1,"jsg":0,"toning":1,"user_id":"03c1dd0c-f7b9-11df-88fb-123139181c25","id":"a7vwwgqgxyua","geo_precision":"zip","zumbatomic":1,"sentao":0,"aqua":0,"zumba basic 2":1},"type":"Feature","geometry":{"type":"Point","coordinates":[-2.23743438720703,53.4809464283615]}},{"properties":{"city":"Wembley","postal_code":"ha97et","geo_score":0.857,"gold":0,"jsg":0,"toning":0,"user_id":"03c1f756-f7b9-11df-88fb-123139181c25","id":"a7vwwgfvtlil","geo_precision":"zip","zumbatomic":1,"sentao":0,"aqua":0,"zumba basic 2":1},"type":"Feature","geometry":{"type":"Point","coordinates":[-0.2833333,51.55]}},{"properties":{"city":"Doncaster","postal_code":"DN31NG","geo_score":0.857,"gold":0,"jsg":0,"toning":1,"user_id":"03c20228-f7b9-11df-88fb-123139181c25","id":"a7vwwgu70gwt","geo_precision":"zip","zumbatomic":0,"sentao":1,"aqua":0,"zumba basic 2":1},"type":"Feature","geometry":{"type":"Point","coordinates":[-1.00542068481445,53.4818147283195]}},{"properties":{"city":"preston","postal_code":"pr42bf","geo_score":0.857,"gold":1,"jsg":0,"toning":0,"user_id":"03c23e46-f7b9-11df-88fb-123139181c25","id":"a7vwwgrcwppo","geo_precision":"zip","zumbatomic":1,"sentao":0,"aqua":0,"zumba basic 2":1},"type":"Feature","geometry":{"type":"Point","coordinates":[-1.15853,52.18953]}},{"properties":{"city":"Barry","postal_code":"cf627ad","geo_score":0.857,"gold":0,"jsg":0,"toning":0,"user_id":"03f684b2-f7b9-11df-88fb-123139181c25","id":"a7vwwgtbflew","geo_precision":"zip","zumbatomic":0,"sentao":0,"aqua":0,"zumba basic 2":1},"type":"Feature","geometry":{"type":"Point","coordinates":[-1.35,60.3833333]}},{"properties":{"city":"Barnsley","postal_code":"S751NF","geo_score":0.857,"gold":1,"jsg":0,"toning":0,"user_id":"04404dea-f7b9-11df-88fb-123139181c25","id":"a7vwwghx6txx","geo_precision":"zip","zumbatomic":1,"sentao":0,"aqua":1,"zumba basic 2":1},"type":"Feature","geometry":{"type":"Point","coordinates":[-1.49729,53.54648]}},{"properties":{"city":"Haverhill","postal_code":"CB99JF","geo_score":0.857,"gold":0,"jsg":0,"toning":1,"user_id":"04479410-f7b9-11df-88fb-123139181c25","id":"a7vwwghxbkzy","geo_precision":"zip","zumbatomic":3,"sentao":0,"aqua":0,"zumba basic 2":1},"type":"Feature","geometry":{"type":"Point","coordinates":[0.4333333,52.0833333]}},{"properties":{"city":"Reading","postal_code":"RG14LZ","geo_score":0.857,"gold":1,"jsg":0,"toning":1,"user_id":"0447aa54-f7b9-11df-88fb-123139181c25","id":"a7vwwger7t59","geo_precision":"zip","zumbatomic":1,"sentao":0,"aqua":0,"zumba basic 2":1},"type":"Feature","geometry":{"type":"Point","coordinates":[-3.0833333,58.8333333]}},{"properties":{"city":"East Kilbride","postal_code":"G741QZ","geo_score":0.857,"gold":0,"jsg":0,"toning":1,"user_id":"04b87edc-f7b9-11df-88fb-123139181c25","id":"a7vwwgq3vds8","geo_precision":"zip","zumbatomic":1,"sentao":0,"aqua":1,"zumba basic 2":1},"type":"Feature","geometry":{"type":"Point","coordinates":[-0.479621887207031,51.2536428425804]}},{"properties":{"city":"Sunderland","postal_code":"SR28JY","geo_score":0.857,"gold":1,"jsg":0,"toning":1,"user_id":"04bf8c4a-f7b9-11df-88fb-123139181c25","id":"a7vwwgslbbpi","geo_precision":"zip","zumbatomic":1,"sentao":0,"aqua":1,"zumba basic 2":1},"type":"Feature","geometry":{"type":"Point","coordinates":[-0.26733,51.53093]}},{"properties":{"city":"Glasgow","postal_code":"G672JZ","geo_score":0.857,"gold":0,"jsg":0,"toning":0,"user_id":"04ed59fe-f7b9-11df-88fb-123139181c25","id":"a7vwwgmc8by4","geo_precision":"zip","zumbatomic":0,"sentao":0,"aqua":0,"zumba basic 2":1},"type":"Feature","geometry":{"type":"Point","coordinates":[-4.25763130187988,55.8651497187961]}},{"properties":{"city":"Boston","postal_code":"pe210n","geo_score":0.857,"gold":0,"jsg":0,"toning":0,"user_id":"04ed60a2-f7b9-11df-88fb-123139181c25","id":"a7vwwgnhf2rg","geo_precision":"zip","zumbatomic":0,"sentao":0,"aqua":0,"zumba basic 2":1},"type":"Feature","geometry":{"type":"Point","coordinates":[-2.0,55.6666667]}},{"properties":{"city":"Spalding","postal_code":"pe120ud","geo_score":0.857,"gold":0,"jsg":0,"toning":0,"user_id":"04ed6ca0-f7b9-11df-88fb-123139181c25","id":"a7vwwgkjudt5","geo_precision":"zip","zumbatomic":0,"sentao":0,"aqua":0,"zumba basic 2":1},"type":"Feature","geometry":{"type":"Point","coordinates":[-0.1,52.8166667]}},{"properties":{"city":"Aylesbury","postal_code":"HP199PY","geo_score":0.857,"gold":0,"jsg":0,"toning":1,"user_id":"05093476-f7b9-11df-88fb-123139181c25","id":"a7vwwggtlc7q","geo_precision":"zip","zumbatomic":1,"sentao":0,"aqua":0,"zumba basic 2":1},"type":"Feature","geometry":{"type":"Point","coordinates":[-0.8,51.8333333]}},{"properties":{"city":"Port Talbot","postal_code":"SA132RF","geo_score":0.857,"gold":0,"jsg":0,"toning":0,"user_id":"052cc35a-f7b9-11df-88fb-123139181c25","id":"a7vwwgob2jxu","geo_precision":"zip","zumbatomic":0,"sentao":0,"aqua":0,"zumba basic 2":1},"type":"Feature","geometry":{"type":"Point","coordinates":[-3.80233,51.59031]}},{"properties":{"city":"Edinburgh","postal_code":"EH65BB","geo_score":0.857,"gold":0,"jsg":0,"toning":0,"user_id":"052cdb06-f7b9-11df-88fb-123139181c25","id":"a7vwwgrs9e9y","geo_precision":"zip","zumbatomic":0,"sentao":0,"aqua":0,"zumba basic 2":1},"type":"Feature","geometry":{"type":"Point","coordinates":[-3.3725,55.95]}},{"properties":{"city":"REDDITCH","postal_code":"B988HN","geo_score":0.857,"gold":0,"jsg":0,"toning":1,"user_id":"0533af8a-f7b9-11df-88fb-123139181c25","id":"a7vwwgp9bowy","geo_precision":"zip","zumbatomic":1,"sentao":0,"aqua":1,"zumba basic 2":1},"type":"Feature","geometry":{"type":"Point","coordinates":[-1.9333333,52.3]}},{"properties":{"city":"Edinburgh","postal_code":"EH153RZ","geo_score":0.857,"gold":1,"jsg":0,"toning":1,"user_id":"0533fcc4-f7b9-11df-88fb-123139181c25","id":"a7vwwghkt7uf","geo_precision":"zip","zumbatomic":1,"sentao":0,"aqua":1,"zumba basic 2":1},"type":"Feature","geometry":{"type":"Point","coordinates":[-3.3725,55.95]}},{"properties":{"city":"Leicestershire","postal_code":"LE29NZ","geo_score":0.857,"gold":0,"jsg":0,"toning":1,"user_id":"05340e26-f7b9-11df-88fb-123139181c25","id":"a7vwwglld12t","geo_precision":"zip","zumbatomic":1,"sentao":0,"aqua":0,"zumba basic 2":1},"type":"Feature","geometry":{"type":"Point","coordinates":[-1.1348,52.62782]}},{"properties":{"city":"Nuneaton Warwickshire","postal_code":"CV107LZ","geo_score":0.857,"gold":0,"jsg":0,"toning":0,"user_id":"0541b5b2-f7b9-11df-88fb-123139181c25","id":"a7vwwgousbqk","geo_precision":"zip","zumbatomic":1,"sentao":0,"aqua":0,"zumba basic 2":1},"type":"Feature","geometry":{"type":"Point","coordinates":[-1.8333333,51.9]}},{"properties":{"city":"Surrey","postal_code":"SM44PG","geo_score":0.857,"gold":1,"jsg":0,"toning":1,"user_id":"0541f022-f7b9-11df-88fb-123139181c25","id":"a7vwwgk03n3m","geo_precision":"zip","zumbatomic":1,"sentao":1,"aqua":1,"zumba basic 2":1},"type":"Feature","geometry":{"type":"Point","coordinates":[-4.2333333,58.3666667]}},{"properties":{"city":"Gloucester","postal_code":"GL40TP","geo_score":0.857,"gold":0,"jsg":0,"toning":0,"user_id":"055ce666-f7b9-11df-88fb-123139181c25","id":"a7vwwgpfjb7s","geo_precision":"zip","zumbatomic":0,"sentao":0,"aqua":0,"zumba basic 2":1},"type":"Feature","geometry":{"type":"Point","coordinates":[-2.24309921264648,51.8656800532905]}},{"properties":{"city":"London Borough of Greenwich","postal_code":"SE182UQ","geo_score":0.857,"gold":1,"jsg":0,"toning":0,"user_id":"055d3396-f7b9-11df-88fb-123139181c25","id":"a7vwwgon7z2y","geo_precision":"zip","zumbatomic":0,"sentao":0,"aqua":0,"zumba basic 2":1},"type":"Feature","geometry":{"type":"Point","coordinates":[-0.0157392024993896,51.4780486631143]}},{"properties":{"city":"CO Durham","postal_code":"DH31RU","geo_score":0.857,"gold":1,"jsg":0,"toning":1,"user_id":"05681c70-f7b9-11df-88fb-123139181c25","id":"a7vwwgspcizr","geo_precision":"zip","zumbatomic":1,"sentao":1,"aqua":0,"zumba basic 2":1},"type":"Feature","geometry":{"type":"Point","coordinates":[-3.9333333,52.0333333]}},{"properties":{"city":"Knaresborough","postal_code":"hg58hl","geo_score":0.857,"gold":0,"jsg":0,"toning":1,"user_id":"0575fb42-f7b9-11df-88fb-123139181c25","id":"a7vwwghzy7zg","geo_precision":"zip","zumbatomic":1,"sentao":0,"aqua":0,"zumba basic 2":1},"type":"Feature","geometry":{"type":"Point","coordinates":[-1.4666667,54.0]}},{"properties":{"city":"Kent","postal_code":"CT70QP","geo_score":0.857,"gold":0,"jsg":0,"toning":0,"user_id":"0576112c-f7b9-11df-88fb-123139181c25","id":"a7vwwgp6h1ou","geo_precision":"zip","zumbatomic":0,"sentao":0,"aqua":0,"zumba basic 2":1},"type":"Feature","geometry":{"type":"Point","coordinates":[-3.75,56.0666667]}},{"properties":{"city":"Topsham","postal_code":"EX30AF","geo_score":0.857,"gold":0,"jsg":0,"toning":0,"user_id":"05d99806-50a0-11e0-8b28-123139181c25","id":"a7vwwgnqeeip","geo_precision":"zip","zumbatomic":0,"sentao":0,"aqua":0,"zumba basic 2":1},"type":"Feature","geometry":{"type":"Point","coordinates":[-3.45,50.6833333]}},{"properties":{"city":"Penistone south yorkshire","postal_code":"s366dl","geo_score":0.857,"gold":1,"jsg":0,"toning":1,"user_id":"063b455a-f7b9-11df-88fb-123139181c25","id":"a7vwwgryqsm5","geo_precision":"zip","zumbatomic":1,"sentao":0,"aqua":0,"zumba basic 2":1},"type":"Feature","geometry":{"type":"Point","coordinates":[-1.63026809692383,53.5257173054989]}},{"properties":{"city":"Cheltenham","postal_code":"GL522AA","geo_score":0.857,"gold":0,"jsg":0,"toning":0,"user_id":"063b52e8-f7b9-11df-88fb-123139181c25","id":"a7vwwghbe0o7","geo_precision":"zip","zumbatomic":1,"sentao":0,"aqua":0,"zumba basic 2":1},"type":"Feature","geometry":{"type":"Point","coordinates":[-2.0833333,51.9]}},{"properties":{"city":"Windsor","postal_code":"SL41HR","geo_score":0.857,"gold":1,"jsg":0,"toning":1,"user_id":"0653ef60-f7b9-11df-88fb-123139181c25","id":"a7vwwgsg7y6k","geo_precision":"zip","zumbatomic":1,"sentao":1,"aqua":0,"zumba basic 2":1},"type":"Feature","geometry":{"type":"Point","coordinates":[-2.35370707511902,51.3833694458008]}},{"properties":{"city":"Reading","postal_code":"RG109YR","geo_score":0.857,"gold":0,"jsg":0,"toning":0,"user_id":"065ae798-f7b9-11df-88fb-123139181c25","id":"a7vwwgfsyt7m","geo_precision":"zip","zumbatomic":0,"sentao":0,"aqua":0,"zumba basic 2":1},"type":"Feature","geometry":{"type":"Point","coordinates":[-3.0833333,58.8333333]}},{"properties":{"city":"London","postal_code":"SE218NG","geo_score":0.857,"gold":0,"jsg":0,"toning":1,"user_id":"065af472-f7b9-11df-88fb-123139181c25","id":"a7vwwgl6qc4j","geo_precision":"zip","zumbatomic":1,"sentao":0,"aqua":0,"zumba basic 2":1},"type":"Feature","geometry":{"type":"Point","coordinates":[-2.8508333,51.7316667]}},{"properties":{"city":"London","postal_code":"SE162BJ","geo_score":0.857,"gold":1,"jsg":0,"toning":1,"user_id":"06686404-f7b9-11df-88fb-123139181c25","id":"a7vwwgryvqeh","geo_precision":"zip","zumbatomic":0,"sentao":0,"aqua":0,"zumba basic 2":1},"type":"Feature","geometry":{"type":"Point","coordinates":[-2.8508333,51.7316667]}},{"properties":{"city":"Glasgow","postal_code":"g776un","geo_score":0.857,"gold":0,"jsg":0,"toning":0,"user_id":"06733d52-f7b9-11df-88fb-123139181c25","id":"a7vwwgtg80rp","geo_precision":"zip","zumbatomic":0,"sentao":0,"aqua":0,"zumba basic 2":1},"type":"Feature","geometry":{"type":"Point","coordinates":[-4.25763130187988,55.8651497187961]}},{"properties":{"city":"Thornton","postal_code":"KY14BL","geo_score":0.857,"gold":0,"jsg":0,"toning":1,"user_id":"06735850-f7b9-11df-88fb-123139181c25","id":"a7vwwge1q4b1","geo_precision":"zip","zumbatomic":1,"sentao":0,"aqua":0,"zumba basic 2":1},"type":"Feature","geometry":{"type":"Point","coordinates":[-2.8333333,53.2666667]}},{"properties":{"city":"Berkshire","postal_code":"RG127DN","geo_score":0.857,"gold":0,"jsg":0,"toning":0,"user_id":"067a9f52-f7b9-11df-88fb-123139181c25","id":"a7vwwgjyzblj","geo_precision":"zip","zumbatomic":0,"sentao":0,"aqua":0,"zumba basic 2":1},"type":"Feature","geometry":{"type":"Point","coordinates":[-1.25,51.5]}},{"properties":{"city":"Sandhurst","postal_code":"GU478JT","geo_score":0.857,"gold":1,"jsg":0,"toning":1,"user_id":"0681c6a6-f7b9-11df-88fb-123139181c25","id":"a7vwwgi5jdu3","geo_precision":"zip","zumbatomic":1,"sentao":0,"aqua":0,"zumba basic 2":1},"type":"Feature","geometry":{"type":"Point","coordinates":[0.562276840209961,51.0266046355581]}},{"properties":{"city":"Penzance","postal_code":"tr183nh","geo_score":0.857,"gold":1,"jsg":0,"toning":0,"user_id":"0688403a-f7b9-11df-88fb-123139181c25","id":"a7vwwgty4y95","geo_precision":"zip","zumbatomic":0,"sentao":0,"aqua":1,"zumba basic 2":1},"type":"Feature","geometry":{"type":"Point","coordinates":[-5.53715229034424,50.1186106488431]}},{"properties":{"city":"Musselburgh","postal_code":"EH216RR","geo_score":0.857,"gold":0,"jsg":0,"toning":1,"user_id":"06a45298-f7b9-11df-88fb-123139181c25","id":"a7vwwgfinz6n","geo_precision":"zip","zumbatomic":0,"sentao":0,"aqua":0,"zumba basic 2":1},"type":"Feature","geometry":{"type":"Point","coordinates":[-3.0833333,55.9666667]}},{"properties":{"city":"Scotland","postal_code":"ML67FH","geo_score":0.857,"gold":0,"jsg":0,"toning":1,"user_id":"06a46bb6-f7b9-11df-88fb-123139181c25","id":"a7vwwgq3dc9o","geo_precision":"zip","zumbatomic":0,"sentao":0,"aqua":0,"zumba basic 2":1},"type":"Feature","geometry":{"type":"Point","coordinates":[-4.0,56.0]}},{"properties":{"city":"Slough","postal_code":"SL12DE","geo_score":0.857,"gold":1,"jsg":0,"toning":1,"user_id":"06ba6d94-f7b9-11df-88fb-123139181c25","id":"a7vwwgturu6u","geo_precision":"zip","zumbatomic":1,"sentao":0,"aqua":0,"zumba basic 2":1},"type":"Feature","geometry":{"type":"Point","coordinates":[-1.4,60.2]}},{"properties":{"city":"Nottingham","postal_code":"NG146RG","geo_score":0.857,"gold":0,"jsg":0,"toning":0,"user_id":"06cfb8fc-f7b9-11df-88fb-123139181c25","id":"a7vwwgl3b2fv","geo_precision":"zip","zumbatomic":0,"sentao":0,"aqua":0,"zumba basic 2":1},"type":"Feature","geometry":{"type":"Point","coordinates":[-2.63543,53.44457]}},{"properties":{"city":"Hamilton","postal_code":"ML38AS","geo_score":0.857,"gold":0,"jsg":0,"toning":0,"user_id":"06cfd24c-f7b9-11df-88fb-123139181c25","id":"a7vwwgpsasw9","geo_precision":"zip","zumbatomic":0,"sentao":0,"aqua":0,"zumba basic 2":1},"type":"Feature","geometry":{"type":"Point","coordinates":[-6.5333333,54.3333333]}},{"properties":{"city":"Glasgow","postal_code":"G744TB","geo_score":0.857,"gold":0,"jsg":0,"toning":0,"user_id":"06d6b26a-f7b9-11df-88fb-123139181c25","id":"a7vwwgrr07qv","geo_precision":"zip","zumbatomic":1,"sentao":0,"aqua":0,"zumba basic 2":1},"type":"Feature","geometry":{"type":"Point","coordinates":[-4.25763130187988,55.8651497187961]}},{"properties":{"city":"Doncaster","postal_code":"DN59ES","geo_score":0.857,"gold":0,"jsg":0,"toning":0,"user_id":"06ddc08c-f7b9-11df-88fb-123139181c25","id":"a7vwwghgcl4j","geo_precision":"zip","zumbatomic":0,"sentao":0,"aqua":0,"zumba basic 2":1},"type":"Feature","geometry":{"type":"Point","coordinates":[-1.00542068481445,53.4818147283195]}},{"properties":{"city":"PETERBOROUGH","postal_code":"PE26YH","geo_score":0.857,"gold":0,"jsg":0,"toning":0,"user_id":"06e487f0-f7b9-11df-88fb-123139181c25","id":"a7vwwgl2xxda","geo_precision":"zip","zumbatomic":1,"sentao":0,"aqua":0,"zumba basic 2":1},"type":"Feature","geometry":{"type":"Point","coordinates":[-0.31996,52.57278]}},{"properties":{"city":"Paisley","postal_code":"PA34UD","geo_score":0.857,"gold":0,"jsg":0,"toning":1,"user_id":"06e4cea4-f7b9-11df-88fb-123139181c25","id":"a7vwwgquqd37","geo_precision":"zip","zumbatomic":1,"sentao":0,"aqua":0,"zumba basic 2":1},"type":"Feature","geometry":{"type":"Point","coordinates":[-4.4333333,55.8333333]}},{"properties":{"city":"Denny","postal_code":"FK65DU","geo_score":0.857,"gold":1,"jsg":0,"toning":1,"user_id":"06ebf580-f7b9-11df-88fb-123139181c25","id":"a7vwwgrq3l58","geo_precision":"zip","zumbatomic":1,"sentao":0,"aqua":0,"zumba basic 2":1},"type":"Feature","geometry":{"type":"Point","coordinates":[-0.1166667,52.3333333]}},{"properties":{"city":"Sheffield","postal_code":"S351TR","geo_score":0.857,"gold":0,"jsg":0,"toning":0,"user_id":"06f2cfb8-f7b9-11df-88fb-123139181c25","id":"a7vwwgpag1vr","geo_precision":"zip","zumbatomic":0,"sentao":0,"aqua":0,"zumba basic 2":1},"type":"Feature","geometry":{"type":"Point","coordinates":[-1.46590232849121,53.3829700049879]}},{"properties":{"city":"Liverpool","postal_code":"L235TB","geo_score":0.857,"gold":0,"jsg":0,"toning":1,"user_id":"07b042c8-f7b9-11df-88fb-123139181c25","id":"a7vwwgfrfi8v","geo_precision":"zip","zumbatomic":1,"sentao":0,"aqua":0,"zumba basic 2":1},"type":"Feature","geometry":{"type":"Point","coordinates":[-0.0816947221755981,51.5177963524152]}},{"properties":{"city":"Harrow","postal_code":"HA29SX","geo_score":0.857,"gold":1,"jsg":0,"toning":0,"user_id":"07b3e552-31fe-11e0-8b28-123139181c25","id":"a7vwwgm5yy86","geo_precision":"zip","zumbatomic":0,"sentao":0,"aqua":0,"zumba basic 2":1},"type":"Feature","geometry":{"type":"Point","coordinates":[-0.33207893371582,51.5783496901789]}},{"properties":{"city":"Montrose","postal_code":"DD109FN","geo_score":0.857,"gold":1,"jsg":0,"toning":0,"user_id":"07d105ee-f7b9-11df-88fb-123139181c25","id":"a7vwwgs8poxf","geo_precision":"zip","zumbatomic":1,"sentao":1,"aqua":0,"zumba basic 2":1},"type":"Feature","geometry":{"type":"Point","coordinates":[-2.47387,56.70729]}},{"properties":{"city":"St Neots","postal_code":"PE197GD","geo_score":0.857,"gold":1,"jsg":0,"toning":1,"user_id":"0805f9e8-f7b9-11df-88fb-123139181c25","id":"a7vwwgmlz5kz","geo_precision":"zip","zumbatomic":0,"sentao":0,"aqua":0,"zumba basic 2":1},"type":"Feature","geometry":{"type":"Point","coordinates":[-1.913567,52.481189]}},{"properties":{"city":"Arncroach","postal_code":"KY102RQ","geo_score":0.857,"gold":0,"jsg":0,"toning":0,"user_id":"081c08c8-f7b9-11df-88fb-123139181c25","id":"a7vwwgu2na6x","geo_precision":"zip","zumbatomic":0,"sentao":0,"aqua":0,"zumba basic 2":1},"type":"Feature","geometry":{"type":"Point","coordinates":[-6.5166667,56.6166667]}},{"properties":{"city":"Fife","postal_code":"KY25TX","geo_score":0.857,"gold":0,"jsg":0,"toning":1,"user_id":"083c330a-f7b9-11df-88fb-123139181c25","id":"a7vwwghwmg37","geo_precision":"zip","zumbatomic":1,"sentao":0,"aqua":0,"zumba basic 2":1},"type":"Feature","geometry":{"type":"Point","coordinates":[-3.1666667,56.25]}},{"properties":{"city":"Newton Mearns, Glasgow","postal_code":"G775HL","geo_score":0.857,"gold":0,"jsg":0,"toning":0,"user_id":"0846d2f6-f7b9-11df-88fb-123139181c25","id":"a7vwwglqr4ls","geo_precision":"zip","zumbatomic":1,"sentao":0,"aqua":0,"zumba basic 2":1},"type":"Feature","geometry":{"type":"Point","coordinates":[-0.187,51.5136]}},{"properties":{"city":"Edinburgh","postal_code":"EH113JE","geo_score":0.857,"gold":0,"jsg":0,"toning":1,"user_id":"087c1cd6-f7b9-11df-88fb-123139181c25","id":"a7vwwgrrfbhm","geo_precision":"zip","zumbatomic":0,"sentao":1,"aqua":0,"zumba basic 2":1},"type":"Feature","geometry":{"type":"Point","coordinates":[-3.3725,55.95]}},{"properties":{"city":"Edinburgh","postal_code":"EH113JE","geo_score":0.857,"gold":1,"jsg":0,"toning":1,"user_id":"08824390-f7b9-11df-88fb-123139181c25","id":"a7vwwgrp7l2l","geo_precision":"zip","zumbatomic":0,"sentao":1,"aqua":0,"zumba basic 2":1},"type":"Feature","geometry":{"type":"Point","coordinates":[-3.3725,55.95]}},{"properties":{"city":"Cambridge","postal_code":"CB249JD","geo_score":0.857,"gold":1,"jsg":0,"toning":0,"user_id":"089bc2ca-f7b9-11df-88fb-123139181c25","id":"a7vwwghaaz93","geo_precision":"zip","zumbatomic":1,"sentao":0,"aqua":0,"zumba basic 2":1},"type":"Feature","geometry":{"type":"Point","coordinates":[0.19356,52.18475]}},{"properties":{"city":"Dundee","postal_code":"DD24AX","geo_score":0.857,"gold":0,"jsg":0,"toning":0,"user_id":"08c2fed8-0c3d-11e0-8b28-123139181c25","id":"a7vwwgdytmbv","geo_precision":"zip","zumbatomic":0,"sentao":0,"aqua":0,"zumba basic 2":1},"type":"Feature","geometry":{"type":"Point","coordinates":[-3.3333333,58.5166667]}},{"properties":{"city":"Caerphilly","postal_code":"CF833JH","geo_score":0.857,"gold":1,"jsg":0,"toning":1,"user_id":"08cc88f6-f7b9-11df-88fb-123139181c25","id":"a7vwwgso2kwy","geo_precision":"zip","zumbatomic":1,"sentao":1,"aqua":1,"zumba basic 2":1},"type":"Feature","geometry":{"type":"Point","coordinates":[-3.6333333,54.9333333]}},{"properties":{"city":"Nottingham","postal_code":"ng93qs","geo_score":0.857,"gold":1,"jsg":0,"toning":1,"user_id":"08d33444-f7b9-11df-88fb-123139181c25","id":"a7vwwgq8ly1c","geo_precision":"zip","zumbatomic":0,"sentao":0,"aqua":0,"zumba basic 2":1},"type":"Feature","geometry":{"type":"Point","coordinates":[-2.63543,53.44457]}},{"properties":{"city":"Wolverhampton","postal_code":"WV112LT","geo_score":0.857,"gold":1,"jsg":0,"toning":1,"user_id":"08e20f28-f7b9-11df-88fb-123139181c25","id":"a7vwwgmzo86x","geo_precision":"zip","zumbatomic":1,"sentao":0,"aqua":1,"zumba basic 2":1},"type":"Feature","geometry":{"type":"Point","coordinates":[-2.1333333,52.5833333]}},{"properties":{"city":"milton keynes","postal_code":"MK62HR","geo_score":0.857,"gold":1,"jsg":0,"toning":1,"user_id":"09028196-1f4f-11e0-8b28-123139181c25","id":"a7vwwguf1dw7","geo_precision":"zip","zumbatomic":1,"sentao":1,"aqua":1,"zumba basic 2":1},"type":"Feature","geometry":{"type":"Point","coordinates":[-0.755825042724609,52.0417219233052]}},{"properties":{"city":"Manchester","postal_code":"m244GB","geo_score":0.857,"gold":0,"jsg":0,"toning":0,"user_id":"0916acec-f7b9-11df-88fb-123139181c25","id":"a7vwwgfsfjgz","geo_precision":"zip","zumbatomic":0,"sentao":0,"aqua":0,"zumba basic 2":1},"type":"Feature","geometry":{"type":"Point","coordinates":[-2.23743438720703,53.4809464283615]}},{"properties":{"city":"Glasgow","postal_code":"G733QW","geo_score":0.857,"gold":0,"jsg":0,"toning":1,"user_id":"092b8ebe-f7b9-11df-88fb-123139181c25","id":"a7vwwgklg1cf","geo_precision":"zip","zumbatomic":1,"sentao":1,"aqua":0,"zumba basic 2":1},"type":"Feature","geometry":{"type":"Point","coordinates":[-4.25763130187988,55.8651497187961]}},{"properties":{"city":"GWENT","postal_code":"NP123FT","geo_score":0.857,"gold":1,"jsg":0,"toning":1,"user_id":"09320316-f7b9-11df-88fb-123139181c25","id":"a7vwwgel97z5","geo_precision":"zip","zumbatomic":1,"sentao":0,"aqua":1,"zumba basic 2":1},"type":"Feature","geometry":{"type":"Point","coordinates":[-3.0,51.6666667]}},{"properties":{"city":"Brighton","postal_code":"RH15","geo_score":0.857,"gold":0,"jsg":0,"toning":1,"user_id":"09f6951e-f7b9-11df-88fb-123139181c25","id":"a7vwwglhwti0","geo_precision":"zip","zumbatomic":1,"sentao":0,"aqua":0,"zumba basic 2":1},"type":"Feature","geometry":{"type":"Point","coordinates":[-0.55954,53.56535]}},{"properties":{"city":"Alloa","postal_code":"FK101DH","geo_score":0.857,"gold":0,"jsg":0,"toning":1,"user_id":"0a0c057a-f7b9-11df-88fb-123139181c25","id":"a7vwwghuq0mi","geo_precision":"zip","zumbatomic":1,"sentao":0,"aqua":0,"zumba basic 2":1},"type":"Feature","geometry":{"type":"Point","coordinates":[-3.8,56.1166667]}},{"properties":{"city":"Hamilton","postal_code":"ML37TT","geo_score":0.857,"gold":0,"jsg":0,"toning":0,"user_id":"0a0c50de-f7b9-11df-88fb-123139181c25","id":"a7vwwgu42rdh","geo_precision":"zip","zumbatomic":1,"sentao":0,"aqua":0,"zumba basic 2":1},"type":"Feature","geometry":{"type":"Point","coordinates":[-6.5333333,54.3333333]}},{"properties":{"city":"ware","postal_code":"sg129fq","geo_score":0.857,"gold":1,"jsg":0,"toning":1,"user_id":"0a22aae6-f7b9-11df-88fb-123139181c25","id":"a7vwwgscguh7","geo_precision":"zip","zumbatomic":0,"sentao":0,"aqua":0,"zumba basic 2":1},"type":"Feature","geometry":{"type":"Point","coordinates":[-2.4,52.9833333]}},{"properties":{"city":"Glasgow","postal_code":"G663AR","geo_score":0.857,"gold":0,"jsg":0,"toning":1,"user_id":"0a22c63e-f7b9-11df-88fb-123139181c25","id":"a7vwwgjfgqk4","geo_precision":"zip","zumbatomic":0,"sentao":0,"aqua":0,"zumba basic 2":1},"type":"Feature","geometry":{"type":"Point","coordinates":[-4.25763130187988,55.8651497187961]}},{"properties":{"city":"Oxford","postal_code":"ox46hz","geo_score":0.857,"gold":0,"jsg":0,"toning":1,"user_id":"0a2e2ce0-f7b9-11df-88fb-123139181c25","id":"a7vwwgmlqei2","geo_precision":"zip","zumbatomic":1,"sentao":0,"aqua":0,"zumba basic 2":1},"type":"Feature","geometry":{"type":"Point","coordinates":[-3.55,50.9833333]}},{"properties":{"city":"Edinburgh","postal_code":"eh125qs","geo_score":0.857,"gold":0,"jsg":0,"toning":0,"user_id":"0a597756-f7b9-11df-88fb-123139181c25","id":"a7vwwgtkzm4j","geo_precision":"zip","zumbatomic":1,"sentao":0,"aqua":0,"zumba basic 2":1},"type":"Feature","geometry":{"type":"Point","coordinates":[-3.3725,55.95]}},{"properties":{"city":"Welwyn Garden City","postal_code":"en65en","geo_score":0.857,"gold":1,"jsg":0,"toning":1,"user_id":"0a59be28-f7b9-11df-88fb-123139181c25","id":"a7vwwgpjhdzh","geo_precision":"zip","zumbatomic":0,"sentao":0,"aqua":0,"zumba basic 2":1},"type":"Feature","geometry":{"type":"Point","coordinates":[-0.0829124450683594,53.8003466774013]}},{"properties":{"city":"Cambridge","postal_code":"cb41wa","geo_score":0.857,"gold":1,"jsg":0,"toning":1,"user_id":"0a6e7c0a-f7b9-11df-88fb-123139181c25","id":"a7vwwgrfa4jg","geo_precision":"zip","zumbatomic":1,"sentao":1,"aqua":1,"zumba basic 2":1},"type":"Feature","geometry":{"type":"Point","coordinates":[0.19356,52.18475]}},{"properties":{"city":"Wolverhampton","postal_code":"WV69HX","geo_score":0.857,"gold":0,"jsg":0,"toning":0,"user_id":"0a6ea2b6-f7b9-11df-88fb-123139181c25","id":"a7vwwgsoaerm","geo_precision":"zip","zumbatomic":1,"sentao":0,"aqua":0,"zumba basic 2":1},"type":"Feature","geometry":{"type":"Point","coordinates":[-2.1333333,52.5833333]}},{"properties":{"city":"Leicestershire","postal_code":"LE96NX","geo_score":0.857,"gold":0,"jsg":0,"toning":0,"user_id":"0a7c6590-f7b9-11df-88fb-123139181c25","id":"a7vwwgs699cu","geo_precision":"zip","zumbatomic":0,"sentao":0,"aqua":0,"zumba basic 2":1},"type":"Feature","geometry":{"type":"Point","coordinates":[-1.1348,52.62782]}},{"properties":{"city":"Hayes","postal_code":"UB31QG","geo_score":0.857,"gold":0,"jsg":0,"toning":0,"user_id":"0a7cb9c8-f7b9-11df-88fb-123139181c25","id":"a7vwwglkxb8r","geo_precision":"zip","zumbatomic":0,"sentao":0,"aqua":1,"zumba basic 2":1},"type":"Feature","geometry":{"type":"Point","coordinates":[0.0120162963867188,51.37863823622]}},{"properties":{"city":"Stirling","postal_code":"FK95DU","geo_score":0.857,"gold":0,"jsg":0,"toning":0,"user_id":"0a9c3bf4-f7b9-11df-88fb-123139181c25","id":"a7vwwgin09tm","geo_precision":"zip","zumbatomic":1,"sentao":0,"aqua":0,"zumba basic 2":1},"type":"Feature","geometry":{"type":"Point","coordinates":[-3.3291666,54.5308333]}},{"properties":{"city":"Leicester","postal_code":"LE193fa","geo_score":0.857,"gold":0,"jsg":0,"toning":0,"user_id":"0a9c98f6-f7b9-11df-88fb-123139181c25","id":"a7vwwgf3zu1s","geo_precision":"zip","zumbatomic":1,"sentao":0,"aqua":0,"zumba basic 2":1},"type":"Feature","geometry":{"type":"Point","coordinates":[-1.1348,52.62782]}},{"properties":{"city":"Leicestershire","postal_code":"le38fj","geo_score":0.857,"gold":0,"jsg":0,"toning":1,"user_id":"0a9c9c98-f7b9-11df-88fb-123139181c25","id":"a7vwwgpgjvt7","geo_precision":"zip","zumbatomic":1,"sentao":0,"aqua":0,"zumba basic 2":1},"type":"Feature","geometry":{"type":"Point","coordinates":[-1.1348,52.62782]}},{"properties":{"city":"Saffron Walden","postal_code":"CB114TX","geo_score":0.857,"gold":1,"jsg":0,"toning":0,"user_id":"0aa3318e-f7b9-11df-88fb-123139181c25","id":"a7vwwgec717s","geo_precision":"zip","zumbatomic":1,"sentao":0,"aqua":0,"zumba basic 2":1},"type":"Feature","geometry":{"type":"Point","coordinates":[-1.46581649780273,53.6488606296797]}},{"properties":{"city":"Wollaston NORTHAMPTON","postal_code":"NN297QG","geo_score":0.857,"gold":0,"jsg":0,"toning":0,"user_id":"0aa345ca-f7b9-11df-88fb-123139181c25","id":"a7vwwgpd3edd","geo_precision":"zip","zumbatomic":1,"sentao":0,"aqua":0,"zumba basic 2":1},"type":"Feature","geometry":{"type":"Point","coordinates":[-2.75,52.55]}},{"properties":{"city":"Purley","postal_code":"CR85HT","geo_score":0.857,"gold":1,"jsg":0,"toning":1,"user_id":"0aaa818c-f7b9-11df-88fb-123139181c25","id":"a7vwwgrceavk","geo_precision":"zip","zumbatomic":1,"sentao":0,"aqua":1,"zumba basic 2":1},"type":"Feature","geometry":{"type":"Point","coordinates":[-0.1,51.3166667]}},{"properties":{"city":"Edinburgh","postal_code":"EH68EY","geo_score":0.857,"gold":0,"jsg":0,"toning":0,"user_id":"0aaaa4c8-f7b9-11df-88fb-123139181c25","id":"a7vwwgn0x9y9","geo_precision":"zip","zumbatomic":1,"sentao":0,"aqua":0,"zumba basic 2":1},"type":"Feature","geometry":{"type":"Point","coordinates":[-3.3725,55.95]}},{"properties":{"city":"Tillicoultry","postal_code":"FK136AW","geo_score":0.857,"gold":0,"jsg":0,"toning":0,"user_id":"0ab1d0cc-f7b9-11df-88fb-123139181c25","id":"a7vwwgrw4yrw","geo_precision":"zip","zumbatomic":1,"sentao":0,"aqua":0,"zumba basic 2":1},"type":"Feature","geometry":{"type":"Point","coordinates":[-3.75,56.15]}},{"properties":{"city":"Edinburgh","postal_code":"EH127NP","geo_score":0.857,"gold":0,"jsg":0,"toning":0,"user_id":"0ab86f0e-f7b9-11df-88fb-123139181c25","id":"a7vwwgojm3li","geo_precision":"zip","zumbatomic":0,"sentao":0,"aqua":0,"zumba basic 2":1},"type":"Feature","geometry":{"type":"Point","coordinates":[-3.3725,55.95]}},{"properties":{"city":"Heanor","postal_code":"DE757LE","geo_score":0.857,"gold":1,"jsg":0,"toning":1,"user_id":"0ab8bda6-f7b9-11df-88fb-123139181c25","id":"a7vwwgphkkeh","geo_precision":"zip","zumbatomic":1,"sentao":1,"aqua":1,"zumba basic 2":1},"type":"Feature","geometry":{"type":"Point","coordinates":[-1.3,53.0]}},{"properties":{"city":"Ayr","postal_code":"Ka71bj","geo_score":0.857,"gold":0,"jsg":0,"toning":1,"user_id":"0ac31c4c-f7b9-11df-88fb-123139181c25","id":"a7vwwgt4s7m3","geo_precision":"zip","zumbatomic":1,"sentao":0,"aqua":0,"zumba basic 2":1},"type":"Feature","geometry":{"type":"Point","coordinates":[-4.6166667,55.45]}},{"properties":{"city":"Edinburgh","postal_code":"EH112TH","geo_score":0.857,"gold":0,"jsg":0,"toning":0,"user_id":"0ac36332-f7b9-11df-88fb-123139181c25","id":"a7vwwh7nuguv","geo_precision":"zip","zumbatomic":0,"sentao":0,"aqua":1,"zumba basic 2":1},"type":"Feature","geometry":{"type":"Point","coordinates":[-3.3725,55.95]}},{"properties":{"city":"Johnstone","postal_code":"PA59NX","geo_score":0.857,"gold":1,"jsg":0,"toning":1,"user_id":"0ad1a1e0-f7b9-11df-88fb-123139181c25","id":"a7vwwgvaazk4","geo_precision":"zip","zumbatomic":0,"sentao":0,"aqua":0,"zumba basic 2":1},"type":"Feature","geometry":{"type":"Point","coordinates":[-5.5333333,55.3666667]}},{"properties":{"city":"Woking","postal_code":"GU214PT","geo_score":0.857,"gold":0,"jsg":0,"toning":0,"user_id":"0ad1c5c6-f7b9-11df-88fb-123139181c25","id":"a7vwwh7y1uif","geo_precision":"zip","zumbatomic":0,"sentao":0,"aqua":0,"zumba basic 2":1},"type":"Feature","geometry":{"type":"Point","coordinates":[-0.558929443359375,51.3190262646694]}},{"properties":{"city":"Preston","postal_code":"PR269BA","geo_score":0.857,"gold":1,"jsg":0,"toning":1,"user_id":"0ad1e484-f7b9-11df-88fb-123139181c25","id":"a7vwwh2235ij","geo_precision":"zip","zumbatomic":0,"sentao":1,"aqua":1,"zumba basic 2":1},"type":"Feature","geometry":{"type":"Point","coordinates":[-1.15853,52.18953]}},{"properties":{"city":"Nottinghamshire","postal_code":"S804JH","geo_score":0.857,"gold":1,"jsg":0,"toning":1,"user_id":"0adfeac0-f7b9-11df-88fb-123139181c25","id":"a7vwwh52zsoo","geo_precision":"zip","zumbatomic":1,"sentao":0,"aqua":0,"zumba basic 2":1},"type":"Feature","geometry":{"type":"Point","coordinates":[-2.63543,53.44457]}},{"properties":{"city":"Bishops Stortford","postal_code":"CM235LS","geo_score":0.857,"gold":0,"jsg":0,"toning":1,"user_id":"0af18596-f7b9-11df-88fb-123139181c25","id":"a7vwwh09vzut","geo_precision":"zip","zumbatomic":1,"sentao":0,"aqua":1,"zumba basic 2":1},"type":"Feature","geometry":{"type":"Point","coordinates":[-2.5947222,51.3344444]}},{"properties":{"city":"London","postal_code":"NW95XY","geo_score":0.857,"gold":1,"jsg":0,"toning":1,"user_id":"0af19054-f7b9-11df-88fb-123139181c25","id":"a7vwwh98jon6","geo_precision":"zip","zumbatomic":0,"sentao":0,"aqua":0,"zumba basic 2":1},"type":"Feature","geometry":{"type":"Point","coordinates":[-2.8508333,51.7316667]}},{"properties":{"city":"Maghera","postal_code":"BT465BQ","geo_score":0.857,"gold":0,"jsg":0,"toning":0,"user_id":"0af3bbdc-23b9-11e0-8b28-123139181c25","id":"a7vwwgzwgysc","geo_precision":"zip","zumbatomic":1,"sentao":0,"aqua":0,"zumba basic 2":1},"type":"Feature","geometry":{"type":"Point","coordinates":[-2.8313889,51.5794444]}},{"properties":{"city":"Glasgow South Side City Centre","postal_code":"G432YT","geo_score":0.857,"gold":0,"jsg":0,"toning":0,"user_id":"0b32c772-f7b9-11df-88fb-123139181c25","id":"a7vwwh0it5lk","geo_precision":"zip","zumbatomic":1,"sentao":0,"aqua":0,"zumba basic 2":1},"type":"Feature","geometry":{"type":"Point","coordinates":[-4.2052,55.8492]}},{"properties":{"city":"Tyne And Wear","postal_code":"NE258EN","geo_score":0.857,"gold":0,"jsg":0,"toning":1,"user_id":"0b4ee812-f7b9-11df-88fb-123139181c25","id":"a7vwwh9ppi4f","geo_precision":"zip","zumbatomic":0,"sentao":0,"aqua":0,"zumba basic 2":1},"type":"Feature","geometry":{"type":"Point","coordinates":[-0.1166667,52.3333333]}},{"properties":{"city":"Edinburgh","postal_code":"0","geo_score":0.857,"gold":0,"jsg":0,"toning":1,"user_id":"0b7dc34e-f7b9-11df-88fb-123139181c25","id":"a7vwwgxbk6ej","geo_precision":"zip","zumbatomic":0,"sentao":0,"aqua":0,"zumba basic 2":1},"type":"Feature","geometry":{"type":"Point","coordinates":[-3.3725,55.95]}},{"properties":{"city":"Aberdare","postal_code":"Cf478YT","geo_score":0.857,"gold":1,"jsg":0,"toning":1,"user_id":"0b853af2-f7b9-11df-88fb-123139181c25","id":"a7vwwh1w2zyj","geo_precision":"zip","zumbatomic":0,"sentao":0,"aqua":0,"zumba basic 2":1},"type":"Feature","geometry":{"type":"Point","coordinates":[-3.2683333,51.5958333]}},{"properties":{"city":"duffield","postal_code":"de564ht","geo_score":0.857,"gold":0,"jsg":0,"toning":1,"user_id":"0b8f5d8e-f7b9-11df-88fb-123139181c25","id":"a7vwwh7oqynn","geo_precision":"zip","zumbatomic":0,"sentao":0,"aqua":0,"zumba basic 2":1},"type":"Feature","geometry":{"type":"Point","coordinates":[-2.34952926635742,57.2445546805863]}},{"properties":{"city":"stanford le hope","postal_code":"ss177ay","geo_score":0.857,"gold":0,"jsg":0,"toning":1,"user_id":"0b9659c2-f7b9-11df-88fb-123139181c25","id":"a7vwwh9zdmuv","geo_precision":"zip","zumbatomic":0,"sentao":0,"aqua":0,"zumba basic 2":1},"type":"Feature","geometry":{"type":"Point","coordinates":[-3.8833333,55.75]}},{"properties":{"city":"Wootton Bridge, Ryde","postal_code":"PO334QQ","geo_score":0.857,"gold":1,"jsg":0,"toning":0,"user_id":"0b967402-f7b9-11df-88fb-123139181c25","id":"a7vwwh7pvrh2","geo_precision":"zip","zumbatomic":1,"sentao":0,"aqua":0,"zumba basic 2":1},"type":"Feature","geometry":{"type":"Point","coordinates":[-0.9333333,53.5166667]}},{"properties":{"city":"Willaston","postal_code":"CH641SS","geo_score":0.857,"gold":1,"jsg":0,"toning":1,"user_id":"0b9d5d1c-f7b9-11df-88fb-123139181c25","id":"a7vwwh56obs2","geo_precision":"zip","zumbatomic":1,"sentao":1,"aqua":0,"zumba basic 2":1},"type":"Feature","geometry":{"type":"Point","coordinates":[-2.75,52.55]}},{"properties":{"city":"Bishop's Stortford","postal_code":"CM235LS","geo_score":0.857,"gold":1,"jsg":0,"toning":1,"user_id":"0bbd88f8-f7b9-11df-88fb-123139181c25","id":"a7vwwhaeu25u","geo_precision":"zip","zumbatomic":1,"sentao":0,"aqua":0,"zumba basic 2":1},"type":"Feature","geometry":{"type":"Point","coordinates":[-2.5947222,51.3344444]}},{"properties":{"city":"Tunbridge Wells","postal_code":"TN49SS","geo_score":0.857,"gold":1,"jsg":0,"toning":1,"user_id":"0bc4390a-f7b9-11df-88fb-123139181c25","id":"a7vwwh8lvwvn","geo_precision":"zip","zumbatomic":1,"sentao":0,"aqua":0,"zumba basic 2":1},"type":"Feature","geometry":{"type":"Point","coordinates":[-1.54679775238037,51.0337029911135]}},{"properties":{"city":"Tunbridge Wells","postal_code":"TN40QX","geo_score":0.857,"gold":1,"jsg":0,"toning":1,"user_id":"0bc43c98-f7b9-11df-88fb-123139181c25","id":"a7vwwgytrtu7","geo_precision":"zip","zumbatomic":1,"sentao":0,"aqua":0,"zumba basic 2":1},"type":"Feature","geometry":{"type":"Point","coordinates":[-1.54679775238037,51.0337029911135]}},{"properties":{"city":"Loughborough Leicestershire","postal_code":"LE33NU","geo_score":0.857,"gold":1,"jsg":0,"toning":0,"user_id":"0bcb32f0-f7b9-11df-88fb-123139181c25","id":"a7vwwgzpxnv9","geo_precision":"zip","zumbatomic":0,"sentao":0,"aqua":0,"zumba basic 2":1},"type":"Feature","geometry":{"type":"Point","coordinates":[-1.1348,52.62782]}},{"properties":{"city":"Scarborough","postal_code":"YO113AE","geo_score":0.857,"gold":0,"jsg":0,"toning":0,"user_id":"0bfc9cbe-f7b9-11df-88fb-123139181c25","id":"a7vwwgwvl7ig","geo_precision":"zip","zumbatomic":0,"sentao":1,"aqua":0,"zumba basic 2":1},"type":"Feature","geometry":{"type":"Point","coordinates":[-0.43471,54.28171]}},{"properties":{"city":"Grimsby, Cleethorpes, Immingham &amp; Villages","postal_code":"Dn403Py","geo_score":1.0,"gold":0,"jsg":0,"toning":0,"user_id":"0c04f5a2-33ba-11e0-8b28-123139181c25","id":"a7vwwgx5t8ub","geo_precision":"zip","zumbatomic":0,"sentao":0,"aqua":0,"zumba basic 2":1},"type":"Feature","geometry":{"type":"Point","coordinates":[-0.151448249816895,51.5312269850244]}},{"properties":{"city":"Scarborough","postal_code":"YO127PT","geo_score":0.857,"gold":0,"jsg":0,"toning":0,"user_id":"0c092f2e-f7b9-11df-88fb-123139181c25","id":"a7vwwgvi31fg","geo_precision":"zip","zumbatomic":1,"sentao":0,"aqua":0,"zumba basic 2":1},"type":"Feature","geometry":{"type":"Point","coordinates":[-0.43471,54.28171]}},{"properties":{"city":"Wiltshire","postal_code":"sn126ag","geo_score":0.857,"gold":0,"jsg":0,"toning":1,"user_id":"0c3c0f0c-f7b9-11df-88fb-123139181c25","id":"a7vwwh1izbfy","geo_precision":"zip","zumbatomic":0,"sentao":0,"aqua":0,"zumba basic 2":1},"type":"Feature","geometry":{"type":"Point","coordinates":[-2.20668,51.27684]}},{"properties":{"city":"Wigan","postal_code":"WN23RX","geo_score":0.857,"gold":0,"jsg":0,"toning":0,"user_id":"0c529dc0-4a30-11e0-8b28-123139181c25","id":"a7vwwh057bhf","geo_precision":"zip","zumbatomic":0,"sentao":0,"aqua":0,"zumba basic 2":1},"type":"Feature","geometry":{"type":"Point","coordinates":[-2.6166667,53.5333333]}},{"properties":{"city":"Woking Surrey","postal_code":"Gu227AT","geo_score":0.857,"gold":0,"jsg":0,"toning":1,"user_id":"0c61aa96-f7b9-11df-88fb-123139181c25","id":"a7vwwhazf9t4","geo_precision":"zip","zumbatomic":1,"sentao":0,"aqua":0,"zumba basic 2":1},"type":"Feature","geometry":{"type":"Point","coordinates":[-4.2333333,58.3666667]}},{"properties":{"city":"Crawley","postal_code":"RH103DW","geo_score":0.857,"gold":0,"jsg":0,"toning":0,"user_id":"0c61b0f4-f7b9-11df-88fb-123139181c25","id":"a7vwwh3hv6rf","geo_precision":"zip","zumbatomic":0,"sentao":0,"aqua":0,"zumba basic 2":1},"type":"Feature","geometry":{"type":"Point","coordinates":[-2.5666667,52.3666667]}},{"properties":{"city":"Glasgow","postal_code":"G781QT","geo_score":0.857,"gold":0,"jsg":0,"toning":0,"user_id":"0c71020c-f7b9-11df-88fb-123139181c25","id":"a7vwwh67c97j","geo_precision":"zip","zumbatomic":0,"sentao":0,"aqua":0,"zumba basic 2":1},"type":"Feature","geometry":{"type":"Point","coordinates":[-4.25763130187988,55.8651497187961]}},{"properties":{"city":"East Kilbride","postal_code":"G743UH","geo_score":0.857,"gold":0,"jsg":0,"toning":0,"user_id":"0c7e8206-f7b9-11df-88fb-123139181c25","id":"a7vwwh6jhtdj","geo_precision":"zip","zumbatomic":0,"sentao":0,"aqua":0,"zumba basic 2":1},"type":"Feature","geometry":{"type":"Point","coordinates":[-0.479621887207031,51.2536428425804]}},{"properties":{"city":"Chester","postal_code":"CH35RX","geo_score":0.857,"gold":0,"jsg":0,"toning":1,"user_id":"0c7e93ae-f7b9-11df-88fb-123139181c25","id":"a7vwwh7hegwv","geo_precision":"zip","zumbatomic":0,"sentao":0,"aqua":0,"zumba basic 2":1},"type":"Feature","geometry":{"type":"Point","coordinates":[-2.9166667,53.2]}},{"properties":{"city":"Stockton on Tees","postal_code":"TS190QN","geo_score":0.857,"gold":0,"jsg":0,"toning":1,"user_id":"0c7e9a0c-f7b9-11df-88fb-123139181c25","id":"a7vwwh6kn47l","geo_precision":"zip","zumbatomic":1,"sentao":0,"aqua":0,"zumba basic 2":1},"type":"Feature","geometry":{"type":"Point","coordinates":[-0.833415985107422,50.8814849772624]}},{"properties":{"city":"Southam","postal_code":"CV472UH","geo_score":0.857,"gold":0,"jsg":0,"toning":0,"user_id":"0c7f20bc-f7b9-11df-88fb-123139181c25","id":"a7vwwgukn8v4","geo_precision":"zip","zumbatomic":0,"sentao":0,"aqua":0,"zumba basic 2":1},"type":"Feature","geometry":{"type":"Point","coordinates":[-1.4666667,60.3833333]}},{"properties":{"city":"Little Lever Bolton","postal_code":"BL31TF","geo_score":0.857,"gold":0,"jsg":0,"toning":1,"user_id":"0c93ea34-060e-11e0-8b28-123139181c25","id":"a7vwwh0vak6a","geo_precision":"zip","zumbatomic":0,"sentao":0,"aqua":0,"zumba basic 2":1},"type":"Feature","geometry":{"type":"Point","coordinates":[-3.36243,55.7625]}},{"properties":{"city":"Glasgow","postal_code":"g716sd","geo_score":0.857,"gold":0,"jsg":0,"toning":0,"user_id":"0c952ac4-f7b9-11df-88fb-123139181c25","id":"a7vwwh5pum0f","geo_precision":"zip","zumbatomic":0,"sentao":0,"aqua":0,"zumba basic 2":1},"type":"Feature","geometry":{"type":"Point","coordinates":[-4.25763130187988,55.8651497187961]}}],"is_temporal":false,"author":{"url":"","metadata":"","contact_name":"","contact_address":"","source":"","contact_phone":""},"source":"","pagination":{"sort":null,"start":0,"total":174,"limit":1000000},"state":"complete","tags":"","published":"2014-08-15T01:57:14-04:00","id":268320}