{"type":"FeatureCollection","data_type":"Dataset","url_type":null,"permissions":[{"permissions":{"download":true,"view":true},"group_id":"everyone"}],"classification":null,"title":"Tester UK2 aqua = 1","count":63,"stream_id":268325,"contributor":{"url":"http://geocommons.com/users/695","name":"Bill"},"data_attributes":null,"calculation_params":[{"input":{"max":1,"min":1,"atr":"aqua"},"calculation":"filter"}],"icon_link":null,"link":"http://geocommons.com/overlays/268325.json","extent":[-7.06667,49.9667,1.62053,60.4],"geometry_types":["point"],"unique_name":null,"name":"Tester UK2 aqua = 1","feature_count":63,"description":"","next_feature":null,"is_raster":false,"short_classification":"Y","stats":{"gold":{"max":1,"variance":0.253456221198157,"mean":0.523809523809524,"stdev":0.503444357598888,"min":0,"median":1},"jsg":{"max":0,"variance":0.0,"mean":0.0,"stdev":0.0,"min":0,"median":0},"toning":{"max":2,"variance":0.2831541218638,"mean":0.555555555555556,"stdev":0.532122280931554,"min":0,"median":1},"zumbatomic":{"max":1,"variance":0.252432155657962,"mean":0.53968253968254,"stdev":0.502426268877297,"min":0,"median":1},"sentao":{"max":1,"variance":0.135688684075781,"mean":0.158730158730159,"stdev":0.368359449554075,"min":0,"median":0},"aqua":{"max":1,"variance":0.0,"mean":1.0,"stdev":0.0,"min":1,"median":1},"zumba basic 2":{"max":2,"variance":0.27547363031234,"mean":0.396825396825397,"stdev":0.524855818594345,"min":0,"median":0}},"features":[{"properties":{"city":"Dunfermline","postal_code":"KY118HZ","geo_score":0.857,"gold":1,"jsg":0,"toning":1,"user_id":"00118c0c-f7b9-11df-88fb-123139181c25","id":"a7vwwgjkvlzi","geo_precision":"zip","zumbatomic":0,"sentao":0,"aqua":1,"zumba basic 2":1},"type":"Feature","geometry":{"type":"Point","coordinates":[-3.4666667,56.0833333]}},{"properties":{"city":"Paignton","postal_code":"tq33ty","geo_score":0.0,"gold":1,"jsg":0,"toning":0,"user_id":"00a7b2c2-f7b9-11df-88fb-123139181c25","id":"a7vwwgm3a8ao","geo_precision":"unmatched","zumbatomic":0,"sentao":0,"aqua":1,"zumba basic 2":0},"type":"Feature","geometry":null},{"properties":{"city":"London Borough of Croydon","postal_code":"se193sw","geo_score":0.857,"gold":0,"jsg":0,"toning":1,"user_id":"00ccb9f0-f7b9-11df-88fb-123139181c25","id":"a7vwwgoovfed","geo_precision":"zip","zumbatomic":1,"sentao":0,"aqua":1,"zumba basic 2":0},"type":"Feature","geometry":{"type":"Point","coordinates":[-0.0829124450683594,53.8003466774013]}},{"properties":{"city":"Plymouth","postal_code":"PL22JJ","geo_score":0.857,"gold":1,"jsg":0,"toning":0,"user_id":"00db7e4a-f7b9-11df-88fb-123139181c25","id":"a7vwwgnivdhn","geo_precision":"zip","zumbatomic":0,"sentao":0,"aqua":1,"zumba basic 2":1},"type":"Feature","geometry":{"type":"Point","coordinates":[-4.11666666666667,50.35]}},{"properties":{"city":"London","postal_code":"NW95ED","geo_score":0.857,"gold":0,"jsg":0,"toning":0,"user_id":"0102c2f2-f7b9-11df-88fb-123139181c25","id":"a7vwwgkxioxv","geo_precision":"zip","zumbatomic":0,"sentao":0,"aqua":1,"zumba basic 2":0},"type":"Feature","geometry":{"type":"Point","coordinates":[-2.8508333,51.7316667]}},{"properties":{"city":"Flintshire","postal_code":"CH54BJ","geo_score":0.0,"gold":1,"jsg":0,"toning":1,"user_id":"01f25d4e-f7b9-11df-88fb-123139181c25","id":"a7vwwgk4aav5","geo_precision":"unmatched","zumbatomic":1,"sentao":0,"aqua":1,"zumba basic 2":1},"type":"Feature","geometry":null},{"properties":{"city":"London Borough of Ealing","postal_code":"W71BU","geo_score":0.857,"gold":1,"jsg":0,"toning":1,"user_id":"020740b0-f7b9-11df-88fb-123139181c25","id":"a7vwwgniz0qp","geo_precision":"zip","zumbatomic":1,"sentao":1,"aqua":1,"zumba basic 2":1},"type":"Feature","geometry":{"type":"Point","coordinates":[0.1508,52.19712]}},{"properties":{"city":"EDINBURGH","postal_code":"EH111ST","geo_score":0.857,"gold":1,"jsg":0,"toning":2,"user_id":"025a0e9e-f7b9-11df-88fb-123139181c25","id":"a7vwwghqmibd","geo_precision":"zip","zumbatomic":1,"sentao":0,"aqua":1,"zumba basic 2":1},"type":"Feature","geometry":{"type":"Point","coordinates":[-3.3725,55.95]}},{"properties":{"city":"Batley","postal_code":"WF170DA","geo_score":0.857,"gold":0,"jsg":0,"toning":0,"user_id":"02a4881a-2dfc-11e0-8b28-123139181c25","id":"a7vwwgmzm913","geo_precision":"zip","zumbatomic":0,"sentao":0,"aqua":1,"zumba basic 2":0},"type":"Feature","geometry":{"type":"Point","coordinates":[-2.3666667,53.0333333]}},{"properties":{"city":"Hull","postal_code":"HU106LN","geo_score":0.857,"gold":0,"jsg":0,"toning":0,"user_id":"03197984-1f30-11e0-8b28-123139181c25","id":"a7vwwggka72l","geo_precision":"zip","zumbatomic":1,"sentao":0,"aqua":1,"zumba basic 2":0},"type":"Feature","geometry":{"type":"Point","coordinates":[-3.2,56.7666667]}},{"properties":{"city":"Lancashire and Yorkshire","postal_code":"Bb126pp","geo_score":0.857,"gold":0,"jsg":0,"toning":0,"user_id":"0369c19e-4e4e-11e0-8b28-123139181c25","id":"a7vwwgtgb3ye","geo_precision":"zip","zumbatomic":1,"sentao":0,"aqua":1,"zumba basic 2":0},"type":"Feature","geometry":{"type":"Point","coordinates":[-1.818,53.832]}},{"properties":{"city":"Cheltenham","postal_code":"GL525GB","geo_score":0.857,"gold":0,"jsg":0,"toning":1,"user_id":"03bb770a-f7b9-11df-88fb-123139181c25","id":"a7vwwgjovwdk","geo_precision":"zip","zumbatomic":0,"sentao":0,"aqua":1,"zumba basic 2":0},"type":"Feature","geometry":{"type":"Point","coordinates":[-2.0833333,51.9]}},{"properties":{"city":"Kent","postal_code":"CT67EN","geo_score":0.857,"gold":1,"jsg":0,"toning":0,"user_id":"03d07d80-f7b9-11df-88fb-123139181c25","id":"a7vwwgexzod5","geo_precision":"zip","zumbatomic":1,"sentao":0,"aqua":1,"zumba basic 2":0},"type":"Feature","geometry":{"type":"Point","coordinates":[-3.75,56.0666667]}},{"properties":{"city":"Stanwell","postal_code":"TW197SJ","geo_score":0.857,"gold":1,"jsg":0,"toning":1,"user_id":"03d08500-f7b9-11df-88fb-123139181c25","id":"a7vwwgr1swuz","geo_precision":"zip","zumbatomic":1,"sentao":1,"aqua":1,"zumba basic 2":0},"type":"Feature","geometry":{"type":"Point","coordinates":[-0.4833333,51.45]}},{"properties":{"city":"Chatham Kent","postal_code":"ME57NE","geo_score":0.857,"gold":0,"jsg":0,"toning":1,"user_id":"03e4bc6e-f7b9-11df-88fb-123139181c25","id":"a7vwwgil0vh8","geo_precision":"zip","zumbatomic":0,"sentao":0,"aqua":1,"zumba basic 2":0},"type":"Feature","geometry":{"type":"Point","coordinates":[-3.75,56.0666667]}},{"properties":{"city":"Barnsley","postal_code":"S751NF","geo_score":0.857,"gold":1,"jsg":0,"toning":0,"user_id":"04404dea-f7b9-11df-88fb-123139181c25","id":"a7vwwghx6txx","geo_precision":"zip","zumbatomic":1,"sentao":0,"aqua":1,"zumba basic 2":1},"type":"Feature","geometry":{"type":"Point","coordinates":[-1.49729,53.54648]}},{"properties":{"city":"Darwen","postal_code":"BB31NY","geo_score":0.857,"gold":0,"jsg":0,"toning":0,"user_id":"04479a8c-f7b9-11df-88fb-123139181c25","id":"a7vwwgmq2quk","geo_precision":"zip","zumbatomic":0,"sentao":0,"aqua":1,"zumba basic 2":0},"type":"Feature","geometry":{"type":"Point","coordinates":[-3.7333333,52.6]}},{"properties":{"city":"London","postal_code":"HA55LE","geo_score":0.857,"gold":0,"jsg":0,"toning":0,"user_id":"04479dc0-f7b9-11df-88fb-123139181c25","id":"a7vwwgest4ov","geo_precision":"zip","zumbatomic":1,"sentao":0,"aqua":1,"zumba basic 2":0},"type":"Feature","geometry":{"type":"Point","coordinates":[-2.8508333,51.7316667]}},{"properties":{"city":"Prescot","postal_code":"L355AJ","geo_score":0.857,"gold":1,"jsg":0,"toning":0,"user_id":"044e63b2-f7b9-11df-88fb-123139181c25","id":"a7vwwgp7s89x","geo_precision":"zip","zumbatomic":0,"sentao":0,"aqua":1,"zumba basic 2":0},"type":"Feature","geometry":{"type":"Point","coordinates":[-2.80031204223633,53.4294807151018]}},{"properties":{"city":"Milton Keynes","postal_code":"MK57AX","geo_score":0.857,"gold":1,"jsg":0,"toning":1,"user_id":"047e7d7c-f7b9-11df-88fb-123139181c25","id":"a7vwwgji2ax6","geo_precision":"zip","zumbatomic":1,"sentao":1,"aqua":1,"zumba basic 2":0},"type":"Feature","geometry":{"type":"Point","coordinates":[-0.755825042724609,52.0417219233052]}},{"properties":{"city":"East Kilbride","postal_code":"G741QZ","geo_score":0.857,"gold":0,"jsg":0,"toning":1,"user_id":"04b87edc-f7b9-11df-88fb-123139181c25","id":"a7vwwgq3vds8","geo_precision":"zip","zumbatomic":1,"sentao":0,"aqua":1,"zumba basic 2":1},"type":"Feature","geometry":{"type":"Point","coordinates":[-0.479621887207031,51.2536428425804]}},{"properties":{"city":"Sunderland","postal_code":"SR28JY","geo_score":0.857,"gold":1,"jsg":0,"toning":1,"user_id":"04bf8c4a-f7b9-11df-88fb-123139181c25","id":"a7vwwgslbbpi","geo_precision":"zip","zumbatomic":1,"sentao":0,"aqua":1,"zumba basic 2":1},"type":"Feature","geometry":{"type":"Point","coordinates":[-0.26733,51.53093]}},{"properties":{"city":"Preston","postal_code":"0","geo_score":0.857,"gold":0,"jsg":0,"toning":0,"user_id":"04c6c4ce-f7b9-11df-88fb-123139181c25","id":"a7vwwgm0b6oz","geo_precision":"zip","zumbatomic":0,"sentao":0,"aqua":1,"zumba basic 2":0},"type":"Feature","geometry":{"type":"Point","coordinates":[-1.15853,52.18953]}},{"properties":{"city":"London","postal_code":"se208rl","geo_score":0.857,"gold":1,"jsg":0,"toning":1,"user_id":"051edd94-f7b9-11df-88fb-123139181c25","id":"a7vwwgnac6n6","geo_precision":"zip","zumbatomic":0,"sentao":0,"aqua":1,"zumba basic 2":0},"type":"Feature","geometry":{"type":"Point","coordinates":[-2.8508333,51.7316667]}},{"properties":{"city":"stoke on  trent","postal_code":"st31aj","geo_score":0.857,"gold":0,"jsg":0,"toning":0,"user_id":"052e157e-2019-11e0-8b28-123139181c25","id":"a7vwwgtp6nl6","geo_precision":"zip","zumbatomic":0,"sentao":0,"aqua":1,"zumba basic 2":0},"type":"Feature","geometry":{"type":"Point","coordinates":[-3.5333333,50.5166667]}},{"properties":{"city":"REDDITCH","postal_code":"B988HN","geo_score":0.857,"gold":0,"jsg":0,"toning":1,"user_id":"0533af8a-f7b9-11df-88fb-123139181c25","id":"a7vwwgp9bowy","geo_precision":"zip","zumbatomic":1,"sentao":0,"aqua":1,"zumba basic 2":1},"type":"Feature","geometry":{"type":"Point","coordinates":[-1.9333333,52.3]}},{"properties":{"city":"Edinburgh","postal_code":"EH153RZ","geo_score":0.857,"gold":1,"jsg":0,"toning":1,"user_id":"0533fcc4-f7b9-11df-88fb-123139181c25","id":"a7vwwghkt7uf","geo_precision":"zip","zumbatomic":1,"sentao":0,"aqua":1,"zumba basic 2":1},"type":"Feature","geometry":{"type":"Point","coordinates":[-3.3725,55.95]}},{"properties":{"city":"Surrey","postal_code":"SM44PG","geo_score":0.857,"gold":1,"jsg":0,"toning":1,"user_id":"0541f022-f7b9-11df-88fb-123139181c25","id":"a7vwwgk03n3m","geo_precision":"zip","zumbatomic":1,"sentao":1,"aqua":1,"zumba basic 2":1},"type":"Feature","geometry":{"type":"Point","coordinates":[-4.2333333,58.3666667]}},{"properties":{"city":"Maesteg","postal_code":"CF349PE","geo_score":0.857,"gold":0,"jsg":0,"toning":0,"user_id":"065af102-f7b9-11df-88fb-123139181c25","id":"a7vwwgf06fas","geo_precision":"zip","zumbatomic":0,"sentao":0,"aqua":1,"zumba basic 2":0},"type":"Feature","geometry":{"type":"Point","coordinates":[-3.6508333,51.605]}},{"properties":{"city":"Glasgow","postal_code":"G718PE","geo_score":0.857,"gold":0,"jsg":0,"toning":0,"user_id":"0673b4bc-f7b9-11df-88fb-123139181c25","id":"a7vwwgs353d3","geo_precision":"zip","zumbatomic":0,"sentao":0,"aqua":1,"zumba basic 2":0},"type":"Feature","geometry":{"type":"Point","coordinates":[-4.25763130187988,55.8651497187961]}},{"properties":{"city":"Penzance","postal_code":"tr183nh","geo_score":0.857,"gold":1,"jsg":0,"toning":0,"user_id":"0688403a-f7b9-11df-88fb-123139181c25","id":"a7vwwgty4y95","geo_precision":"zip","zumbatomic":0,"sentao":0,"aqua":1,"zumba basic 2":1},"type":"Feature","geometry":{"type":"Point","coordinates":[-5.53715229034424,50.1186106488431]}},{"properties":{"city":"Worcester","postal_code":"WR52AG","geo_score":0.857,"gold":0,"jsg":0,"toning":0,"user_id":"06b36152-f7b9-11df-88fb-123139181c25","id":"a7vwwgmia3b3","geo_precision":"zip","zumbatomic":0,"sentao":0,"aqua":1,"zumba basic 2":0},"type":"Feature","geometry":{"type":"Point","coordinates":[-2.3333333,52.1]}},{"properties":{"city":"Newcastle upon Tyne","postal_code":"ne35rd","geo_score":0.857,"gold":1,"jsg":0,"toning":1,"user_id":"06c15b9a-f7b9-11df-88fb-123139181c25","id":"a7vwwgno8bwn","geo_precision":"zip","zumbatomic":1,"sentao":1,"aqua":1,"zumba basic 2":2},"type":"Feature","geometry":{"type":"Point","coordinates":[-2.80325,51.85137]}},{"properties":{"city":"Manchester","postal_code":"OL114DG","geo_score":0.857,"gold":1,"jsg":0,"toning":1,"user_id":"06cfd576-f7b9-11df-88fb-123139181c25","id":"a7vwwgm0jjnm","geo_precision":"zip","zumbatomic":1,"sentao":0,"aqua":1,"zumba basic 2":0},"type":"Feature","geometry":{"type":"Point","coordinates":[-2.23743438720703,53.4809464283615]}},{"properties":{"city":"Fareham","postal_code":"PO160UB","geo_score":0.857,"gold":0,"jsg":0,"toning":0,"user_id":"071486ea-314c-11e0-8b28-123139181c25","id":"a7vwwgjnilpb","geo_precision":"zip","zumbatomic":0,"sentao":0,"aqua":1,"zumba basic 2":0},"type":"Feature","geometry":{"type":"Point","coordinates":[-1.1833333,50.85]}},{"properties":{"city":"Isle of Wight","postal_code":"PO377DX","geo_score":0.857,"gold":0,"jsg":0,"toning":0,"user_id":"08313f7c-f7b9-11df-88fb-123139181c25","id":"a7vwwgefu4gy","geo_precision":"zip","zumbatomic":1,"sentao":0,"aqua":1,"zumba basic 2":0},"type":"Feature","geometry":{"type":"Point","coordinates":[-6.25666666666667,55.6819444444444]}},{"properties":{"city":"Wolverhampton","postal_code":"WV69ER","geo_score":0.857,"gold":1,"jsg":0,"toning":1,"user_id":"0846f290-f7b9-11df-88fb-123139181c25","id":"a7vwwgo6aaxp","geo_precision":"zip","zumbatomic":1,"sentao":0,"aqua":1,"zumba basic 2":0},"type":"Feature","geometry":{"type":"Point","coordinates":[-2.1333333,52.5833333]}},{"properties":{"city":"Denver","postal_code":"PE380DZ","geo_score":0.857,"gold":1,"jsg":0,"toning":1,"user_id":"0854dd42-f7b9-11df-88fb-123139181c25","id":"a7vwwglgh5vz","geo_precision":"zip","zumbatomic":1,"sentao":0,"aqua":1,"zumba basic 2":0},"type":"Feature","geometry":{"type":"Point","coordinates":[0.3833333,52.5833333]}},{"properties":{"city":"Caerphilly","postal_code":"CF833JH","geo_score":0.857,"gold":1,"jsg":0,"toning":1,"user_id":"08cc88f6-f7b9-11df-88fb-123139181c25","id":"a7vwwgso2kwy","geo_precision":"zip","zumbatomic":1,"sentao":1,"aqua":1,"zumba basic 2":1},"type":"Feature","geometry":{"type":"Point","coordinates":[-3.6333333,54.9333333]}},{"properties":{"city":"Wolverhampton","postal_code":"WV112LT","geo_score":0.857,"gold":1,"jsg":0,"toning":1,"user_id":"08e20f28-f7b9-11df-88fb-123139181c25","id":"a7vwwgmzo86x","geo_precision":"zip","zumbatomic":1,"sentao":0,"aqua":1,"zumba basic 2":1},"type":"Feature","geometry":{"type":"Point","coordinates":[-2.1333333,52.5833333]}},{"properties":{"city":"Tonyrefail rhondda cynon taff","postal_code":"CF398HZ","geo_score":0.857,"gold":1,"jsg":0,"toning":1,"user_id":"09016f80-f7b9-11df-88fb-123139181c25","id":"a7vwwgmp50e7","geo_precision":"zip","zumbatomic":0,"sentao":0,"aqua":1,"zumba basic 2":0},"type":"Feature","geometry":{"type":"Point","coordinates":[-3.4252778,51.5836111]}},{"properties":{"city":"milton keynes","postal_code":"MK62HR","geo_score":0.857,"gold":1,"jsg":0,"toning":1,"user_id":"09028196-1f4f-11e0-8b28-123139181c25","id":"a7vwwguf1dw7","geo_precision":"zip","zumbatomic":1,"sentao":1,"aqua":1,"zumba basic 2":1},"type":"Feature","geometry":{"type":"Point","coordinates":[-0.755825042724609,52.0417219233052]}},{"properties":{"city":"Wakefield","postal_code":"wf44an","geo_score":0.857,"gold":0,"jsg":0,"toning":1,"user_id":"09246080-f7b9-11df-88fb-123139181c25","id":"a7vwwgnfrx8r","geo_precision":"zip","zumbatomic":0,"sentao":0,"aqua":1,"zumba basic 2":0},"type":"Feature","geometry":{"type":"Point","coordinates":[-1.50727,53.67188]}},{"properties":{"city":"GWENT","postal_code":"NP123FT","geo_score":0.857,"gold":1,"jsg":0,"toning":1,"user_id":"09320316-f7b9-11df-88fb-123139181c25","id":"a7vwwgel97z5","geo_precision":"zip","zumbatomic":1,"sentao":0,"aqua":1,"zumba basic 2":1},"type":"Feature","geometry":{"type":"Point","coordinates":[-3.0,51.6666667]}},{"properties":{"city":"West Lothian","postal_code":"EH478HT","geo_score":0.857,"gold":0,"jsg":0,"toning":0,"user_id":"0a0139d8-f7b9-11df-88fb-123139181c25","id":"a7vwwglm0w2p","geo_precision":"zip","zumbatomic":1,"sentao":0,"aqua":1,"zumba basic 2":0},"type":"Feature","geometry":{"type":"Point","coordinates":[-3.15,55.8666667]}},{"properties":{"city":"Bristol","postal_code":"BS107XL","geo_score":0.857,"gold":1,"jsg":0,"toning":1,"user_id":"0a017254-f7b9-11df-88fb-123139181c25","id":"a7vwwglaudxl","geo_precision":"zip","zumbatomic":1,"sentao":0,"aqua":1,"zumba basic 2":0},"type":"Feature","geometry":{"type":"Point","coordinates":[-2.5833333,51.45]}},{"properties":{"city":"Bristol","postal_code":"BS70SE","geo_score":0.857,"gold":0,"jsg":0,"toning":0,"user_id":"0a22f53e-4be0-11e0-8b28-123139181c25","id":"a7vwwgg2fatv","geo_precision":"zip","zumbatomic":0,"sentao":0,"aqua":1,"zumba basic 2":0},"type":"Feature","geometry":{"type":"Point","coordinates":[-2.5833333,51.45]}},{"properties":{"city":"Bury St Edmunds","postal_code":"IP288FP","geo_score":0.857,"gold":0,"jsg":0,"toning":0,"user_id":"0a389716-f7b9-11df-88fb-123139181c25","id":"a7vwwgjptjpw","geo_precision":"zip","zumbatomic":0,"sentao":0,"aqua":1,"zumba basic 2":0},"type":"Feature","geometry":{"type":"Point","coordinates":[-1.35,60.3833333]}},{"properties":{"city":"Manchester","postal_code":"BL83BL","geo_score":0.857,"gold":0,"jsg":0,"toning":0,"user_id":"0a67b6ae-f7b9-11df-88fb-123139181c25","id":"a7vwwggrgk1p","geo_precision":"zip","zumbatomic":1,"sentao":0,"aqua":1,"zumba basic 2":0},"type":"Feature","geometry":{"type":"Point","coordinates":[-2.23743438720703,53.4809464283615]}},{"properties":{"city":"Bury","postal_code":"bl83ge","geo_score":0.857,"gold":0,"jsg":0,"toning":0,"user_id":"0a67bd20-f7b9-11df-88fb-123139181c25","id":"a7vwwgib5c0j","geo_precision":"zip","zumbatomic":1,"sentao":0,"aqua":1,"zumba basic 2":0},"type":"Feature","geometry":{"type":"Point","coordinates":[-1.35,60.3833333]}},{"properties":{"city":"Cambridge","postal_code":"cb41wa","geo_score":0.857,"gold":1,"jsg":0,"toning":1,"user_id":"0a6e7c0a-f7b9-11df-88fb-123139181c25","id":"a7vwwgrfa4jg","geo_precision":"zip","zumbatomic":1,"sentao":1,"aqua":1,"zumba basic 2":1},"type":"Feature","geometry":{"type":"Point","coordinates":[0.19356,52.18475]}},{"properties":{"city":"London","postal_code":"BR14SH","geo_score":0.857,"gold":1,"jsg":0,"toning":0,"user_id":"0a7c573a-f7b9-11df-88fb-123139181c25","id":"a7vwwgt7gb1j","geo_precision":"zip","zumbatomic":0,"sentao":0,"aqua":1,"zumba basic 2":0},"type":"Feature","geometry":{"type":"Point","coordinates":[-2.8508333,51.7316667]}},{"properties":{"city":"Hayes","postal_code":"UB31QG","geo_score":0.857,"gold":0,"jsg":0,"toning":0,"user_id":"0a7cb9c8-f7b9-11df-88fb-123139181c25","id":"a7vwwglkxb8r","geo_precision":"zip","zumbatomic":0,"sentao":0,"aqua":1,"zumba basic 2":1},"type":"Feature","geometry":{"type":"Point","coordinates":[0.0120162963867188,51.37863823622]}},{"properties":{"city":"Gosforth","postal_code":"ne35rh","geo_score":0.857,"gold":1,"jsg":0,"toning":1,"user_id":"0aa34278-f7b9-11df-88fb-123139181c25","id":"a7vwwgu08f4o","geo_precision":"zip","zumbatomic":1,"sentao":0,"aqua":1,"zumba basic 2":0},"type":"Feature","geometry":{"type":"Point","coordinates":[-1.61998,55.01132]}},{"properties":{"city":"Purley","postal_code":"CR85HT","geo_score":0.857,"gold":1,"jsg":0,"toning":1,"user_id":"0aaa818c-f7b9-11df-88fb-123139181c25","id":"a7vwwgrceavk","geo_precision":"zip","zumbatomic":1,"sentao":0,"aqua":1,"zumba basic 2":1},"type":"Feature","geometry":{"type":"Point","coordinates":[-0.1,51.3166667]}},{"properties":{"city":"Heanor","postal_code":"DE757LE","geo_score":0.857,"gold":1,"jsg":0,"toning":1,"user_id":"0ab8bda6-f7b9-11df-88fb-123139181c25","id":"a7vwwgphkkeh","geo_precision":"zip","zumbatomic":1,"sentao":1,"aqua":1,"zumba basic 2":1},"type":"Feature","geometry":{"type":"Point","coordinates":[-1.3,53.0]}},{"properties":{"city":"Edinburgh","postal_code":"EH112TH","geo_score":0.857,"gold":0,"jsg":0,"toning":0,"user_id":"0ac36332-f7b9-11df-88fb-123139181c25","id":"a7vwwh7nuguv","geo_precision":"zip","zumbatomic":0,"sentao":0,"aqua":1,"zumba basic 2":1},"type":"Feature","geometry":{"type":"Point","coordinates":[-3.3725,55.95]}},{"properties":{"city":"Epsom","postal_code":"KT197EE","geo_score":0.857,"gold":0,"jsg":0,"toning":0,"user_id":"0aca6a74-f7b9-11df-88fb-123139181c25","id":"a7vwwgwa8i7i","geo_precision":"zip","zumbatomic":0,"sentao":0,"aqua":1,"zumba basic 2":0},"type":"Feature","geometry":{"type":"Point","coordinates":[-0.2666667,51.3166667]}},{"properties":{"city":"Preston","postal_code":"PR269BA","geo_score":0.857,"gold":1,"jsg":0,"toning":1,"user_id":"0ad1e484-f7b9-11df-88fb-123139181c25","id":"a7vwwh2235ij","geo_precision":"zip","zumbatomic":0,"sentao":1,"aqua":1,"zumba basic 2":1},"type":"Feature","geometry":{"type":"Point","coordinates":[-1.15853,52.18953]}},{"properties":{"city":"Bracknell","postal_code":"RG127WR","geo_score":0.0,"gold":1,"jsg":0,"toning":1,"user_id":"0ad1ed12-f7b9-11df-88fb-123139181c25","id":"a7vwwh5nwel3","geo_precision":"unmatched","zumbatomic":0,"sentao":0,"aqua":1,"zumba basic 2":0},"type":"Feature","geometry":null},{"properties":{"city":"Bishops Stortford","postal_code":"CM235LS","geo_score":0.857,"gold":0,"jsg":0,"toning":1,"user_id":"0af18596-f7b9-11df-88fb-123139181c25","id":"a7vwwh09vzut","geo_precision":"zip","zumbatomic":1,"sentao":0,"aqua":1,"zumba basic 2":1},"type":"Feature","geometry":{"type":"Point","coordinates":[-2.5947222,51.3344444]}},{"properties":{"city":"Borough of Barnet","postal_code":"N32EE","geo_score":0.857,"gold":0,"jsg":0,"toning":1,"user_id":"0b7dc8c6-f7b9-11df-88fb-123139181c25","id":"a7vwwgxhscml","geo_precision":"zip","zumbatomic":0,"sentao":0,"aqua":1,"zumba basic 2":0},"type":"Feature","geometry":{"type":"Point","coordinates":[-0.2666667,51.55]}},{"properties":{"city":"Suffolk","postal_code":"CB97LJ","geo_score":0.857,"gold":0,"jsg":0,"toning":0,"user_id":"0bc6769a-02f2-11e0-8b28-123139181c25","id":"a7vwwh5g746z","geo_precision":"zip","zumbatomic":0,"sentao":0,"aqua":1,"zumba basic 2":0},"type":"Feature","geometry":{"type":"Point","coordinates":[0.7024,52.2758]}}],"is_temporal":false,"author":{"url":"","metadata":"","contact_name":"","contact_address":"","source":"","contact_phone":""},"source":"","pagination":{"sort":null,"start":0,"total":63,"limit":1000000},"state":"complete","tags":"","published":"2014-08-15T01:57:20-04:00","id":268325}