{"type":"FeatureCollection","data_type":"Dataset","url_type":null,"permissions":[{"permissions":{"download":true,"view":true},"group_id":"everyone"}],"classification":null,"title":"Tester UK2, sentao = 1","count":33,"stream_id":268326,"contributor":{"url":"http://geocommons.com/users/695","name":"Bill"},"data_attributes":null,"calculation_params":[{"input":{"max":1,"min":1,"atr":"sentao"},"calculation":"filter"}],"icon_link":null,"link":"http://geocommons.com/overlays/268326.json","extent":[-7.06667,49.9667,1.62053,60.4],"geometry_types":["point"],"unique_name":null,"name":"Tester UK2, sentao = 1","feature_count":33,"description":"","next_feature":null,"is_raster":false,"short_classification":"Y","stats":{"gold":{"max":1,"variance":0.246212121212121,"mean":0.606060606060606,"stdev":0.496197663448873,"min":0,"median":1},"jsg":{"max":0,"variance":0.0,"mean":0.0,"stdev":0.0,"min":0,"median":0},"toning":{"max":1,"variance":0.172348484848485,"mean":0.787878787878788,"stdev":0.41514875026728,"min":0,"median":1},"zumbatomic":{"max":1,"variance":0.204545454545455,"mean":0.727272727272727,"stdev":0.452267016866646,"min":0,"median":1},"sentao":{"max":1,"variance":0.0,"mean":1.0,"stdev":0.0,"min":1,"median":1},"aqua":{"max":1,"variance":0.21780303030303,"mean":0.303030303030303,"stdev":0.466693722159438,"min":0,"median":0},"zumba basic 2":{"max":2,"variance":0.234848484848485,"mean":0.787878787878788,"stdev":0.48461168459756,"min":0,"median":1}},"features":[{"properties":{"city":"Southampton","postal_code":"SO451WZ","geo_score":0.857,"gold":0,"jsg":0,"toning":0,"user_id":"00d4370c-f7b9-11df-88fb-123139181c25","id":"a7vwwgn6qg58","geo_precision":"zip","zumbatomic":1,"sentao":1,"aqua":0,"zumba basic 2":0},"type":"Feature","geometry":{"type":"Point","coordinates":[-1.4,50.9]}},{"properties":{"city":"Nottinghamshire","postal_code":"NG196AB","geo_score":0.857,"gold":1,"jsg":0,"toning":1,"user_id":"00e9f9ca-f7b9-11df-88fb-123139181c25","id":"a7vwwgj7ioau","geo_precision":"zip","zumbatomic":1,"sentao":1,"aqua":0,"zumba basic 2":1},"type":"Feature","geometry":{"type":"Point","coordinates":[-2.63543,53.44457]}},{"properties":{"city":"Beaconsfield Bucks","postal_code":"HP92TH","geo_score":0.857,"gold":0,"jsg":0,"toning":1,"user_id":"01aa03e6-f7b9-11df-88fb-123139181c25","id":"a7vwwggtsebe","geo_precision":"zip","zumbatomic":0,"sentao":1,"aqua":0,"zumba basic 2":1},"type":"Feature","geometry":{"type":"Point","coordinates":[-0.6333333,51.6]}},{"properties":{"city":"Stonehaven","postal_code":"AB392PG","geo_score":0.857,"gold":0,"jsg":0,"toning":1,"user_id":"01bfe95e-f7b9-11df-88fb-123139181c25","id":"a7vwwgiqadda","geo_precision":"zip","zumbatomic":0,"sentao":1,"aqua":0,"zumba basic 2":1},"type":"Feature","geometry":{"type":"Point","coordinates":[-2.2,56.9666667]}},{"properties":{"city":"Penn","postal_code":"HP108BP","geo_score":0.857,"gold":0,"jsg":0,"toning":1,"user_id":"01c0250e-f7b9-11df-88fb-123139181c25","id":"a7vwwgq1t1le","geo_precision":"zip","zumbatomic":0,"sentao":1,"aqua":0,"zumba basic 2":1},"type":"Feature","geometry":{"type":"Point","coordinates":[-0.6833333,51.6166667]}},{"properties":{"city":"Stirling","postal_code":"FK78GB","geo_score":0.857,"gold":1,"jsg":0,"toning":1,"user_id":"01e3e1c4-f7b9-11df-88fb-123139181c25","id":"a7vwwgpog0q5","geo_precision":"zip","zumbatomic":1,"sentao":1,"aqua":0,"zumba basic 2":1},"type":"Feature","geometry":{"type":"Point","coordinates":[-3.3291666,54.5308333]}},{"properties":{"city":"Pinner","postal_code":"HA53UT","geo_score":0.857,"gold":1,"jsg":0,"toning":1,"user_id":"02072e40-f7b9-11df-88fb-123139181c25","id":"a7vwwgnkf7x5","geo_precision":"zip","zumbatomic":1,"sentao":1,"aqua":0,"zumba basic 2":1},"type":"Feature","geometry":{"type":"Point","coordinates":[-0.38215845823288,51.5938370164925]}},{"properties":{"city":"London Borough of Ealing","postal_code":"W71BU","geo_score":0.857,"gold":1,"jsg":0,"toning":1,"user_id":"020740b0-f7b9-11df-88fb-123139181c25","id":"a7vwwgniz0qp","geo_precision":"zip","zumbatomic":1,"sentao":1,"aqua":1,"zumba basic 2":1},"type":"Feature","geometry":{"type":"Point","coordinates":[0.1508,52.19712]}},{"properties":{"city":"London","postal_code":"TW107NN","geo_score":0.857,"gold":0,"jsg":0,"toning":0,"user_id":"033ca33a-f7b9-11df-88fb-123139181c25","id":"a7vwwgs8v6p0","geo_precision":"zip","zumbatomic":1,"sentao":1,"aqua":0,"zumba basic 2":1},"type":"Feature","geometry":{"type":"Point","coordinates":[-2.8508333,51.7316667]}},{"properties":{"city":"Falkirk","postal_code":"FK29FH","geo_score":0.857,"gold":0,"jsg":0,"toning":0,"user_id":"0351c0c6-f7b9-11df-88fb-123139181c25","id":"a7vwwgqirc4j","geo_precision":"zip","zumbatomic":1,"sentao":1,"aqua":0,"zumba basic 2":1},"type":"Feature","geometry":{"type":"Point","coordinates":[-3.75,56.0]}},{"properties":{"city":"Doncaster","postal_code":"DN31NG","geo_score":0.857,"gold":0,"jsg":0,"toning":1,"user_id":"03c20228-f7b9-11df-88fb-123139181c25","id":"a7vwwgu70gwt","geo_precision":"zip","zumbatomic":0,"sentao":1,"aqua":0,"zumba basic 2":1},"type":"Feature","geometry":{"type":"Point","coordinates":[-1.00542068481445,53.4818147283195]}},{"properties":{"city":"Stanwell","postal_code":"TW197SJ","geo_score":0.857,"gold":1,"jsg":0,"toning":1,"user_id":"03d08500-f7b9-11df-88fb-123139181c25","id":"a7vwwgr1swuz","geo_precision":"zip","zumbatomic":1,"sentao":1,"aqua":1,"zumba basic 2":0},"type":"Feature","geometry":{"type":"Point","coordinates":[-0.4833333,51.45]}},{"properties":{"city":"Milton Keynes","postal_code":"MK57AX","geo_score":0.857,"gold":1,"jsg":0,"toning":1,"user_id":"047e7d7c-f7b9-11df-88fb-123139181c25","id":"a7vwwgji2ax6","geo_precision":"zip","zumbatomic":1,"sentao":1,"aqua":1,"zumba basic 2":0},"type":"Feature","geometry":{"type":"Point","coordinates":[-0.755825042724609,52.0417219233052]}},{"properties":{"city":"Vale of Glamorgan","postal_code":"CF634AT","geo_score":0.857,"gold":0,"jsg":0,"toning":1,"user_id":"04e52fcc-f7b9-11df-88fb-123139181c25","id":"a7vwwgo1ohtd","geo_precision":"zip","zumbatomic":0,"sentao":1,"aqua":0,"zumba basic 2":0},"type":"Feature","geometry":{"type":"Point","coordinates":[-0.8,60.4]}},{"properties":{"city":"Oban","postal_code":"PA344HS","geo_score":0.857,"gold":1,"jsg":0,"toning":1,"user_id":"0541d5d8-f7b9-11df-88fb-123139181c25","id":"a7vwwgsvhu2r","geo_precision":"zip","zumbatomic":1,"sentao":1,"aqua":0,"zumba basic 2":0},"type":"Feature","geometry":{"type":"Point","coordinates":[-5.4666667,56.4166667]}},{"properties":{"city":"Surrey","postal_code":"SM44PG","geo_score":0.857,"gold":1,"jsg":0,"toning":1,"user_id":"0541f022-f7b9-11df-88fb-123139181c25","id":"a7vwwgk03n3m","geo_precision":"zip","zumbatomic":1,"sentao":1,"aqua":1,"zumba basic 2":1},"type":"Feature","geometry":{"type":"Point","coordinates":[-4.2333333,58.3666667]}},{"properties":{"city":"CO Durham","postal_code":"DH31RU","geo_score":0.857,"gold":1,"jsg":0,"toning":1,"user_id":"05681c70-f7b9-11df-88fb-123139181c25","id":"a7vwwgspcizr","geo_precision":"zip","zumbatomic":1,"sentao":1,"aqua":0,"zumba basic 2":1},"type":"Feature","geometry":{"type":"Point","coordinates":[-3.9333333,52.0333333]}},{"properties":{"city":"Windsor","postal_code":"SL41HR","geo_score":0.857,"gold":1,"jsg":0,"toning":1,"user_id":"0653ef60-f7b9-11df-88fb-123139181c25","id":"a7vwwgsg7y6k","geo_precision":"zip","zumbatomic":1,"sentao":1,"aqua":0,"zumba basic 2":1},"type":"Feature","geometry":{"type":"Point","coordinates":[-2.35370707511902,51.3833694458008]}},{"properties":{"city":"Newcastle upon Tyne","postal_code":"ne35rd","geo_score":0.857,"gold":1,"jsg":0,"toning":1,"user_id":"06c15b9a-f7b9-11df-88fb-123139181c25","id":"a7vwwgno8bwn","geo_precision":"zip","zumbatomic":1,"sentao":1,"aqua":1,"zumba basic 2":2},"type":"Feature","geometry":{"type":"Point","coordinates":[-2.80325,51.85137]}},{"properties":{"city":"Montrose","postal_code":"DD109FN","geo_score":0.857,"gold":1,"jsg":0,"toning":0,"user_id":"07d105ee-f7b9-11df-88fb-123139181c25","id":"a7vwwgs8poxf","geo_precision":"zip","zumbatomic":1,"sentao":1,"aqua":0,"zumba basic 2":1},"type":"Feature","geometry":{"type":"Point","coordinates":[-2.47387,56.70729]}},{"properties":{"city":"Edinburgh","postal_code":"EH113JE","geo_score":0.857,"gold":0,"jsg":0,"toning":1,"user_id":"087c1cd6-f7b9-11df-88fb-123139181c25","id":"a7vwwgrrfbhm","geo_precision":"zip","zumbatomic":0,"sentao":1,"aqua":0,"zumba basic 2":1},"type":"Feature","geometry":{"type":"Point","coordinates":[-3.3725,55.95]}},{"properties":{"city":"Edinburgh","postal_code":"EH113JE","geo_score":0.857,"gold":1,"jsg":0,"toning":1,"user_id":"08824390-f7b9-11df-88fb-123139181c25","id":"a7vwwgrp7l2l","geo_precision":"zip","zumbatomic":0,"sentao":1,"aqua":0,"zumba basic 2":1},"type":"Feature","geometry":{"type":"Point","coordinates":[-3.3725,55.95]}},{"properties":{"city":"Leicestershire","postal_code":"LE128GP","geo_score":0.857,"gold":0,"jsg":0,"toning":0,"user_id":"08afd4cc-f7b9-11df-88fb-123139181c25","id":"a7vwwgl5hu3o","geo_precision":"zip","zumbatomic":1,"sentao":1,"aqua":0,"zumba basic 2":0},"type":"Feature","geometry":{"type":"Point","coordinates":[-1.1348,52.62782]}},{"properties":{"city":"Caerphilly","postal_code":"CF833JH","geo_score":0.857,"gold":1,"jsg":0,"toning":1,"user_id":"08cc88f6-f7b9-11df-88fb-123139181c25","id":"a7vwwgso2kwy","geo_precision":"zip","zumbatomic":1,"sentao":1,"aqua":1,"zumba basic 2":1},"type":"Feature","geometry":{"type":"Point","coordinates":[-3.6333333,54.9333333]}},{"properties":{"city":"milton keynes","postal_code":"MK62HR","geo_score":0.857,"gold":1,"jsg":0,"toning":1,"user_id":"09028196-1f4f-11e0-8b28-123139181c25","id":"a7vwwguf1dw7","geo_precision":"zip","zumbatomic":1,"sentao":1,"aqua":1,"zumba basic 2":1},"type":"Feature","geometry":{"type":"Point","coordinates":[-0.755825042724609,52.0417219233052]}},{"properties":{"city":"Glasgow","postal_code":"G733QW","geo_score":0.857,"gold":0,"jsg":0,"toning":1,"user_id":"092b8ebe-f7b9-11df-88fb-123139181c25","id":"a7vwwgklg1cf","geo_precision":"zip","zumbatomic":1,"sentao":1,"aqua":0,"zumba basic 2":1},"type":"Feature","geometry":{"type":"Point","coordinates":[-4.25763130187988,55.8651497187961]}},{"properties":{"city":"Cambridge","postal_code":"cb41wa","geo_score":0.857,"gold":1,"jsg":0,"toning":1,"user_id":"0a6e7c0a-f7b9-11df-88fb-123139181c25","id":"a7vwwgrfa4jg","geo_precision":"zip","zumbatomic":1,"sentao":1,"aqua":1,"zumba basic 2":1},"type":"Feature","geometry":{"type":"Point","coordinates":[0.19356,52.18475]}},{"properties":{"city":"Stranraer","postal_code":"DG97LQ","geo_score":0.857,"gold":1,"jsg":0,"toning":1,"user_id":"0a6ecf2a-f7b9-11df-88fb-123139181c25","id":"a7vwwgs7ufe2","geo_precision":"zip","zumbatomic":1,"sentao":1,"aqua":0,"zumba basic 2":0},"type":"Feature","geometry":{"type":"Point","coordinates":[-5.0333333,54.9]}},{"properties":{"city":"Manchester","postal_code":"M239AZ","geo_score":0.857,"gold":0,"jsg":0,"toning":0,"user_id":"0aa33bde-f7b9-11df-88fb-123139181c25","id":"a7vwwgu313i7","geo_precision":"zip","zumbatomic":1,"sentao":1,"aqua":0,"zumba basic 2":0},"type":"Feature","geometry":{"type":"Point","coordinates":[-2.23743438720703,53.4809464283615]}},{"properties":{"city":"Heanor","postal_code":"DE757LE","geo_score":0.857,"gold":1,"jsg":0,"toning":1,"user_id":"0ab8bda6-f7b9-11df-88fb-123139181c25","id":"a7vwwgphkkeh","geo_precision":"zip","zumbatomic":1,"sentao":1,"aqua":1,"zumba basic 2":1},"type":"Feature","geometry":{"type":"Point","coordinates":[-1.3,53.0]}},{"properties":{"city":"Preston","postal_code":"PR269BA","geo_score":0.857,"gold":1,"jsg":0,"toning":1,"user_id":"0ad1e484-f7b9-11df-88fb-123139181c25","id":"a7vwwh2235ij","geo_precision":"zip","zumbatomic":0,"sentao":1,"aqua":1,"zumba basic 2":1},"type":"Feature","geometry":{"type":"Point","coordinates":[-1.15853,52.18953]}},{"properties":{"city":"Willaston","postal_code":"CH641SS","geo_score":0.857,"gold":1,"jsg":0,"toning":1,"user_id":"0b9d5d1c-f7b9-11df-88fb-123139181c25","id":"a7vwwh56obs2","geo_precision":"zip","zumbatomic":1,"sentao":1,"aqua":0,"zumba basic 2":1},"type":"Feature","geometry":{"type":"Point","coordinates":[-2.75,52.55]}},{"properties":{"city":"Scarborough","postal_code":"YO113AE","geo_score":0.857,"gold":0,"jsg":0,"toning":0,"user_id":"0bfc9cbe-f7b9-11df-88fb-123139181c25","id":"a7vwwgwvl7ig","geo_precision":"zip","zumbatomic":0,"sentao":1,"aqua":0,"zumba basic 2":1},"type":"Feature","geometry":{"type":"Point","coordinates":[-0.43471,54.28171]}}],"is_temporal":false,"author":{"url":"","metadata":"","contact_name":"","contact_address":"","source":"","contact_phone":""},"source":"","pagination":{"sort":null,"start":0,"total":33,"limit":1000000},"state":"complete","tags":"","published":"2014-08-15T01:57:20-04:00","id":268326}