{"type":"FeatureCollection","data_type":"Dataset","url_type":null,"permissions":[{"permissions":{"download":true,"view":true},"group_id":"everyone"}],"classification":null,"title":"ISRI Listing of Dealers","count":434,"stream_id":269545,"contributor":{"url":"http://geocommons.com/users/50717","name":"patrickfuller"},"data_attributes":null,"calculation_params":null,"icon_link":null,"link":"http://geocommons.com/overlays/269545.json","extent":[0.0,0.0,0.0,0.0],"geometry_types":[],"unique_name":null,"name":"ISRI Listing of Dealers","feature_count":434,"description":"","next_feature":null,"is_raster":false,"short_classification":"Y","stats":{"volume":{"max":500,"variance":0.0,"mean":500.0,"stdev":0.0,"min":500,"median":500}},"features":[{"properties":{"dealer":"C&amp;L Associated Inc","geo_score":0.0,"volume":500,"id":"a813lavx3vr0","address":"Paramus, NJ","geo_precision":"unmatched"},"type":"Feature","geometry":null},{"properties":{"dealer":"MGK International Inc","geo_score":0.0,"volume":500,"id":"a813lar5m4r4","address":"Princeton, NJ","geo_precision":"unmatched"},"type":"Feature","geometry":null},{"properties":{"dealer":"Golden Metals Inc","geo_score":0.0,"volume":500,"id":"a813lb0m1mms","address":"Rochelle Park, NJ","geo_precision":"unmatched"},"type":"Feature","geometry":null},{"properties":{"dealer":"Cinelli Iron and Metal Co Inc","geo_score":0.0,"volume":500,"id":"a813las30ag8","address":"Hackensack, NJ","geo_precision":"unmatched"},"type":"Feature","geometry":null},{"properties":{"dealer":"EMR (USA Holdings) LLC","geo_score":0.0,"volume":500,"id":"a813lb1lez8f","address":"Fort Lee, NJ","geo_precision":"unmatched"},"type":"Feature","geometry":null},{"properties":{"dealer":"Minmetals Inc","geo_score":0.0,"volume":500,"id":"a813lax60tix","address":"Weehawken, NJ","geo_precision":"unmatched"},"type":"Feature","geometry":null},{"properties":{"dealer":"JLJ Intl Holdings LLC","geo_score":0.0,"volume":500,"id":"a813laqfkr6i","address":"Jersey City, NJ","geo_precision":"unmatched"},"type":"Feature","geometry":null},{"properties":{"dealer":"Noble Americas Corp","geo_score":0.0,"volume":500,"id":"a813lato79s3","address":"Stamford, CT","geo_precision":"unmatched"},"type":"Feature","geometry":null},{"properties":{"dealer":"Greenwich Metals Inc","geo_score":0.0,"volume":500,"id":"a813lau9yihy","address":"Greenwich, CT","geo_precision":"unmatched"},"type":"Feature","geometry":null},{"properties":{"dealer":"HRH Metals Inc","geo_score":0.0,"volume":500,"id":"a813lay58eio","address":"Moody, AL","geo_precision":"unmatched"},"type":"Feature","geometry":null},{"properties":{"dealer":"Longhorn Recycling LP","geo_score":0.0,"volume":500,"id":"a813lb2kc1s3","address":"San Antonio, TX","geo_precision":"unmatched"},"type":"Feature","geometry":null},{"properties":{"dealer":"Wilkinson Brothers Iron &amp; Metal Inc","geo_score":0.0,"volume":500,"id":"a813lapwtrgz","address":"Laredo, TX","geo_precision":"unmatched"},"type":"Feature","geometry":null},{"properties":{"dealer":"Intl Commodities Inc","geo_score":0.0,"volume":500,"id":"a813laubm4ow","address":"New York, NY","geo_precision":"unmatched"},"type":"Feature","geometry":null},{"properties":{"dealer":"Coremet Trading Inc","geo_score":0.0,"volume":500,"id":"a813lawg0lcc","address":"New York, NY","geo_precision":"unmatched"},"type":"Feature","geometry":null},{"properties":{"dealer":"Gold Metal Recyclers Ltd","geo_score":0.0,"volume":500,"id":"a813lb209jmj","address":"Dallas, TX","geo_precision":"unmatched"},"type":"Feature","geometry":null},{"properties":{"dealer":"United Metal Traders Inc","geo_score":0.0,"volume":500,"id":"a813lawozzj4","address":"Philadelphia, PA","geo_precision":"unmatched"},"type":"Feature","geometry":null},{"properties":{"dealer":"State Metal Trading Inc","geo_score":0.0,"volume":500,"id":"a813latlof1j","address":"Warminster, PA","geo_precision":"unmatched"},"type":"Feature","geometry":null},{"properties":{"dealer":"Thomas M Sullivan &amp; Sons","geo_score":0.0,"volume":500,"id":"a813lay3ng0q","address":"Philadelphia, PA","geo_precision":"unmatched"},"type":"Feature","geometry":null},{"properties":{"dealer":"Delco Metals Inc","geo_score":0.0,"volume":500,"id":"a813lazo9zuq","address":"Camden, NJ","geo_precision":"unmatched"},"type":"Feature","geometry":null},{"properties":{"dealer":"Thalheimer Brothers Inc","geo_score":0.0,"volume":500,"id":"a813lazltiuy","address":"Philadelphia, PA","geo_precision":"unmatched"},"type":"Feature","geometry":null},{"properties":{"dealer":"Morris Iron &amp; Steel Co Inc","geo_score":0.0,"volume":500,"id":"a813lb005y3i","address":"Philadelphia, PA","geo_precision":"unmatched"},"type":"Feature","geometry":null},{"properties":{"dealer":"Northeast Metal Traders Inc","geo_score":0.0,"volume":500,"id":"a813lb170uxu","address":"Philadelphia, PA","geo_precision":"unmatched"},"type":"Feature","geometry":null},{"properties":{"dealer":"Rhino Recycling","geo_score":0.0,"volume":500,"id":"a813lb2jr7zw","address":"Camden, NJ","geo_precision":"unmatched"},"type":"Feature","geometry":null},{"properties":{"dealer":"Delaware Valley Scrap Co","geo_score":0.0,"volume":500,"id":"a813lamsmxbg","address":"Bristol, PA","geo_precision":"unmatched"},"type":"Feature","geometry":null},{"properties":{"dealer":"SPC Corp","geo_score":0.0,"volume":500,"id":"a813lau9a513","address":"Philadelphia, PA","geo_precision":"unmatched"},"type":"Feature","geometry":null},{"properties":{"dealer":"Lakeside Scrap Metals Inc","geo_score":0.0,"volume":500,"id":"a813lax1nk5s","address":"Cleveland, OH","geo_precision":"unmatched"},"type":"Feature","geometry":null},{"properties":{"dealer":"Lakeside Scrap Metals Inc","geo_score":0.0,"volume":500,"id":"a813lb00ewwo","address":"Cleveland, OH","geo_precision":"unmatched"},"type":"Feature","geometry":null},{"properties":{"dealer":"Aleris International Inc","geo_score":0.0,"volume":500,"id":"a813laondimu","address":"Beachwood, OH","geo_precision":"unmatched"},"type":"Feature","geometry":null},{"properties":{"dealer":"Aleris Recycling Inc-Post Falls","geo_score":0.0,"volume":500,"id":"a813lannx4l4","address":"Beachwood, OH","geo_precision":"unmatched"},"type":"Feature","geometry":null},{"properties":{"dealer":"Aleris Recycling Inc-Friendly WV","geo_score":0.0,"volume":500,"id":"a813lb16e3bp","address":"Friendly, WV","geo_precision":"unmatched"},"type":"Feature","geometry":null},{"properties":{"dealer":"Aleris Specialty Products Inc-Cleveland","geo_score":0.0,"volume":500,"id":"a813lar0mzik","address":"Cleveland, OH","geo_precision":"unmatched"},"type":"Feature","geometry":null},{"properties":{"dealer":"Advantage Recycling Mattoon-Mervis Industries Inc","geo_score":0.0,"volume":500,"id":"a813lb0x5d4r","address":"Mattoon, IL","geo_precision":"unmatched"},"type":"Feature","geometry":null},{"properties":{"dealer":"Mack's Twin City Recycling","geo_score":0.0,"volume":500,"id":"a813lb181rso","address":"Urbana, IL","geo_precision":"unmatched"},"type":"Feature","geometry":null},{"properties":{"dealer":"Marco Steel &amp; Supply-Div of Mervis Industries Inc","geo_score":0.0,"volume":500,"id":"a813lb2gfju7","address":"Champaign, IL","geo_precision":"unmatched"},"type":"Feature","geometry":null},{"properties":{"dealer":"Sol Tick &amp; Co","geo_score":0.0,"volume":500,"id":"a813lap3ovrb","address":"Decatur, IL","geo_precision":"unmatched"},"type":"Feature","geometry":null},{"properties":{"dealer":"Mervis Iron &amp; Metal-Div Of Mervis Industries Inc","geo_score":0.0,"volume":500,"id":"a813lazy5k8t","address":"Danville, IL","geo_precision":"unmatched"},"type":"Feature","geometry":null},{"properties":{"dealer":"Mervis Iron &amp; Supply-Div Mervis Industries Inc","geo_score":0.0,"volume":500,"id":"a813lapgdhzy","address":"Springfield, IL","geo_precision":"unmatched"},"type":"Feature","geometry":null},{"properties":{"dealer":"Bay Side Recycling Corp","geo_score":0.0,"volume":500,"id":"a813lauelaiy","address":"Duluth, MN","geo_precision":"unmatched"},"type":"Feature","geometry":null},{"properties":{"dealer":"Tube City IMS LLC","geo_score":0.0,"volume":500,"id":"a813laqkahef","address":"Gary, IN","geo_precision":"unmatched"},"type":"Feature","geometry":null},{"properties":{"dealer":"SP Recycling Corp-Baton Rouge Div","geo_score":0.0,"volume":500,"id":"a813lav3v7ul","address":"Baton Rouge, LA","geo_precision":"unmatched"},"type":"Feature","geometry":null},{"properties":{"dealer":"PADNOS-Shoreline Recycling and Supply Inc","geo_score":0.0,"volume":500,"id":"a813lans9h91","address":"Muskegon, MI","geo_precision":"unmatched"},"type":"Feature","geometry":null},{"properties":{"dealer":"PADNOS-Cadillac Div","geo_score":0.0,"volume":500,"id":"a813laq1u3z0","address":"Cadillac, MI","geo_precision":"unmatched"},"type":"Feature","geometry":null},{"properties":{"dealer":"PADNOS-Pere Marquette Div","geo_score":0.0,"volume":500,"id":"a813laqdkn4q","address":"Ludington, MI","geo_precision":"unmatched"},"type":"Feature","geometry":null},{"properties":{"dealer":"PADNOS-Traverse Bay Recycling and Supply","geo_score":0.0,"volume":500,"id":"a813lan7a9n4","address":"Traverse City, MI","geo_precision":"unmatched"},"type":"Feature","geometry":null},{"properties":{"dealer":"Potomac Metals Inc","geo_score":0.0,"volume":500,"id":"a813lasyuvo3","address":"Waldorf, MD","geo_precision":"unmatched"},"type":"Feature","geometry":null},{"properties":{"dealer":"Continental Aluminum Corp","geo_score":0.0,"volume":500,"id":"a813lav96vzq","address":"New Hudson, MI","geo_precision":"unmatched"},"type":"Feature","geometry":null},{"properties":{"dealer":"Purther Recycling Inc","geo_score":0.0,"volume":500,"id":"a813lasmqnht","address":"Troy, MI","geo_precision":"unmatched"},"type":"Feature","geometry":null},{"properties":{"dealer":"M Lipsitz &amp; Co Ltd","geo_score":0.0,"volume":500,"id":"a813lb26timp","address":"Waco, TX","geo_precision":"unmatched"},"type":"Feature","geometry":null},{"properties":{"dealer":"Huron Valley Steel Corp","geo_score":0.0,"volume":500,"id":"a813lau0vru0","address":"Anniston, AL","geo_precision":"unmatched"},"type":"Feature","geometry":null},{"properties":{"dealer":"Imperial Aluminum-Scottsboro","geo_score":0.0,"volume":500,"id":"a813layue6n3","address":"Scottsboro, AL","geo_precision":"unmatched"},"type":"Feature","geometry":null},{"properties":{"dealer":"Aleris Specification Alloys-Steele","geo_score":0.0,"volume":500,"id":"a813lawnhgg2","address":"Steele, AL","geo_precision":"unmatched"},"type":"Feature","geometry":null},{"properties":{"dealer":"Progress Rail Services Corp","geo_score":0.0,"volume":500,"id":"a813lb1scpau","address":"Albertville, AL","geo_precision":"unmatched"},"type":"Feature","geometry":null},{"properties":{"dealer":"Metal Exchange Corp","geo_score":0.0,"volume":500,"id":"a813latwr8hr","address":"Moulton, AL","geo_precision":"unmatched"},"type":"Feature","geometry":null},{"properties":{"dealer":"Aleris Specification Alloys Inc-Wabash","geo_score":0.0,"volume":500,"id":"a813lb28f3m9","address":"Wabash, IN","geo_precision":"unmatched"},"type":"Feature","geometry":null},{"properties":{"dealer":"SRT Investments LLC dba G&amp;S Metals LLC","geo_score":0.0,"volume":500,"id":"a813laqyebm8","address":"Wabash, IN","geo_precision":"unmatched"},"type":"Feature","geometry":null},{"properties":{"dealer":"Superior Aluminum Alloys","geo_score":0.0,"volume":500,"id":"a813latvejjg","address":"New Haven, IN","geo_precision":"unmatched"},"type":"Feature","geometry":null},{"properties":{"dealer":"L Katz Enterprises LLC","geo_score":0.0,"volume":500,"id":"a813lavmdxv0","address":"Milwaukee, WI","geo_precision":"unmatched"},"type":"Feature","geometry":null},{"properties":{"dealer":"L Katz Enterprises LLC","geo_score":0.0,"volume":500,"id":"a813lap8njf4","address":"Milwaukee, WI","geo_precision":"unmatched"},"type":"Feature","geometry":null},{"properties":{"dealer":"American Metal &amp; Paper Recycling Inc","geo_score":0.0,"volume":500,"id":"a813lb2qasej","address":"Kewaskum, WI","geo_precision":"unmatched"},"type":"Feature","geometry":null},{"properties":{"dealer":"Waukesha Iron &amp; Metal Inc","geo_score":0.0,"volume":500,"id":"a813lanybfiz","address":"Waukesha, WI","geo_precision":"unmatched"},"type":"Feature","geometry":null},{"properties":{"dealer":"Morris Iron &amp; Steel Co Inc","geo_score":0.0,"volume":500,"id":"a813latytk2k","address":"Philadelphia, PA","geo_precision":"unmatched"},"type":"Feature","geometry":null},{"properties":{"dealer":"Schupan &amp; Sons Inc","geo_score":0.0,"volume":500,"id":"a813lb2at5iy","address":"Kalamazoo, MI","geo_precision":"unmatched"},"type":"Feature","geometry":null},{"properties":{"dealer":"PADNOS-Redbud Recycling","geo_score":0.0,"volume":500,"id":"a813lb16ocpt","address":"Buchanan, MI","geo_precision":"unmatched"},"type":"Feature","geometry":null},{"properties":{"dealer":"PADNOS-Hastings Div","geo_score":0.0,"volume":500,"id":"a813lauq6dod","address":"Hastings, MI","geo_precision":"unmatched"},"type":"Feature","geometry":null},{"properties":{"dealer":"Aleris Recycling Inc-Sapulpa","geo_score":0.0,"volume":500,"id":"a813laqms85w","address":"Sapulpa, OK","geo_precision":"unmatched"},"type":"Feature","geometry":null},{"properties":{"dealer":"Aleris Rolled Products LLC-Lewisport","geo_score":0.0,"volume":500,"id":"a813lasxp0p4","address":"Lewisport, KY","geo_precision":"unmatched"},"type":"Feature","geometry":null},{"properties":{"dealer":"Aleris Recycling Inc-Morgantown","geo_score":0.0,"volume":500,"id":"a813laoh8oxb","address":"Morgantown, KY","geo_precision":"unmatched"},"type":"Feature","geometry":null},{"properties":{"dealer":"Smelter Service Corp","geo_score":0.0,"volume":500,"id":"a813laroosrr","address":"Owensboro, KY","geo_precision":"unmatched"},"type":"Feature","geometry":null},{"properties":{"dealer":"Electro Cycle Inc","geo_score":0.0,"volume":500,"id":"a813lazo0s6r","address":"Madisonville, KY","geo_precision":"unmatched"},"type":"Feature","geometry":null},{"properties":{"dealer":"Freedom Metals-Elizabethtown","geo_score":0.0,"volume":500,"id":"a813lanjiexe","address":"Elizabethtown, KY","geo_precision":"unmatched"},"type":"Feature","geometry":null},{"properties":{"dealer":"Cycle Systems Inc","geo_score":0.0,"volume":500,"id":"a813lb1bif0e","address":"Martinsville, VA","geo_precision":"unmatched"},"type":"Feature","geometry":null},{"properties":{"dealer":"Berry Iron &amp; Metal","geo_score":0.0,"volume":500,"id":"a813laniz9tm","address":"Chilhowie, VA","geo_precision":"unmatched"},"type":"Feature","geometry":null},{"properties":{"dealer":"Westside Recycling &amp; Auto Salvage","geo_score":0.0,"volume":500,"id":"a813lamoyv7b","address":"Sugar Land, TX","geo_precision":"unmatched"},"type":"Feature","geometry":null},{"properties":{"dealer":"Montgomery Scrap Corp","geo_score":0.0,"volume":500,"id":"a813laq943du","address":"Rockville, MD","geo_precision":"unmatched"},"type":"Feature","geometry":null},{"properties":{"dealer":"Conservit Inc","geo_score":0.0,"volume":500,"id":"a813laty1a7n","address":"Hagerstown, MD","geo_precision":"unmatched"},"type":"Feature","geometry":null},{"properties":{"dealer":"Fitzgerald's Salvage &amp; Recycling Inc","geo_score":0.0,"volume":500,"id":"a813laze5hda","address":"Lincoln, DE","geo_precision":"unmatched"},"type":"Feature","geometry":null},{"properties":{"dealer":"International Paper-Denver","geo_score":0.0,"volume":500,"id":"a813las553a1","address":"Denver, CO","geo_precision":"unmatched"},"type":"Feature","geometry":null},{"properties":{"dealer":"Dart Metals Trading Co","geo_score":0.0,"volume":500,"id":"a813lazx2343","address":"Boulder, CO","geo_precision":"unmatched"},"type":"Feature","geometry":null},{"properties":{"dealer":"All Recycling","geo_score":0.0,"volume":500,"id":"a813law8gtm9","address":"Englewood, CO","geo_precision":"unmatched"},"type":"Feature","geometry":null},{"properties":{"dealer":"R&amp;M Asset Solutions","geo_score":0.0,"volume":500,"id":"a813laqzowvg","address":"Commerce City, CO","geo_precision":"unmatched"},"type":"Feature","geometry":null},{"properties":{"dealer":"Strauss Industries","geo_score":0.0,"volume":500,"id":"a813lap0wkml","address":"Wheeling, WV","geo_precision":"unmatched"},"type":"Feature","geometry":null},{"properties":{"dealer":"Recycle WV","geo_score":0.0,"volume":500,"id":"a813latktlh4","address":"Princeton, WV","geo_precision":"unmatched"},"type":"Feature","geometry":null},{"properties":{"dealer":"Taylor Iron &amp; Metal","geo_score":0.0,"volume":500,"id":"a813laz3ncbp","address":"Huntington, WV","geo_precision":"unmatched"},"type":"Feature","geometry":null},{"properties":{"dealer":"Potomac Metals Inc","geo_score":0.0,"volume":500,"id":"a813lapssd8h","address":"Ranson, WV","geo_precision":"unmatched"},"type":"Feature","geometry":null},{"properties":{"dealer":"RJ Recycling LLC (subsidiary of Protrade Steel Co Ltd)-Nitro","geo_score":0.0,"volume":500,"id":"a813lb0sg84r","address":"Nitro, WV","geo_precision":"unmatched"},"type":"Feature","geometry":null},{"properties":{"dealer":"AMI Trading (USA) Inc","geo_score":0.0,"volume":500,"id":"a813laq07br5","address":"Miami, FL","geo_precision":"unmatched"},"type":"Feature","geometry":null},{"properties":{"dealer":"Shulman Co Inc","geo_score":0.0,"volume":500,"id":"a813laq1gqax","address":"Miami, FL","geo_precision":"unmatched"},"type":"Feature","geometry":null},{"properties":{"dealer":"CNA Metals Miami Inc","geo_score":0.0,"volume":500,"id":"a813laoidi30","address":"Miami, FL","geo_precision":"unmatched"},"type":"Feature","geometry":null},{"properties":{"dealer":"Royce Corporation","geo_score":0.0,"volume":500,"id":"a813lat3lhai","address":"Aventura, FL","geo_precision":"unmatched"},"type":"Feature","geometry":null},{"properties":{"dealer":"Behr Iron &amp; Metal-Peoria","geo_score":0.0,"volume":500,"id":"a813lapacpcy","address":"Peoria, IL","geo_precision":"unmatched"},"type":"Feature","geometry":null},{"properties":{"dealer":"Allied Metal Co","geo_score":0.0,"volume":500,"id":"a813laur41yx","address":"Chicago, IL","geo_precision":"unmatched"},"type":"Feature","geometry":null},{"properties":{"dealer":"Lake Shore Metal Recycling LLC","geo_score":0.0,"volume":500,"id":"a813laqskjlj","address":"Evanston, IL","geo_precision":"unmatched"},"type":"Feature","geometry":null},{"properties":{"dealer":"Detroit Iron &amp; Metal Co","geo_score":0.0,"volume":500,"id":"a813lavzmxc5","address":"Detroit, MI","geo_precision":"unmatched"},"type":"Feature","geometry":null},{"properties":{"dealer":"Hunter Douglas Metals Inc","geo_score":0.0,"volume":500,"id":"a813lapy1bv0","address":"Saint Ann, MO","geo_precision":"unmatched"},"type":"Feature","geometry":null},{"properties":{"dealer":"Cash's Scrap Metal &amp; Iron Inc","geo_score":0.0,"volume":500,"id":"a813lavyhu0r","address":"Saint Louis, MO","geo_precision":"unmatched"},"type":"Feature","geometry":null},{"properties":{"dealer":"Shapiro Metals","geo_score":0.0,"volume":500,"id":"a813laq3gqok","address":"Saint Louis, MO","geo_precision":"unmatched"},"type":"Feature","geometry":null},{"properties":{"dealer":"Wallach Iron &amp; Metal Co Inc","geo_score":0.0,"volume":500,"id":"a813lasmf7vb","address":"Saint Louis, MO","geo_precision":"unmatched"},"type":"Feature","geometry":null},{"properties":{"dealer":"Metal Exchange Corp","geo_score":0.0,"volume":500,"id":"a813lanwkk52","address":"Saint Louis, MO","geo_precision":"unmatched"},"type":"Feature","geometry":null},{"properties":{"dealer":"Cash's River Terminal","geo_score":0.0,"volume":500,"id":"a813laxvqg9w","address":"Saint Louis, MO","geo_precision":"unmatched"},"type":"Feature","geometry":null},{"properties":{"dealer":"Ace Scrap Metal Processors","geo_score":0.0,"volume":500,"id":"a813lb09nwp9","address":"Saint Louis, MO","geo_precision":"unmatched"},"type":"Feature","geometry":null},{"properties":{"dealer":"Branch Metal Processing Corp","geo_score":0.0,"volume":500,"id":"a813lau4aip0","address":"Saint Louis, MO","geo_precision":"unmatched"},"type":"Feature","geometry":null},{"properties":{"dealer":"Metalico Aluminum Recovery Inc","geo_score":0.0,"volume":500,"id":"a813laveoom8","address":"East Syracuse, NY","geo_precision":"unmatched"},"type":"Feature","geometry":null},{"properties":{"dealer":"Metalico Syracuse","geo_score":0.0,"volume":500,"id":"a813lay8v1hd","address":"East Syracuse, NY","geo_precision":"unmatched"},"type":"Feature","geometry":null},{"properties":{"dealer":"CNY Resource Recovery Inc","geo_score":0.0,"volume":500,"id":"a813laz3cbzl","address":"Syracuse, NY","geo_precision":"unmatched"},"type":"Feature","geometry":null},{"properties":{"dealer":"Roth Steel Corp","geo_score":0.0,"volume":500,"id":"a813lauzreuq","address":"Syracuse, NY","geo_precision":"unmatched"},"type":"Feature","geometry":null},{"properties":{"dealer":"Empire-Seneca Inc","geo_score":0.0,"volume":500,"id":"a813laquh7ha","address":"Waterloo, NY","geo_precision":"unmatched"},"type":"Feature","geometry":null},{"properties":{"dealer":"Empire Recycling Corp","geo_score":0.0,"volume":500,"id":"a813lavpproq","address":"Utica, NY","geo_precision":"unmatched"},"type":"Feature","geometry":null},{"properties":{"dealer":"Massena Metal Inc","geo_score":0.0,"volume":500,"id":"a813lao5l4v7","address":"Massena, NY","geo_precision":"unmatched"},"type":"Feature","geometry":null},{"properties":{"dealer":"TWA/SOS Metals-Midwest","geo_score":0.0,"volume":500,"id":"a813laudugi2","address":"Wichita, KS","geo_precision":"unmatched"},"type":"Feature","geometry":null},{"properties":{"dealer":"Intra American Metals Inc (Intrametco)","geo_score":0.0,"volume":500,"id":"a813lavop62r","address":"Noblesville, IN","geo_precision":"unmatched"},"type":"Feature","geometry":null},{"properties":{"dealer":"Newco Metals Inc","geo_score":0.0,"volume":500,"id":"a813laputttp","address":"Pendleton, IN","geo_precision":"unmatched"},"type":"Feature","geometry":null},{"properties":{"dealer":"J Solotken &amp; Co Inc","geo_score":0.0,"volume":500,"id":"a813lanwx29b","address":"Indianapolis, IN","geo_precision":"unmatched"},"type":"Feature","geometry":null},{"properties":{"dealer":"Northern Metal Recycling-Willmar MN","geo_score":0.0,"volume":500,"id":"a813lamsrgv6","address":"Willmar, MN","geo_precision":"unmatched"},"type":"Feature","geometry":null},{"properties":{"dealer":"Northern Metal Recycling-St Cloud MN","geo_score":0.0,"volume":500,"id":"a813lax77j3x","address":"Saint Cloud, MN","geo_precision":"unmatched"},"type":"Feature","geometry":null},{"properties":{"dealer":"Metalico Annaco","geo_score":0.0,"volume":500,"id":"a813lax1t8y2","address":"Akron, OH","geo_precision":"unmatched"},"type":"Feature","geometry":null},{"properties":{"dealer":"Six Recycling","geo_score":0.0,"volume":500,"id":"a813layukm5z","address":"East Liverpool, OH","geo_precision":"unmatched"},"type":"Feature","geometry":null},{"properties":{"dealer":"American Iron &amp; Metal Cleveland LLC","geo_score":0.0,"volume":500,"id":"a813lb2f7clg","address":"Cleveland, OH","geo_precision":"unmatched"},"type":"Feature","geometry":null},{"properties":{"dealer":"Reserve Alloys LLC","geo_score":0.0,"volume":500,"id":"a813lan3rvkn","address":"Twinsburg, OH","geo_precision":"unmatched"},"type":"Feature","geometry":null},{"properties":{"dealer":"Jeffco Metals","geo_score":0.0,"volume":500,"id":"a813las3u2qq","address":"Canton, OH","geo_precision":"unmatched"},"type":"Feature","geometry":null},{"properties":{"dealer":"Interstate Shredding, LLC","geo_score":0.0,"volume":500,"id":"a813lamwhfmx","address":"Girard, OH","geo_precision":"unmatched"},"type":"Feature","geometry":null},{"properties":{"dealer":"Niles Iron &amp; Metal LLC","geo_score":0.0,"volume":500,"id":"a813lauhtn11","address":"Niles, OH","geo_precision":"unmatched"},"type":"Feature","geometry":null},{"properties":{"dealer":"Niles Iron &amp; Metal Co Inc","geo_score":0.0,"volume":500,"id":"a813laxsbews","address":"Niles, OH","geo_precision":"unmatched"},"type":"Feature","geometry":null},{"properties":{"dealer":"Magnum Steel &amp; Trading LLC/Magnum Steel International LLC","geo_score":0.0,"volume":500,"id":"a813lay0b7s0","address":"Hudson, OH","geo_precision":"unmatched"},"type":"Feature","geometry":null},{"properties":{"dealer":"Ferromet Corporation","geo_score":0.0,"volume":500,"id":"a813lb1v98my","address":"Medina, OH","geo_precision":"unmatched"},"type":"Feature","geometry":null},{"properties":{"dealer":"Allied-Gator Inc","geo_score":0.0,"volume":500,"id":"a813lapghlno","address":"Youngstown, OH","geo_precision":"unmatched"},"type":"Feature","geometry":null},{"properties":{"dealer":"City Scrap &amp; Salvage Co","geo_score":0.0,"volume":500,"id":"a813lao8xk48","address":"Akron, OH","geo_precision":"unmatched"},"type":"Feature","geometry":null},{"properties":{"dealer":"Dart Metals Trading Co","geo_score":0.0,"volume":500,"id":"a813laun6sw5","address":"Youngstown, OH","geo_precision":"unmatched"},"type":"Feature","geometry":null},{"properties":{"dealer":"Carpenter Metal Solutions Inc","geo_score":0.0,"volume":500,"id":"a813lav2kb48","address":"Alliance, OH","geo_precision":"unmatched"},"type":"Feature","geometry":null},{"properties":{"dealer":"Montgomery Iron &amp; Metal Co","geo_score":0.0,"volume":500,"id":"a813lay8b6pe","address":"Montgomery, AL","geo_precision":"unmatched"},"type":"Feature","geometry":null},{"properties":{"dealer":"Progress Rail Services Corp","geo_score":0.0,"volume":500,"id":"a813lazzfg3l","address":"Wildwood, FL","geo_precision":"unmatched"},"type":"Feature","geometry":null},{"properties":{"dealer":"Pacific Coast Shredding LLC","geo_score":0.0,"volume":500,"id":"a813lauh9h8r","address":"Vancouver, WA","geo_precision":"unmatched"},"type":"Feature","geometry":null},{"properties":{"dealer":"1st Coast Recycling Inc","geo_score":0.0,"volume":500,"id":"a813lax65xf7","address":"Palatka, FL","geo_precision":"unmatched"},"type":"Feature","geometry":null},{"properties":{"dealer":"Pacific International Trading Inc/Dan's Auto Salvage Inc","geo_score":0.0,"volume":500,"id":"a813lat7r52n","address":"Deland, FL","geo_precision":"unmatched"},"type":"Feature","geometry":null},{"properties":{"dealer":"J&amp;J Recycling &amp; Demo LLC","geo_score":0.0,"volume":500,"id":"a813lawb15ln","address":"New Smyrna Beach, FL","geo_precision":"unmatched"},"type":"Feature","geometry":null},{"properties":{"dealer":"Exeter Scrap Metal","geo_score":0.0,"volume":500,"id":"a813lat2ckvs","address":"Wyoming, RI","geo_precision":"unmatched"},"type":"Feature","geometry":null},{"properties":{"dealer":"Berger &amp; Co Recycling Inc","geo_score":0.0,"volume":500,"id":"a813lao8xigu","address":"Pawtucket, RI","geo_precision":"unmatched"},"type":"Feature","geometry":null},{"properties":{"dealer":"Fortune Metal Inc of Rhode Island","geo_score":0.0,"volume":500,"id":"a813lauprgtd","address":"Lincoln, RI","geo_precision":"unmatched"},"type":"Feature","geometry":null},{"properties":{"dealer":"Tube City IMS LLC-c/o Nucor Steel","geo_score":0.0,"volume":500,"id":"a813law1cfdi","address":"Norfolk, NE","geo_precision":"unmatched"},"type":"Feature","geometry":null},{"properties":{"dealer":"Metal Exchange Corp","geo_score":0.0,"volume":500,"id":"a813lav6vqqd","address":"Omaha, NE","geo_precision":"unmatched"},"type":"Feature","geometry":null},{"properties":{"dealer":"Intonu LLC","geo_score":0.0,"volume":500,"id":"a813las32fhy","address":"Atlanta, GA","geo_precision":"unmatched"},"type":"Feature","geometry":null},{"properties":{"dealer":"The Bermet Co","geo_score":0.0,"volume":500,"id":"a813lb2tdzgh","address":"East Point, GA","geo_precision":"unmatched"},"type":"Feature","geometry":null},{"properties":{"dealer":"Newell Recycling LLC","geo_score":0.0,"volume":500,"id":"a813lawnbaxk","address":"East Point, GA","geo_precision":"unmatched"},"type":"Feature","geometry":null},{"properties":{"dealer":"SP Recycling Corp-Central Region","geo_score":0.0,"volume":500,"id":"a813lavo3bma","address":"Forest Park, GA","geo_precision":"unmatched"},"type":"Feature","geometry":null},{"properties":{"dealer":"SP Recycling Corp","geo_score":0.0,"volume":500,"id":"a813lb2vax1q","address":"Forest Park, GA","geo_precision":"unmatched"},"type":"Feature","geometry":null},{"properties":{"dealer":"Alpha Recycling","geo_score":0.0,"volume":500,"id":"a813laxks83s","address":"Norman, OK","geo_precision":"unmatched"},"type":"Feature","geometry":null},{"properties":{"dealer":"Oasis Supply &amp; Trade Inc","geo_score":0.0,"volume":500,"id":"a813lar1qasp","address":"Oklahoma City, OK","geo_precision":"unmatched"},"type":"Feature","geometry":null},{"properties":{"dealer":"Schnitzer Billings","geo_score":0.0,"volume":500,"id":"a813lapbijci","address":"Billings, MT","geo_precision":"unmatched"},"type":"Feature","geometry":null},{"properties":{"dealer":"Pacific Steel &amp; Recycling","geo_score":0.0,"volume":500,"id":"a813lazazuke","address":"Missoula, MT","geo_precision":"unmatched"},"type":"Feature","geometry":null},{"properties":{"dealer":"Pacific Steel &amp; Recycling","geo_score":0.0,"volume":500,"id":"a813lb2o4ckz","address":"Great Falls, MT","geo_precision":"unmatched"},"type":"Feature","geometry":null},{"properties":{"dealer":"Trinidad Recycling &amp; Trading Co Ltd","geo_score":0.0,"volume":500,"id":"a813lanlh668","address":"Orlando, FL","geo_precision":"unmatched"},"type":"Feature","geometry":null},{"properties":{"dealer":"SP Recycling Corp-Orlando Div","geo_score":0.0,"volume":500,"id":"a813laqx8pda","address":"Orlando, FL","geo_precision":"unmatched"},"type":"Feature","geometry":null},{"properties":{"dealer":"Florida Metal Trading Inc","geo_score":0.0,"volume":500,"id":"a813laqlruu6","address":"Kissimmee, FL","geo_precision":"unmatched"},"type":"Feature","geometry":null},{"properties":{"dealer":"MS Services Ltd","geo_score":0.0,"volume":500,"id":"a813larv0vo6","address":"San Jose, CA","geo_precision":"unmatched"},"type":"Feature","geometry":null},{"properties":{"dealer":"Tung Tai Group (USA Office)","geo_score":0.0,"volume":500,"id":"a813larqv26n","address":"San Jose, CA","geo_precision":"unmatched"},"type":"Feature","geometry":null},{"properties":{"dealer":"Service Aluminum Corp","geo_score":0.0,"volume":500,"id":"a813laqj0biu","address":"Ellicott City, MD","geo_precision":"unmatched"},"type":"Feature","geometry":null},{"properties":{"dealer":"SH Landsman &amp; Son Inc","geo_score":0.0,"volume":500,"id":"a813lauqy2bd","address":"Baltimore, MD","geo_precision":"unmatched"},"type":"Feature","geometry":null},{"properties":{"dealer":"Mercer Co","geo_score":0.0,"volume":500,"id":"a813latc4l98","address":"Pittsburgh, PA","geo_precision":"unmatched"},"type":"Feature","geometry":null},{"properties":{"dealer":"Three Rivers Scrap Metal Inc","geo_score":0.0,"volume":500,"id":"a813lau9n77c","address":"Pittsburgh, PA","geo_precision":"unmatched"},"type":"Feature","geometry":null},{"properties":{"dealer":"Josh Steel Co","geo_score":0.0,"volume":500,"id":"a813lb2qgv9h","address":"Braddock, PA","geo_precision":"unmatched"},"type":"Feature","geometry":null},{"properties":{"dealer":"Tube City IMS LLC","geo_score":0.0,"volume":500,"id":"a813layci88e","address":"Pittsburgh, PA","geo_precision":"unmatched"},"type":"Feature","geometry":null},{"properties":{"dealer":"Tube City IMS LLC","geo_score":0.0,"volume":500,"id":"a813lar4lg5p","address":"Glassport, PA","geo_precision":"unmatched"},"type":"Feature","geometry":null},{"properties":{"dealer":"Metalico Neville Metals","geo_score":0.0,"volume":500,"id":"a813lan0mz5t","address":"Pittsburgh, PA","geo_precision":"unmatched"},"type":"Feature","geometry":null},{"properties":{"dealer":"Tube City IMS LLC","geo_score":0.0,"volume":500,"id":"a813lb00jnyp","address":"West Mifflin, PA","geo_precision":"unmatched"},"type":"Feature","geometry":null},{"properties":{"dealer":"Environmental Integrity Co","geo_score":0.0,"volume":500,"id":"a813lar0zneb","address":"Holyoke, MA","geo_precision":"unmatched"},"type":"Feature","geometry":null},{"properties":{"dealer":"George Apkin &amp; Sons Inc","geo_score":0.0,"volume":500,"id":"a813lar6b1we","address":"Adams, MA","geo_precision":"unmatched"},"type":"Feature","geometry":null},{"properties":{"dealer":"Miller Compressing Co","geo_score":0.0,"volume":500,"id":"a813laor3iyi","address":"Milwaukee, WI","geo_precision":"unmatched"},"type":"Feature","geometry":null},{"properties":{"dealer":"Industrial Recyclers Inc","geo_score":0.0,"volume":500,"id":"a813lay3bblu","address":"Menomonee Falls, WI","geo_precision":"unmatched"},"type":"Feature","geometry":null},{"properties":{"dealer":"United Milwaukee Scrap LLC-Standard Div","geo_score":0.0,"volume":500,"id":"a813laoeh7fg","address":"Milwaukee, WI","geo_precision":"unmatched"},"type":"Feature","geometry":null},{"properties":{"dealer":"Gator Industrial LLC","geo_score":0.0,"volume":500,"id":"a813lan5jz2s","address":"Joplin, MO","geo_precision":"unmatched"},"type":"Feature","geometry":null},{"properties":{"dealer":"Progressive Iron and Metal Inc","geo_score":0.0,"volume":500,"id":"a813laxdkv5g","address":"Fremont, OH","geo_precision":"unmatched"},"type":"Feature","geometry":null},{"properties":{"dealer":"Toledo Shredding LLC (subsidiary of Protrade Steel Co Ltd)","geo_score":0.0,"volume":500,"id":"a813law78ynm","address":"Toledo, OH","geo_precision":"unmatched"},"type":"Feature","geometry":null},{"properties":{"dealer":"East Tennessee Iron &amp; Metal Inc","geo_score":0.0,"volume":500,"id":"a813laum431z","address":"Rogersville, TN","geo_precision":"unmatched"},"type":"Feature","geometry":null},{"properties":{"dealer":"Progress Rail Services Corp-Chattanooga","geo_score":0.0,"volume":500,"id":"a813las2hrgz","address":"Chattanooga, TN","geo_precision":"unmatched"},"type":"Feature","geometry":null},{"properties":{"dealer":"Cycle Systems Inc","geo_score":0.0,"volume":500,"id":"a813lar5q4ic","address":"Charlottesville, VA","geo_precision":"unmatched"},"type":"Feature","geometry":null},{"properties":{"dealer":"Cycle Systems Inc","geo_score":0.0,"volume":500,"id":"a813lan8ospz","address":"Lynchburg, VA","geo_precision":"unmatched"},"type":"Feature","geometry":null},{"properties":{"dealer":"American Metal Recycling Inc","geo_score":0.0,"volume":500,"id":"a813lauv29bz","address":"North Royalton, OH","geo_precision":"unmatched"},"type":"Feature","geometry":null},{"properties":{"dealer":"Reserve Alloys LLC-Atlanta","geo_score":0.0,"volume":500,"id":"a813lb1ausox","address":"Twinsburg, OH","geo_precision":"unmatched"},"type":"Feature","geometry":null},{"properties":{"dealer":"Reserve Management Group","geo_score":0.0,"volume":500,"id":"a813laoelgzn","address":"Twinsburg, OH","geo_precision":"unmatched"},"type":"Feature","geometry":null},{"properties":{"dealer":"Aleris Specialty Products Inc-Rock Creek","geo_score":0.0,"volume":500,"id":"a813lb2nzijl","address":"Rock Creek, OH","geo_precision":"unmatched"},"type":"Feature","geometry":null},{"properties":{"dealer":"MetroBec Inc","geo_score":0.0,"volume":500,"id":"a813lauwdg9n","address":"St Hubert, QC","geo_precision":"unmatched"},"type":"Feature","geometry":null},{"properties":{"dealer":"Noral Alloys Inc","geo_score":0.0,"volume":500,"id":"a813laqggli9","address":"Laval, QC","geo_precision":"unmatched"},"type":"Feature","geometry":null},{"properties":{"dealer":"Siloam Springs Metal Recycling","geo_score":0.0,"volume":500,"id":"a813lb2fedq2","address":"Siloam Springs, AR","geo_precision":"unmatched"},"type":"Feature","geometry":null},{"properties":{"dealer":"Yaffe Iron &amp; Metal Corp","geo_score":0.0,"volume":500,"id":"a813laz88big","address":"Fort Smith, AR","geo_precision":"unmatched"},"type":"Feature","geometry":null},{"properties":{"dealer":"Recycling Transaction Limited","geo_score":0.0,"volume":500,"id":"a813laref2cd","address":"Scottsdale, AZ","geo_precision":"unmatched"},"type":"Feature","geometry":null},{"properties":{"dealer":"American Metals Co Inc","geo_score":0.0,"volume":500,"id":"a813lazpx6dd","address":"Mesa, AZ","geo_precision":"unmatched"},"type":"Feature","geometry":null},{"properties":{"dealer":"Tenenbaum Recycling Group LLC","geo_score":0.0,"volume":500,"id":"a813laqfm3ce","address":"Little Rock, AR","geo_precision":"unmatched"},"type":"Feature","geometry":null},{"properties":{"dealer":"Industrial Services of America Inc","geo_score":0.0,"volume":500,"id":"a813lazrysma","address":"Louisville, KY","geo_precision":"unmatched"},"type":"Feature","geometry":null},{"properties":{"dealer":"Metal Exchange Corp","geo_score":0.0,"volume":500,"id":"a813lb1ldyeb","address":"La Grange, KY","geo_precision":"unmatched"},"type":"Feature","geometry":null},{"properties":{"dealer":"Midwest Metals Corp","geo_score":0.0,"volume":500,"id":"a813las2p2gh","address":"Louisville, KY","geo_precision":"unmatched"},"type":"Feature","geometry":null},{"properties":{"dealer":"Algar Inc dba Grade A Allstate Auto Parts","geo_score":0.0,"volume":500,"id":"a813lar1zex6","address":"Louisville, KY","geo_precision":"unmatched"},"type":"Feature","geometry":null},{"properties":{"dealer":"Freedom Metals Inc","geo_score":0.0,"volume":500,"id":"a813laqvdy2f","address":"Louisville, KY","geo_precision":"unmatched"},"type":"Feature","geometry":null},{"properties":{"dealer":"Global Environmental Services","geo_score":0.0,"volume":500,"id":"a813laqp8f3k","address":"Georgetown, KY","geo_precision":"unmatched"},"type":"Feature","geometry":null},{"properties":{"dealer":"Noble Americas Corp","geo_score":0.0,"volume":500,"id":"a813lasl2ac9","address":"Metairie, LA","geo_precision":"unmatched"},"type":"Feature","geometry":null},{"properties":{"dealer":"Airline Salvage Inc","geo_score":0.0,"volume":500,"id":"a813lapek9a6","address":"Metairie, LA","geo_precision":"unmatched"},"type":"Feature","geometry":null},{"properties":{"dealer":"Mark's Muffler Shop &amp; Recycling","geo_score":0.0,"volume":500,"id":"a813latz0d54","address":"New Orleans, LA","geo_precision":"unmatched"},"type":"Feature","geometry":null},{"properties":{"dealer":"Rochester Iron &amp; Metal Recycling Inc","geo_score":0.0,"volume":500,"id":"a813laro5vx7","address":"Rochester, MN","geo_precision":"unmatched"},"type":"Feature","geometry":null},{"properties":{"dealer":"Wm Miller Scrap Iron &amp; Metal Co","geo_score":0.0,"volume":500,"id":"a813lau5ipz9","address":"Winona, MN","geo_precision":"unmatched"},"type":"Feature","geometry":null},{"properties":{"dealer":"American Paper Recycling Inc","geo_score":0.0,"volume":500,"id":"a813lawi84ys","address":"Mansfield, MA","geo_precision":"unmatched"},"type":"Feature","geometry":null},{"properties":{"dealer":"State Line Scrap","geo_score":0.0,"volume":500,"id":"a813larvruq0","address":"South Attleboro, MA","geo_precision":"unmatched"},"type":"Feature","geometry":null},{"properties":{"dealer":"Golden Recycling dba Brockton Iron &amp; Steel Co","geo_score":0.0,"volume":500,"id":"a813lazmhgvu","address":"Brockton, MA","geo_precision":"unmatched"},"type":"Feature","geometry":null},{"properties":{"dealer":"Excel Recycling LLC","geo_score":0.0,"volume":500,"id":"a813lawtjpv5","address":"South Dartmouth, MA","geo_precision":"unmatched"},"type":"Feature","geometry":null},{"properties":{"dealer":"Bridgewater Recycling Inc","geo_score":0.0,"volume":500,"id":"a813latn6ces","address":"Bridgewater, MA","geo_precision":"unmatched"},"type":"Feature","geometry":null},{"properties":{"dealer":"Goldstein Scrap Metal","geo_score":0.0,"volume":500,"id":"a813lb08hcx6","address":"Worcester, MA","geo_precision":"unmatched"},"type":"Feature","geometry":null},{"properties":{"dealer":"Leo Balcewicz Enterprises Inc","geo_score":0.0,"volume":500,"id":"a813lamog66d","address":"Worcester, MA","geo_precision":"unmatched"},"type":"Feature","geometry":null},{"properties":{"dealer":"Miller Recycling Corp","geo_score":0.0,"volume":500,"id":"a813lb11utxl","address":"Mansfield, MA","geo_precision":"unmatched"},"type":"Feature","geometry":null},{"properties":{"dealer":"J&amp;K Recycling LLC","geo_score":0.0,"volume":500,"id":"a813lawgbb5x","address":"Moses Lake, WA","geo_precision":"unmatched"},"type":"Feature","geometry":null},{"properties":{"dealer":"Moskowitz Bros Inc","geo_score":0.0,"volume":500,"id":"a813lanllxoe","address":"Cincinnati, OH","geo_precision":"unmatched"},"type":"Feature","geometry":null},{"properties":{"dealer":"MIMCO Inc","geo_score":0.0,"volume":500,"id":"a813layo9ob7","address":"Cincinnati, OH","geo_precision":"unmatched"},"type":"Feature","geometry":null},{"properties":{"dealer":"Miamitown Auto Parts &amp; Recycling Inc","geo_score":0.0,"volume":500,"id":"a813lay3dddq","address":"Cleves, OH","geo_precision":"unmatched"},"type":"Feature","geometry":null},{"properties":{"dealer":"Global Scrap Management Inc","geo_score":0.0,"volume":500,"id":"a813larf214b","address":"Batavia, OH","geo_precision":"unmatched"},"type":"Feature","geometry":null},{"properties":{"dealer":"American Compressed Steel Corp","geo_score":0.0,"volume":500,"id":"a813lb0ritmz","address":"Cincinnati, OH","geo_precision":"unmatched"},"type":"Feature","geometry":null},{"properties":{"dealer":"Aleris Specification Alloys Inc-Coldwater","geo_score":0.0,"volume":500,"id":"a813lawu97xq","address":"Coldwater, MI","geo_precision":"unmatched"},"type":"Feature","geometry":null},{"properties":{"dealer":"PADNOS-Lansing Div","geo_score":0.0,"volume":500,"id":"a813lb26myyk","address":"Lansing, MI","geo_precision":"unmatched"},"type":"Feature","geometry":null},{"properties":{"dealer":"Nathan H Kelman Inc","geo_score":0.0,"volume":500,"id":"a813laqqa2fu","address":"Cohoes, NY","geo_precision":"unmatched"},"type":"Feature","geometry":null},{"properties":{"dealer":"TA Predel &amp; Co Inc","geo_score":0.0,"volume":500,"id":"a813lb09e0pj","address":"Schenectady, NY","geo_precision":"unmatched"},"type":"Feature","geometry":null},{"properties":{"dealer":"Grimmel Industries","geo_score":0.0,"volume":500,"id":"a813lanwob18","address":"Topsham, ME","geo_precision":"unmatched"},"type":"Feature","geometry":null},{"properties":{"dealer":"Cycle Systems Inc","geo_score":0.0,"volume":500,"id":"a813lapsvhyc","address":"Lacey Spring, VA","geo_precision":"unmatched"},"type":"Feature","geometry":null},{"properties":{"dealer":"Cycle Systems Inc","geo_score":0.0,"volume":500,"id":"a813laup4z6v","address":"Stuarts Draft, VA","geo_precision":"unmatched"},"type":"Feature","geometry":null},{"properties":{"dealer":"Cycle Systems Inc","geo_score":0.0,"volume":500,"id":"a813lawhmbfl","address":"Pulaski, VA","geo_precision":"unmatched"},"type":"Feature","geometry":null},{"properties":{"dealer":"Levi's Iron &amp; Metal Co-Div of Schnitzer Steel Ind","geo_score":0.0,"volume":500,"id":"a813lazr76nu","address":"Fresno, CA","geo_precision":"unmatched"},"type":"Feature","geometry":null},{"properties":{"dealer":"SA Fresno","geo_score":0.0,"volume":500,"id":"a813lanlcpmw","address":"Fresno, CA","geo_precision":"unmatched"},"type":"Feature","geometry":null},{"properties":{"dealer":"Palm Beach Metal Inc","geo_score":0.0,"volume":500,"id":"a813lap37es0","address":"West Palm Beach, FL","geo_precision":"unmatched"},"type":"Feature","geometry":null},{"properties":{"dealer":"CBM Trading Inc","geo_score":0.0,"volume":500,"id":"a813lazqczhj","address":"Wilton, IA","geo_precision":"unmatched"},"type":"Feature","geometry":null},{"properties":{"dealer":"Staiman Recycling Corp","geo_score":0.0,"volume":500,"id":"a813lanl0bof","address":"Williamsport, PA","geo_precision":"unmatched"},"type":"Feature","geometry":null},{"properties":{"dealer":"Penn Recycling Inc","geo_score":0.0,"volume":500,"id":"a813laxysn2s","address":"Williamsport, PA","geo_precision":"unmatched"},"type":"Feature","geometry":null},{"properties":{"dealer":"Weiner Iron &amp; Metal Corp","geo_score":0.0,"volume":500,"id":"a813latkmhb1","address":"Pottsville, PA","geo_precision":"unmatched"},"type":"Feature","geometry":null},{"properties":{"dealer":"Louis Cohen &amp; Son Inc","geo_score":0.0,"volume":500,"id":"a813larr97px","address":"Wilkes Barre, PA","geo_precision":"unmatched"},"type":"Feature","geometry":null},{"properties":{"dealer":"Mekaust Inc","geo_score":0.0,"volume":500,"id":"a813lb2udyej","address":"Ashburn, VA","geo_precision":"unmatched"},"type":"Feature","geometry":null},{"properties":{"dealer":"Lewis Salvage Corporation","geo_score":0.0,"volume":500,"id":"a813lautmtu9","address":"Warsaw, IN","geo_precision":"unmatched"},"type":"Feature","geometry":null},{"properties":{"dealer":"All Pro Scrap Inc","geo_score":0.0,"volume":500,"id":"a813lb1fhm7r","address":"Mishawaka, IN","geo_precision":"unmatched"},"type":"Feature","geometry":null},{"properties":{"dealer":"Schupan Industrial Recycling Services","geo_score":0.0,"volume":500,"id":"a813lb1t0e6m","address":"Elkhart, IN","geo_precision":"unmatched"},"type":"Feature","geometry":null},{"properties":{"dealer":"Ace Recycling","geo_score":0.0,"volume":500,"id":"a813lb2j67w3","address":"Broken Bow, OK","geo_precision":"unmatched"},"type":"Feature","geometry":null},{"properties":{"dealer":"Genesee Scrap &amp; Tin Baling Corp","geo_score":0.0,"volume":500,"id":"a813lazcww5f","address":"Rochester, NY","geo_precision":"unmatched"},"type":"Feature","geometry":null},{"properties":{"dealer":"Empire-Becks Inc","geo_score":0.0,"volume":500,"id":"a813lauoxwex","address":"Shortsville, NY","geo_precision":"unmatched"},"type":"Feature","geometry":null},{"properties":{"dealer":"Joseph Barsuk All Metals Inc","geo_score":0.0,"volume":500,"id":"a813latcocys","address":"Batavia, NY","geo_precision":"unmatched"},"type":"Feature","geometry":null},{"properties":{"dealer":"Metalico Rochester","geo_score":0.0,"volume":500,"id":"a813lamuydsk","address":"Rochester, NY","geo_precision":"unmatched"},"type":"Feature","geometry":null},{"properties":{"dealer":"Premier Metals Group LLC","geo_score":0.0,"volume":500,"id":"a813laq00scj","address":"Rochester, NY","geo_precision":"unmatched"},"type":"Feature","geometry":null},{"properties":{"dealer":"Edward Arnold Scrap Processors","geo_score":0.0,"volume":500,"id":"a813lb1ptbgu","address":"Corfu, NY","geo_precision":"unmatched"},"type":"Feature","geometry":null},{"properties":{"dealer":"Regional Computer Recycling &amp; Recovery/DBA RCR&amp;R","geo_score":0.0,"volume":500,"id":"a813layg1q9b","address":"Victor, NY","geo_precision":"unmatched"},"type":"Feature","geometry":null},{"properties":{"dealer":"SLC Recycling Industries-Div of Ferrous Processing &amp; Trading Co","geo_score":0.0,"volume":500,"id":"a813law78wmu","address":"Warren, MI","geo_precision":"unmatched"},"type":"Feature","geometry":null},{"properties":{"dealer":"Jackson Iron &amp; Metal Co Inc","geo_score":0.0,"volume":500,"id":"a813lb194uee","address":"Jackson, MS","geo_precision":"unmatched"},"type":"Feature","geometry":null},{"properties":{"dealer":"Colt Refining Inc","geo_score":0.0,"volume":500,"id":"a813lapfzzkc","address":"Merrimack, NH","geo_precision":"unmatched"},"type":"Feature","geometry":null},{"properties":{"dealer":"TJN Enterprises Inc","geo_score":0.0,"volume":500,"id":"a813laotpges","address":"Sioux Falls, SD","geo_precision":"unmatched"},"type":"Feature","geometry":null},{"properties":{"dealer":"Taiko Metals Sdn Bhd","geo_score":0.0,"volume":500,"id":"a813laqk4jgt","address":"Kulai Johor,","geo_precision":"unmatched"},"type":"Feature","geometry":null},{"properties":{"dealer":"First Capitol Salvage Inc","geo_score":0.0,"volume":500,"id":"a813las2p6ik","address":"Belmont, WI","geo_precision":"unmatched"},"type":"Feature","geometry":null},{"properties":{"dealer":"Dynamic Recycling","geo_score":0.0,"volume":500,"id":"a813laqxfift","address":"La Crosse, WI","geo_precision":"unmatched"},"type":"Feature","geometry":null},{"properties":{"dealer":"Buckman Iron &amp; Metal Inc","geo_score":0.0,"volume":500,"id":"a813lats67u6","address":"Coplay, PA","geo_precision":"unmatched"},"type":"Feature","geometry":null},{"properties":{"dealer":"Laurel Street Recyclers Inc","geo_score":0.0,"volume":500,"id":"a813lapodrxx","address":"Reading, PA","geo_precision":"unmatched"},"type":"Feature","geometry":null},{"properties":{"dealer":"International Non-Ferrous Metal","geo_score":0.0,"volume":500,"id":"a813lan6v08e","address":"Trainer, PA","geo_precision":"unmatched"},"type":"Feature","geometry":null},{"properties":{"dealer":"Tube City IMS LLC","geo_score":0.0,"volume":500,"id":"a813lamvyj83","address":"Conshohocken, PA","geo_precision":"unmatched"},"type":"Feature","geometry":null},{"properties":{"dealer":"Northern Metal Recycling-EMR USA-Minneapolis MN","geo_score":0.0,"volume":500,"id":"a813laumz9de","address":"Minneapolis, MN","geo_precision":"unmatched"},"type":"Feature","geometry":null},{"properties":{"dealer":"Kirschbaum-Krupp LLC","geo_score":0.0,"volume":500,"id":"a813lauxhmbk","address":"Minneapolis, MN","geo_precision":"unmatched"},"type":"Feature","geometry":null},{"properties":{"dealer":"Alliance Steel Service","geo_score":0.0,"volume":500,"id":"a813lan1azsl","address":"Minneapolis, MN","geo_precision":"unmatched"},"type":"Feature","geometry":null},{"properties":{"dealer":"EOS Metals-Div of Jack Engle Co","geo_score":0.0,"volume":500,"id":"a813lawe0f6n","address":"Minneapolis, MN","geo_precision":"unmatched"},"type":"Feature","geometry":null},{"properties":{"dealer":"Sims Bros Inc Columbus Location","geo_score":0.0,"volume":500,"id":"a813lavlornq","address":"Columbus, OH","geo_precision":"unmatched"},"type":"Feature","geometry":null},{"properties":{"dealer":"Shapiro Recycling Systems","geo_score":0.0,"volume":500,"id":"a813lawlfp87","address":"Dickson, TN","geo_precision":"unmatched"},"type":"Feature","geometry":null},{"properties":{"dealer":"PADNOS-Turner Div","geo_score":0.0,"volume":500,"id":"a813larj8y99","address":"Grand Rapids, MI","geo_precision":"unmatched"},"type":"Feature","geometry":null},{"properties":{"dealer":"PADNOS","geo_score":0.0,"volume":500,"id":"a813lazp9o1c","address":"Holland, MI","geo_precision":"unmatched"},"type":"Feature","geometry":null},{"properties":{"dealer":"PADNOS-Black River Recycling","geo_score":0.0,"volume":500,"id":"a813lb200uoa","address":"Holland, MI","geo_precision":"unmatched"},"type":"Feature","geometry":null},{"properties":{"dealer":"PADNOS-Burton Street Recycling and Supply","geo_score":0.0,"volume":500,"id":"a813latjpunm","address":"Grand Rapids, MI","geo_precision":"unmatched"},"type":"Feature","geometry":null},{"properties":{"dealer":"PADNOS-Front Street Div","geo_score":0.0,"volume":500,"id":"a813lausdjle","address":"Grand Rapids, MI","geo_precision":"unmatched"},"type":"Feature","geometry":null},{"properties":{"dealer":"HongBao Intl Corp","geo_score":0.0,"volume":500,"id":"a813latq2o1v","address":"Andover, MA","geo_precision":"unmatched"},"type":"Feature","geometry":null},{"properties":{"dealer":"Prospect Iron &amp; Steel Corp","geo_score":0.0,"volume":500,"id":"a813lasyeoxo","address":"Somerville, MA","geo_precision":"unmatched"},"type":"Feature","geometry":null},{"properties":{"dealer":"Becker Iron &amp; Metal Inc","geo_score":0.0,"volume":500,"id":"a813laqaudzq","address":"Venice, IL","geo_precision":"unmatched"},"type":"Feature","geometry":null},{"properties":{"dealer":"Top Metal Buyers Inc","geo_score":0.0,"volume":500,"id":"a813lau7cpfe","address":"East Saint Louis, IL","geo_precision":"unmatched"},"type":"Feature","geometry":null},{"properties":{"dealer":"Apex Recycling Services","geo_score":0.0,"volume":500,"id":"a813lavqfvmv","address":"National Stock Yards, IL","geo_precision":"unmatched"},"type":"Feature","geometry":null},{"properties":{"dealer":"Supply-Chain Services Inc (SSI)","geo_score":0.0,"volume":500,"id":"a813lavo32g8","address":"Lombard, IL","geo_precision":"unmatched"},"type":"Feature","geometry":null},{"properties":{"dealer":"Mid-Island Salvage Corp","geo_score":0.0,"volume":500,"id":"a813lawm00sh","address":"Deer Park, NY","geo_precision":"unmatched"},"type":"Feature","geometry":null},{"properties":{"dealer":"PK Metals","geo_score":0.0,"volume":500,"id":"a813lapijr93","address":"Coram, NY","geo_precision":"unmatched"},"type":"Feature","geometry":null},{"properties":{"dealer":"CMET Intl Inc","geo_score":0.0,"volume":500,"id":"a813lb08hqeq","address":"Jericho, NY","geo_precision":"unmatched"},"type":"Feature","geometry":null},{"properties":{"dealer":"Shapiro Brothers Inc","geo_score":0.0,"volume":500,"id":"a813laxab0ki","address":"Festus, MO","geo_precision":"unmatched"},"type":"Feature","geometry":null},{"properties":{"dealer":"Cash's West","geo_score":0.0,"volume":500,"id":"a813laz6gq7k","address":"Saint Louis, MO","geo_precision":"unmatched"},"type":"Feature","geometry":null},{"properties":{"dealer":"Behr Iron &amp; Metal-Riceville","geo_score":0.0,"volume":500,"id":"a813lawjrxjt","address":"Riceville, IA","geo_precision":"unmatched"},"type":"Feature","geometry":null},{"properties":{"dealer":"SKB Environmental Inc","geo_score":0.0,"volume":500,"id":"a813landabao","address":"Saint Paul, MN","geo_precision":"unmatched"},"type":"Feature","geometry":null},{"properties":{"dealer":"Northern Metal Recycling-St Paul MN (Barge Channel Rd)","geo_score":0.0,"volume":500,"id":"a813lb2mu7h2","address":"Saint Paul, MN","geo_precision":"unmatched"},"type":"Feature","geometry":null},{"properties":{"dealer":"United Milwaukee Scrap LLC-Brokerage Div","geo_score":0.0,"volume":500,"id":"a813lasf1p0i","address":"Inver Grove Heights, MN","geo_precision":"unmatched"},"type":"Feature","geometry":null},{"properties":{"dealer":"Tri State Recycling LLC","geo_score":0.0,"volume":500,"id":"a813laphj0mq","address":"Columbus, MS","geo_precision":"unmatched"},"type":"Feature","geometry":null},{"properties":{"dealer":"Gerdau-Bismarck","geo_score":0.0,"volume":500,"id":"a813lasc9r4s","address":"Bismarck, ND","geo_precision":"unmatched"},"type":"Feature","geometry":null},{"properties":{"dealer":"Northern Metal Recycling-Bismark, ND","geo_score":0.0,"volume":500,"id":"a813lan1gj4r","address":"Bismarck, ND","geo_precision":"unmatched"},"type":"Feature","geometry":null},{"properties":{"dealer":"Northern Metal Recycling-Milnor ND","geo_score":0.0,"volume":500,"id":"a813lb0hvhrc","address":"Milnor, ND","geo_precision":"unmatched"},"type":"Feature","geometry":null},{"properties":{"dealer":"Potomac Metals Inc","geo_score":0.0,"volume":500,"id":"a813lapo5ovx","address":"Springfield, VA","geo_precision":"unmatched"},"type":"Feature","geometry":null},{"properties":{"dealer":"Potomac Metals Inc","geo_score":0.0,"volume":500,"id":"a813lar0q4rq","address":"Manassas, VA","geo_precision":"unmatched"},"type":"Feature","geometry":null},{"properties":{"dealer":"Potomac Metals Inc","geo_score":0.0,"volume":500,"id":"a813lb0b2fn7","address":"Sterling, VA","geo_precision":"unmatched"},"type":"Feature","geometry":null},{"properties":{"dealer":"Metalpro Inc","geo_score":0.0,"volume":500,"id":"a813lawfey3v","address":"Springfield, VA","geo_precision":"unmatched"},"type":"Feature","geometry":null},{"properties":{"dealer":"SP Recycling Corp-Prince William Division","geo_score":0.0,"volume":500,"id":"a813lan0fuy1","address":"Manassas, VA","geo_precision":"unmatched"},"type":"Feature","geometry":null},{"properties":{"dealer":"Gilbert Metal Trading Inc dba Global Recycling Inc","geo_score":0.0,"volume":500,"id":"a813laq6sfu3","address":"Charlotte, NC","geo_precision":"unmatched"},"type":"Feature","geometry":null},{"properties":{"dealer":"Southern Metals Co","geo_score":0.0,"volume":500,"id":"a813lawpsflb","address":"Charlotte, NC","geo_precision":"unmatched"},"type":"Feature","geometry":null},{"properties":{"dealer":"Coastal Recycling Inc","geo_score":0.0,"volume":500,"id":"a813lapigaa1","address":"Charlotte, NC","geo_precision":"unmatched"},"type":"Feature","geometry":null},{"properties":{"dealer":"Bruce's Iron &amp; Metal Inc","geo_score":0.0,"volume":500,"id":"a813lar9kwy1","address":"Gastonia, NC","geo_precision":"unmatched"},"type":"Feature","geometry":null},{"properties":{"dealer":"EJ Knight Scrap Material Co Inc","geo_score":0.0,"volume":500,"id":"a813lamxi8b4","address":"Columbus, GA","geo_precision":"unmatched"},"type":"Feature","geometry":null},{"properties":{"dealer":"Scrap Metal Services LLC","geo_score":0.0,"volume":500,"id":"a813lao915yw","address":"Malcolm, AL","geo_precision":"unmatched"},"type":"Feature","geometry":null},{"properties":{"dealer":"Scrap Metal Services LLC","geo_score":0.0,"volume":500,"id":"a813lav496li","address":"Portage, IN","geo_precision":"unmatched"},"type":"Feature","geometry":null},{"properties":{"dealer":"Scrap Metal Services LLC","geo_score":0.0,"volume":500,"id":"a813laqd6d8v","address":"Warren, OH","geo_precision":"unmatched"},"type":"Feature","geometry":null},{"properties":{"dealer":"Aleris Recycling Inc-Chicago Heights","geo_score":0.0,"volume":500,"id":"a813laqlily9","address":"Chicago Heights, IL","geo_precision":"unmatched"},"type":"Feature","geometry":null},{"properties":{"dealer":"United Scrap Metal Inc","geo_score":0.0,"volume":500,"id":"a813lav4d7ky","address":"Cicero, IL","geo_precision":"unmatched"},"type":"Feature","geometry":null},{"properties":{"dealer":"Hunter Douglas Metals Inc","geo_score":0.0,"volume":500,"id":"a813lb0kaeoq","address":"Homewood, IL","geo_precision":"unmatched"},"type":"Feature","geometry":null},{"properties":{"dealer":"Aleris International-Elyria","geo_score":0.0,"volume":500,"id":"a813lauvzv0j","address":"Elyria, OH","geo_precision":"unmatched"},"type":"Feature","geometry":null},{"properties":{"dealer":"Shine Bros Corp","geo_score":0.0,"volume":500,"id":"a813laos8buj","address":"Spencer, IA","geo_precision":"unmatched"},"type":"Feature","geometry":null},{"properties":{"dealer":"Check Mark Metal Corp/Balance Metals International","geo_score":0.0,"volume":500,"id":"a813lawq4rr6","address":"Spencer, IA","geo_precision":"unmatched"},"type":"Feature","geometry":null},{"properties":{"dealer":"Robinson Iron &amp; Metal Co Inc","geo_score":0.0,"volume":500,"id":"a813lano5fqg","address":"Houston, TX","geo_precision":"unmatched"},"type":"Feature","geometry":null},{"properties":{"dealer":"GDB International Inc","geo_score":0.0,"volume":500,"id":"a813launq2an","address":"Sugar Land, TX","geo_precision":"unmatched"},"type":"Feature","geometry":null},{"properties":{"dealer":"C&amp;Y Global Inc","geo_score":0.0,"volume":500,"id":"a813laymvqxh","address":"Pasadena, TX","geo_precision":"unmatched"},"type":"Feature","geometry":null},{"properties":{"dealer":"Holmes Road Recycling Co Inc","geo_score":0.0,"volume":500,"id":"a813laogi5kj","address":"Houston, TX","geo_precision":"unmatched"},"type":"Feature","geometry":null},{"properties":{"dealer":"Rose Metal Processing LLC","geo_score":0.0,"volume":500,"id":"a813lavk4c0m","address":"Houston, TX","geo_precision":"unmatched"},"type":"Feature","geometry":null},{"properties":{"dealer":"Spectrum Metal Recycling","geo_score":0.0,"volume":500,"id":"a813larnbc8u","address":"Houston, TX","geo_precision":"unmatched"},"type":"Feature","geometry":null},{"properties":{"dealer":"Marinette Iron &amp; Metal Co","geo_score":0.0,"volume":500,"id":"a813lao1opfe","address":"Marinette, WI","geo_precision":"unmatched"},"type":"Feature","geometry":null},{"properties":{"dealer":"Diamond Hurwitz Scrap LLC","geo_score":0.0,"volume":500,"id":"a813laz3lvtv","address":"Buffalo, NY","geo_precision":"unmatched"},"type":"Feature","geometry":null},{"properties":{"dealer":"Metalico Buffalo","geo_score":0.0,"volume":500,"id":"a813lawc0yox","address":"Buffalo, NY","geo_precision":"unmatched"},"type":"Feature","geometry":null},{"properties":{"dealer":"Diamond Hurwitz Scrap LLC","geo_score":0.0,"volume":500,"id":"a813lb14q495","address":"Buffalo, NY","geo_precision":"unmatched"},"type":"Feature","geometry":null},{"properties":{"dealer":"Tri-State Scrap LLC","geo_score":0.0,"volume":500,"id":"a813langl71f","address":"Harrisburg, PA","geo_precision":"unmatched"},"type":"Feature","geometry":null},{"properties":{"dealer":"Consolidated Scrap Resources Inc","geo_score":0.0,"volume":500,"id":"a813laqrgypg","address":"Harrisburg, PA","geo_precision":"unmatched"},"type":"Feature","geometry":null},{"properties":{"dealer":"Krentzman Supply Co Inc","geo_score":0.0,"volume":500,"id":"a813lazzwtw6","address":"Lewistown, PA","geo_precision":"unmatched"},"type":"Feature","geometry":null},{"properties":{"dealer":"CSR-Brandywine","geo_score":0.0,"volume":500,"id":"a813lan1gx5l","address":"Lebanon, PA","geo_precision":"unmatched"},"type":"Feature","geometry":null},{"properties":{"dealer":"Consolidated Scrap Resources Inc","geo_score":0.0,"volume":500,"id":"a813laxxbiri","address":"York, PA","geo_precision":"unmatched"},"type":"Feature","geometry":null},{"properties":{"dealer":"Full Circle Recycling Inc","geo_score":0.0,"volume":500,"id":"a813lapmu8f5","address":"Lancaster, PA","geo_precision":"unmatched"},"type":"Feature","geometry":null},{"properties":{"dealer":"Frank Sahd Salvage Center Inc","geo_score":0.0,"volume":500,"id":"a813lapa4xzz","address":"Columbia, PA","geo_precision":"unmatched"},"type":"Feature","geometry":null},{"properties":{"dealer":"Consolidated Scrap Resources Inc","geo_score":0.0,"volume":500,"id":"a813lasj31fo","address":"York, PA","geo_precision":"unmatched"},"type":"Feature","geometry":null},{"properties":{"dealer":"Consolidated Scrap Resources Inc","geo_score":0.0,"volume":500,"id":"a813lat8k0f3","address":"York, PA","geo_precision":"unmatched"},"type":"Feature","geometry":null},{"properties":{"dealer":"Consolidated Scrap Resources Inc","geo_score":0.0,"volume":500,"id":"a813lauwhgn1","address":"York, PA","geo_precision":"unmatched"},"type":"Feature","geometry":null},{"properties":{"dealer":"Hong Key Trading Corp","geo_score":0.0,"volume":500,"id":"a813lb0ug3fv","address":"Brooklyn, NY","geo_precision":"unmatched"},"type":"Feature","geometry":null},{"properties":{"dealer":"Allocco Recycling Ltd","geo_score":0.0,"volume":500,"id":"a813laygls5t","address":"Brooklyn, NY","geo_precision":"unmatched"},"type":"Feature","geometry":null},{"properties":{"dealer":"J Pinz Metals Co Inc","geo_score":0.0,"volume":500,"id":"a813lao7v4vk","address":"Brooklyn, NY","geo_precision":"unmatched"},"type":"Feature","geometry":null},{"properties":{"dealer":"Charles J King Inc","geo_score":0.0,"volume":500,"id":"a813lb1rstmz","address":"Brooklyn, NY","geo_precision":"unmatched"},"type":"Feature","geometry":null},{"properties":{"dealer":"Timpson Trading Corporation","geo_score":0.0,"volume":500,"id":"a813laqydkjk","address":"Bronx, NY","geo_precision":"unmatched"},"type":"Feature","geometry":null},{"properties":{"dealer":"General Alloys","geo_score":0.0,"volume":500,"id":"a813lasb4lqs","address":"Washington, PA","geo_precision":"unmatched"},"type":"Feature","geometry":null},{"properties":{"dealer":"Mercer Co","geo_score":0.0,"volume":500,"id":"a813lamohcwe","address":"Sharon, PA","geo_precision":"unmatched"},"type":"Feature","geometry":null},{"properties":{"dealer":"Ferrotech Corp","geo_score":0.0,"volume":500,"id":"a813lao2oxc4","address":"New Castle, PA","geo_precision":"unmatched"},"type":"Feature","geometry":null},{"properties":{"dealer":"Metalico-Pittsburgh","geo_score":0.0,"volume":500,"id":"a813lappkygf","address":"Brownsville, PA","geo_precision":"unmatched"},"type":"Feature","geometry":null},{"properties":{"dealer":"Global Metal Industrial Corp","geo_score":0.0,"volume":500,"id":"a813lazaxzr9","address":"East Brunswick, NJ","geo_precision":"unmatched"},"type":"Feature","geometry":null},{"properties":{"dealer":"Brick Recycling Company Inc","geo_score":0.0,"volume":500,"id":"a813lap3oarp","address":"Brick, NJ","geo_precision":"unmatched"},"type":"Feature","geometry":null},{"properties":{"dealer":"A&amp;A Truck Parts Inc dba A&amp;A Iron &amp; Metal","geo_score":0.0,"volume":500,"id":"a813laodkby6","address":"Freehold, NJ","geo_precision":"unmatched"},"type":"Feature","geometry":null},{"properties":{"dealer":"Fritz Enterprises Inc","geo_score":0.0,"volume":500,"id":"a813lb1yql8p","address":"Trenton, MI","geo_precision":"unmatched"},"type":"Feature","geometry":null},{"properties":{"dealer":"Huron Valley Steel Corp","geo_score":0.0,"volume":500,"id":"a813laukcdyk","address":"Trenton, MI","geo_precision":"unmatched"},"type":"Feature","geometry":null},{"properties":{"dealer":"Sims Bros Inc-Delaware Location","geo_score":0.0,"volume":500,"id":"a813lasu20v4","address":"Delaware, OH","geo_precision":"unmatched"},"type":"Feature","geometry":null},{"properties":{"dealer":"Aleris Rolled Products LLC-Uhrichsville","geo_score":0.0,"volume":500,"id":"a813lapxm2vs","address":"Uhrichsville, OH","geo_precision":"unmatched"},"type":"Feature","geometry":null},{"properties":{"dealer":"SA El Centro","geo_score":0.0,"volume":500,"id":"a813lazkj6xp","address":"El Centro, CA","geo_precision":"unmatched"},"type":"Feature","geometry":null},{"properties":{"dealer":"SA Hesperia","geo_score":0.0,"volume":500,"id":"a813laqt5fdr","address":"Hesperia, CA","geo_precision":"unmatched"},"type":"Feature","geometry":null},{"properties":{"dealer":"Recycling Center Inc","geo_score":0.0,"volume":500,"id":"a813lb28t8od","address":"Richmond, IN","geo_precision":"unmatched"},"type":"Feature","geometry":null},{"properties":{"dealer":"Greenland (America) Inc","geo_score":0.0,"volume":500,"id":"a813lao249xf","address":"Roswell, GA","geo_precision":"unmatched"},"type":"Feature","geometry":null},{"properties":{"dealer":"SP Recycling Corp-Gwinnett Div","geo_score":0.0,"volume":500,"id":"a813lb1au76z","address":"Lawrenceville, GA","geo_precision":"unmatched"},"type":"Feature","geometry":null},{"properties":{"dealer":"Imperial Zinc Corp","geo_score":0.0,"volume":500,"id":"a813lb1ve0k2","address":"Chicago, IL","geo_precision":"unmatched"},"type":"Feature","geometry":null},{"properties":{"dealer":"Reserve Management Group","geo_score":0.0,"volume":500,"id":"a813lb0q5xe2","address":"Chicago, IL","geo_precision":"unmatched"},"type":"Feature","geometry":null},{"properties":{"dealer":"BL Duke","geo_score":0.0,"volume":500,"id":"a813laqbn7ft","address":"Chicago, IL","geo_precision":"unmatched"},"type":"Feature","geometry":null},{"properties":{"dealer":"A&amp;E Metals Recycling &amp; Packaging","geo_score":0.0,"volume":500,"id":"a813lasrzu54","address":"Westport, MA","geo_precision":"unmatched"},"type":"Feature","geometry":null},{"properties":{"dealer":"International Metal Corp","geo_score":0.0,"volume":500,"id":"a813lat64ekh","address":"Stoughton, MA","geo_precision":"unmatched"},"type":"Feature","geometry":null},{"properties":{"dealer":"Solomon Metals Corp","geo_score":0.0,"volume":500,"id":"a813laueqzts","address":"Lynn, MA","geo_precision":"unmatched"},"type":"Feature","geometry":null},{"properties":{"dealer":"Langley Recycling Inc","geo_score":0.0,"volume":500,"id":"a813lb19aijk","address":"Topeka, KS","geo_precision":"unmatched"},"type":"Feature","geometry":null},{"properties":{"dealer":"Christner Salvage &amp; Recycling","geo_score":0.0,"volume":500,"id":"a813lao1n5m8","address":"Herington, KS","geo_precision":"unmatched"},"type":"Feature","geometry":null},{"properties":{"dealer":"American Metal Solutions Inc","geo_score":0.0,"volume":500,"id":"a813laz67n94","address":"West Columbia, SC","geo_precision":"unmatched"},"type":"Feature","geometry":null},{"properties":{"dealer":"PMR South","geo_score":0.0,"volume":500,"id":"a813lav730xz","address":"Orangeburg, SC","geo_precision":"unmatched"},"type":"Feature","geometry":null},{"properties":{"dealer":"Stewart Recycling Co-Div Stewart Companies Inc","geo_score":0.0,"volume":500,"id":"a813laonx5ea","address":"Sumter, SC","geo_precision":"unmatched"},"type":"Feature","geometry":null},{"properties":{"dealer":"SP Recycling Corp-Richmond Div","geo_score":0.0,"volume":500,"id":"a813lb2mimb7","address":"Richmond, VA","geo_precision":"unmatched"},"type":"Feature","geometry":null},{"properties":{"dealer":"Stratton Metals","geo_score":0.0,"volume":500,"id":"a813launf2lu","address":"Richmond, VA","geo_precision":"unmatched"},"type":"Feature","geometry":null},{"properties":{"dealer":"California Public Recycling Metals Inc","geo_score":0.0,"volume":500,"id":"a813laopuh32","address":"Oxnard, CA","geo_precision":"unmatched"},"type":"Feature","geometry":null},{"properties":{"dealer":"Goodman and Wolfe-Div of Mervis Industries","geo_score":0.0,"volume":500,"id":"a813laq5znub","address":"Terre Haute, IN","geo_precision":"unmatched"},"type":"Feature","geometry":null},{"properties":{"dealer":"Recycling Services of Indiana (RSI)","geo_score":0.0,"volume":500,"id":"a813lau54a9h","address":"Bedford, IN","geo_precision":"unmatched"},"type":"Feature","geometry":null},{"properties":{"dealer":"The Kroot Corp","geo_score":0.0,"volume":500,"id":"a813lamj6y5k","address":"Columbus, IN","geo_precision":"unmatched"},"type":"Feature","geometry":null},{"properties":{"dealer":"C&amp;I Electronics","geo_score":0.0,"volume":500,"id":"a813lb12qpps","address":"Evansville, IN","geo_precision":"unmatched"},"type":"Feature","geometry":null},{"properties":{"dealer":"J Trockman &amp; Sons","geo_score":0.0,"volume":500,"id":"a813lasmvckj","address":"Evansville, IN","geo_precision":"unmatched"},"type":"Feature","geometry":null},{"properties":{"dealer":"ISA Indiana Inc","geo_score":0.0,"volume":500,"id":"a813laxpm24d","address":"Seymour, IN","geo_precision":"unmatched"},"type":"Feature","geometry":null},{"properties":{"dealer":"Dumes Inc","geo_score":0.0,"volume":500,"id":"a813layz3b46","address":"Vincennes, IN","geo_precision":"unmatched"},"type":"Feature","geometry":null},{"properties":{"dealer":"Pasco Iron &amp; Metal","geo_score":0.0,"volume":500,"id":"a813latk81nb","address":"Land O' Lakes, FL","geo_precision":"unmatched"},"type":"Feature","geometry":null},{"properties":{"dealer":"Krentzman Supply Co Inc","geo_score":0.0,"volume":500,"id":"a813lb2x2lqu","address":"State College, PA","geo_precision":"unmatched"},"type":"Feature","geometry":null},{"properties":{"dealer":"Liberty Iron &amp; Metal LLC","geo_score":0.0,"volume":500,"id":"a813lb0a3x0f","address":"Erie, PA","geo_precision":"unmatched"},"type":"Feature","geometry":null},{"properties":{"dealer":"Edward L Verdecchia Co","geo_score":0.0,"volume":500,"id":"a813lazydeha","address":"Erie, PA","geo_precision":"unmatched"},"type":"Feature","geometry":null},{"properties":{"dealer":"GM Honkus &amp; Sons Inc","geo_score":0.0,"volume":500,"id":"a813lau2rdep","address":"Windber, PA","geo_precision":"unmatched"},"type":"Feature","geometry":null},{"properties":{"dealer":"Kantner Iron &amp; Steel Inc","geo_score":0.0,"volume":500,"id":"a813lb2fufvg","address":"Hooversville, PA","geo_precision":"unmatched"},"type":"Feature","geometry":null},{"properties":{"dealer":"Area Material Inc","geo_score":0.0,"volume":500,"id":"a813lawk9f0c","address":"Frankfort, IL","geo_precision":"unmatched"},"type":"Feature","geometry":null},{"properties":{"dealer":"Behr Iron &amp; Metal-Beloit","geo_score":0.0,"volume":500,"id":"a813lb28k79u","address":"South Beloit, IL","geo_precision":"unmatched"},"type":"Feature","geometry":null},{"properties":{"dealer":"First America Metal Corp","geo_score":0.0,"volume":500,"id":"a813lb1x312i","address":"Minooka, IL","geo_precision":"unmatched"},"type":"Feature","geometry":null},{"properties":{"dealer":"Behr Iron &amp; Metal","geo_score":0.0,"volume":500,"id":"a813lazjw7f0","address":"Rockford, IL","geo_precision":"unmatched"},"type":"Feature","geometry":null},{"properties":{"dealer":"Behr Iron &amp; Metal-Non Ferrous","geo_score":0.0,"volume":500,"id":"a813lazqndpp","address":"Rockford, IL","geo_precision":"unmatched"},"type":"Feature","geometry":null},{"properties":{"dealer":"Mallin Brothers Co Inc","geo_score":0.0,"volume":500,"id":"a813lamf8my4","address":"Kansas City, MO","geo_precision":"unmatched"},"type":"Feature","geometry":null},{"properties":{"dealer":"Langley Recycling Inc","geo_score":0.0,"volume":500,"id":"a813lapaqau9","address":"Kansas City, MO","geo_precision":"unmatched"},"type":"Feature","geometry":null},{"properties":{"dealer":"Hawk Steel Industries Inc","geo_score":0.0,"volume":500,"id":"a813laywahne","address":"Kennedale, TX","geo_precision":"unmatched"},"type":"Feature","geometry":null},{"properties":{"dealer":"Asheville Waste Paper Co Inc","geo_score":0.0,"volume":500,"id":"a813latrynma","address":"Asheville, NC","geo_precision":"unmatched"},"type":"Feature","geometry":null},{"properties":{"dealer":"Biltmore Iron &amp; Metal Co Inc","geo_score":0.0,"volume":500,"id":"a813lav7l9or","address":"Asheville, NC","geo_precision":"unmatched"},"type":"Feature","geometry":null},{"properties":{"dealer":"Scrap Metal Services LLC","geo_score":0.0,"volume":500,"id":"a813lavuqefu","address":"Baytown, TX","geo_precision":"unmatched"},"type":"Feature","geometry":null},{"properties":{"dealer":"Sonoco Recycling","geo_score":0.0,"volume":500,"id":"a813laqyz65e","address":"Hartsville, SC","geo_precision":"unmatched"},"type":"Feature","geometry":null},{"properties":{"dealer":"High Tide Metals Inc","geo_score":0.0,"volume":500,"id":"a813laonn7as","address":"Charleston, SC","geo_precision":"unmatched"},"type":"Feature","geometry":null},{"properties":{"dealer":"SJ Stewart Co Inc","geo_score":0.0,"volume":500,"id":"a813lazaft5b","address":"Mount Pleasant, SC","geo_precision":"unmatched"},"type":"Feature","geometry":null},{"properties":{"dealer":"Elgin Recycling Inc","geo_score":0.0,"volume":500,"id":"a813lapp1mtr","address":"Gilberts, IL","geo_precision":"unmatched"},"type":"Feature","geometry":null},{"properties":{"dealer":"Tallahassee Scrap Metals Inc","geo_score":0.0,"volume":500,"id":"a813las5fsrw","address":"Havana, FL","geo_precision":"unmatched"},"type":"Feature","geometry":null},{"properties":{"dealer":"Leon Iron &amp; Metal Inc","geo_score":0.0,"volume":500,"id":"a813lary46t0","address":"Tallahassee, FL","geo_precision":"unmatched"},"type":"Feature","geometry":null},{"properties":{"dealer":"Namco Metals Inc dba Coastal Metals Recycling","geo_score":0.0,"volume":500,"id":"a813lamzgef0","address":"Panama City, FL","geo_precision":"unmatched"},"type":"Feature","geometry":null},{"properties":{"dealer":"Camden Iron &amp; Metal Inc","geo_score":0.0,"volume":500,"id":"a813lawdllum","address":"Camden, NJ","geo_precision":"unmatched"},"type":"Feature","geometry":null},{"properties":{"dealer":"Dart Metals Trading Co","geo_score":0.0,"volume":500,"id":"a813laxqojo5","address":"Marlton, NJ","geo_precision":"unmatched"},"type":"Feature","geometry":null},{"properties":{"dealer":"Giordano's Vineland Scrap Material Co","geo_score":0.0,"volume":500,"id":"a813lavsg15s","address":"Vineland, NJ","geo_precision":"unmatched"},"type":"Feature","geometry":null},{"properties":{"dealer":"Wade Salvage Inc","geo_score":0.0,"volume":500,"id":"a813lawefji1","address":"Atco, NJ","geo_precision":"unmatched"},"type":"Feature","geometry":null},{"properties":{"dealer":"Matteo Brothers Management Inc","geo_score":0.0,"volume":500,"id":"a813lauqnaqt","address":"Thorofare, NJ","geo_precision":"unmatched"},"type":"Feature","geometry":null},{"properties":{"dealer":"Freedom Metals Inc-Winchester","geo_score":0.0,"volume":500,"id":"a813lamfl5v7","address":"Winchester, KY","geo_precision":"unmatched"},"type":"Feature","geometry":null},{"properties":{"dealer":"Blue Grass Recycling of North Kentucky","geo_score":0.0,"volume":500,"id":"a813laodjamh","address":"Burlington, KY","geo_precision":"unmatched"},"type":"Feature","geometry":null},{"properties":{"dealer":"Stuff Recycling","geo_score":0.0,"volume":500,"id":"a813lb1kvs9z","address":"Winchester, KY","geo_precision":"unmatched"},"type":"Feature","geometry":null},{"properties":{"dealer":"PMR CT","geo_score":0.0,"volume":500,"id":"a813lb1eo6am","address":"Willimantic, CT","geo_precision":"unmatched"},"type":"Feature","geometry":null},{"properties":{"dealer":"Prime Materials Recovery Inc","geo_score":0.0,"volume":500,"id":"a813langw307","address":"East Hartford, CT","geo_precision":"unmatched"},"type":"Feature","geometry":null},{"properties":{"dealer":"Aleris Recycling Inc-Loudon","geo_score":0.0,"volume":500,"id":"a813lap2au3h","address":"Loudon, TN","geo_precision":"unmatched"},"type":"Feature","geometry":null},{"properties":{"dealer":"SP Recycling Corp-Knoxville Div","geo_score":0.0,"volume":500,"id":"a813laqnc9ee","address":"Knoxville, TN","geo_precision":"unmatched"},"type":"Feature","geometry":null},{"properties":{"dealer":"TRG Jonesboro LLC","geo_score":0.0,"volume":500,"id":"a813lazkzjva","address":"Jonesboro, AR","geo_precision":"unmatched"},"type":"Feature","geometry":null},{"properties":{"dealer":"Berman Brothers Inc","geo_score":0.0,"volume":500,"id":"a813lauj1dle","address":"Jacksonville, FL","geo_precision":"unmatched"},"type":"Feature","geometry":null},{"properties":{"dealer":"Main Recycling Company LLLP","geo_score":0.0,"volume":500,"id":"a813lawa8wga","address":"Jacksonville, FL","geo_precision":"unmatched"},"type":"Feature","geometry":null},{"properties":{"dealer":"Schneider's Iron &amp; Metal Inc","geo_score":0.0,"volume":500,"id":"a813latjh4g7","address":"Niagara, WI","geo_precision":"unmatched"},"type":"Feature","geometry":null},{"properties":{"dealer":"Schneider's Iron &amp; Metal Inc-East Kingsford Div","geo_score":0.0,"volume":500,"id":"a813lax9ixo3","address":"Kingsford, MI","geo_precision":"unmatched"},"type":"Feature","geometry":null},{"properties":{"dealer":"Coplan Iron &amp; Metal","geo_score":0.0,"volume":500,"id":"a813larxtt2u","address":"Escanaba, MI","geo_precision":"unmatched"},"type":"Feature","geometry":null},{"properties":{"dealer":"Alpert &amp; Alpert Iron &amp; Metal Inc","geo_score":0.0,"volume":500,"id":"a813laxnptc2","address":"Summit, NJ","geo_precision":"unmatched"},"type":"Feature","geometry":null},{"properties":{"dealer":"Metalico Inc","geo_score":0.0,"volume":500,"id":"a813lavcg3x0","address":"Cranford, NJ","geo_precision":"unmatched"},"type":"Feature","geometry":null},{"properties":{"dealer":"Federal Metals &amp; Alloys","geo_score":0.0,"volume":500,"id":"a813larv11yy","address":"South Plainfield, NJ","geo_precision":"unmatched"},"type":"Feature","geometry":null},{"properties":{"dealer":"Glynn Iron and Metal","geo_score":0.0,"volume":500,"id":"a813lb18mt0l","address":"Brunswick, GA","geo_precision":"unmatched"},"type":"Feature","geometry":null},{"properties":{"dealer":"Allied Metal Recycling","geo_score":0.0,"volume":500,"id":"a813lawbaybk","address":"Charlotte, NC","geo_precision":"unmatched"},"type":"Feature","geometry":null},{"properties":{"dealer":"Scepter Resources","geo_score":0.0,"volume":500,"id":"a813lawk1bo5","address":"Rye, NY","geo_precision":"unmatched"},"type":"Feature","geometry":null},{"properties":{"dealer":"W Silver Recycling Inc","geo_score":0.0,"volume":500,"id":"a813lauyxcl4","address":"El Paso, TX","geo_precision":"unmatched"},"type":"Feature","geometry":null},{"properties":{"dealer":"Borg Compressed Steel Corp","geo_score":0.0,"volume":500,"id":"a813lb2bkr4c","address":"Tulsa, OK","geo_precision":"unmatched"},"type":"Feature","geometry":null},{"properties":{"dealer":"The Yaffe Companies Inc","geo_score":0.0,"volume":500,"id":"a813laufb5fn","address":"Muskogee, OK","geo_precision":"unmatched"},"type":"Feature","geometry":null},{"properties":{"dealer":"Global Electric Electronic Processing","geo_score":0.0,"volume":500,"id":"a813las4ak4p","address":"Durham, NC","geo_precision":"unmatched"},"type":"Feature","geometry":null},{"properties":{"dealer":"Synergy Recycling LLC","geo_score":0.0,"volume":500,"id":"a813lanpsgyt","address":"Madison, NC","geo_precision":"unmatched"},"type":"Feature","geometry":null},{"properties":{"dealer":"TT&amp;E Iron &amp; Metal Inc","geo_score":0.0,"volume":500,"id":"a813lavu44di","address":"Garner, NC","geo_precision":"unmatched"},"type":"Feature","geometry":null},{"properties":{"dealer":"Loeb-Lorman Metals Inc","geo_score":0.0,"volume":500,"id":"a813lax00zb1","address":"Watertown, WI","geo_precision":"unmatched"},"type":"Feature","geometry":null},{"properties":{"dealer":"Loeb-Lorman Metals Inc","geo_score":0.0,"volume":500,"id":"a813law1bhda","address":"Fort Atkinson, WI","geo_precision":"unmatched"},"type":"Feature","geometry":null},{"properties":{"dealer":"Napuck Salvage &amp; Supply Inc","geo_score":0.0,"volume":500,"id":"a813lav0zqt8","address":"Neenah, WI","geo_precision":"unmatched"},"type":"Feature","geometry":null},{"properties":{"dealer":"Tennessee Valley Recycling LLC-Pulaski TN Div","geo_score":0.0,"volume":500,"id":"a813latavme1","address":"Pulaski, TN","geo_precision":"unmatched"},"type":"Feature","geometry":null},{"properties":{"dealer":"Smelter Service Corp","geo_score":0.0,"volume":500,"id":"a813lamm6t0x","address":"Mount Pleasant, TN","geo_precision":"unmatched"},"type":"Feature","geometry":null},{"properties":{"dealer":"Midwest Iron &amp; Metal Co Inc","geo_score":0.0,"volume":500,"id":"a813lay0er87","address":"Dayton, OH","geo_precision":"unmatched"},"type":"Feature","geometry":null},{"properties":{"dealer":"First Street Recycling Inc","geo_score":0.0,"volume":500,"id":"a813lasonnut","address":"Richmond, IN","geo_precision":"unmatched"},"type":"Feature","geometry":null},{"properties":{"dealer":"Franklin Iron and Metal Corp","geo_score":0.0,"volume":500,"id":"a813lavwvpl6","address":"Dayton, OH","geo_precision":"unmatched"},"type":"Feature","geometry":null},{"properties":{"dealer":"Sims Bros Inc-Bellefontaine Div","geo_score":0.0,"volume":500,"id":"a813lareqlny","address":"Bellefontaine, OH","geo_precision":"unmatched"},"type":"Feature","geometry":null},{"properties":{"dealer":"Honda Trading America","geo_score":0.0,"volume":500,"id":"a813lawh4xxn","address":"Marysville, OH","geo_precision":"unmatched"},"type":"Feature","geometry":null},{"properties":{"dealer":"Sunrise Recycling LLC","geo_score":0.0,"volume":500,"id":"a813laybeag6","address":"Fort Lauderdale, FL","geo_precision":"unmatched"},"type":"Feature","geometry":null},{"properties":{"dealer":"Mervis Industries-Brownsville","geo_score":0.0,"volume":500,"id":"a813lb2u3afs","address":"Brownsville, TX","geo_precision":"unmatched"},"type":"Feature","geometry":null},{"properties":{"dealer":"All Star Metals","geo_score":0.0,"volume":500,"id":"a813lasb3u6a","address":"Brownsville, TX","geo_precision":"unmatched"},"type":"Feature","geometry":null},{"properties":{"dealer":"Rockaway Recycling Inc","geo_score":0.0,"volume":500,"id":"a813lax1f8yo","address":"Rockaway, NJ","geo_precision":"unmatched"},"type":"Feature","geometry":null},{"properties":{"dealer":"Geptek Inc dba GTI","geo_score":0.0,"volume":500,"id":"a813latt4b3y","address":"Morristown, NJ","geo_precision":"unmatched"},"type":"Feature","geometry":null},{"properties":{"dealer":"Triple M Metal-Verona","geo_score":0.0,"volume":500,"id":"a813las65owq","address":"Verona, NJ","geo_precision":"unmatched"},"type":"Feature","geometry":null},{"properties":{"dealer":"William Reisner Corp","geo_score":0.0,"volume":500,"id":"a813laumx91j","address":"Clinton, MA","geo_precision":"unmatched"},"type":"Feature","geometry":null},{"properties":{"dealer":"Southern Recycling LLC","geo_score":0.0,"volume":500,"id":"a813laoawgg3","address":"Morgan City, LA","geo_precision":"unmatched"},"type":"Feature","geometry":null},{"properties":{"dealer":"Rifkin Scrap Iron &amp; Metal Co","geo_score":0.0,"volume":500,"id":"a813latcbi5h","address":"Saginaw, MI","geo_precision":"unmatched"},"type":"Feature","geometry":null}],"is_temporal":false,"author":{"url":"","metadata":"","contact_name":"","contact_address":"","source":"","contact_phone":""},"source":"","pagination":{"sort":null,"start":0,"total":434,"limit":1000000},"state":"complete","tags":"","published":"2014-08-15T03:14:26-04:00","id":269545}