{"type":"FeatureCollection","data_type":"Dataset","url_type":null,"permissions":[{"permissions":{"download":true,"view":true},"group_id":"everyone"}],"classification":null,"title":"Private Schools (Points)","count":129,"stream_id":269640,"contributor":{"url":"http://geocommons.com/users/50770","name":"lai61616"},"data_attributes":null,"calculation_params":null,"icon_link":null,"link":"http://geocommons.com/overlays/269640.json","extent":[-122.506,37.7098,-122.384,37.8014],"geometry_types":["point"],"unique_name":null,"name":"Private Schools (Points)","feature_count":129,"description":"Private Schools in San Francisco. Derived from spreadsheet provided by Police Department. Addresses were geocoded to corresponding lot polygons. Addresses were updated with data from the National Center for Education Statistics.","next_feature":null,"is_raster":false,"short_classification":"Y","stats":{},"features":[{"properties":{"name":"Adda Clevenger Junior Preparatory","grade":"K - 8","informatio":"School for gifted children","phone":"415/824-2240","id":"a81jdhl1njts","address":"180 Fair Oaks Street","blklot":"3631014"},"type":"Feature","geometry":{"type":"Point","coordinates":[-122.424465109147,37.7537393041225]}},{"properties":{"name":"Brandeis Hillel Day School","grade":"K - 8","informatio":"Jewish day school","phone":"415/406-1035","id":"a81jdhrglgwn","address":"655 Brotherhood Way","blklot":"7380039"},"type":"Feature","geometry":{"type":"Point","coordinates":[-122.472212093886,37.7122169260235]}},{"properties":{"name":"Childrens Day School","grade":"PK- 8","informatio":"Expanding to 8th grade soon.","phone":"415/861-5432","id":"a81jdhygpwvk","address":"333 Dolores Street","blklot":"3567056"},"type":"Feature","geometry":{"type":"Point","coordinates":[-122.425708313198,37.7638580471685]}},{"properties":{"name":"Convent of Sacred Heart Elementary School","grade":"K - 8","informatio":"Catholic; girls school; part of Schools of the Sacred Heart","phone":"415/563-2900","id":"a81jdhurhn47","address":"2222 Broadway","blklot":"0564070"},"type":"Feature","geometry":{"type":"Point","coordinates":[-122.433960162881,37.7948647217879]}},{"properties":{"name":"Epiphany School","grade":"1 - 8","informatio":"Catholic","phone":"415/337-4030","id":"a81jdhlynt3l","address":"600 Italy Avenue","blklot":"6353001"},"type":"Feature","geometry":{"type":"Point","coordinates":[-122.434533257117,37.7157231795963]}},{"properties":{"name":"Hamlin School","grade":"K - 8","informatio":"Girls school","phone":"415/922-0300","id":"a81jdhrc12nu","address":"2120 Broadway Street","blklot":"0565024"},"type":"Feature","geometry":{"type":"Point","coordinates":[-122.432554178243,37.7950728464953]}},{"properties":{"name":"Lisa Hampner Hebrew Academy","grade":"PK - 12","informatio":"Jewish day school","phone":"415/752-7333","id":"a81jdhzrkoop","address":"645 14th Avenue","blklot":"1630007"},"type":"Feature","geometry":{"type":"Point","coordinates":[-122.472873982358,37.7760972664999]}},{"properties":{"name":"Immaculate Conception Academy","grade":"9 - 12","informatio":"Catholic; all girls","phone":"415/824-2052","id":"a81jdhsj2gi6","address":"3625 24th Street","blklot":"6512027"},"type":"Feature","geometry":{"type":"Point","coordinates":[-122.423346813876,37.7517530871803]}},{"properties":{"name":"International Christian School","grade":"PK - 8","informatio":"First Baptist Church","phone":"415/863-1691","id":"a81jdi080rix","address":"42 Waller Street","blklot":"0856003"},"type":"Feature","geometry":{"type":"Point","coordinates":[-122.424230255478,37.7722281375275]}},{"properties":{"name":"Laurel School","grade":"PK - 8","informatio":"","phone":"415/752-3567","id":"a81jdhqa33jm","address":"350 9th Avenue","blklot":"1440011"},"type":"Feature","geometry":{"type":"Point","coordinates":[-122.467012591589,37.7818323385738]}},{"properties":{"name":"Live Oak School","grade":"K - 8","informatio":"","phone":"415/861-8840","id":"a81jdi0yalgo","address":"1555 Mariposa Street","blklot":"4005006"},"type":"Feature","geometry":{"type":"Point","coordinates":[-122.398929264138,37.7634835174316]}},{"properties":{"name":"Meadows-Livingstone School","grade":"1 - 6","informatio":"","phone":"415/695-7735","id":"a81jdhqiuajj","address":"1499 Potrero Avenue","blklot":"4277016"},"type":"Feature","geometry":{"type":"Point","coordinates":[-122.404838395731,37.7496278982175]}},{"properties":{"name":"Mission Dolores School","grade":"K - 8","informatio":"Catholic","phone":"415/861-7673","id":"a81jdhnfzpjr","address":"3371 16th Street","blklot":"3566055"},"type":"Feature","geometry":{"type":"Point","coordinates":[-122.427713075014,37.7640696670451]}},{"properties":{"name":"Our Lady of Visitacion School","grade":"K - 8","informatio":"Catholic","phone":"415/239-7840","id":"a81jdhpihmbg","address":"795 Sunnydale Ave","blklot":"6309122"},"type":"Feature","geometry":{"type":"Point","coordinates":[-122.409411947471,37.7097626418882]}},{"properties":{"name":"Presidio Hill School","grade":"K - 8","informatio":"","phone":"415/751-9318","id":"a81jdhme4hsx","address":"3839 Washington Street","blklot":"0992034"},"type":"Feature","geometry":{"type":"Point","coordinates":[-122.456059894563,37.7885836688377]}},{"properties":{"name":"St. Anthony-Immaculate Conception School","grade":"K - 8","informatio":"Catholic","phone":"415/648-2008","id":"a81jdhmr6mqz","address":"299 Precita Avenue","blklot":"5502003"},"type":"Feature","geometry":{"type":"Point","coordinates":[-122.414249964778,37.7475016138504]}},{"properties":{"name":"St. Brendan's School","grade":"K - 8","informatio":"Catholic","phone":"415/731-2665","id":"a81jdhxsuqzt","address":"940 Laguna Honda Boulevard","blklot":"2915001"},"type":"Feature","geometry":{"type":"Point","coordinates":[-122.455924010824,37.7428539323627]}},{"properties":{"name":"St. Cecilia School","grade":"K - 8","informatio":"Catholic","phone":"415/731-8400","id":"a81jdhwlqalx","address":"660 Vicente Street","blklot":"2418004B"},"type":"Feature","geometry":{"type":"Point","coordinates":[-122.474009602295,37.7399502809592]}},{"properties":{"name":"St. Charles School","grade":"K - 8","informatio":"Catholic","phone":"415/861-7652","id":"a81jdhneiipz","address":"3250 18th Street","blklot":"3574085"},"type":"Feature","geometry":{"type":"Point","coordinates":[-122.416442935397,37.7623230380231]}},{"properties":{"name":"Stratford School","grade":"K - 2","informatio":"Catholic","phone":"415/333-3134","id":"a81jdhvym1l0","address":"301 De Montfort Avenue","blklot":"6940001"},"type":"Feature","geometry":{"type":"Point","coordinates":[-122.461561322971,37.7231484723601]}},{"properties":{"name":"St. Gabriel School","grade":"K - 8","informatio":"Catholic","phone":"415/566-0314","id":"a81jdi0fdjun","address":"2550 41st Avenue","blklot":"2441052"},"type":"Feature","geometry":{"type":"Point","coordinates":[-122.498770912502,37.7395315892838]}},{"properties":{"name":"St. James School","grade":"K - 8","informatio":"Catholic","phone":"415/647-8972","id":"a81jdi0q3euf","address":"321 Fair Oaks Street","blklot":"6512030"},"type":"Feature","geometry":{"type":"Point","coordinates":[-122.423768262106,37.7516533192342]}},{"properties":{"name":"St. John's School","grade":"K - 8","informatio":"Catholic","phone":"415/584-8383","id":"a81jdi09832k","address":"925 Chenery Street","blklot":"6736034"},"type":"Feature","geometry":{"type":"Point","coordinates":[-122.437495989313,37.7347890784682]}},{"properties":{"name":"St. Mary's Chinese Day School","grade":"K - 8","informatio":"Catholic","phone":"415/929-4690","id":"a81jdhzrfcwq","address":"910 Broadway","blklot":"0149009"},"type":"Feature","geometry":{"type":"Point","coordinates":[-122.412375048124,37.7974752345892]}},{"properties":{"name":"Kipp Bayview Academy","grade":"5 - 8","informatio":"Private?","phone":"415/467-2522","id":"a81jdi07oyuk","address":"1060 Key Avenue","blklot":"4994002"},"type":"Feature","geometry":{"type":"Point","coordinates":[-122.396218816589,37.7195172805902]}},{"properties":{"name":"St. Peter's School","grade":"K - 8","informatio":"Catholic","phone":"415/647-8662","id":"a81jdho96gtz","address":"1266 Florida Street","blklot":"4269028"},"type":"Feature","geometry":{"type":"Point","coordinates":[-122.410360012436,37.7517001833482]}},{"properties":{"name":"St. Philip's School","grade":"K - 8","informatio":"Catholic","phone":"415/824-8467","id":"a81jdhzm3ctb","address":"665 Elizabeth Street","blklot":"2831024"},"type":"Feature","geometry":{"type":"Point","coordinates":[-122.435537654852,37.7517581818188]}},{"properties":{"name":"Sts. Peter and Paul Salesian School","grade":"K - 8","informatio":"Catholic","phone":"415/421-5219","id":"a81jdi0bs3zx","address":"660 Filbert Street","blklot":"0089016"},"type":"Feature","geometry":{"type":"Point","coordinates":[-122.410436810451,37.8014218604301]}},{"properties":{"name":"San Francisco Waldorf School","grade":"K - 12","informatio":"","phone":"415/931-2750","id":"a81jdhlpiwip","address":"2938 Washington Street","blklot":"0980082"},"type":"Feature","geometry":{"type":"Point","coordinates":[-122.441940843973,37.7909101833366]}},{"properties":{"name":"Stuart Hall High School","grade":"9 - 12","informatio":"Opened in Fall 2000; Catholic boys school; part of Schools of the Sacred Heart","phone":"415/563-2900","id":"a81jdhpscztv","address":"1715 Octavia Street","blklot":"0663002"},"type":"Feature","geometry":{"type":"Point","coordinates":[-122.427294173669,37.7882510067763]}},{"properties":{"name":"Synergy School","grade":"K - 8","informatio":"Moved to new site in Fall 1999.","phone":"415/567-6177","id":"a81jdhqc3pqu","address":"1387 Valencia Street","blklot":"6515037"},"type":"Feature","geometry":{"type":"Point","coordinates":[-122.42019975627,37.7508742930033]}},{"properties":{"name":"West Portal Lutheran School (1-3)","grade":"1 - 3","informatio":"1-3 campus","phone":"415/665-6330","id":"a81jdhziesyv","address":"1711 37th Avenue","blklot":"2012049"},"type":"Feature","geometry":{"type":"Point","coordinates":[-122.496171513051,37.7549175819818]}},{"properties":{"name":"Archbishop Riordan High School","grade":"9 - 12","informatio":"Catholic","phone":"415/586-8200","id":"a81jdhzpr7li","address":"175 Phelan Avenue","blklot":"3180002"},"type":"Feature","geometry":{"type":"Point","coordinates":[-122.454276584593,37.7279210686935]}},{"properties":{"name":"Bethel Center","grade":"9 - 12","informatio":"Special Ed Program","phone":"415/586-4977","id":"a81jdhqh4qat","address":"2557 Alemany Boulevard","blklot":"7045001A"},"type":"Feature","geometry":{"type":"Point","coordinates":[-122.446510935061,37.7147225277632]}},{"properties":{"name":"Cathedral School for Boys","grade":"K - 8","informatio":"Episcopal Boys school","phone":"415/771-6600","id":"a81jdhsckns4","address":"1275 Sacramento Street","blklot":"0246001"},"type":"Feature","geometry":{"type":"Point","coordinates":[-122.413383228764,37.7920077573482]}},{"properties":{"name":"Chinese American International School","grade":"PK - 8","informatio":"Bilingual curriculum taught in English and Mandarin Chinese","phone":"415/865-6000","id":"a81jdhw261sq","address":"150 Oak Street","blklot":"0833003"},"type":"Feature","geometry":{"type":"Point","coordinates":[-122.421832141455,37.7753805522109]}},{"properties":{"name":"Cornerstone Academy - Campus 1","grade":"PK - 4","informatio":"(PK - 4 campus) Preschool and kindergarten instruction is offered in bilingual Cantonese, Chinese, English; Chinese is offered as a 2nd language.","phone":"415/587-7256","id":"a81jdhmfxivu","address":"801 Silver Avenue","blklot":"5900A025"},"type":"Feature","geometry":{"type":"Point","coordinates":[-122.418324938552,37.7295834193941]}},{"properties":{"name":"Cornerstone Academy - Campus 2","grade":"5 - 10","informatio":"(5 - 10 campus) Preschool and kindergarten instruction is offered in bilingual Cantonese, Chinese, English; Chinese is offered as a 2nd language.","phone":"415/585-5183","id":"a81jdhr3b53b","address":"501 Cambridge Street","blklot":"5992A059"},"type":"Feature","geometry":{"type":"Point","coordinates":[-122.41684655246,37.7249529689663]}},{"properties":{"name":"Corpus Christi School","grade":"K - 8","informatio":"Catholic","phone":"415/587-7014","id":"a81jdhm9g03m","address":"75 Francis Street","blklot":"6796052"},"type":"Feature","geometry":{"type":"Point","coordinates":[-122.435264444995,37.7271788157466]}},{"properties":{"name":"DeMarillac Middle School","grade":"6 - 8","informatio":"Opened in 2001, Catholic, serves underprivileged children in the Tenderloin","phone":"415/552-5220","id":"a81jdhw0v3tw","address":"135 Golden Gate Avenue","blklot":"0349012"},"type":"Feature","geometry":{"type":"Point","coordinates":[-122.413030887465,37.7816655832553]}},{"properties":{"name":"Discovery Center School","grade":"K - 8","informatio":"","phone":"415/333-6609","id":"a81jdho217r7","address":"65 Ocean Avenue","blklot":"6954018"},"type":"Feature","geometry":{"type":"Point","coordinates":[-122.438325736395,37.7233013767472]}},{"properties":{"name":"Drew College Preparatory School","grade":"9 - 12","informatio":"","phone":"415/409-3739","id":"a81jdhq62l9j","address":"2901 California Street","blklot":"1029001"},"type":"Feature","geometry":{"type":"Point","coordinates":[-122.442290514544,37.7875600324654]}},{"properties":{"name":"Ecole Notre Dames des Victoires","grade":"K - 8","informatio":"Catholic","phone":"415/421-0069","id":"a81jdi1c0cgb","address":"659 Pine Street","blklot":"0271023"},"type":"Feature","geometry":{"type":"Point","coordinates":[-122.406466810242,37.7911166226617]}},{"properties":{"name":"Fellowship Academy","grade":"PK - 8","informatio":"","phone":"415/239-0511","id":"a81jdi08kkp1","address":"495 Cambridge Street","blklot":"5992A060"},"type":"Feature","geometry":{"type":"Point","coordinates":[-122.417319636655,37.7257185323362]}},{"properties":{"name":"Freeman School","grade":"K - 8","informatio":"formerly Shalom School","phone":"415/379-6949","id":"a81jdhm0riqj","address":"862 28th Avenue","blklot":"1670009"},"type":"Feature","geometry":{"type":"Point","coordinates":[-122.486934056983,37.7733822039748]}},{"properties":{"name":"Hillwood Academic Day School","grade":"K - 8","informatio":"","phone":"415/931-0400","id":"a81jdhuv332g","address":"2521 Scott Street","blklot":"0961002"},"type":"Feature","geometry":{"type":"Point","coordinates":[-122.440119274665,37.7933225222169]}},{"properties":{"name":"Holy Name School","grade":"K - 8","informatio":null,"phone":"415/731-4077","id":"a81jdhung21z","address":"1560 40th Avenue","blklot":"1885053"},"type":"Feature","geometry":{"type":"Point","coordinates":[-122.498904614699,37.7576972171207]}},{"properties":{"name":"Holy Trinity Orthodox School","grade":"K - 8","informatio":"","phone":"415/581-8451","id":"a81jdhwy45ys","address":"999 Brotherhood Way","blklot":"7380016"},"type":"Feature","geometry":{"type":"Point","coordinates":[-122.482003300497,37.713866531991]}},{"properties":{"name":"Katherine Delmar Burke School","grade":"K - 8","informatio":"Girls school","phone":"415/751-0177","id":"a81jdhyxdm78","address":"7070 California Street","blklot":"1392037"},"type":"Feature","geometry":{"type":"Point","coordinates":[-122.493399849768,37.7849376751974]}},{"properties":{"name":"Katherine Michiels School","grade":"PK - 5","informatio":"Offers program that emphasizes the arts and Spanish. Special program for kids with Dyslexia/Learning Disabilities.","phone":"415/821-1434","id":"a81jdhpw6jzt","address":"1335 Guerrero Street","blklot":"6532026"},"type":"Feature","geometry":{"type":"Point","coordinates":[-122.422310202578,37.7498176820858]}},{"properties":{"name":"Kittredge School","grade":"1 - 8","informatio":null,"phone":"415/750-8390","id":"a81jdhmh0j3u","address":"2355 Lake Street","blklot":"1384016"},"type":"Feature","geometry":{"type":"Point","coordinates":[-122.484957274204,37.7855070960782]}},{"properties":{"name":"Krouzian Armenian School","grade":"PK - 8","informatio":"Christian bilingual school","phone":"415/586-8686","id":"a81jdhvf6td7","address":"825 Brotherhood Way","blklot":"7380026"},"type":"Feature","geometry":{"type":"Point","coordinates":[-122.478317804508,37.7138405223278]}},{"properties":{"name":"La Mel School","grade":"K - 12","informatio":"Special ed school","phone":"415/931-1972","id":"a81jdhl4d6ip","address":"1801 Bush Street","blklot":"0674001"},"type":"Feature","geometry":{"type":"Point","coordinates":[-122.42721594171,37.7875031207127]}},{"properties":{"name":"Lick Wilmerding High School","grade":"9 - 12","informatio":"","phone":"415/333-4021","id":"a81jdhta63ch","address":"755 Ocean Avenue","blklot":"6948023"},"type":"Feature","geometry":{"type":"Point","coordinates":[-122.448979873312,37.7223220961297]}},{"properties":{"name":"Lycee Francais La Perouse San Francisco","grade":"PK - 12","informatio":"French school","phone":"415/661-5232","id":"a81jdhzon8hm","address":"755 Ashbury Street","blklot":"1254011"},"type":"Feature","geometry":{"type":"Point","coordinates":[-122.446968359663,37.7679695431956]}},{"properties":{"name":"Maria Montessori Elementary School","grade":"PK - 6","informatio":"","phone":"415/731-8188","id":"a81jdhuijnrv","address":"678 Portola Drive","blklot":"2892004"},"type":"Feature","geometry":{"type":"Point","coordinates":[-122.453426944428,37.7450545227808]}},{"properties":{"name":"Mercy High School","grade":"9 - 12","informatio":"Catholic; all girls","phone":"415/334-0525","id":"a81jdhuv9s4w","address":"3250 19th Avenue","blklot":"7231003"},"type":"Feature","geometry":{"type":"Point","coordinates":[-122.47358895376,37.7295001227611]}},{"properties":{"name":"Rivendell School","grade":"K - 5","informatio":"","phone":"415/566-7454","id":"a81jdhrxsmy4","address":"4501 Irving Street","blklot":"1801052"},"type":"Feature","geometry":{"type":"Point","coordinates":[-122.506305346755,37.7620277952688]}},{"properties":{"name":"Mother Goose School","grade":"PK - 2","informatio":"","phone":"415/221-6133","id":"a81jdhm7vovn","address":"334 28th Avenue","blklot":"1406035"},"type":"Feature","geometry":{"type":"Point","coordinates":[-122.487839159291,37.7830224178979]}},{"properties":{"name":"Russian-American International School","grade":"K - 4","informatio":"","phone":"415/837-0901","id":"a81jdhy49jlu","address":"1250 Quintara Street","blklot":"2141008A"},"type":"Feature","geometry":{"type":"Point","coordinates":[-122.479099393683,37.7487598566645]}},{"properties":{"name":"Sacred Heart Cathedral Preparatory","grade":"9 - 12","informatio":"Catholic","phone":"415/775-6626","id":"a81jdhvneb6v","address":"1055 Ellis Street","blklot":"0737001"},"type":"Feature","geometry":{"type":"Point","coordinates":[-122.423187691128,37.7832867220627]}},{"properties":{"name":"St. Anne School","grade":"K - 8","informatio":"Catholic; Chinese language classes offered","phone":"415/664-7977","id":"a81jdhup20uz","address":"1320 14th Avenue","blklot":"1768026"},"type":"Feature","geometry":{"type":"Point","coordinates":[-122.471094707058,37.7634100424496]}},{"properties":{"name":"St. Brigid School","grade":"K - 8","informatio":"Catholic","phone":"415/673-4523","id":"a81jdht7qwrw","address":"2250 Franklin Street","blklot":"0595013"},"type":"Feature","geometry":{"type":"Point","coordinates":[-122.422325614053,37.7946572670052]}},{"properties":{"name":"St. Elizabeth School","grade":"K - 8","informatio":"Catholic","phone":"415/468-3247","id":"a81jdhumsy8d","address":"450 Somerset Street","blklot":"6044007"},"type":"Feature","geometry":{"type":"Point","coordinates":[-122.407666840383,37.72568884867]}},{"properties":{"name":"St. Finn Barr School","grade":"K - 8","informatio":"Catholic","phone":"415/333-1800","id":"a81jdhw04u5c","address":"419 Hearst Avenue","blklot":"3121037"},"type":"Feature","geometry":{"type":"Point","coordinates":[-122.447411219997,37.7304450289801]}},{"properties":{"name":"St. Ignatius College Preparatory","grade":"9 - 12","informatio":"Catholic","phone":"415/731-7500","id":"a81jdhxmg4ja","address":"2001 37th Avenue","blklot":"2094006"},"type":"Feature","geometry":{"type":"Point","coordinates":[-122.496383747337,37.7469240683036]}},{"properties":{"name":"St. Monica School","grade":"K - 8","informatio":"Catholic","phone":"415/751-9564","id":"a81jdhz4x1hv","address":"5920 Geary Boulevard","blklot":"1455017"},"type":"Feature","geometry":{"type":"Point","coordinates":[-122.483067709466,37.7804976157535]}},{"properties":{"name":"St. Thomas the Apostle School","grade":"K - 8","informatio":"Catholic","phone":"415/221-2711","id":"a81jdhysrewf","address":"3801 Balboa Street","blklot":"1605001"},"type":"Feature","geometry":{"type":"Point","coordinates":[-122.4997732116,37.7750969705098]}},{"properties":{"name":"St. Vincent de Paul School","grade":"K - 8","informatio":"Catholic","phone":"415/346-5505","id":"a81jdhp07zrk","address":"2350 Green Street","blklot":"0538007"},"type":"Feature","geometry":{"type":"Point","coordinates":[-122.437854205204,37.7961122611299]}},{"properties":{"name":"Sts. Cyril and Methodius High School","grade":"9  - 12","informatio":"Offers program in Orthodox religion, Russian language, literature and history; classes on Tues &amp; Thurs 4:10 - 6:00 pm, Sat 9:00 am - 1:30 pm","phone":"415/752-5122","id":"a81jdhwglqjo","address":"6200 Geary Boulevard","blklot":"1458018"},"type":"Feature","geometry":{"type":"Point","coordinates":[-122.486024433969,37.7803419827215]}},{"properties":{"name":"San Francisco Adventist School","grade":"K - 10","informatio":"","phone":"415/585-5550","id":"a81jdhoz6vgh","address":"66 Geneva Avenue","blklot":"6976016"},"type":"Feature","geometry":{"type":"Point","coordinates":[-122.451190466137,37.7217136066922]}},{"properties":{"name":"San Francisco Chinese Parents Community","grade":"PK - 5","informatio":"","phone":"415/391-5564","id":"a81jdhw1n0b1","address":"843 Stockton Street","blklot":"0224002"},"type":"Feature","geometry":{"type":"Point","coordinates":[-122.408182278517,37.7937370831811]}},{"properties":{"name":"San Francisco Christian School","grade":"K - 12","informatio":"","phone":"415/586-1117","id":"a81jdhtrxx2u","address":"25 Whittier Street","blklot":"6474031"},"type":"Feature","geometry":{"type":"Point","coordinates":[-122.447754217222,37.7100369832577]}},{"properties":{"name":"San Francisco City Academy","grade":"K - 8","informatio":"","phone":"415/673-2992","id":"a81jdhsj5w3q","address":"302 Eddy Street","blklot":"0333006"},"type":"Feature","geometry":{"type":"Point","coordinates":[-122.412941615837,37.7840797231454]}},{"properties":{"name":"San Francisco Day School","grade":"K - 8","informatio":"","phone":"415/931-2422","id":"a81jdhwmqfa9","address":"350 Masonic Avenue","blklot":"1149029"},"type":"Feature","geometry":{"type":"Point","coordinates":[-122.446283053702,37.7780424716492]}},{"properties":{"name":"San Francisco Friends School","grade":"K - 8","informatio":"Info: Accepting applications in K - 2 for 2003; growing to 8th grade","phone":"415/552-8500","id":"a81jdi0qldmn","address":"117 Diamond Street","blklot":"2694028"},"type":"Feature","geometry":{"type":"Point","coordinates":[-122.436798731955,37.760124314787]}},{"properties":{"name":"San Francisco University High School","grade":"9 - 12","informatio":"","phone":"415/447-3100","id":"a81jdhsf6m3o","address":"3065 Jackson Street","blklot":"0982034"},"type":"Feature","geometry":{"type":"Point","coordinates":[-122.44534984413,37.7906552347803]}},{"properties":{"name":"Muhammad University of Islam","grade":"K - 12","informatio":"Islamic","phone":"415/309-1524","id":"a81jdhwwz3lz","address":"5048 3rd Street","blklot":"5338006"},"type":"Feature","geometry":{"type":"Point","coordinates":[-122.391768323514,37.7327945058567]}},{"properties":{"name":"Sand Paths Academy","grade":"6 - 12","informatio":"Specialize in education for emotionally disturbed children with learning differences","phone":"415/826-2662","id":"a81jdhsfxwrr","address":"1218 South Van Ness Avenue","blklot":"3762041"},"type":"Feature","geometry":{"type":"Point","coordinates":[-122.416719671488,37.7534645304699]}},{"properties":{"name":"S.R. Martin College Preparatory","grade":"9 - 12","informatio":"","phone":"415/715-0102","id":"a81jdhvqez5j","address":"2660 San Bruno Avenue","blklot":"5982003A"},"type":"Feature","geometry":{"type":"Point","coordinates":[-122.404094884689,37.7279371005387]}},{"properties":{"name":"Sterne School","grade":"5 - 12","informatio":"Education for students with learning difficulties","phone":"415/922-6081","id":"a81jdhm8mqld","address":"2690 Jackson Street","blklot":"0585012A"},"type":"Feature","geometry":{"type":"Point","coordinates":[-122.439357386769,37.7920568691175]}},{"properties":{"name":"The San Francisco School","grade":"PK - 8","informatio":"","phone":"415/239-5065","id":"a81jdi0ziea8","address":"300 Gaven Street","blklot":"5847032"},"type":"Feature","geometry":{"type":"Point","coordinates":[-122.411697910178,37.7327797828372]}},{"properties":{"name":"Cal Fed Youth Chance High","grade":"9 - 12","informatio":null,"phone":"415/614-0900","id":"a81jdhpu3z56","address":"220 Golden Gate Avenue","blklot":"0345004"},"type":"Feature","geometry":{"type":"Point","coordinates":[-122.414272844311,37.7820994426229]}},{"properties":{"name":"Town School for Boys","grade":"K - 8","informatio":"Boys school","phone":"415/921-3747","id":"a81jdhm2t6ps","address":"2750 Jackson Street","blklot":"0978018"},"type":"Feature","geometry":{"type":"Point","coordinates":[-122.440129401969,37.7920344871544]}},{"properties":{"name":"Urban School of San Francisco","grade":"9 - 12","informatio":"","phone":"415/626-2919","id":"a81jdhvtsuja","address":"1563 Page Street","blklot":"1232032"},"type":"Feature","geometry":{"type":"Point","coordinates":[-122.446383833716,37.7707490155167]}},{"properties":{"name":"Voice of Pentecost Academy","grade":"K - 12","informatio":"","phone":"415/334-0105","id":"a81jdhtygyzp","address":"1970 Ocean Avenue","blklot":"3280018"},"type":"Feature","geometry":{"type":"Point","coordinates":[-122.463973664494,37.7263635759294]}},{"properties":{"name":"West Portal Lutheran School (K,4-8)","grade":"K, 4 - 8","informatio":"K, 4-8 campus","phone":"415/665-6330","id":"a81jdhz2v7p4","address":"200 Sloat Boulevard","blklot":"2540004B"},"type":"Feature","geometry":{"type":"Point","coordinates":[-122.473452288857,37.735355899711]}},{"properties":{"name":"Woodside International School","grade":"6 - 12","informatio":"","phone":"415/564-1063","id":"a81jdhnkky2n","address":"1555 Irving Street","blklot":"1771041"},"type":"Feature","geometry":{"type":"Point","coordinates":[-122.47474796551,37.763431596202]}},{"properties":{"name":"Youth Chance High School","grade":"9 - 12","informatio":"Info: Alternative high school program sponsored by the Downtown YMCA","phone":"415/861-1632","id":"a81jdhu4b24v","address":"25 14th Street","blklot":"3550012"},"type":"Feature","geometry":{"type":"Point","coordinates":[-122.414141661572,37.768336181108]}},{"properties":{"name":"Zion Lutheran School","grade":"K - 8","informatio":"","phone":"415/221-7500","id":"a81jdhv5yggg","address":"495 09th Avenue","blklot":"1535016"},"type":"Feature","geometry":{"type":"Point","coordinates":[-122.467594938428,37.7792180182018]}},{"properties":{"name":"Convent of the Sacred Heart High School","grade":"9-12","informatio":"Catholic; girls school; part of Schools of the Sacred Heart","phone":"415/563-2900","id":"a81jdhlbbhq4","address":"2222 Broadway","blklot":"0564070"},"type":"Feature","geometry":{"type":"Point","coordinates":[-122.433960162881,37.7948647217879]}},{"properties":{"name":"Open Book School","grade":"9 - 11","informatio":null,"phone":"415/563-6747","id":"a81jdi0id1s6","address":"1832 Buchanan Street","blklot":"0675051"},"type":"Feature","geometry":{"type":"Point","coordinates":[-122.429854264985,37.786981745634]}},{"properties":{"name":"Montessori House Of Children","grade":"K - 2","informatio":null,"phone":"415/441-7691","id":"a81jdhu44mx0","address":"1187 Franklin Street","blklot":"0713034"},"type":"Feature","geometry":{"type":"Point","coordinates":[-122.423413698863,37.7850467123665]}},{"properties":{"name":"French-American International School","grade":"PK-12","informatio":"Offers programs of study in French and English; Shares campus with Chinese-American International School.","phone":"415/558-2000","id":"a81jdhowdfcf","address":"150 Oak Street","blklot":"0833003"},"type":"Feature","geometry":{"type":"Point","coordinates":[-122.421832143263,37.7753805535879]}},{"properties":{"name":"Walden High Academy","grade":"8 - 12","informatio":null,"phone":"415/252-7253","id":"a81jdhllfoka","address":"214 Haight Street","blklot":"0851029"},"type":"Feature","geometry":{"type":"Point","coordinates":[-122.42614485169,37.7729403834089]}},{"properties":{"name":"Cow Hollow Kindergarten","grade":"K","informatio":null,"phone":"415/931-0400","id":"a81jdhlcqrpf","address":"2521 Scott Street","blklot":"0961002"},"type":"Feature","geometry":{"type":"Point","coordinates":[-122.440119274665,37.7933225222169]}},{"properties":{"name":"One Fifty Parker Avenue School","grade":"K","informatio":null,"phone":"415/221-0294","id":"a81jdhy6riir","address":"150 Parker Avenue","blklot":"1065035"},"type":"Feature","geometry":{"type":"Point","coordinates":[-122.454097585933,37.7828183974603]}},{"properties":{"name":"Pacific Primary","grade":"K","informatio":null,"phone":"415/346-0906","id":"a81jdhl3t132","address":"1500 Grove Street","blklot":"1184009"},"type":"Feature","geometry":{"type":"Point","coordinates":[-122.441736157238,37.7756569656959]}},{"properties":{"name":"Erikson School","grade":null,"informatio":null,"phone":"415/920-5020","id":"a81jdhuqarh4","address":"1155 Page Street","blklot":"1236025"},"type":"Feature","geometry":{"type":"Point","coordinates":[-122.439704002439,37.7716052278858]}},{"properties":{"name":"Olympia Institute","grade":"7 - 12","informatio":null,"phone":"415/221-1218","id":"a81jdhx589q5","address":"950 Clement Street","blklot":"1423022"},"type":"Feature","geometry":{"type":"Point","coordinates":[-122.469526491566,37.7828921236218]}},{"properties":{"name":"Star of the Sea Elementary","grade":"K - 8","informatio":"Catholic","phone":"415/221-8558","id":"a81jdho6cv2a","address":"360 9th Avenue","blklot":"1440011"},"type":"Feature","geometry":{"type":"Point","coordinates":[-122.467012593323,37.7818323371384]}},{"properties":{"name":"Challenge To Learning","grade":"7 - 12","informatio":null,"phone":"415/221-9200","id":"a81jdhz667rg","address":"924 Balboa Street","blklot":"1553019"},"type":"Feature","geometry":{"type":"Point","coordinates":[-122.468844286772,37.7772622705384]}},{"properties":{"name":"Oakes Children's Center","grade":null,"informatio":null,"phone":"415/564-2310","id":"a81jdhls7t0p","address":"1348 10th Avenue","blklot":"1764031"},"type":"Feature","geometry":{"type":"Point","coordinates":[-122.466990134353,37.7630746324577]}},{"properties":{"name":"Sunset Bible","grade":null,"informatio":null,"phone":"415/564-3040","id":"a81jdi0gwo9w","address":"1690 21st Avenue","blklot":"1923019"},"type":"Feature","geometry":{"type":"Point","coordinates":[-122.478583546303,37.7562693048646]}},{"properties":{"name":"Parkside Preschool And Kindergarten","grade":"K","informatio":null,"phone":"415/564-6250","id":"a81jdhybcsf6","address":"2425 19th Avenue","blklot":"2406005"},"type":"Feature","geometry":{"type":"Point","coordinates":[-122.475987806826,37.7425135292693]}},{"properties":{"name":"Edgewood Center For Children and Families","grade":null,"informatio":null,"phone":"415/681-3211","id":"a81jdhmtza8m","address":"1801 Vicente Street","blklot":"2468A003"},"type":"Feature","geometry":{"type":"Point","coordinates":[-122.486256490211,37.7379846589939]}},{"properties":{"name":"Eureka Learning Center","grade":"K","informatio":null,"phone":"415/648-0380","id":"a81jdhvxm94q","address":"464 Diamond Street","blklot":"2768011"},"type":"Feature","geometry":{"type":"Point","coordinates":[-122.43700787554,37.7549662293153]}},{"properties":{"name":"Holy Family Day Home","grade":"K","informatio":null,"phone":"415/565-504","id":"a81jdhsy6lhw","address":"299 Dolores Street","blklot":"3556025"},"type":"Feature","geometry":{"type":"Point","coordinates":[-122.425841659772,37.7649263116092]}},{"properties":{"name":"Rise Institute","grade":null,"informatio":null,"phone":"415/641-1878","id":"a81jdhp6lzs3","address":"1760 Cesar Chavez","blklot":"4288006"},"type":"Feature","geometry":{"type":"Point","coordinates":[-122.394950142594,37.7504658680714]}},{"properties":{"name":"Joshua Marie Cameron Academy - Whitney","grade":"6 - 9","informatio":null,"phone":"415/642-1134","id":"a81jdhp9crpj","address":"100 Whitney Yound Circle","blklot":"4711006"},"type":"Feature","geometry":{"type":"Point","coordinates":[-122.384213211394,37.7340400791259]}},{"properties":{"name":"Joshua Marie Cameron Academy - Plaza Campus","grade":"9 -12","informatio":null,"phone":"415/642-1134","id":"a81jdhxaiahs","address":"3801 Third Street","blklot":"5235012"},"type":"Feature","geometry":{"type":"Point","coordinates":[-122.387432018118,37.7419403908535]}},{"properties":{"name":"Living Hope Christian","grade":"K - 12","informatio":null,"phone":"415/586-4320","id":"a81jdhpzbbqt","address":"1209 Geneva Avenue","blklot":"6404017"},"type":"Feature","geometry":{"type":"Point","coordinates":[-122.43582765009,37.7143368765962]}},{"properties":{"name":"Lakeside Presbyterian Center For Children","grade":"PK-K","informatio":"Early Childhood Program/Day Care Center","phone":"415/564-5044","id":"a81jdhs54dx7","address":"201 Eucalyptus Drive","blklot":"7295001"},"type":"Feature","geometry":{"type":"Point","coordinates":[-122.475280056263,37.7306737213829]}},{"properties":{"name":"St. Thomas More School","grade":"K-8","informatio":"Catholic","phone":"415/337-0100","id":"a81jdhp5fuvp","address":"50 Thomas More Way","blklot":"7380010"},"type":"Feature","geometry":{"type":"Point","coordinates":[-122.473567717946,37.7125668476174]}},{"properties":{"name":"St. Stephen's School","grade":"K-8","informatio":"Catholic","phone":"415/664-8331","id":"a81jdhtbj5ft","address":"401 Eucalyptus Drive","blklot":"7295011"},"type":"Feature","geometry":{"type":"Point","coordinates":[-122.477721162632,37.7306620110565]}},{"properties":{"name":"Sacred Heart/Saint Dominic School (5-8)","grade":"5-8","informatio":null,"phone":"415/621-8035","id":"a81jdhwq6dc0","address":"735 Fell Street","blklot":"0828022A"},"type":"Feature","geometry":{"type":"Point","coordinates":[-122.430152803151,37.7746997473348]}},{"properties":{"name":"Jewish Community High School for Boys","grade":"9 -12","informatio":null,"phone":"415/345-9777","id":"a81jdhrwlrqz","address":"1835 Ellis Street","blklot":"0729046"},"type":"Feature","geometry":{"type":"Point","coordinates":[-122.436552305851,37.781354116406]}},{"properties":{"name":"St. John of San Francisco Orthodox Academy","grade":"K-12","informatio":"Centered around Orthodox calendar and life","phone":"415/221-3484","id":"a81jdhqbo84b","address":"6210 Geary Boulevard","blklot":"1458018"},"type":"Feature","geometry":{"type":"Point","coordinates":[-122.486024434006,37.7803419841273]}},{"properties":{"name":"Stuart Hall for Boys School","grade":"K - 8","informatio":"Catholic boys school; part of the Schools of the Sacred Heart","phone":"415/563-2900","id":"a81jdhls1q3a","address":"2252 Broadway","blklot":"0564070"},"type":"Feature","geometry":{"type":"Point","coordinates":[-122.433960162881,37.7948647217879]}},{"properties":{"name":"The Scandanavian School","grade":"PK","informatio":"Full time immersion preschool with language classes for children and adults.","phone":"415/665-3276","id":"a81jdhzc1jv3","address":"20 Woodside Avenue","blklot":"2888A001"},"type":"Feature","geometry":{"type":"Point","coordinates":[-122.457904686351,37.7465745194113]}},{"properties":{"name":"The Bay School of San Francisco","grade":"9 - 12","informatio":"In the Presidio; Independent, co-ed, college preparatory school with a curricular emphasis on science and technology, ethics ...","phone":"415/561-5800","id":"a81jdhnm3yme","address":"35 Keyes Avenue","blklot":"1300001"},"type":"Feature","geometry":{"type":"Point","coordinates":[-122.455739691315,37.8006486987941]}},{"properties":{"name":"Hergl School","grade":"N/A","informatio":"Highly structured, developmentally based program for 10 children who require intensive teaching","phone":"415/474-0191","id":"a81jdhtm2n55","address":"1570 Greenwich Street","blklot":"0503011"},"type":"Feature","geometry":{"type":"Point","coordinates":[-122.425722485534,37.8003751722813]}},{"properties":{"name":"Alta Vista School","grade":"K - 12","informatio":null,"phone":"415/437-4700","id":"a81jdhrqi5se","address":"245 Valencia Street","blklot":"3532091"},"type":"Feature","geometry":{"type":"Point","coordinates":[-122.421816270288,37.7689400660405]}},{"properties":{"name":"Cornerstone Academy Kindergarten","grade":"K","informatio":"Babtist","phone":"415/665-9747","id":"a81jdhwbjc9b","address":"1925 Lawton Street","blklot":"1918048"},"type":"Feature","geometry":{"type":"Point","coordinates":[-122.483662491992,37.7574178803331]}},{"properties":{"name":"Fei Tian Academy of the Arts California","grade":"6 - 12","informatio":null,"phone":"415/431-3161","id":"a81jdht8lwqf","address":"101 15th Street","blklot":"3937001"},"type":"Feature","geometry":{"type":"Point","coordinates":[-122.402128609941,37.7671522083139]}},{"properties":{"name":"Megan Furth Academy","grade":"k - 8","informatio":"Roman Catholic","phone":"415/346-9500","id":"a81jdhz1ogfa","address":"2445 Pine Street","blklot":"658001"},"type":"Feature","geometry":{"type":"Point","coordinates":[-122.435948288445,37.7874711217293]}},{"properties":{"name":"Spectrum Center Inc","grade":"6 - 12","informatio":null,"phone":"415/861-5806","id":"a81jdhqvfhym","address":"95 Gough Street","blklot":"0853020"},"type":"Feature","geometry":{"type":"Point","coordinates":[-122.422714726215,37.7737835083162]}},{"properties":{"name":"St. Paul's","grade":"k - 8","informatio":"Roman Catholic","phone":"415/648-2055","id":"a81jdhl406wc","address":"1690 Church Street","blklot":"6619003"},"type":"Feature","geometry":{"type":"Point","coordinates":[-122.427104587263,37.7439163153986]}},{"properties":{"name":"Wen Jian Ying","grade":"K - 12","informatio":null,"phone":"415/586-6987","id":"a81jdhxctcp3","address":"259 Judson Avenue","blklot":"3181024"},"type":"Feature","geometry":{"type":"Point","coordinates":[-122.447567025057,37.7280199621956]}}],"is_temporal":false,"author":{"url":"","metadata":"","contact_name":"","contact_address":"1 South Van Ness Ave, 2nd Floor, San Francisco, California, 94103","source":"San Francisco Enterprise GIS Program, City and County of San Francisco","contact_phone":"(415) 581-7100"},"source":"","pagination":{"sort":null,"start":0,"total":129,"limit":1000000},"state":"complete","tags":"","published":"2011-03-29T16:00:00Z","id":269640}