{"type":"FeatureCollection","data_type":"Dataset","url_type":null,"permissions":[{"permissions":{"download":true,"view":true},"group_id":"everyone"}],"classification":null,"title":"Nissin Dealer Locator","count":192,"stream_id":270775,"contributor":{"url":"http://geocommons.com/users/48792","name":"Minox USA"},"data_attributes":null,"calculation_params":null,"icon_link":null,"link":"http://geocommons.com/overlays/270775.json","extent":[-123.319,26.4637,-70.0001,47.7423],"geometry_types":["point"],"unique_name":null,"name":"Nissin Dealer Locator","feature_count":192,"description":"","next_feature":null,"is_raster":false,"short_classification":"Y","stats":{},"features":[{"properties":{"city":"New York","zip":"10011","st":"NY","company name":"17th Street Photo","store telephone":"212-366-9870","street":"33 West 17th Street","web address":"http://www.17photo.com/search.php?mode=search&amp;substring=Nissin&amp;including=all&amp;by_title=on&amp;by_sku=on&amp;categoryid=39&amp;category_main=on&amp;manufacturers[]=262","id":"a865aice7mlu"},"type":"Feature","geometry":{"type":"Point","coordinates":[-73.994612,40.738895]}},{"properties":{"city":"New York","zip":"10018","st":"NY","company name":"42nd Street Photo","store telephone":"888-810-4242","street":"378 5th Avenue","web address":"www.42photo.com","id":"a865ahzj8jei"},"type":"Feature","geometry":{"type":"Point","coordinates":[-73.983801,40.749553]}},{"properties":{"city":"Edison","zip":"08837","st":"NJ","company name":"Abe's of Maine","store telephone":"800-992-2237","street":"5 Fernwood Ave.","web address":"www.abesofmaine.com","id":"a865ai0nvydx"},"type":"Feature","geometry":{"type":"Point","coordinates":[-74.351656,40.497355]}},{"properties":{"city":"Roseville","zip":"95678","st":"CA","company name":"Action Camera","store telephone":"916-786-2288","street":"1000 Sunrise Ave. #4B","web address":"www.actionca,era.com","id":"a865ai1qq7zv"},"type":"Feature","geometry":{"type":"Point","coordinates":[-121.799575,38.687019]}},{"properties":{"city":"New York","zip":"10011","st":"NY","company name":"Adorama Camera Inc","store telephone":"201-741-0052","street":"42 West 18th Street","web address":"http://www.adorama.com/searchsite/default.aspx?searchinfo=Nissin","id":"a865ai4twixv"},"type":"Feature","geometry":{"type":"Point","coordinates":[-73.994038,40.739229]}},{"properties":{"city":"Portland","zip":"97225","st":"OR","company name":"Advance Camera","store telephone":"503-292-6996","street":"8124 SW Beaverton Hillsdale Hwy","web address":"www.advancecamera.com","id":"a865ai6spqd9"},"type":"Feature","geometry":{"type":"Point","coordinates":[-122.757527,45.486099]}},{"properties":{"city":"Orem","zip":"84057","st":"UT","company name":"Allen's Camera","store telephone":"801-224-0006","street":"626 N. State Street","web address":"www.allenscamera.net","id":"a865ai9a3k6t"},"type":"Feature","geometry":{"type":"Point","coordinates":[-111.695799,40.298958]}},{"properties":{"city":"Provo","zip":"84601","st":"UT","company name":"Allen's Camera","store telephone":"801-373-4440","street":"36 N. University","web address":"www.allenscamera.net","id":"a865aidkbxgn"},"type":"Feature","geometry":{"type":"Point","coordinates":[-111.658686,40.233713]}},{"properties":{"city":"American Fork","zip":"84003","st":"UT","company name":"Allen's Camera","store telephone":"801-756-3313","street":"76 N. 100 East","web address":"www.allenscamera.net","id":"a865ai2elfqn"},"type":"Feature","geometry":{"type":"Point","coordinates":[-111.802517,40.379736]}},{"properties":{"city":"Bethel","zip":"06801","st":"CT","company name":"Akces Media LLC","store telephone":"203-744-7909","street":"32 Stony Hill Road","web address":"http://alzodigital.com/online_store/selection_porta_flash.htm","id":"a865ai5nyf1d"},"type":"Feature","geometry":{"type":"Point","coordinates":[-73.390057,41.416239]}},{"properties":{"city":"Des Plaines","zip":"60016","st":"IL","company name":"Alpine Camera","store telephone":"847-299-6181","street":"686 Lee Street","web address":null,"id":"a865aic615xj"},"type":"Feature","geometry":{"type":"Point","coordinates":[-87.888439,42.040873]}},{"properties":{"city":"Tulsa","zip":"74112","st":"OK","company name":"Apertures Inc.","store telephone":"918-742-0500","street":"1936 S. Harvard Avenue","web address":"www.aperturesphoto.com","id":"a865ai7jseab"},"type":"Feature","geometry":{"type":"Point","coordinates":[-95.940287,36.159918]}},{"properties":{"city":"Arlington","zip":"76011","st":"TX","company name":"Arlington Camera Inc","store telephone":"817-261-8131","street":"544 West Randol Mill Road","web address":"www.arlingtoncamera.com/shop/index.php?p=catalog&amp;mode=manufacturer&amp;mid=278","id":"a865aie3uhnb"},"type":"Feature","geometry":{"type":"Point","coordinates":[-97.113369,32.749991]}},{"properties":{"city":"Lubbock","zip":"79413","st":"TX","company name":"Armadillo Camera","store telephone":"806-795-6405","street":"3824 50th Street","web address":null,"id":"a865ai3c69cg"},"type":"Feature","geometry":{"type":"Point","coordinates":[-101.896911,33.54883]}},{"properties":{"city":"Glendale","zip":"11385","st":"NY","company name":"Armato's Photo Service Inc.","store telephone":"718-628-6800","street":"6701 Myrtle Ave.","web address":"www.armatosvideo.com","id":"a865aibqudwz"},"type":"Feature","geometry":{"type":"Point","coordinates":[-73.901415,40.700491]}},{"properties":{"city":"Las Vegas","zip":"89102","st":"NV","company name":"B&amp;C Camera / Joe Camera Inc","store telephone":"702-871-1100","street":"4511 W Sahara Avenue","web address":"www.bandccamera.com","id":"a865ai85f4rm"},"type":"Feature","geometry":{"type":"Point","coordinates":[-115.200747,36.144406]}},{"properties":{"city":"Fort Smith","zip":"72901","st":"AR","company name":"Bedford Camera","store telephone":"479-785-1212","street":"2801 Rogers Ave","web address":null,"id":"a865aifh8gsy"},"type":"Feature","geometry":{"type":"Point","coordinates":[-94.401478,35.375387]}},{"properties":{"city":"Rogers","zip":"72756","st":"AR","company name":"Bedford Camera","store telephone":"479-636-2424","street":"1320 W. Walnut","web address":null,"id":"a865aiag7vdn"},"type":"Feature","geometry":{"type":"Point","coordinates":[-93.983836,36.371052]}},{"properties":{"city":"Little Rock","zip":"72212","st":"AR","company name":"Bedford Camera","store telephone":"501-224-2020","street":"11400 N. Rodney Parham Road","web address":null,"id":"a865ai596169"},"type":"Feature","geometry":{"type":"Point","coordinates":[-92.402892,34.772484]}},{"properties":{"city":"Fayetteville","zip":"72703","st":"AR","company name":"Bedford Camera","store telephone":"479-521-1212","street":"3277 N College","web address":null,"id":"a865aiey60fa"},"type":"Feature","geometry":{"type":"Point","coordinates":[-94.145198,36.110104]}},{"properties":{"city":"North Little Rock","zip":"72116","st":"AR","company name":"Bedford Camera","store telephone":"501-758-2020","street":"2755 Lakewood Village Drive","web address":null,"id":"a865ai4l86wj"},"type":"Feature","geometry":{"type":"Point","coordinates":[-92.233303,34.797764]}},{"properties":{"city":"Brockton","zip":"02301","st":"MA","company name":"Benner's Camera Shops","store telephone":"508-583-1058","street":"995 Main Street","web address":"www.bennercamera.com","id":"a865aibdbt81"},"type":"Feature","geometry":{"type":"Point","coordinates":[-71.016437,42.066235]}},{"properties":{"city":"Westwood","zip":"07675","st":"NJ","company name":"Bergen County Camera","store telephone":"201-664-4113","street":"270 Westwood Avenue","web address":"www.bergencountycamera.com","id":"a865aidrllkq"},"type":"Feature","geometry":{"type":"Point","coordinates":[-74.030182,40.992999]}},{"properties":{"city":"Pittsburgh","zip":"15212","st":"PA","company name":"Bernies Photo Center","store telephone":"412-231-7171","street":"525 E. Ohio Street","web address":null,"id":"a865ai7jb8gg"},"type":"Feature","geometry":{"type":"Point","coordinates":[-80.002616,40.453148]}},{"properties":{"city":"Flemington","zip":"08822","st":"NJ","company name":"Black Lab Studio &amp; Imaging","store telephone":"908-751-5131","street":"24A Main Street","web address":"www.blacklabimaging.com","id":"a865ai64vjoq"},"type":"Feature","geometry":{"type":"Point","coordinates":[-74.859018,40.511893]}},{"properties":{"city":"Boston","zip":"2108","st":"MA","company name":"Bromfield Camera","store telephone":null,"street":"10 Bromfield Street","web address":null,"id":"a865ahz4eg3b"},"type":"Feature","geometry":{"type":"Point","coordinates":[-71.060075,42.356593]}},{"properties":{"city":"New York","zip":"10010","st":"NY","company name":"Calumet New York","store telephone":"212-898-8 500","street":"22 W. 22nd Street","web address":"www.calumetphoto.com","id":"a865ai7cm6jx"},"type":"Feature","geometry":{"type":"Point","coordinates":[-73.99007,40.74088]}},{"properties":{"city":"Hollywood","zip":"90038","st":"CA","company name":"Calumet Los Angeles","store telephone":"323-466-1238","street":"1135 N. Highland Ave.","web address":"www.calumetphoto.com","id":"a865ai719gjk"},"type":"Feature","geometry":{"type":"Point","coordinates":[-118.298662,33.786594]}},{"properties":{"city":"Oak Brook","zip":"60523","st":"IL","company name":"Calumet Oak Brook","store telephone":"630-860-7458","street":"1600 West 16th Street","web address":"www.calumetphoto.com","id":"a865ai9962fv"},"type":"Feature","geometry":{"type":"Point","coordinates":[-87.957443,41.853815]}},{"properties":{"city":"Chicago","zip":"60622","st":"IL","company name":"Calumet Chicago","store telephone":"312-440-4920","street":"111 N. Cherry Street","web address":"www.calumetphoto.com","id":"a865ai9n53p8"},"type":"Feature","geometry":{"type":"Point","coordinates":[-87.652741,41.901894]}},{"properties":{"city":"Cambridge","zip":"02142","st":"MA","company name":"Calumet Cambridge","store telephone":"617-576-2600","street":"105 First Street","web address":"www.calumetphoto.com","id":"a865ai6v13bv"},"type":"Feature","geometry":{"type":"Point","coordinates":[-71.078063,42.365913]}},{"properties":{"city":"Philadelphia","zip":"19147","st":"PA","company name":"Calumet Philadelphia","store telephone":"215-399-2155","street":"1400 S. Columbus Blvd.","web address":"www.calumetphoto.com","id":"a865ai1dd7ap"},"type":"Feature","geometry":{"type":"Point","coordinates":[-75.142339,39.93859]}},{"properties":{"city":"Santa Ana","zip":"92705","st":"CA","company name":"Calumet Santa Ana","store telephone":"714-285-0143","street":"1430 South Village Way, Suite A","web address":"www.calumetphoto.com","id":"a865ai8bsvz9"},"type":"Feature","geometry":{"type":"Point","coordinates":[-117.83587,33.73382]}},{"properties":{"city":"Escondido","zip":"92025","st":"CA","company name":"Calumet San Diego","store telephone":"760-737-6002","street":"830 W. Valley Parkway","web address":"www.calumetphoto.com","id":"a865ai27vzg6"},"type":"Feature","geometry":{"type":"Point","coordinates":[-117.083489,33.121896]}},{"properties":{"city":"San Francisco","zip":"94110","st":"CA","company name":"Calumet San Francisco","store telephone":"415-643-9275","street":"2001 Bryant Street","web address":"www.calumetphoto.com","id":"a865aibcuz1u"},"type":"Feature","geometry":{"type":"Point","coordinates":[-122.409997,37.760484]}},{"properties":{"city":"Burbank","zip":"91502","st":"CA","company name":"CAM Photo &amp; Imaging","store telephone":"818-841-5011","street":"519 N. Glenoaks Blvd.","web address":null,"id":"a865aiaoxk03"},"type":"Feature","geometry":{"type":"Point","coordinates":[-118.30729,34.183955]}},{"properties":{"city":"Hartford","zip":"06103","st":"CT","company name":"Camera Bar","store telephone":"860-525-2158","street":"75 Asylum Street","web address":null,"id":"a865ahz63rtm"},"type":"Feature","geometry":{"type":"Point","coordinates":[-72.675131,41.766932]}},{"properties":{"city":"Oshkosh","zip":"54901","st":"WI","company name":"Camera Casino","store telephone":null,"street":"439 N Main Street","web address":"www.cameracasino.com","id":"a865ai4zd0ac"},"type":"Feature","geometry":{"type":"Point","coordinates":[-88.5376,44.019506]}},{"properties":{"city":"Houston","zip":"77007","st":"TX","company name":"Camera Coop","store telephone":"713-522-7837","street":"801 Durham","web address":"www.cameracoophouston.com","id":"a865ahz6qm9t"},"type":"Feature","geometry":{"type":"Point","coordinates":[-95.410579,29.769703]}},{"properties":{"city":"Modesto","zip":"95354","st":"CA","company name":"Camera Center","store telephone":"209-524-7361","street":"1220 J Street","web address":null,"id":"a865aiar1228"},"type":"Feature","geometry":{"type":"Point","coordinates":[-120.99756,37.642475]}},{"properties":{"city":"Rockford","zip":"61114","st":"IL","company name":"Camera Craft - Rockford","store telephone":"815-877-3686","street":"3801 N. Perryville Road","web address":"www.cameracraftinc.com","id":"a865aiafkjc4"},"type":"Feature","geometry":{"type":"Point","coordinates":[-88.980398,42.312269]}},{"properties":{"city":"San Antonio","zip":"78216","st":"TX","company name":"The Camera Exchange","store telephone":"210-525-8800","street":"6635 San Psdro Ave.","web address":"www.camerax.com","id":"a865ai33m54c"},"type":"Feature","geometry":{"type":"Point","coordinates":[-98.500909,29.390466]}},{"properties":{"city":"Tulsa","zip":"74133","st":"OK","company name":"Camera Gallery","store telephone":"918-252-3652","street":"8172 E. 68th Street","web address":"cameragallery.com","id":"a865aidgoh8m"},"type":"Feature","geometry":{"type":"Point","coordinates":[-95.894723,36.063355]}},{"properties":{"city":"Pontiac","zip":"48341","st":"MI","company name":"Camera Mart Inc","store telephone":"248-334-9567","street":"11 S. Telegraph Road","web address":null,"id":"a865aid99uu9"},"type":"Feature","geometry":{"type":"Point","coordinates":[-83.325695,42.6352]}},{"properties":{"city":"Greenville","zip":"29609","st":"SC","company name":"Cameras Unlimited","store telephone":"864-271-2029","street":"641 Wade Hampton Blvd.","web address":null,"id":"a865ai9x5x0k"},"type":"Feature","geometry":{"type":"Point","coordinates":[-82.37873,34.867223]}},{"properties":{"city":"Walnut Creek","zip":"94956","st":"CA","company name":"Camera West","store telephone":"925-935-1424","street":"1255 S. Main Street, #201","web address":"www.camerawest.com","id":"a865aifdzthn"},"type":"Feature","geometry":{"type":"Point","coordinates":[-122.480561,37.848836]}},{"properties":{"city":"Rancho Mirage","zip":"92270","st":"CA","company name":"Camera West","store telephone":"760-992-5422","street":"70-177 highway 111, ste.100","web address":"www.camerawest.com","id":"a865ai1jz3l9"},"type":"Feature","geometry":{"type":"Point","coordinates":[-116.452291,33.776295]}},{"properties":{"city":"Stamford","zip":"06905","st":"CT","company name":"Camera Wholesalers","store telephone":"203-357-0467","street":"1034 High Ridge Road","web address":null,"id":"a865ai04i4mc"},"type":"Feature","geometry":{"type":"Point","coordinates":[-73.572296,41.109532]}},{"properties":{"city":"Seattle","zip":"98107","st":"WA","company name":"Camera Techs","store telephone":"206-782-2433","street":"2034 NW Market Street","web address":null,"id":"a865ai2riyp5"},"type":"Feature","geometry":{"type":"Point","coordinates":[-122.382761,47.668749]}},{"properties":{"city":"Colorado Springs","zip":"80918","st":"CO","company name":"Camerworks","store telephone":"719-594-6966","street":"5030 N. Academy Blvd","web address":null,"id":"a865ai7uzxkg"},"type":"Feature","geometry":{"type":"Point","coordinates":[-104.757072,38.89017]}},{"properties":{"city":"Vestavia Hills","zip":"35216","st":"AL","company name":"Cameras Brookwood Inc.","store telephone":"205-822-2106","street":"1425 Montgomery Highway, Ste. 85","web address":null,"id":"a865ai0oeb90"},"type":"Feature","geometry":{"type":"Point","coordinates":[-86.780704,33.464193]}},{"properties":{"city":"Amityville","zip":"11701","st":"NY","company name":"Cameta Camera Retail","store telephone":"631-598-3350","street":"253 Broadway (Rt. 110)","web address":null,"id":"a865ai2eknjo"},"type":"Feature","geometry":{"type":"Point","coordinates":[-73.416479,40.675014]}},{"properties":{"city":"Chicago","zip":"60604","st":"IL","company name":"Central Camera Company","store telephone":"312-427-5580","street":"280 South Wabash","web address":null,"id":"a865ai425412"},"type":"Feature","geometry":{"type":"Point","coordinates":[-87.626126,41.879522]}},{"properties":{"city":"Des Moines","zip":"50332","st":"IA","company name":"Christian Photo","store telephone":null,"street":"6721 Douglas","web address":"www christianphoto.biz","id":"a865aia2yxix"},"type":"Feature","geometry":{"type":"Point","coordinates":[-93.709625,41.629459]}},{"properties":{"city":"Dallas","zip":"75207","st":"TX","company name":"Competitive Cameras Ltd","store telephone":"214-744-5511","street":"2025 Irving Blvd., #107","web address":null,"id":"a865ai5hk59t"},"type":"Feature","geometry":{"type":"Point","coordinates":[-96.822402,32.791852]}},{"properties":{"city":"Concord","zip":"03301","st":"NH","company name":"Concord Camera","store telephone":"603-225-5891","street":"29 North Main Street","web address":null,"id":"a865ai8h7s00"},"type":"Feature","geometry":{"type":"Point","coordinates":[-71.536046,43.205072]}},{"properties":{"city":"Columbus","zip":"43212","st":"OH","company name":"Cord Camera","store telephone":null,"street":"1132 West 5th Street","web address":null,"id":"a865ai5a2p4g"},"type":"Feature","geometry":{"type":"Point","coordinates":[-83.036144,39.988444]}},{"properties":{"city":"Crestwood","zip":"63126","st":"MO","company name":"Creve Coeur Camera","store telephone":"314-842-0404","street":"9560 Watson Road","web address":"www.cccamera.com/products.html?catalog%5Bsearch%5D%5Btext%5D=Nissin&amp;catalog%5Bsort%5D%5Bon%5D=relevance","id":"a865ai0qoek4"},"type":"Feature","geometry":{"type":"Point","coordinates":[-90.380715,38.557377]}},{"properties":{"city":"Creve Coeur","zip":"63141","st":"MO","company name":"Creve Coeur Camera","store telephone":"314-567-3456","street":"11615 Olive Blvd","web address":null,"id":"a865ai6qm7ag"},"type":"Feature","geometry":{"type":"Point","coordinates":[-90.435617,38.671151]}},{"properties":{"city":"O'Fallon","zip":"62269","st":"IL","company name":"Creve Coeur Camera","store telephone":"618-622-3456","street":"2020 West Highway 50","web address":null,"id":"a865ai7ohkpd"},"type":"Feature","geometry":{"type":"Point","coordinates":[-89.874077,38.583298]}},{"properties":{"city":"Edwardsville","zip":"62025","st":"IL","company name":"Creve Coeur Camera","store telephone":"618-307-2022","street":"104 S. Buchanan Street","web address":null,"id":"a865aif8csil"},"type":"Feature","geometry":{"type":"Point","coordinates":[-89.953639,38.813804]}},{"properties":{"city":"Ladue","zip":"63124","st":"MO","company name":"Creve Coeur Camera","store telephone":"314-862-5450","street":"8855 Ladue Road","web address":null,"id":"a865ai358sez"},"type":"Feature","geometry":{"type":"Point","coordinates":[-90.350896,38.65341]}},{"properties":{"city":"Oakville","zip":"63129","st":"MO","company name":"Creve Coeur Camera","store telephone":"314-892-2282","street":"5549 Telegraph Road #18","web address":null,"id":"a865ai8l80ds"},"type":"Feature","geometry":{"type":"Point","coordinates":[-90.3034,38.492207]}},{"properties":{"city":"St. Charles","zip":"63303","st":"MO","company name":"Creve Coeur Camera","store telephone":"636-947-3456","street":"1987 Zumbehl Road","web address":null,"id":"a865ai7476mp"},"type":"Feature","geometry":{"type":"Point","coordinates":[-90.533105,38.787302]}},{"properties":{"city":"Ellisville","zip":"63011","st":"MO","company name":"Creve Coeur Camera","store telephone":"636-394-6563","street":"7 Clarkson Road","web address":null,"id":"a865aidanol2"},"type":"Feature","geometry":{"type":"Point","coordinates":[-90.585807,38.593271]}},{"properties":{"city":"Columbia","zip":"65201","st":"MO","company name":"Columbia Photo","store telephone":"573-443-0503","street":"111 South 9th Street","web address":null,"id":"a865ai7rh8jf"},"type":"Feature","geometry":{"type":"Point","coordinates":[-92.327625,38.950064]}},{"properties":{"city":"Kansas City","zip":"64114","st":"MO","company name":"Crick Camera Shop","store telephone":"816-444-3390","street":"7715 State Line Road","web address":"crickcamera@sbcglobal.net","id":"a865ai8pf8cv"},"type":"Feature","geometry":{"type":"Point","coordinates":[-94.607925,38.987829]}},{"properties":{"city":"Redding","zip":"96001","st":"CA","company name":"Crown Camera","store telephone":"530-243-8333","street":"1365 Market Street","web address":"www.crowncamera.com","id":"a865ai6cryxs"},"type":"Feature","geometry":{"type":"Point","coordinates":[-122.391341,40.586005]}},{"properties":{"city":"Paradise","zip":"95969","st":"CA","company name":"Dave's Camera &amp; Video","store telephone":"530-872-1975","street":"6020 Skyway","web address":null,"id":"a865ai1lv77r"},"type":"Feature","geometry":{"type":"Point","coordinates":[-121.627938,39.754464]}},{"properties":{"city":"Delray Beach","zip":"33444","st":"FL","company name":"Delray Camera Shop","store telephone":"561-278-3331","street":"186 NE 2nd Avenue","web address":null,"id":"a865ai7onczn"},"type":"Feature","geometry":{"type":"Point","coordinates":[-80.071206,26.463693]}},{"properties":{"city":"Denver","zip":"80223","st":"CO","company name":"Denver Pro Photo","store telephone":"303-698-1790","street":"235 S. Cherokee Street","web address":null,"id":"a865ai7ak0le"},"type":"Feature","geometry":{"type":"Point","coordinates":[-104.992168,39.716603]}},{"properties":{"city":"San Francisco","zip":"94108","st":"CA","company name":"Discount Camera","store telephone":"415-392-1100","street":"33 Kearny Street","web address":null,"id":"a865ai48ksbz"},"type":"Feature","geometry":{"type":"Point","coordinates":[-122.403733,37.78887]}},{"properties":{"city":"Falls Church","zip":"22046","st":"VA","company name":"Dominion Camera","store telephone":null,"street":"112 W. Broad Street","web address":null,"id":"a865ai4qta7c"},"type":"Feature","geometry":{"type":"Point","coordinates":[-77.172235,38.882963]}},{"properties":{"city":"Douglas","zip":"82633","st":"WY","company name":"Douglas Business Center/Sage Publishing","store telephone":"307-358-6811","street":"100 North 3rd Street","web address":null,"id":"a865ai9tt7y5"},"type":"Feature","geometry":{"type":"Point","coordinates":[-105.3841,42.759589]}},{"properties":{"city":"Nashville","zip":"37203","st":"TN","company name":"Dury's","store telephone":"615-255-3456","street":"701 Ewing Ave","web address":null,"id":"a865ai9cy3de"},"type":"Feature","geometry":{"type":"Point","coordinates":[-86.775686,36.15097]}},{"properties":{"city":"Waltham","zip":"01701","st":"MA","company name":"E.P. Levine","store telephone":"617 951-1499","street":"219 Bear Hill Road","web address":null,"id":"a865ai2n39ie"},"type":"Feature","geometry":{"type":"Point","coordinates":[-71.393176,42.307643]}},{"properties":{"city":"Washington","zip":"20009","st":"DC","company name":"Embassy Camera","store telephone":null,"street":"1735 Connecticut Ave. NW","web address":"www.embassycamera.com","id":"a865ai188o7z"},"type":"Feature","geometry":{"type":"Point","coordinates":[-77.043768,38.910204]}},{"properties":{"city":"Oklahoma City","zip":"73112","st":"OK","company name":"Epperson Photo Supplies Inc","store telephone":"405-943-4628","street":"3110 North May Avenue","web address":"www.eppersonphoto.com","id":"a865ai6ps4lz"},"type":"Feature","geometry":{"type":"Point","coordinates":[-97.565589,35.501102]}},{"properties":{"city":"Dallas","zip":"97338","st":"OR","company name":"Focal Point Photography","store telephone":null,"street":"161 W. Ellendale","web address":"www.focalpointphoto.com","id":"a865ai0gux6t"},"type":"Feature","geometry":{"type":"Point","coordinates":[-123.318533,44.928951]}},{"properties":{"city":"Brooklyn","zip":"11218","st":"NY","company name":"Focus Camera","store telephone":"800-221-0828","street":"895 McDonald Ave","web address":"focuscamera.com","id":"a865aiac61a6"},"type":"Feature","geometry":{"type":"Point","coordinates":[-73.977232,40.631752]}},{"properties":{"city":"Fort Worth","zip":"76107","st":"TX","company name":"Fort Worth Camera","store telephone":"817-335-3456","street":"2900 West 6th Street","web address":null,"id":"a865ai0k818w"},"type":"Feature","geometry":{"type":"Point","coordinates":[-97.360148,32.752142]}},{"properties":{"city":"Fullerton","zip":"92832","st":"CA","company name":"Fullerton Camera","store telephone":null,"street":"809 N. Harbor Blvd","web address":null,"id":"a865ai1l8zmz"},"type":"Feature","geometry":{"type":"Point","coordinates":[-117.92424,33.871379]}},{"properties":{"city":"New Brunswick","zip":"08901","st":"NJ","company name":"George Street Photo","store telephone":"732-828-0166","street":"344 George Street","web address":"Georgestreetcamera@gmail.com","id":"a865ai6f84am"},"type":"Feature","geometry":{"type":"Point","coordinates":[-74.443731,40.494169]}},{"properties":{"city":"Seattle","zip":"98109","st":"WA","company name":"Glazer's Camera Supply","store telephone":"206-624-1100","street":"430 8th Avenue N","web address":"www.glazerscamera.com","id":"a865aiee2356"},"type":"Feature","geometry":{"type":"Point","coordinates":[-122.340984,47.622859]}},{"properties":{"city":"Waterbury Center","zip":"05677","st":"VT","company name":"Green Mountain Camera","store telephone":"802-244-0883","street":"2653 Waterbury Stowe Road","web address":"www.gmcamera.com","id":"a865aic7dqzc"},"type":"Feature","geometry":{"type":"Point","coordinates":[-72.752802,44.334787]}},{"properties":{"city":"Reno","zip":"89502","st":"NV","company name":"Gordon's Photo Service","store telephone":"775-826-6488","street":"5067  S. McCarran Blvd.","web address":"www.gordonsphotoservice.com","id":"a865ai37qqzz"},"type":"Feature","geometry":{"type":"Point","coordinates":[-119.717965,39.491856]}},{"properties":{"city":"Carson City","zip":"89701","st":"NV","company name":"Gordon's Photo Service","store telephone":null,"street":"1227 S. Carson Street","web address":null,"id":"a865ai2dkonj"},"type":"Feature","geometry":{"type":"Point","coordinates":[-119.766983,39.163906]}},{"properties":{"city":"Sioux Falls","zip":"57101","st":"SD","company name":"Harold's Photo Centers","store telephone":"605-333-7607","street":"912 W. 41st Street","web address":"haroldsphoto.com","id":"a865ai6ndd8p"},"type":"Feature","geometry":{"type":"Point","coordinates":[-96.738689,43.514858]}},{"properties":{"city":"Des Moines","zip":"50309","st":"IA","company name":"H.B. Leiserowitz","store telephone":null,"street":"213 13th Street","web address":null,"id":"a865ai9naneq"},"type":"Feature","geometry":{"type":"Point","coordinates":[-93.633087,41.583988]}},{"properties":{"city":"Chaysworth","zip":"91311","st":"CA","company name":"GKM ENT. DBA Hooper Camera","store telephone":"818-709-0016","street":"21902 Devonshire St","web address":null,"id":"a865ai6j0ihj"},"type":"Feature","geometry":{"type":"Point","coordinates":[-118.606035,34.257152]}},{"properties":{"city":"Fresno","zip":"93720","st":"CA","company name":"Horn Photo Inc.","store telephone":"559-225-5080","street":"7945 N. Blackstone Ave.","web address":"www.hornphoto.com","id":"a865ai75tkqp"},"type":"Feature","geometry":{"type":"Point","coordinates":[-119.802227,36.850729]}},{"properties":{"city":"Houston","zip":"77057","st":"TX","company name":"Houston Camera Exchange","store telephone":"713-789-6901","street":"5900 Richmond Ave.","web address":"www.houstoncameraexchange.com","id":"a865ai1lcl2f"},"type":"Feature","geometry":{"type":"Point","coordinates":[-95.482799,29.731588]}},{"properties":{"city":"Fort Pierce","zip":"34950","st":"FL","company name":"Jiffy Photo Center","store telephone":"772-461-0872","street":"940 South Federal Highway","web address":null,"id":"a865ai18pw20"},"type":"Feature","geometry":{"type":"Point","coordinates":[-80.252397,27.190685]}},{"properties":{"city":"Blacksburg","zip":"24060","st":"VA","company name":"Johns Camera Corner","store telephone":"540-552-2319","street":"213 Draper Road NW","web address":"www.johnscam.com","id":"a865aidwr7pu"},"type":"Feature","geometry":{"type":"Point","coordinates":[-80.416268,37.22993]}},{"properties":{"city":"Bradenton","zip":"34203","st":"FL","company name":"Johnson Photoimaging Inc.","store telephone":"941-752-0550","street":"6709 State Road 70 East","web address":"www.jpiphoto.com","id":"a865ai79x6cl"},"type":"Feature","geometry":{"type":"Point","coordinates":[-82.472714,27.445197]}},{"properties":{"city":"Brooklyn","zip":"11204","st":"NY","company name":"JZS Electronics","store telephone":"718-676-4951","street":"1973 60th Street","web address":null,"id":"a865aieogjnp"},"type":"Feature","geometry":{"type":"Point","coordinates":[-73.984065,40.620418]}},{"properties":{"city":"Kenmore","zip":"98028","st":"WA","company name":"Kenmore Camera Inc","store telephone":"425-485-7447","street":"18031 67th Ave. N.","web address":"http://www.kenmorecamera.com/c-1483-dedicated-ttl.aspx","id":"a865ai8d6jm7"},"type":"Feature","geometry":{"type":"Point","coordinates":[-122.249319,47.742281]}},{"properties":{"city":"Palm Harbor","zip":"34684","st":"FL","company name":"Lake Shore Camera Exchange","store telephone":"727-938-6594","street":"36637 US Highway 19 N","web address":"www.lakeshorecamera.com","id":"a865ai4ell0s"},"type":"Feature","geometry":{"type":"Point","coordinates":[-82.739703,28.102975]}},{"properties":{"city":"Sierra Vista","zip":"85635","st":"AZ","company name":"Landmark Photo","store telephone":"520-458-0907","street":"400 West Fry Blvd.","web address":null,"id":"a865aia7y460"},"type":"Feature","geometry":{"type":"Point","coordinates":[-110.305461,31.554222]}},{"properties":{"city":"Springfield","zip":"65807","st":"MO","company name":"Lawrence Photo &amp; Video","store telephone":"417-823-0059","street":"2550 S. Campbell Ave.","web address":"www.lawrencephotovideo.com","id":"a865ai2jwz8q"},"type":"Feature","geometry":{"type":"Point","coordinates":[-93.294559,37.19592]}},{"properties":{"city":"Burlington","zip":"05401","st":"VT","company name":"Le Zot Camera","store telephone":"802-652-2400","street":"34 Church Street","web address":null,"id":"a865aidib6er"},"type":"Feature","geometry":{"type":"Point","coordinates":[-73.212687,44.480073]}},{"properties":{"city":"Springfield","zip":"07081","st":"NJ","company name":"Mack Camera","store telephone":"973-467-2291 ext 111","street":"200 Morris Ave","web address":null,"id":"a865ai3cab0u"},"type":"Feature","geometry":{"type":"Point","coordinates":[-74.31003,40.710922]}},{"properties":{"city":"Auburndale","zip":"33823","st":"FL","company name":"Marshall's Camera","store telephone":"863-967-3942","street":"202 East Lake Ave.","web address":null,"id":"a865aie425gv"},"type":"Feature","geometry":{"type":"Point","coordinates":[-81.784835,28.062834]}},{"properties":{"city":"Melbourne","zip":"32904","st":"FL","company name":"Melbourne Cameras (SCF Cameras Inc.)","store telephone":"321-733-4412","street":"3146 W. New Haven Ave.","web address":"www.melbournecameras.net","id":"a865ai4t9xz0"},"type":"Feature","geometry":{"type":"Point","coordinates":[-80.637965,28.078749]}},{"properties":{"city":"Memphis","zip":"38117","st":"TN","company name":"Memphis Photo Supply","store telephone":"901-767-2702","street":"561 Erin Drive","web address":"www.memphisphotosupply.com","id":"a865ahzfa4u5"},"type":"Feature","geometry":{"type":"Point","coordinates":[-89.898852,35.115664]}},{"properties":{"city":"Columbus","zip":"43202","st":"OH","company name":"Midwest Photo Exchange","store telephone":"614-261-1264","street":"3313 North High Street","web address":"www.mpex.com","id":"a865ai0auu95"},"type":"Feature","geometry":{"type":"Point","coordinates":[-83.041606,40.1287]}},{"properties":{"city":"Boulder","zip":"80302","st":"CO","company name":"Mike's Camera Inc.","store telephone":"303-443-1715","street":"2500 Pearl Street","web address":"www.mikescamera.com","id":"a865aiblrfbu"},"type":"Feature","geometry":{"type":"Point","coordinates":[-105.260893,40.021799]}},{"properties":{"city":"Littleton","zip":"80124","st":"CO","company name":"Mike's Camera Inc.","store telephone":"303-708-9654","street":"9197 E. Westview Road","web address":null,"id":"a865ai1u4a3k"},"type":"Feature","geometry":{"type":"Point","coordinates":[-104.882845,39.564842]}},{"properties":{"city":"Denver","zip":"80222","st":"CO","company name":"Mike's Camera Inc.","store telephone":"303-733-3338","street":"708 S. Colorado Blvd.","web address":null,"id":"a865ai1ojgfz"},"type":"Feature","geometry":{"type":"Point","coordinates":[-104.94063,39.692941]}},{"properties":{"city":"Brookfield","zip":"53045","st":"WI","company name":"Mike Crivello Camera Ctrs Inc","store telephone":"262-782-5096","street":"18110 W. Bluemound Road","web address":"www.mikecrivellos.com","id":"a865ai0y217j"},"type":"Feature","geometry":{"type":"Point","coordinates":[-88.127006,43.036353]}},{"properties":{"city":"Shorewood","zip":"53211","st":"WI","company name":"Mike Crivello Camera Ctrs Inc","store telephone":"262-782-5096","street":"1700 East Capital Drive","web address":null,"id":"a865ai93syfk"},"type":"Feature","geometry":{"type":"Point","coordinates":[-87.887475,43.089183]}},{"properties":{"city":"Visalia","zip":"93291","st":"CA","company name":"Mike's Quality Camera","store telephone":"559-733-3882","street":"105 E. Main","web address":"www.mikesqualitycamera.com","id":"a865ai3gc2or"},"type":"Feature","geometry":{"type":"Point","coordinates":[-119.292316,36.330155]}},{"properties":{"city":"Milford","zip":"06460","st":"CT","company name":"Milford Photo","store telephone":"203-882-3415","street":"22 River Street","web address":null,"id":"a865ai2dmu12"},"type":"Feature","geometry":{"type":"Point","coordinates":[-73.056888,41.222528]}},{"properties":{"city":"Keene","zip":"03431","st":"NH","company name":"Monadnock Imaging","store telephone":"603-352-3456","street":"64 Main Street","web address":null,"id":"a865ai1w0ko6"},"type":"Feature","geometry":{"type":"Point","coordinates":[-72.278155,42.932295]}},{"properties":{"city":"Golden Valley","zip":"55427","st":"MN","company name":"National Camera Exchange","store telephone":"763-546-6831","street":"9300 Olson Memorial Highway","web address":"www.natcam.com","id":"a865aibrwi96"},"type":"Feature","geometry":{"type":"Point","coordinates":[-93.393942,44.984142]}},{"properties":{"city":"Roseville","zip":"55113","st":"MN","company name":"National Camera Exchange","store telephone":"651-636-0693","street":"2401 Fairview Ave. N. #115","web address":"www.natcam.com","id":"a865ahzsnx1d"},"type":"Feature","geometry":{"type":"Point","coordinates":[-93.176964,44.998947]}},{"properties":{"city":"Burnsville","zip":"55306","st":"MN","company name":"National Camera Exchange","store telephone":"952-898-4888","street":"14380 Burnhaven Drive","web address":"www.natcam.com","id":"a865aicwhf6a"},"type":"Feature","geometry":{"type":"Point","coordinates":[-93.292239,44.742027]}},{"properties":{"city":"Edina","zip":"55435","st":"MN","company name":"National Camera Exchange","store telephone":"952-927-9010","street":"7101 France Avenue S.","web address":"www.natcam.com","id":"a865ai3dxm3g"},"type":"Feature","geometry":{"type":"Point","coordinates":[-93.328949,44.873996]}},{"properties":{"city":"Maple Grove","zip":"55369","st":"MN","company name":"National Camera Exchange","store telephone":"763-425-1417","street":"12055 Elm Creek Blvd. N.","web address":"www.natcam.com","id":"a865ai8rkbr6"},"type":"Feature","geometry":{"type":"Point","coordinates":[-93.447769,45.096958]}},{"properties":{"city":"Newonville","zip":"02460","st":"MA","company name":"Newtonville Camera","store telephone":"617-965-1240","street":"249 Walnut Street","web address":null,"id":"a865ai2rayo7"},"type":"Feature","geometry":{"type":"Point","coordinates":[-71.207517,42.351886]}},{"properties":{"city":"Princeton","zip":"08542","st":"NJ","company name":"New York Camera","store telephone":null,"street":"173 Nassau Street","web address":null,"id":"a865ai7kb4pe"},"type":"Feature","geometry":{"type":"Point","coordinates":[-74.655524,40.350714]}},{"properties":{"city":"Kalamazoo","zip":"49008","st":"MI","company name":"Normans Camera","store telephone":"269-343-0460","street":"3602 S. Westnedge","web address":"www.normancamera.com","id":"a865ai3qgijc"},"type":"Feature","geometry":{"type":"Point","coordinates":[-85.589102,42.2826]}},{"properties":{"city":"Grand Rapids","zip":"49512","st":"MI","company name":"Normans Camera","store telephone":"616-954-9920","street":"2954 28th Street","web address":".","id":"a865ai7y1y4r"},"type":"Feature","geometry":{"type":"Point","coordinates":[-85.592919,42.912474]}},{"properties":{"city":"Tampa","zip":"33612","st":"FL","company name":"North Tampa Photography","store telephone":"813-935-9339","street":"1020 W. Busch Blvd.","web address":"www.ntphotodigital.com","id":"a865ai9yib40"},"type":"Feature","geometry":{"type":"Point","coordinates":[-82.463599,28.032947]}},{"properties":{"city":"Bellevue","zip":"98004","st":"WA","company name":"Omega Photo","store telephone":"425-455-2126","street":"1100 Bellevue Way NE  # 6","web address":"www.omegaphoto.biz","id":"a865ahz7b29x"},"type":"Feature","geometry":{"type":"Point","coordinates":[-122.201457,47.611168]}},{"properties":{"city":"Jackson","zip":"83001","st":"WY","company name":"Camera Corral","store telephone":"307-733-3831","street":"PO Box 1570, 60 S. Cache","web address":null,"id":"a865aid76p4b"},"type":"Feature","geometry":{"type":"Point","coordinates":[-110.762366,43.47897]}},{"properties":{"city":"Orleans","zip":"02653","st":"MA","company name":"Orleans Camera","store telephone":null,"street":"9 West Road","web address":null,"id":"a865ai3jgqib"},"type":"Feature","geometry":{"type":"Point","coordinates":[-70.000104,41.780525]}},{"properties":{"city":"Sacramento","zip":"95821","st":"CA","company name":"Pardee's Cameras","store telephone":"916-483-3435","street":"3335 El Camino Ave.","web address":"www.pardeescameras.com","id":"a865aidr0imi"},"type":"Feature","geometry":{"type":"Point","coordinates":[-121.385846,38.610558]}},{"properties":{"city":"Rockport","zip":"01966","st":"MA","company name":"Camera Corner","store telephone":"617-482-8356","street":"1 Dock Square","web address":null,"id":"a865aiagi7qi"},"type":"Feature","geometry":{"type":"Point","coordinates":[-70.944426,42.47206]}},{"properties":{"city":"New Port Richey","zip":"34652","st":"FL","company name":"Pasco Camera Exchange, Inc.","store telephone":"727-844-0904","street":"5405 Main Street","web address":null,"id":"a865aiacosub"},"type":"Feature","geometry":{"type":"Point","coordinates":[-82.72518,28.250308]}},{"properties":{"city":"Northbrook","zip":"60062","st":"IL","company name":"PC Nation","store telephone":null,"street":"425 Huehl Road, Bldg. 5","web address":"PCNATION.com","id":"a865ai581c6o"},"type":"Feature","geometry":{"type":"Point","coordinates":[-87.862963,42.147911]}},{"properties":{"city":"Petersborough","zip":"03458-1775","st":"NH","company name":"Peterborough Camera","store telephone":"603-924-7032","street":"19 Wilton Road, Suite 14","web address":null,"id":"a865ai59fmma"},"type":"Feature","geometry":{"type":"Point","coordinates":[-71.951517,42.870548]}},{"properties":{"city":"Hatfield","zip":"19440","st":"PA","company name":"Philly Photo Supply","store telephone":"215-412-0172","street":"1219 Cowpath Road","web address":null,"id":"a865ai8rslmq"},"type":"Feature","geometry":{"type":"Point","coordinates":[-75.282908,40.269525]}},{"properties":{"city":"Brick","zip":"08724","st":"NJ","company name":"Photo Center","store telephone":"732-840-1333","street":"1930 Route 88, Laurel Asquare Shopping Center","web address":"www.thephotocenter.com","id":"a865ai83roaq"},"type":"Feature","geometry":{"type":"Point","coordinates":[-74.149569,40.082138]}},{"properties":{"city":"Burke","zip":"22015","st":"VA","company name":"Photo Craft","store telephone":"703-250-5555","street":"6025 Burke Center Pkwy","web address":"www.ephotocraft.com/searchresult.asp?s=Nissin","id":"a865ai5hy8r7"},"type":"Feature","geometry":{"type":"Point","coordinates":[-77.296932,38.78613]}},{"properties":{"city":"Burlington","zip":"5403","st":"VT","company name":"Photo Garden","store telephone":null,"street":"10 Dorset Street","web address":null,"id":"a865ai8bbagc"},"type":"Feature","geometry":{"type":"Point","coordinates":[-73.181297,44.467107]}},{"properties":{"city":"Portland","zip":"04103","st":"ME","company name":"Photo Market","store telephone":"207-797-7100","street":"945 Forest Ave","web address":"www.photomarketmaine.com","id":"a865ai0c23wi"},"type":"Feature","geometry":{"type":"Point","coordinates":[-70.289687,43.681208]}},{"properties":{"city":"Chino","zip":"91710","st":"CA","company name":"Photo Solutions, Inc.","store telephone":null,"street":"3926 Grand Ave, Ste F","web address":null,"id":"a865ai0tf7oj"},"type":"Feature","geometry":{"type":"Point","coordinates":[-117.670747,34.02424]}},{"properties":{"city":"Parsippany","zip":"7054","st":"NJ","company name":"Photo Zone","store telephone":"973-334-9200","street":"1115 Route 46","web address":"http://www.photozoneonline.com/products.html?catalog%5Bsearch%5D%5Btext%5D=Nissin&amp;catalog%5Bsort%5D%5Bon%5D=relevance","id":"a865ai64k9oi"},"type":"Feature","geometry":{"type":"Point","coordinates":[-74.384377,40.862705]}},{"properties":{"city":"Mechanicsburg","zip":"17055-3240","st":"PA","company name":"Photogearfinder","store telephone":null,"street":"337 W. Main Street","web address":"www.photogearfinder.com","id":"a865ai25hha3"},"type":"Feature","geometry":{"type":"Point","coordinates":[-77.00804,40.213274]}},{"properties":{"city":"Rutland","zip":"5701","st":"VT","company name":"Phototec Inc.","store telephone":"802-775-2252","street":"110 Woodstock Ave","web address":"www.phototec.com","id":"a865aib5h19k"},"type":"Feature","geometry":{"type":"Point","coordinates":[-72.963743,43.614224]}},{"properties":{"city":"Austin","zip":"78756","st":"TX","company name":"Precision Camera &amp; Video","store telephone":"512-467-7676","street":"3810 N. Lamar","web address":"www.precision-camera.com","id":"a865ai1qrgcq"},"type":"Feature","geometry":{"type":"Point","coordinates":[-97.743049,30.305197]}},{"properties":{"city":"Marion","zip":"52302","st":"IA","company name":"Porters Digital Camera &amp; Imaging","store telephone":null,"street":"6201 South Gateway Drive","web address":"www.porters.com","id":"a865aidku2v7"},"type":"Feature","geometry":{"type":"Point","coordinates":[-91.573963,42.056938]}},{"properties":{"city":"Coving","zip":"91723","st":"CA","company name":"Powell Camera Shop","store telephone":null,"street":"160 W badillo Street","web address":null,"id":"a865ai4btkgk"},"type":"Feature","geometry":{"type":"Point","coordinates":[-117.89102,34.08619]}},{"properties":{"city":"Amagansett","zip":"11930","st":"NY","company name":"Reeds Photo Shop","store telephone":"631-324-1067","street":"4 Amagansett Square","web address":"www.reedsphotoshop.com","id":"a865ai8xl1mk"},"type":"Feature","geometry":{"type":"Point","coordinates":[-72.155609,40.971867]}},{"properties":{"city":"Lakewood","zip":"98499","st":"WA","company name":"Robi's Camera Center","store telephone":"253-584-0210","street":"10015 Gravelly Lake Dr. SW","web address":"www.robis.com","id":"a865ai5gpwkf"},"type":"Feature","geometry":{"type":"Point","coordinates":[-122.520589,47.159424]}},{"properties":{"city":"Omaha","zip":"68130","st":"NE","company name":"Rockbrook Camera","store telephone":"402-397-1171","street":"2909 S 169 Plaza., Suite 100","web address":"www.rockbrookcamera.com","id":"a865ai3ghoe6"},"type":"Feature","geometry":{"type":"Point","coordinates":[-96.178223,41.229043]}},{"properties":{"city":"Omaha","zip":"68144","st":"NE","company name":"Rockbrook Camera","store telephone":"402-397-1171","street":"2717 S 108th St.","web address":null,"id":"a865aidfq081"},"type":"Feature","geometry":{"type":"Point","coordinates":[-96.081385,41.233407]}},{"properties":{"city":"Lincoln","zip":"68516","st":"NE","company name":"Rockbrook Camera","store telephone":"402-488-4200","street":"4333 S 70th Street, Ste 7","web address":null,"id":"a865ai2gpu25"},"type":"Feature","geometry":{"type":"Point","coordinates":[-96.625272,40.769611]}},{"properties":{"city":"Los Angeles","zip":"90036","st":"CA","company name":"Samy's Camera LA","store telephone":"323-938-2420","street":"431 S. Fairfax Ave,","web address":null,"id":"a865ai7ulerf"},"type":"Feature","geometry":{"type":"Point","coordinates":[-118.298662,33.786594]}},{"properties":{"city":"Santa Barbara","zip":"93101","st":"CA","company name":"Samy's Camera SB","store telephone":"805-936-7269","street":"614 Chapala St.","web address":null,"id":"a865aidnvc0t"},"type":"Feature","geometry":{"type":"Point","coordinates":[-119.698984,34.417513]}},{"properties":{"city":"Pasadena","zip":"91103","st":"CA","company name":"Samy's Camera Pas","store telephone":"626-796-3300","street":"41 East Walnut Ave.","web address":null,"id":"a865aiaz809g"},"type":"Feature","geometry":{"type":"Point","coordinates":[-118.146805,34.149526]}},{"properties":{"city":"Santa Ana","zip":"92704","st":"CA","company name":"Samy's Camera SA","store telephone":"714-557-9400","street":"3309 Bristol Ave.","web address":null,"id":"a865ai23fb0n"},"type":"Feature","geometry":{"type":"Point","coordinates":[-117.885545,33.701322]}},{"properties":{"city":"Culver City","zip":"90230","st":"CA","company name":"Samy's Camera Cul","store telephone":"310-591-2333","street":"4411 Sepulveda Blvd.","web address":null,"id":"a865ai1jjcol"},"type":"Feature","geometry":{"type":"Point","coordinates":[-118.407072,34.002966]}},{"properties":{"city":"Atlanta","zip":"30324","st":"GA","company name":"Showcase Photo &amp; Video","store telephone":null,"street":"2323 Cheshire Bridge Road","web address":"www.showcaseinc.com","id":"a865ai6u8mtp"},"type":"Feature","geometry":{"type":"Point","coordinates":[-84.351271,33.82031]}},{"properties":{"city":"Torrance","zip":"90505","st":"CA","company name":"Silvio's Photoworks","store telephone":"310-791-7100","street":"22409 Hawthorne Blvd","web address":null,"id":"a865ai66i4am"},"type":"Feature","geometry":{"type":"Point","coordinates":[-118.351323,33.82533]}},{"properties":{"city":"Las Angeles","zip":"90038","st":"CA","company name":"Simon's Camera Inc","store telephone":"303-463-8585","street":"1213 N. High;and Ave.","web address":null,"id":"a865ai30xwpm"},"type":"Feature","geometry":{"type":"Point","coordinates":[-118.411806,33.983581]}},{"properties":{"city":"East Hartford","zip":"06108","st":"CT","company name":"Simond's Photographic","store telephone":"860-291-0442","street":"96 Thomas Street","web address":null,"id":"a865aide7xc6"},"type":"Feature","geometry":{"type":"Point","coordinates":[-72.652904,41.773524]}},{"properties":{"city":"Raleigh","zip":"27604","st":"NC","company name":"Southeastern Camera","store telephone":"919-890-4484","street":"2410 Atlantic Ave","web address":"southeasterncamera@gmail.com","id":"a865ai5sb5o7"},"type":"Feature","geometry":{"type":"Point","coordinates":[-78.618124,35.813242]}},{"properties":{"city":"Carrboro","zip":"27510","st":"NC","company name":"Southeastern Camera","store telephone":"919-933-7757","street":"205 West Main Street","web address":null,"id":"a865ai5f78pn"},"type":"Feature","geometry":{"type":"Point","coordinates":[-79.075151,35.909942]}},{"properties":{"city":"Wilmington","zip":"28403","st":"NC","company name":"Southeastern Camera","store telephone":"910-313-2999","street":"1351 South Kerr Avenue","web address":null,"id":"a865ai82cwcw"},"type":"Feature","geometry":{"type":"Point","coordinates":[-77.887299,34.215344]}},{"properties":{"city":"Huntsville","zip":"35801","st":"AL","company name":"Southerland Photo","store telephone":"256-539-9627","street":"2357 Whitesburg Drive","web address":"http://www.southerlandphoto.net/products.html?catalog%5Bsearch%5D%5Btext%5D=Nissin&amp;catalog%5Bsort%5D%5Bon%5D=relevance","id":"a865aibz0md1"},"type":"Feature","geometry":{"type":"Point","coordinates":[-86.57497,34.713273]}},{"properties":{"city":"Melbourne","zip":"32901","st":"FL","company name":"Southern Photo","store telephone":null,"street":"125 East Nasa Blvd  #101","web address":"www.southernphotosupply.com","id":"a865ahzlrhso"},"type":"Feature","geometry":{"type":"Point","coordinates":[-80.624972,28.093249]}},{"properties":{"city":"Vineland","zip":"08360","st":"NJ","company name":"T&amp;F Camera Shop Inc","store telephone":"856-691-5328","street":"1362 S. Delsea Drive","web address":null,"id":"a865aidwq03o"},"type":"Feature","geometry":{"type":"Point","coordinates":[-75.043129,39.486208]}},{"properties":{"city":"Bellevue","zip":"98004","st":"WA","company name":"Tall's Camera","store telephone":"425-455-2233","street":"168 Bellevue Square","web address":null,"id":"a865aid153gf"},"type":"Feature","geometry":{"type":"Point","coordinates":[-122.207752,47.609283]}},{"properties":{"city":"Tukwila","zip":"98188","st":"WA","company name":"Tall's Camera","store telephone":"206-433-1111","street":"281 Southcenter Mall","web address":null,"id":"a865ahzaif67"},"type":"Feature","geometry":{"type":"Point","coordinates":[-122.308326,47.46618]}},{"properties":{"city":"Seattle","zip":"98125","st":"WA","company name":"Tall's Camera","store telephone":"206-365-0604","street":"401 Northgate Mall","web address":null,"id":"a865ai0sml5h"},"type":"Feature","geometry":{"type":"Point","coordinates":[-122.323846,47.707264]}},{"properties":{"city":"Seattle","zip":"98105","st":"WA","company name":"Tall's Camera","store telephone":"206-522-6566","street":"2616 NE 46th Street","web address":null,"id":"a865aif43sdx"},"type":"Feature","geometry":{"type":"Point","coordinates":[-122.304658,47.661804]}},{"properties":{"city":"Madison","zip":"53719","st":"WI","company name":"The Camera Company","store telephone":"608-833-1411","street":"6742 Odana Road","web address":"www.cameracompany.com","id":"a865ai8u3ni0"},"type":"Feature","geometry":{"type":"Point","coordinates":[-89.50062,43.056679]}},{"properties":{"city":"Madison","zip":"53704","st":"WI","company name":"The Camera Company","store telephone":"608-246-9052","street":"4232 East Town Blvd","web address":"www.cameracompany.com","id":"a865ai9wli0i"},"type":"Feature","geometry":{"type":"Point","coordinates":[-89.311995,43.123198]}},{"properties":{"city":"Brooklyn","zip":"11211","st":"NY","company name":"The Imaging World","store telephone":null,"street":"548 Driggs Ave.","web address":"info@theimagingworld.com","id":"a865ahz3aoe8"},"type":"Feature","geometry":{"type":"Point","coordinates":[-73.956143,40.717517]}},{"properties":{"city":"Madison","zip":"53703","st":"WI","company name":"The Imaging World","store telephone":"608-256-0011","street":"24 N. Carroll St.","web address":"www.cameracompany.com","id":"a865ahzpusw7"},"type":"Feature","geometry":{"type":"Point","coordinates":[-89.386724,43.074945]}},{"properties":{"city":"Princeton","zip":"08540","st":"NJ","company name":"TPE LLC DBA Le Camera Zone","store telephone":"609-7 99-0081","street":"654 Nassau Park Blvd","web address":"www.lecameraonline.com/SearchResults.asp?Search=nissin","id":"a865aicqf81v"},"type":"Feature","geometry":{"type":"Point","coordinates":[-74.676622,40.303568]}},{"properties":{"city":"Reading","zip":"19606","st":"PA","company name":"Boscov's Camera Department","store telephone":"215-779-2000","street":"4500 Perkioman Avenue","web address":null,"id":"a865ai2eb9k6"},"type":"Feature","geometry":{"type":"Point","coordinates":[-75.860847,40.306233]}},{"properties":{"city":"Lancaster","zip":"17601","st":"PA","company name":"Boscov's Camera Department","store telephone":"717-299-0911","street":"800 Park City Center","web address":null,"id":"a865ai33h6vt"},"type":"Feature","geometry":{"type":"Point","coordinates":[-76.340878,40.064696]}},{"properties":{"city":"Dover","zip":"19901","st":"DE","company name":"Boscov's Camera Department","store telephone":"302-734-9210","street":"3000 Dover Mall, N. DuPont Hwy.","web address":null,"id":"a865ai3lvzb6"},"type":"Feature","geometry":{"type":"Point","coordinates":[-75.498068,39.156863]}},{"properties":{"city":"New York","zip":"10001","st":"NY","company name":"Tri-State Camera Retail","store telephone":"212-633-6099","street":"338 8th Avenue","web address":null,"id":"a865aic1xujd"},"type":"Feature","geometry":{"type":"Point","coordinates":[-73.997098,40.747205]}},{"properties":{"city":"Long Beach","zip":"90807","st":"CA","company name":"Tuttle Camera","store telephone":"562-424-8633","street":"4019 Atlantic Ave.","web address":null,"id":"a865aib7sbni"},"type":"Feature","geometry":{"type":"Point","coordinates":[-118.185076,33.831574]}},{"properties":{"city":"Iowa City","zip":"52240","st":"IA","company name":"University Camera","store telephone":null,"street":"4 S. Dubuque Street","web address":null,"id":"a865ai7uhqlm"},"type":"Feature","geometry":{"type":"Point","coordinates":[-91.533069,41.661276]}},{"properties":{"city":"Valley Village","zip":"91607","st":"CA","company name":"Valley Photo Service","store telephone":"818-762-0355","street":"12466 Magnolia Blvd","web address":null,"id":"a865ai9h9m2u"},"type":"Feature","geometry":{"type":"Point","coordinates":[-118.298662,33.786594]}},{"properties":{"city":"Melrose","zip":"02176","st":"MA","company name":"W. B. Hunt Co., Inc","store telephone":"781-662-8822","street":"100 Main Street","web address":"http://www.huntsphotoandvideo.com/searchresult.cfm","id":"a865ahznwsvn"},"type":"Feature","geometry":{"type":"Point","coordinates":[-71.067677,42.440456]}},{"properties":{"city":"Boston","zip":"02215","st":"MA","company name":"Hunt's Photo and Video","store telephone":"617-778-2222","street":"520 Commonwealth Ave","web address":null,"id":"a865aicpe9j1"},"type":"Feature","geometry":{"type":"Point","coordinates":[-71.0964,42.348691]}},{"properties":{"city":"Cambridge","zip":"02138","st":"MA","company name":"Hunt's Photo and Video","store telephone":"617-576-0969","street":"99 Mount Auburn Street","web address":null,"id":"a865aibe5r10"},"type":"Feature","geometry":{"type":"Point","coordinates":[-71.120151,42.372577]}},{"properties":{"city":"Hadley","zip":"01035","st":"MA","company name":"Hunt's Photo and Video","store telephone":"413-585-9430","street":"379 Russell Street","web address":null,"id":"a865ai4ksknc"},"type":"Feature","geometry":{"type":"Point","coordinates":[-72.54748,42.359413]}},{"properties":{"city":"Providence","zip":"02903","st":"RI","company name":"Hunt's Photo and Video","store telephone":"401-751-5190","street":"86 Point Street","web address":null,"id":"a865aiajvsy1"},"type":"Feature","geometry":{"type":"Point","coordinates":[-71.407117,41.816543]}},{"properties":{"city":"South Portland","zip":"04106","st":"ME","company name":"Hunt's Photo and Video","store telephone":"207-773-9555","street":"220 Maine Mall Road","web address":null,"id":"a865ai4w40va"},"type":"Feature","geometry":{"type":"Point","coordinates":[-70.334593,43.639002]}},{"properties":{"city":"Manchester","zip":"03103","st":"NH","company name":"Hunt's Photo and Video","store telephone":"603-606-3322","street":"4 Vinton Street","web address":null,"id":"a865ai270h6t"},"type":"Feature","geometry":{"type":"Point","coordinates":[-71.452183,42.969227]}},{"properties":{"city":"New York","zip":"10118","st":"NY","company name":"WEB E-Shops, Inc.","store telephone":null,"street":"350 5th Ave., Ste 5110","web address":null,"id":"a865aifhfhz6"},"type":"Feature","geometry":{"type":"Point","coordinates":[-73.973968,40.762966]}},{"properties":{"city":"Minneapolis","zip":"55413","st":"MN","company name":"West Photo","store telephone":"612-379-2321","street":"21 University Ave. NE","web address":null,"id":"a865ai097xcz"},"type":"Feature","geometry":{"type":"Point","coordinates":[-93.25849,44.991034]}},{"properties":{"city":"St. Cloud","zip":"56301","st":"MN","company name":"St. Cloud Camera &amp; Photo","store telephone":null,"street":"212 Waite Avenue S.","web address":"www.stcloudcameraandphoto.com","id":"a865ai4ix0rg"},"type":"Feature","geometry":{"type":"Point","coordinates":[-94.213733,45.549522]}},{"properties":{"city":"Midland Park","zip":"07432","st":"NJ","company name":"Wholesale Photo Supply","store telephone":"201-444-0777","street":"85 Goodwin Ave.","web address":"www.wholesalephotocafe.com/products.html?catalog%5Bsearch%5D%5Btext%5D=Nissin&amp;catalog%5Bsort%5D%5Bon%5D=relevance","id":"a865ai8yln63"},"type":"Feature","geometry":{"type":"Point","coordinates":[-74.138171,40.984773]}},{"properties":{"city":"Fairfield","zip":"07004","st":"NJ","company name":"Unique Photo","store telephone":"973-377-2007","street":"123 Route 46 West","web address":"www.uniquephoto.com","id":"a865ai18tmok"},"type":"Feature","geometry":{"type":"Point","coordinates":[-74.306018,40.871093]}}],"is_temporal":false,"author":{"url":"","metadata":"","contact_name":"Minox USA","contact_address":"","source":"","contact_phone":"603-287-4840"},"source":"","pagination":{"sort":null,"start":0,"total":192,"limit":1000000},"state":"complete","tags":"","published":"2014-08-14T15:44:57-04:00","id":270775}