{"type":"FeatureCollection","data_type":"Dataset","url_type":null,"permissions":[{"permissions":{"download":true,"view":true},"group_id":"everyone"}],"classification":null,"title":"potential_nas_install_locations_-_wm_-_Sheet1","count":67,"stream_id":270754,"contributor":{"url":"http://geocommons.com/users/43914","name":"bromanoff"},"data_attributes":null,"calculation_params":null,"icon_link":null,"link":"http://geocommons.com/overlays/270754.json","extent":[-149.87,25.6873,-68.7477,61.1977],"geometry_types":["point"],"unique_name":null,"name":"potential_nas_install_locations_-_wm_-_Sheet1","feature_count":67,"description":"","next_feature":null,"is_raster":false,"short_classification":"Y","stats":{"zip  code":{"max":99503,"variance":699314593.661692,"mean":40095.6268656716,"stdev":26444.5569760904,"min":2917,"median":33172}},"features":[{"properties":{"city":"ANCHORAGE","geo_score":0.764,"liberty location #":"668","street":"2700 GAMBELL ST  STE 405","zip  code":99503,"id":"a861yoj2jyss","geo_precision":"range","state":"AK"},"type":"Feature","geometry":{"type":"Point","coordinates":[-149.870417,61.197663]}},{"properties":{"city":"Birmingham","geo_score":0.808,"liberty location #":"045B","street":"3000 RIVERCHASE GALLERIA  STE 610","zip  code":35244,"id":"a861yocvlm2u","geo_precision":"range","state":"AL"},"type":"Feature","geometry":{"type":"Point","coordinates":[-86.809802,33.381909]}},{"properties":{"city":"Orlando","geo_score":0.812,"liberty location #":"565","street":"12780 WATERFORD LAKES PARKWAY  STE 127","zip  code":32828,"id":"a861yolafx49","geo_precision":"range","state":"FL"},"type":"Feature","geometry":{"type":"Point","coordinates":[-81.198881,28.555515]}},{"properties":{"city":"MIAMI","geo_score":0.712,"liberty location #":"511","street":"9130 S DADELAND BLVD  STE 1900 TWO DATRAN CENTER","zip  code":33156,"id":"a861yog4qwjj","geo_precision":"range","state":"FL"},"type":"Feature","geometry":{"type":"Point","coordinates":[-80.311947,25.687347]}},{"properties":{"city":"JACKSONVILLE","geo_score":0.0,"liberty location #":"234","street":"1301 RIVERPLACE BLVD  STE 620","zip  code":32207,"id":"a861yon86pru","geo_precision":"unmatched","state":"FL"},"type":"Feature","geometry":null},{"properties":{"city":"Tampa","geo_score":0.779,"liberty location #":"504","street":"600 N WESTSHORE BLVD  STE 1001","zip  code":33609,"id":"a861yom1rwx2","geo_precision":"range","state":"FL"},"type":"Feature","geometry":{"type":"Point","coordinates":[-82.524248,27.949179]}},{"properties":{"city":"ORLANDO","geo_score":0.688,"liberty location #":"513","street":"300 S ORANGE AVE  Suite 1275 Lincoln Plaza Building","zip  code":32801,"id":"a861yocjj473","geo_precision":"range","state":"FL"},"type":"Feature","geometry":{"type":"Point","coordinates":[-81.378928,28.538392]}},{"properties":{"city":"FORT MYERS","geo_score":0.8,"liberty location #":"053B","street":"2070 MCGREGOR BLVD  STE 1","zip  code":33901,"id":"a861yombtf5x","geo_precision":"range","state":"FL"},"type":"Feature","geometry":{"type":"Point","coordinates":[-81.873981,26.639871]}},{"properties":{"city":"MIAMI","geo_score":0.468,"liberty location #":"554","street":"760 N.W. 107TH AVENUE  SUITE 115","zip  code":33172,"id":"a861yobj9vu1","geo_precision":"street","state":"FL"},"type":"Feature","geometry":{"type":"Point","coordinates":[-80.19624,25.880665]}},{"properties":{"city":"LAKELAND","geo_score":0.54,"liberty location #":"567","street":"1493 TOWN CENTER DR","zip  code":33803,"id":"a861yohym4yl","geo_precision":"street","state":"FL"},"type":"Feature","geometry":{"type":"Point","coordinates":[-81.912594,28.067722]}},{"properties":{"city":"ALTAMONTE SPRINGS","geo_score":0.774,"liberty location #":"573","street":"995 NORTH STATE ROAD 434  SUITE 601","zip  code":32714,"id":"a861yod07x6k","geo_precision":"range","state":"FL"},"type":"Feature","geometry":{"type":"Point","coordinates":[-81.418951,28.682706]}},{"properties":{"city":"ORLANDO","geo_score":0.538,"liberty location #":"581","street":"13526 VILLAGE PARK DRIVE  SUITE 222","zip  code":32837,"id":"a861yojmyep3","geo_precision":"street","state":"FL"},"type":"Feature","geometry":{"type":"Point","coordinates":[-81.303208,28.516066]}},{"properties":{"city":"MARTINEZ","geo_score":0.796,"liberty location #":"278","street":"341 FURY'S FERRY RD  STE 4","zip  code":30907,"id":"a861yojraf1m","geo_precision":"range","state":"GA"},"type":"Feature","geometry":{"type":"Point","coordinates":[-82.066735,33.522799]}},{"properties":{"city":"COLUMBUS","geo_score":0.741,"liberty location #":"506","street":"400 BROOKSTONE CENTRE PARKWAY  STE 100 BROOKSTONE CENTRE","zip  code":31904,"id":"a861yoiy3yye","geo_precision":"range","state":"GA"},"type":"Feature","geometry":{"type":"Point","coordinates":[-84.980914,32.531773]}},{"properties":{"city":"MERIDIAN","geo_score":0.741,"liberty location #":"65","street":"3501 E OVERLAND RD  SILVERSTONE POINT","zip  code":83642,"id":"a861yofeel78","geo_precision":"range","state":"ID"},"type":"Feature","geometry":{"type":"Point","coordinates":[-116.350631,43.59031]}},{"properties":{"city":"AUGUSTA","geo_score":0.592,"liberty location #":"280","street":"45 MEMORIAL CIRCLE  STE 100","zip  code":4330,"id":"a861yojtj8v3","geo_precision":"street","state":"ME"},"type":"Feature","geometry":{"type":"Point","coordinates":[-69.767645,44.316228]}},{"properties":{"city":"Bangor","geo_score":0.796,"liberty location #":"107","street":"930 STILLWATER AVENUE  UNIT C","zip  code":4401,"id":"a861yo9wgsch","geo_precision":"range","state":"ME"},"type":"Feature","geometry":{"type":"Point","coordinates":[-68.747682,44.837151]}},{"properties":{"city":"OKEMOS","geo_score":0.816,"liberty location #":"015D","street":"3552 MERIDIAN CROSSINGS  STE 560","zip  code":48864,"id":"a861yond3ajl","geo_precision":"range","state":"MI"},"type":"Feature","geometry":{"type":"Point","coordinates":[-84.434967,42.68384]}},{"properties":{"city":"ROCKFORD","geo_score":0.0,"liberty location #":"433","street":"SUITE B 355 NORTHLAND DRIVE N.E.","zip  code":49341,"id":"a861yod9g9i7","geo_precision":"unmatched","state":"MI"},"type":"Feature","geometry":null},{"properties":{"city":"NOVI","geo_score":0.451,"liberty location #":"092A","street":"41800 W ELEVEN MILE RD  STE 220 PINNACLE OFFICE CENTER","zip  code":48375,"id":"a861yomj6hwp","geo_precision":"street","state":"MI"},"type":"Feature","geometry":{"type":"Point","coordinates":[-83.447082,42.453044]}},{"properties":{"city":"HOLLAND","geo_score":0.764,"liberty location #":"427","street":"2863 W SHORE DR  STE 104","zip  code":49424,"id":"a861yodtsmfj","geo_precision":"range","state":"MI"},"type":"Feature","geometry":{"type":"Point","coordinates":[-86.091675,42.824215]}},{"properties":{"city":"ANN ARBOR","geo_score":0.801,"liberty location #":"340","street":"760 W EISENHOWER PKWY  STE 100","zip  code":48103,"id":"a861yoi2ucgk","geo_precision":"range","state":"MI"},"type":"Feature","geometry":{"type":"Point","coordinates":[-83.750646,42.243772]}},{"properties":{"city":"Troy","geo_score":0.562,"liberty location #":"13","street":"5600 NEW KING ST  STE 360","zip  code":48098,"id":"a861yod9978z","geo_precision":"street","state":"MI"},"type":"Feature","geometry":{"type":"Point","coordinates":[-83.171695,42.601608]}},{"properties":{"city":"FARMINGTON HILLS","geo_score":0.519,"liberty location #":"440","street":"34405 WEST TWELVE MILE ROAD  SUITE 130","zip  code":48331,"id":"a861yom7h269","geo_precision":"street","state":"MI"},"type":"Feature","geometry":{"type":"Point","coordinates":[-83.325087,42.499973]}},{"properties":{"city":"SOUTHFIELD","geo_score":0.545,"liberty location #":"485","street":"26100 NORTHWESTERN HWY  STE 470 OAKLAND TOWNE SQUARE ON","zip  code":48706,"id":"a861yoe1lbb2","geo_precision":"street","state":"MI"},"type":"Feature","geometry":{"type":"Point","coordinates":[-83.218128,42.458892]}},{"properties":{"city":"APPLE VALLEY","geo_score":0.771,"liberty location #":"044D","street":"14985 GLAZIER AVE  STE 645","zip  code":55124,"id":"a861yon3t2lq","geo_precision":"range","state":"MN"},"type":"Feature","geometry":{"type":"Point","coordinates":[-93.216427,44.733648]}},{"properties":{"city":"Springfield","geo_score":0.797,"liberty location #":"407","street":"2832 S INGRAM MILL RD  STE 112","zip  code":65804,"id":"a861yoacsoio","geo_precision":"range","state":"MO"},"type":"Feature","geometry":{"type":"Point","coordinates":[-93.226376,37.161358]}},{"properties":{"city":"O'FALLON","geo_score":0.708,"liberty location #":"416","street":"4607 HWY K","zip  code":63368,"id":"a861yolzby8g","geo_precision":"street","state":"MO"},"type":"Feature","geometry":{"type":"Point","coordinates":[-90.6998,38.721949]}},{"properties":{"city":"SAINT LOUIS","geo_score":0.797,"liberty location #":"90","street":"10733 SUNSET OFFICE DR  STE 410","zip  code":63127,"id":"a861yokk2cm3","geo_precision":"range","state":"MO"},"type":"Feature","geometry":{"type":"Point","coordinates":[-90.409851,38.556957]}},{"properties":{"city":"MISSOULA","geo_score":0.834,"liberty location #":"87","street":"2291 W BROADWAY  STE 2","zip  code":59808,"id":"a861yoldo7tv","geo_precision":"range","state":"MT"},"type":"Feature","geometry":{"type":"Point","coordinates":[-114.024614,46.883843]}},{"properties":{"city":"Chapel Hill","geo_score":0.783,"liberty location #":"342","street":"6320 QUADRANGLE DR  STE 110","zip  code":27517,"id":"a861yonkya5s","geo_precision":"range","state":"NC"},"type":"Feature","geometry":{"type":"Point","coordinates":[-78.97949,35.913707]}},{"properties":{"city":"RALEIGH","geo_score":0.368,"liberty location #":"512","street":"3120 HIGHWOODS BLVD  STE 310","zip  code":27604,"id":"a861yodlhkk6","geo_precision":"street","state":"NC"},"type":"Feature","geometry":{"type":"Point","coordinates":[-82.345682,35.364227]}},{"properties":{"city":"GREENSBORO","geo_score":0.576,"liberty location #":"552","street":"101 CENTREPORT DR  STE 310","zip  code":27409,"id":"a861yoj2nkpw","geo_precision":"street","state":"NC"},"type":"Feature","geometry":{"type":"Point","coordinates":[-79.963208,36.085839]}},{"properties":{"city":"ALBUQUERQUE","geo_score":0.42,"liberty location #":"945","street":"10555 MONTGOMERY BLVD NE  STE 50 &amp; 60","zip  code":87111,"id":"a861yofo5um1","geo_precision":"street","state":"NM"},"type":"Feature","geometry":{"type":"Point","coordinates":[-106.693891,35.085103]}},{"properties":{"city":"LAS VEGAS","geo_score":0.797,"liberty location #":"045S","street":"7201 W LAKE MEAD BLVD  STE 106","zip  code":89128,"id":"a861yomrpyq0","geo_precision":"range","state":"NV"},"type":"Feature","geometry":{"type":"Point","coordinates":[-115.249378,36.195971]}},{"properties":{"city":"ELKO","geo_score":0.748,"liberty location #":"645","street":"225 SILVER STREET SUITE 103","zip  code":89801,"id":"a861yohwdpb1","geo_precision":"range","state":"NV"},"type":"Feature","geometry":{"type":"Point","coordinates":[-115.763683,40.829125]}},{"properties":{"city":"WEST SENECA","geo_score":0.656,"liberty location #":"844","street":"SUITE 180 1100 SOUTHWESTERN BLVD","zip  code":14224,"id":"a861yoeaencm","geo_precision":"street","state":"NY"},"type":"Feature","geometry":{"type":"Point","coordinates":[-78.713123,42.811242]}},{"properties":{"city":"Greece","geo_score":0.551,"liberty location #":"847","street":"2680 W RIDGE RD","zip  code":14626,"id":"a861yobif5cv","geo_precision":"street","state":"NY"},"type":"Feature","geometry":{"type":"Point","coordinates":[-73.460394,44.952017]}},{"properties":{"city":"WHEATFIELD","geo_score":0.503,"liberty location #":"812","street":"3829 FOREST PARKWAY","zip  code":14120,"id":"a861yocw28ql","geo_precision":"street","state":"NY"},"type":"Feature","geometry":{"type":"Point","coordinates":[-74.144238,42.038334]}},{"properties":{"city":"NEW YORK","geo_score":0.587,"liberty location #":"218","street":"ONE BATTERY PARK PLAZA  30TH FL","zip  code":10004,"id":"a861yoea3bhr","geo_precision":"street","state":"NY"},"type":"Feature","geometry":{"type":"Point","coordinates":[-74.016542,40.704733]}},{"properties":{"city":"WHITE PLAINS","geo_score":0.738,"liberty location #":"223","street":"10 BANK ST  STE 790","zip  code":10606,"id":"a861yoaulvve","geo_precision":"range","state":"NY"},"type":"Feature","geometry":{"type":"Point","coordinates":[-73.774585,41.028714]}},{"properties":{"city":"HAUPPAUGE","geo_score":0.722,"liberty location #":"230","street":"150 MOTOR PARKWAY  STE 405 4TH FL","zip  code":11788,"id":"a861yojckfcr","geo_precision":"range","state":"NY"},"type":"Feature","geometry":{"type":"Point","coordinates":[-73.247544,40.80713]}},{"properties":{"city":"BUFFALO","geo_score":0.693,"liberty location #":"820","street":"300 PEARL ST  STE 345 OLYMPIC TO","zip  code":14202,"id":"a861yoj0tqg2","geo_precision":"range","state":"NY"},"type":"Feature","geometry":{"type":"Point","coordinates":[-78.874674,42.888734]}},{"properties":{"city":"ALBANY","geo_score":0.902,"liberty location #":"828","street":"1 COLUMBIA CIRCLE","zip  code":12203,"id":"a861yobkdq7h","geo_precision":"range","state":"NY"},"type":"Feature","geometry":{"type":"Point","coordinates":[-73.860914,42.706416]}},{"properties":{"city":"OSWEGO","geo_score":0.902,"liberty location #":"227","street":"104 W UTICA ST","zip  code":13126,"id":"a861yojyy3mm","geo_precision":"range","state":"NY"},"type":"Feature","geometry":{"type":"Point","coordinates":[-76.517032,43.450273]}},{"properties":{"city":"EDMOND","geo_score":0.49,"liberty location #":"622","street":"FISHER HALL  3540  S  BOULEVARD, SUITE 155","zip  code":73013,"id":"a861yoiyqbfw","geo_precision":"street","state":"OK"},"type":"Feature","geometry":{"type":"Point","coordinates":[-97.46376,35.626349]}},{"properties":{"city":"OKLAHOMA CITY","geo_score":0.785,"liberty location #":"907","street":"101 N ROBINSON  STE 1105","zip  code":73102,"id":"a861yolauaha","geo_precision":"range","state":"OK"},"type":"Feature","geometry":{"type":"Point","coordinates":[-97.516413,35.46881]}},{"properties":{"city":"Eugene","geo_score":0.651,"liberty location #":"680","street":"SUITE 6 1020 GREEN ACRES ROAD","zip  code":97408,"id":"a861yoefem8z","geo_precision":"street","state":"OR"},"type":"Feature","geometry":{"type":"Point","coordinates":[-123.092544,44.093265]}},{"properties":{"city":"EUGENE","geo_score":0.508,"liberty location #":"68","street":"3RD FLOOR 1400 EXECUTIVE PARKWAY","zip  code":97401,"id":"a861yoo003g9","geo_precision":"street","state":"OR"},"type":"Feature","geometry":{"type":"Point","coordinates":[-123.098806,44.056539]}},{"properties":{"city":"Smithfirld","geo_score":0.0,"liberty location #":"142","street":"20 CEDAR SWAMP RD #20B CEDAR PLAZA","zip  code":2917,"id":"a861yom5rax9","geo_precision":"unmatched","state":"RI"},"type":"Feature","geometry":null},{"properties":{"city":"HENDERSONVILLE","geo_score":0.729,"liberty location #":"569","street":"100 BLUE GRASS COMMONS BLVD  SUITE 2160","zip  code":37075,"id":"a861yoedrhc0","geo_precision":"range","state":"TN"},"type":"Feature","geometry":{"type":"Point","coordinates":[-86.565226,36.309098]}},{"properties":{"city":"CHATTANOOGA","geo_score":0.788,"liberty location #":"553","street":"7446 SHALLOWFORD RD  STE 203","zip  code":37421,"id":"a861yodbvjli","geo_precision":"range","state":"TN"},"type":"Feature","geometry":{"type":"Point","coordinates":[-85.143659,35.038011]}},{"properties":{"city":"Memphis","geo_score":0.514,"liberty location #":"578","street":"6060 Poplar Ave. Suite 301","zip  code":38119,"id":"a861yoc425ri","geo_precision":"street","state":"TN"},"type":"Feature","geometry":{"type":"Point","coordinates":[-89.86477,35.102323]}},{"properties":{"city":"Riverton","geo_score":0.433,"liberty location #":"009D","street":"12447 SO CROSSING DR STE 4","zip  code":84096,"id":"a861yof831yh","geo_precision":"street","state":"UT"},"type":"Feature","geometry":{"type":"Point","coordinates":[-111.966753,40.484229]}},{"properties":{"city":"SALT LAKE CITY","geo_score":0.793,"liberty location #":"667","street":"764 E WINCHESTER ST  STE 100","zip  code":84107,"id":"a861yons8tco","geo_precision":"range","state":"UT"},"type":"Feature","geometry":{"type":"Point","coordinates":[-111.869765,40.631759]}},{"properties":{"city":"WILLIAMSBURG","geo_score":0.671,"liberty location #":"564","street":"240 MCLAWS CIRCLE  STE 116","zip  code":23185,"id":"a861yoheof1m","geo_precision":"range","state":"VA"},"type":"Feature","geometry":{"type":"Point","coordinates":[-76.791423,37.402043]}},{"properties":{"city":"GAINESVILLE","geo_score":0.468,"liberty location #":"020D","street":"7508 IRON BAR LANE","zip  code":20155,"id":"a861yoig5wvc","geo_precision":"street","state":"VA"},"type":"Feature","geometry":{"type":"Point","coordinates":[-77.61055,38.866351]}},{"properties":{"city":"ALEXANDRIA","geo_score":0.0,"liberty location #":"470","street":"5400 SHAWNEE RD  STE 100","zip  code":22312,"id":"a861yohlglxs","geo_precision":"unmatched","state":"VA"},"type":"Feature","geometry":null},{"properties":{"city":"RICHMOND","geo_score":0.72,"liberty location #":"574","street":"3228 H W CARY ST  CARYTOWN SQUARE","zip  code":23221,"id":"a861yom9alsf","geo_precision":"range","state":"VA"},"type":"Feature","geometry":{"type":"Point","coordinates":[-77.483523,37.554246]}},{"properties":{"city":"FAIRFAX","geo_score":0.0,"liberty location #":"307","street":"4000 LEGATO RD  STE 500 CENTER POINTE II","zip  code":22033,"id":"a861yokflcex","geo_precision":"unmatched","state":"VA"},"type":"Feature","geometry":null},{"properties":{"city":"FAIRFAX","geo_score":0.0,"liberty location #":"316","street":"10555 MAIN ST  STE 400 THE FAIRFAX BLDG","zip  code":22030,"id":"a861yob3eefv","geo_precision":"unmatched","state":"VA"},"type":"Feature","geometry":null},{"properties":{"city":"WOODBRIDGE","geo_score":0.524,"liberty location #":"379","street":"12700 BLACK FOREST LANE  STE 203","zip  code":22192,"id":"a861yog4oexl","geo_precision":"street","state":"VA"},"type":"Feature","geometry":{"type":"Point","coordinates":[-77.259397,38.636271]}},{"properties":{"city":"RUTLAND","geo_score":0.756,"liberty location #":"192","street":"271 N MAIN ST  STE 208","zip  code":5701,"id":"a861yoe0pvuw","geo_precision":"range","state":"VT"},"type":"Feature","geometry":{"type":"Point","coordinates":[-72.975733,43.626888]}},{"properties":{"city":"WILLISTON","geo_score":0.644,"liberty location #":"180","street":"28 WALNUT STREET  SUITE 110","zip  code":5495,"id":"a861yodxw9pj","geo_precision":"range","state":"VT"},"type":"Feature","geometry":{"type":"Point","coordinates":[-73.212921,44.488917]}},{"properties":{"city":"WILLISTON","geo_score":0.659,"liberty location #":"156","street":"28 WALNUT ST  STE 210","zip  code":5495,"id":"a861yokdovki","geo_precision":"range","state":"VT"},"type":"Feature","geometry":{"type":"Point","coordinates":[-73.212921,44.488917]}},{"properties":{"city":"DE PERE","geo_score":0.771,"liberty location #":"014D","street":"1301 LAWRENCE DRIVE  SUITE A","zip  code":54115,"id":"a861yoep7tpl","geo_precision":"range","state":"WI"},"type":"Feature","geometry":{"type":"Point","coordinates":[-88.098315,44.439357]}},{"properties":{"city":"Appleton","geo_score":0.902,"liberty location #":"457","street":"1737 N CASALOMA DR","zip  code":54913,"id":"a861yobz1qnd","geo_precision":"range","state":"WI"},"type":"Feature","geometry":{"type":"Point","coordinates":[-88.476519,44.280172]}}],"is_temporal":false,"author":{"url":"","metadata":null,"contact_name":null,"contact_address":null,"source":null,"contact_phone":null},"source":"","pagination":{"sort":null,"start":0,"total":67,"limit":1000000},"state":"complete","tags":"","published":"2014-08-14T15:44:11-04:00","id":270754}