{"type":"FeatureCollection","data_type":"Dataset","url_type":null,"permissions":[{"permissions":{"download":true,"view":true},"group_id":"everyone"}],"classification":null,"title":"summer_feeding","count":65,"stream_id":270774,"contributor":{"url":"http://geocommons.com/users/50955","name":"estherb"},"data_attributes":null,"calculation_params":null,"icon_link":null,"link":"http://geocommons.com/overlays/270774.json","extent":[-96.6756,31.2585,-94.1355,33.8118],"geometry_types":["point"],"unique_name":null,"name":"summer_feeding","feature_count":65,"description":"","next_feature":null,"is_raster":false,"short_classification":"Y","stats":{},"features":[{"properties":{"city":"Mineola","zip codes":"75773","county":"Wood","physical address":"708 South Stone","geo_score":0.714,"feeding site":"Addie McFarland Community Center","id":"a8659yv7tlp5","geo_precision":"zip"},"type":"Feature","geometry":{"type":"Point","coordinates":[-95.364395,32.717632]}},{"properties":{"city":"Tyler","zip codes":"75702","county":"Smith","physical address":"1325 East Richards","geo_score":0.714,"feeding site":"Andrew's Park","id":"a8659z3rc5qj","geo_precision":"zip"},"type":"Feature","geometry":{"type":"Point","coordinates":[-95.203647,32.309852]}},{"properties":{"city":"Mt. Pleasant","zip codes":"75455","county":"Titus","physical address":"1801 East First Street","geo_score":0.714,"feeding site":"Annie Simms Elementary School","id":"a8659z4x0yzy","geo_precision":"zip"},"type":"Feature","geometry":{"type":"Point","coordinates":[-95.085772,33.095953]}},{"properties":{"city":"Arp","zip codes":"75750","county":"Smith","physical address":"113 West Longview St.","geo_score":0.714,"feeding site":"Arp Park","id":"a8659z3fdxdc","geo_precision":"zip"},"type":"Feature","geometry":{"type":"Point","coordinates":[-95.067302,32.27795]}},{"properties":{"city":"Carthage","zip codes":"75633","county":"Panola","physical address":"1023 MLK Blvd.","geo_score":0.714,"feeding site":"AYEP","id":"a8659z4h0xrh","geo_precision":"zip"},"type":"Feature","geometry":{"type":"Point","coordinates":[-94.141859,32.139885]}},{"properties":{"city":"Carthage","zip codes":"75633-1533","county":"Panola","physical address":"320 N. Daniels","geo_score":0.714,"feeding site":"Baker Koonce Intermediate School","id":"a8659yyl3rcu","geo_precision":"zip"},"type":"Feature","geometry":{"type":"Point","coordinates":[-94.141859,32.139885]}},{"properties":{"city":"Longview","zip codes":"75601","county":"Gregg","physical address":"1501 E Young St # 1","geo_score":0.714,"feeding site":"Belaire Manor Apartment","id":"a8659z1ltnh1","geo_precision":"zip"},"type":"Feature","geometry":{"type":"Point","coordinates":[-94.807991,32.537368]}},{"properties":{"city":"Jacksonville","zip codes":"75766","county":"Cherokee","physical address":"902 Ellis Street","geo_score":0.714,"feeding site":"Benson Memorial CME Church","id":"a8659yqpzae3","geo_precision":"zip"},"type":"Feature","geometry":{"type":"Point","coordinates":[-95.392175,32.023219]}},{"properties":{"city":"Tyler","zip codes":"75702","county":"Smith","physical address":"504 West 32nd Street","geo_score":0.714,"feeding site":"Boys &amp; Girls Club of East Texas","id":"a8659yurirnr","geo_precision":"zip"},"type":"Feature","geometry":{"type":"Point","coordinates":[-95.203647,32.309852]}},{"properties":{"city":"Henderson","zip codes":"75772","county":"Rusk","physical address":"710 Robertson Road","geo_score":0.714,"feeding site":"Boys &amp; Girls Club of Rusk County","id":"a8659z13ewok","geo_precision":"zip"},"type":"Feature","geometry":{"type":"Point","coordinates":[-95.300142,31.800846]}},{"properties":{"city":"Marshall","zip codes":"75670","county":"Harrison","physical address":"1500 Positive Place","geo_score":0.714,"feeding site":"Boys &amp; Girls Club of the Big Pines","id":"a8659yztp9ec","geo_precision":"zip"},"type":"Feature","geometry":{"type":"Point","coordinates":[-94.324084,32.545705]}},{"properties":{"city":"Kilgore","zip codes":"75663","county":"Gregg","physical address":"724 Harris Street","geo_score":0.714,"feeding site":"Boys and Girls Club of Kilgore","id":"a8659z2kwdvt","geo_precision":"zip"},"type":"Feature","geometry":{"type":"Point","coordinates":[-94.895098,32.386976]}},{"properties":{"city":"Tyler","zip codes":"75702","county":"Smith","physical address":"200 West Queen Street","geo_score":0.714,"feeding site":"City Park*","id":"a8659yzzk9kg","geo_precision":"zip"},"type":"Feature","geometry":{"type":"Point","coordinates":[-95.203647,32.309852]}},{"properties":{"city":"Tyler","zip codes":"75701","county":"Smith","physical address":"1001 South Vine","geo_score":0.714,"feeding site":"Cole Park*","id":"a8659ysty4xg","geo_precision":"zip"},"type":"Feature","geometry":{"type":"Point","coordinates":[-95.466068,32.414312]}},{"properties":{"city":"Lindale","zip codes":"75771","county":"Smith","physical address":"411 Eagle Spirit Drive","geo_score":0.714,"feeding site":"E.J. Moss Intermediate School","id":"a8659yq5ontd","geo_precision":"zip"},"type":"Feature","geometry":{"type":"Point","coordinates":[-95.468846,32.457366]}},{"properties":{"city":"Hallsville","zip codes":"75650","county":"Harrison","physical address":"420 Galilee Road","geo_score":0.714,"feeding site":"East Elementary School","id":"a8659ysniha9","geo_precision":"zip"},"type":"Feature","geometry":{"type":"Point","coordinates":[-94.553258,32.589313]}},{"properties":{"city":"Mt. Pleasant","zip codes":"75455","county":"Titus","physical address":"311 Cedar Street","geo_score":0.714,"feeding site":"EC Brice","id":"a8659ypmzpc3","geo_precision":"zip"},"type":"Feature","geometry":{"type":"Point","coordinates":[-95.085772,33.095953]}},{"properties":{"city":"Tyler","zip codes":"75702","county":"Smith","physical address":"1710 North Confederate Avenue","geo_score":0.714,"feeding site":"Emmitt Scott/Lincoln Park*","id":"a8659z2edkkx","geo_precision":"zip"},"type":"Feature","geometry":{"type":"Point","coordinates":[-95.203647,32.309852]}},{"properties":{"city":"Recklaw","zip codes":"75784","county":"Rusk","physical address":"17053 CR 4247W","geo_score":0.714,"feeding site":"Fairview Community Center","id":"a8659yyd46v3","geo_precision":"zip"},"type":"Feature","geometry":{"type":"Point","coordinates":[-94.995364,31.86904]}},{"properties":{"city":"Clarksville","zip codes":"75426","county":"Red River","physical address":"400 West Madison","geo_score":0.714,"feeding site":"Firemen's Park","id":"a8659yvy633i","geo_precision":"zip"},"type":"Feature","geometry":{"type":"Point","coordinates":[-94.983556,33.811775]}},{"properties":{"city":"Canton","zip codes":"75103","county":"Van Zandt","physical address":"600 S. Buffalo Street","geo_score":0.714,"feeding site":"First United Methodist Church Canton","id":"a8659yyujfcv","geo_precision":"zip"},"type":"Feature","geometry":{"type":"Point","coordinates":[-95.75552,32.571246]}},{"properties":{"city":"Longview","zip codes":"75604","county":"Gregg","physical address":"2403 Pinetree Road","geo_score":0.714,"feeding site":"Flamingo Trailing Park  * mobile unit","id":"a8659z00ykb2","geo_precision":"zip"},"type":"Feature","geometry":{"type":"Point","coordinates":[-94.793269,32.498203]}},{"properties":{"city":"Mt. Pleasant","zip codes":"75455","county":"Titus","physical address":"909 School Street","geo_score":0.714,"feeding site":"Francis Corprew Intermediate School","id":"a8659ywkjawj","geo_precision":"zip"},"type":"Feature","geometry":{"type":"Point","coordinates":[-95.085772,33.095953]}},{"properties":{"city":"Tyler","zip codes":"75702","county":"Smith","physical address":"2700 North Grand","geo_score":0.714,"feeding site":"Grand Manor Apartment Complex","id":"a8659ysohy5f","geo_precision":"zip"},"type":"Feature","geometry":{"type":"Point","coordinates":[-95.203647,32.309852]}},{"properties":{"city":"Tyler","zip codes":"75702","county":"Smith","physical address":"3200 Garden Valley Road","geo_score":0.714,"feeding site":"Greater Purpose Youth Center","id":"a8659z4eiayd","geo_precision":"zip"},"type":"Feature","geometry":{"type":"Point","coordinates":[-95.203647,32.309852]}},{"properties":{"city":"Karnack","zip codes":"75962","county":"Harrison","physical address":"14105 FM 134","geo_score":0.714,"feeding site":"GW Carver Elementary School-Karnack","id":"a8659z2remk1","geo_precision":"zip"},"type":"Feature","geometry":{"type":"Point","coordinates":[-94.607432,31.699494]}},{"properties":{"city":"Longview","zip codes":"75601","county":"Gregg","physical address":"1505 So Green St","geo_score":0.714,"feeding site":"Harvest Outreach Center","id":"a8659yylt5a4","geo_precision":"zip"},"type":"Feature","geometry":{"type":"Point","coordinates":[-94.807991,32.537368]}},{"properties":{"city":"Hawkins","zip codes":"75765","county":"Wood","physical address":"179 Hawk Drive","geo_score":0.714,"feeding site":"Hawkins ISD","id":"a8659yxho55b","geo_precision":"zip"},"type":"Feature","geometry":{"type":"Point","coordinates":[-95.274115,32.627916]}},{"properties":{"city":"Jefferson","zip codes":"75657","county":"Marion","physical address":"804 North Alley","geo_score":0.714,"feeding site":"Jefferson Jr. High School","id":"a8659yxochbo","geo_precision":"zip"},"type":"Feature","geometry":{"type":"Point","coordinates":[-94.402139,32.806249]}},{"properties":{"city":"Longview","zip codes":"75607","county":"Gregg","physical address":"2022 Alpine Road","geo_score":0.714,"feeding site":"LifeBridge","id":"a8659yoiztw0","geo_precision":"zip"},"type":"Feature","geometry":{"type":"Point","coordinates":[-94.783493,32.51121]}},{"properties":{"city":"Lindale","zip codes":"75771","county":"Smith","physical address":"201 N.Stadium Street","geo_score":0.714,"feeding site":"Lindale Early Childhood Center","id":"a8659yxez7w2","geo_precision":"zip"},"type":"Feature","geometry":{"type":"Point","coordinates":[-95.468846,32.457366]}},{"properties":{"city":"Tyler","zip codes":"75703","county":"Smith","physical address":"4600 Paluxy","geo_score":0.714,"feeding site":"Meadowbrook Apartments","id":"a8659z4h2ell","geo_precision":"zip"},"type":"Feature","geometry":{"type":"Point","coordinates":[-95.282173,32.441813]}},{"properties":{"city":"Mineola","zip codes":"75773","county":"Wood","physical address":"712 West Patten","geo_score":0.714,"feeding site":"Mineola Elementary","id":"a8659ypybcc8","geo_precision":"zip"},"type":"Feature","geometry":{"type":"Point","coordinates":[-95.364395,32.717632]}},{"properties":{"city":"Mineola","zip codes":"75773","county":"Wood","physical address":"1050 West Loop 564","geo_score":0.714,"feeding site":"Mineola Primary","id":"a8659z0irxni","geo_precision":"zip"},"type":"Feature","geometry":{"type":"Point","coordinates":[-95.364395,32.717632]}},{"properties":{"city":"Marshall","zip codes":"75670","county":"Harrison","physical address":"2200 A Pemberton Street","geo_score":0.714,"feeding site":"Mt. Zion Family Activity Center","id":"a8659ytgnevf","geo_precision":"zip"},"type":"Feature","geometry":{"type":"Point","coordinates":[-94.324084,32.545705]}},{"properties":{"city":"Tyler","zip codes":"75710","county":"Smith","physical address":"1525 N. Carlyle Avenue","geo_score":0.714,"feeding site":"Oakgrove Park","id":"a8659yzim7m7","geo_precision":"zip"},"type":"Feature","geometry":{"type":"Point","coordinates":[-95.306528,32.347549]}},{"properties":{"city":"Tyler","zip codes":"75702","county":"Smith","physical address":"3350 Pine Haven Road","geo_score":0.714,"feeding site":"Orr Elementary School","id":"a8659z0xl1nb","geo_precision":"zip"},"type":"Feature","geometry":{"type":"Point","coordinates":[-95.203647,32.309852]}},{"properties":{"city":"Jacksonville","zip codes":"75766","county":"Cherokee","physical address":"1203 Corinth Road","geo_score":0.714,"feeding site":"Our Lady of Sorrows","id":"a8659yvknlrg","geo_precision":"zip"},"type":"Feature","geometry":{"type":"Point","coordinates":[-95.392175,32.023219]}},{"properties":{"city":"Mt. Pleasant","zip codes":"75455","county":"Titus","physical address":"504 Dunn Avenue","geo_score":0.714,"feeding site":"P.E. Wallace Middle School","id":"a8659ys5ur9y","geo_precision":"zip"},"type":"Feature","geometry":{"type":"Point","coordinates":[-95.085772,33.095953]}},{"properties":{"city":"Palestine","zip codes":"75801","county":"Anderson","physical address":"233 Ben Milam","geo_score":0.714,"feeding site":"Palestine Middle School","id":"a8659ytak8lg","geo_precision":"zip"},"type":"Feature","geometry":{"type":"Point","coordinates":[-95.477732,31.919056]}},{"properties":{"city":"Palestine","zip codes":"75152","county":"Anderson","physical address":"5500 North Loop 286","geo_score":0.714,"feeding site":"Palestine YMCA","id":"a8659yr4dsso","geo_precision":"zip"},"type":"Feature","geometry":{"type":"Point","coordinates":[-96.675575,32.460524]}},{"properties":{"city":"Tyler","zip codes":"75701","county":"Smith","physical address":"3304 Old Noonday Rd","geo_score":0.714,"feeding site":"Pine Creek Apartments","id":"a8659yzg3rbf","geo_precision":"zip"},"type":"Feature","geometry":{"type":"Point","coordinates":[-95.466068,32.414312]}},{"properties":{"city":"Tyler","zip codes":"75701","county":"Smith","physical address":"710 East Amherst Street","geo_score":0.714,"feeding site":"Pollard Park","id":"a8659yrzp34p","geo_precision":"zip"},"type":"Feature","geometry":{"type":"Point","coordinates":[-95.466068,32.414312]}},{"properties":{"city":"Tyler","zip codes":"75702","county":"Smith","physical address":"1007 N NW Loop 323","geo_score":0.714,"feeding site":"Rose Valley Apartments","id":"a8659yukaj73","geo_precision":"zip"},"type":"Feature","geometry":{"type":"Point","coordinates":[-95.203647,32.309852]}},{"properties":{"city":"Tyler","zip codes":"75702","county":"Smith","physical address":"633 North Broadway","geo_score":0.714,"feeding site":"Salvation Army","id":"a8659yorml92","geo_precision":"zip"},"type":"Feature","geometry":{"type":"Point","coordinates":[-95.203647,32.309852]}},{"properties":{"city":"Tyler","zip codes":"75701","county":"Smith","physical address":"3220 Walton Rd","geo_score":0.714,"feeding site":"Southwest Pines Apartments","id":"a8659z43um4d","geo_precision":"zip"},"type":"Feature","geometry":{"type":"Point","coordinates":[-95.466068,32.414312]}},{"properties":{"city":"Hawkins","zip codes":"75765","county":"Wood","physical address":"FM 14","geo_score":0.714,"feeding site":"Stagner New Life Baptist Church","id":"a8659z34g5qo","geo_precision":"zip"},"type":"Feature","geometry":{"type":"Point","coordinates":[-95.274115,32.627916]}},{"properties":{"city":"Hawkins","zip codes":"75765","county":"Wood","physical address":"2340 South FM 2869","geo_score":0.714,"feeding site":"Summit Heights Fellowship","id":"a8659yzp4v5p","geo_precision":"zip"},"type":"Feature","geometry":{"type":"Point","coordinates":[-95.274115,32.627916]}},{"properties":{"city":"Jacksonville","zip codes":"75766","county":"Cherokee","physical address":"1011 North Jackson","geo_score":0.714,"feeding site":"Sweet Union Apartment Complex","id":"a8659z2hkdbt","geo_precision":"zip"},"type":"Feature","geometry":{"type":"Point","coordinates":[-95.392175,32.023219]}},{"properties":{"city":"Tyler","zip codes":"75702","county":"Smith","physical address":"225 South Vine","geo_score":0.714,"feeding site":"Tyler YMCA","id":"a8659yx2juty","geo_precision":"zip"},"type":"Feature","geometry":{"type":"Point","coordinates":[-95.203647,32.309852]}},{"properties":{"city":"Longview","zip codes":"75604","county":"Gregg","physical address":"300 Valentine Lane","geo_score":0.714,"feeding site":"Valentine Park   *mobile Unit","id":"a8659yr2z0e7","geo_precision":"zip"},"type":"Feature","geometry":{"type":"Point","coordinates":[-94.793269,32.498203]}},{"properties":{"city":"Mt. Pleasant","zip codes":"75455","county":"Titus","physical address":"502 North O'Tyson","geo_score":0.714,"feeding site":"Vivian Fowler","id":"a8659yzinyqe","geo_precision":"zip"},"type":"Feature","geometry":{"type":"Point","coordinates":[-95.085772,33.095953]}},{"properties":{"city":"Palestine","zip codes":"75801","county":"Anderson","physical address":"1020 Hamlett Street","geo_score":0.714,"feeding site":"Washington Elementary School","id":"a8659yrhwuao","geo_precision":"zip"},"type":"Feature","geometry":{"type":"Point","coordinates":[-95.477732,31.919056]}},{"properties":{"city":"Waskom","zip codes":"75692","county":"Harrison","physical address":"225 School Drive","geo_score":0.714,"feeding site":"Waskom Elementary School","id":"a8659ypparpj","geo_precision":"zip"},"type":"Feature","geometry":{"type":"Point","coordinates":[-94.135507,32.518392]}},{"properties":{"city":"Marshall","zip codes":"75670","county":"Harrison","physical address":"208 Hendrix","geo_score":0.714,"feeding site":"West End Park","id":"a8659yygw637","geo_precision":"zip"},"type":"Feature","geometry":{"type":"Point","coordinates":[-94.324084,32.545705]}},{"properties":{"city":"Hawkins","zip codes":"75765","county":"Smith","physical address":"170 County Road 3811","geo_score":0.714,"feeding site":"Whispering Pines of the Nazarene","id":"a8659yz2jsbq","geo_precision":"zip"},"type":"Feature","geometry":{"type":"Point","coordinates":[-95.274115,32.627916]}},{"properties":{"city":"Wills Point","zip codes":"75169","county":"Van Zandt","physical address":"447 Terrace Drive","geo_score":0.714,"feeding site":"Wills Point Primary School","id":"a8659z2dpbxe","geo_precision":"zip"},"type":"Feature","geometry":{"type":"Point","coordinates":[-96.022192,32.594578]}},{"properties":{"city":"Tyler","zip codes":"75701","county":"Smith","physical address":"910 South Peach Street","geo_score":0.714,"feeding site":"Winter's Park","id":"a8659yqcoq5y","geo_precision":"zip"},"type":"Feature","geometry":{"type":"Point","coordinates":[-95.466068,32.414312]}},{"properties":{"city":"Tyler","zip codes":"75710","county":"Smith","physical address":"701 W. 32nd Street","geo_score":0.714,"feeding site":"Woldert Park","id":"a8659yu4sgo7","geo_precision":"zip"},"type":"Feature","geometry":{"type":"Point","coordinates":[-95.306528,32.347549]}},{"properties":{"city":"Jacksonville","zip codes":"75766","county":"Cherokee","physical address":"1207 Skyline Blvd","geo_score":0.714,"feeding site":"Zion Hill","id":"a8659z0b9dwn","geo_precision":"zip"},"type":"Feature","geometry":{"type":"Point","coordinates":[-95.392175,32.023219]}},{"properties":{"city":"Crockett","zip codes":"75835","county":"Houston","physical address":"1500 SW Loop","geo_score":0.714,"feeding site":"Crockett Jr. High","id":"a8659z2czr6j","geo_precision":"zip"},"type":"Feature","geometry":{"type":"Point","coordinates":[-95.361887,31.258515]}},{"properties":{"city":"Crockett","zip codes":"75835","county":"Houston","physical address":"1300 MLK Blvd.","geo_score":0.714,"feeding site":"Crockett Early Childhood","id":"a8659z2bgtqs","geo_precision":"zip"},"type":"Feature","geometry":{"type":"Point","coordinates":[-95.361887,31.258515]}},{"properties":{"city":"Kilgore","zip codes":"75662","county":"Gregg","physical address":"1700 Pentecost Road","geo_score":0.714,"feeding site":"Penecost Park","id":"a8659ysapd11","geo_precision":"zip"},"type":"Feature","geometry":{"type":"Point","coordinates":[-94.826881,32.400984]}},{"properties":{"city":"Lindale","zip codes":"75771","county":"Smith","physical address":"402 Hubbard","geo_score":0.714,"feeding site":"First United Methodist Church Lindale","id":"a8659z36saff","geo_precision":"zip"},"type":"Feature","geometry":{"type":"Point","coordinates":[-95.468846,32.457366]}},{"properties":{"city":"Hallsville","zip codes":"75650","county":"Harrison","physical address":"300 Willow Street","geo_score":0.714,"feeding site":"BGC of the BP Hallsville Site","id":"a8659ypc4ttf","geo_precision":"zip"},"type":"Feature","geometry":{"type":"Point","coordinates":[-94.553258,32.589313]}}],"is_temporal":false,"author":{"url":"","metadata":null,"contact_name":null,"contact_address":null,"source":null,"contact_phone":null},"source":"","pagination":{"sort":null,"start":0,"total":65,"limit":1000000},"state":"complete","tags":"","published":"2014-08-14T15:44:56-04:00","id":270774}