{"type":"FeatureCollection","data_type":"Dataset","url_type":null,"permissions":[{"permissions":{"download":true,"view":true},"group_id":"everyone"}],"classification":null,"title":"SP Teams Volunteers 2011 1","count":276,"stream_id":271350,"contributor":{"url":"http://geocommons.com/users/51062","name":"nathanghall"},"data_attributes":null,"calculation_params":null,"icon_link":null,"link":"http://geocommons.com/overlays/271350.json","extent":[-124.066,25.9726,-69.3589,47.8061],"geometry_types":["point"],"unique_name":null,"name":"SP Teams Volunteers 2011 1","feature_count":276,"description":"","next_feature":null,"is_raster":false,"short_classification":"Y","stats":{},"features":[{"properties":{"city":"Airdrie","geo_score":0.571,"postal code":"T3J 1Z1","id":"a884ttkpdwwe","province":"Alberta","geo_precision":"city"},"type":"Feature","geometry":{"type":"Point","coordinates":[-79.743317,40.360619]}},{"properties":{"city":"Banff","geo_score":0.571,"postal code":"T3J 1Z1","id":"a884ttc8fvvk","province":"Alberta","geo_precision":"city"},"type":"Feature","geometry":{"type":"Point","coordinates":[-97.299993,28.167789]}},{"properties":{"city":"Banff","geo_score":0.571,"postal code":"T3J 1Z1","id":"a884tt887iwq","province":"Alberta","geo_precision":"city"},"type":"Feature","geometry":{"type":"Point","coordinates":[-97.299993,28.167789]}},{"properties":{"city":"Calgary","geo_score":0.571,"postal code":"T3J 1Z1","id":"a884tt6dyhqi","province":"Alberta","geo_precision":"city"},"type":"Feature","geometry":{"type":"Point","coordinates":[-101.148473,33.408978]}},{"properties":{"city":"Calgary","geo_score":0.571,"postal code":"T3J 1Z1","id":"a884ttc75rpj","province":"Alberta","geo_precision":"city"},"type":"Feature","geometry":{"type":"Point","coordinates":[-101.148473,33.408978]}},{"properties":{"city":"Calgary","geo_score":0.571,"postal code":"T3J 1Z1","id":"a884tt5xeav3","province":"Alberta","geo_precision":"city"},"type":"Feature","geometry":{"type":"Point","coordinates":[-101.148473,33.408978]}},{"properties":{"city":"Calgary","geo_score":0.571,"postal code":"T3J 1Z1","id":"a884ttgqa5k4","province":"Alberta","geo_precision":"city"},"type":"Feature","geometry":{"type":"Point","coordinates":[-101.148473,33.408978]}},{"properties":{"city":"Calgary","geo_score":0.571,"postal code":"T3J 1Z1","id":"a884ttic6ulp","province":"Alberta","geo_precision":"city"},"type":"Feature","geometry":{"type":"Point","coordinates":[-101.148473,33.408978]}},{"properties":{"city":"Calgary","geo_score":0.571,"postal code":"T3J 1Z1","id":"a884tt5ti8am","province":"Alberta","geo_precision":"city"},"type":"Feature","geometry":{"type":"Point","coordinates":[-101.148473,33.408978]}},{"properties":{"city":"Calgary","geo_score":0.571,"postal code":"T3J 1Z1","id":"a884ttks2wtz","province":"Alberta","geo_precision":"city"},"type":"Feature","geometry":{"type":"Point","coordinates":[-101.148473,33.408978]}},{"properties":{"city":"Calgary","geo_score":0.571,"postal code":"T3J 1Z1","id":"a884tt86jzyo","province":"Alberta","geo_precision":"city"},"type":"Feature","geometry":{"type":"Point","coordinates":[-101.148473,33.408978]}},{"properties":{"city":"Calgary","geo_score":0.571,"postal code":"T3J 1Z1","id":"a884ttf154rb","province":"Alberta","geo_precision":"city"},"type":"Feature","geometry":{"type":"Point","coordinates":[-101.148473,33.408978]}},{"properties":{"city":"Calgary","geo_score":0.571,"postal code":"T3J 1Z1","id":"a884ttdgt48z","province":"Alberta","geo_precision":"city"},"type":"Feature","geometry":{"type":"Point","coordinates":[-101.148473,33.408978]}},{"properties":{"city":"Calgary","geo_score":0.571,"postal code":"T3J 1Z1","id":"a884ttgmflb9","province":"Alberta","geo_precision":"city"},"type":"Feature","geometry":{"type":"Point","coordinates":[-101.148473,33.408978]}},{"properties":{"city":"Calgary","geo_score":0.571,"postal code":"T3J 1Z1","id":"a884ttaaqumh","province":"Alberta","geo_precision":"city"},"type":"Feature","geometry":{"type":"Point","coordinates":[-101.148473,33.408978]}},{"properties":{"city":"Calgary","geo_score":0.571,"postal code":"T3J 1Z1","id":"a884tthkw0pv","province":"Alberta","geo_precision":"city"},"type":"Feature","geometry":{"type":"Point","coordinates":[-101.148473,33.408978]}},{"properties":{"city":"Calgary","geo_score":0.571,"postal code":"T3J 1Z1","id":"a884tthkukim","province":"Alberta","geo_precision":"city"},"type":"Feature","geometry":{"type":"Point","coordinates":[-101.148473,33.408978]}},{"properties":{"city":"Calgary","geo_score":0.571,"postal code":"T3J 1Z1","id":"a884tta7xwzt","province":"Alberta","geo_precision":"city"},"type":"Feature","geometry":{"type":"Point","coordinates":[-101.148473,33.408978]}},{"properties":{"city":"Calgary","geo_score":0.571,"postal code":"T3J 1Z1","id":"a884tt59qfzn","province":"Alberta","geo_precision":"city"},"type":"Feature","geometry":{"type":"Point","coordinates":[-101.148473,33.408978]}},{"properties":{"city":"Calgary","geo_score":0.571,"postal code":"T3J 1Z1","id":"a884ttcuv44a","province":"Alberta","geo_precision":"city"},"type":"Feature","geometry":{"type":"Point","coordinates":[-101.148473,33.408978]}},{"properties":{"city":"Calgary","geo_score":0.571,"postal code":"T3J 1Z1","id":"a884ttdvk81k","province":"Alberta","geo_precision":"city"},"type":"Feature","geometry":{"type":"Point","coordinates":[-101.148473,33.408978]}},{"properties":{"city":"Calgary","geo_score":0.571,"postal code":"T3J 1Z1","id":"a884tte567ug","province":"Alberta","geo_precision":"city"},"type":"Feature","geometry":{"type":"Point","coordinates":[-101.148473,33.408978]}},{"properties":{"city":"Calgary","geo_score":0.571,"postal code":"T3J 1Z1","id":"a884tt8luepo","province":"Alberta","geo_precision":"city"},"type":"Feature","geometry":{"type":"Point","coordinates":[-101.148473,33.408978]}},{"properties":{"city":"Calgary","geo_score":0.571,"postal code":"T3J 1Z1","id":"a884ttigq75u","province":"Alberta","geo_precision":"city"},"type":"Feature","geometry":{"type":"Point","coordinates":[-101.148473,33.408978]}},{"properties":{"city":"Calgary","geo_score":0.571,"postal code":"T3J 1Z1","id":"a884tt6egohq","province":"Alberta","geo_precision":"city"},"type":"Feature","geometry":{"type":"Point","coordinates":[-101.148473,33.408978]}},{"properties":{"city":"Calgary","geo_score":0.571,"postal code":"T3J 1Z1","id":"a884ttkvzxhs","province":"Alberta","geo_precision":"city"},"type":"Feature","geometry":{"type":"Point","coordinates":[-101.148473,33.408978]}},{"properties":{"city":"Calgary","geo_score":0.571,"postal code":"T3J 1Z1","id":"a884ttk36oqj","province":"Alberta","geo_precision":"city"},"type":"Feature","geometry":{"type":"Point","coordinates":[-101.148473,33.408978]}},{"properties":{"city":"Calgary","geo_score":0.571,"postal code":"T3J 1Z1","id":"a884tt51kxa4","province":"Alberta","geo_precision":"city"},"type":"Feature","geometry":{"type":"Point","coordinates":[-101.148473,33.408978]}},{"properties":{"city":"Calgary","geo_score":0.571,"postal code":"T3J 1Z1","id":"a884ttdrvmlq","province":"Alberta","geo_precision":"city"},"type":"Feature","geometry":{"type":"Point","coordinates":[-101.148473,33.408978]}},{"properties":{"city":"Calgary","geo_score":0.571,"postal code":"T3J 1Z1","id":"a884tt75epju","province":"Alberta","geo_precision":"city"},"type":"Feature","geometry":{"type":"Point","coordinates":[-101.148473,33.408978]}},{"properties":{"city":"Calgary","geo_score":0.571,"postal code":"T3J 1Z1","id":"a884ttbgzo9h","province":"Alberta","geo_precision":"city"},"type":"Feature","geometry":{"type":"Point","coordinates":[-101.148473,33.408978]}},{"properties":{"city":"Calgary","geo_score":0.571,"postal code":"T3J 1Z1","id":"a884ttgnief9","province":"Alberta","geo_precision":"city"},"type":"Feature","geometry":{"type":"Point","coordinates":[-101.148473,33.408978]}},{"properties":{"city":"Calgary","geo_score":0.571,"postal code":"T3J 1Z1","id":"a884tt78euee","province":"Alberta","geo_precision":"city"},"type":"Feature","geometry":{"type":"Point","coordinates":[-101.148473,33.408978]}},{"properties":{"city":"Calgary","geo_score":0.571,"postal code":"T3J 1Z1","id":"a884ttc3y5pn","province":"Alberta","geo_precision":"city"},"type":"Feature","geometry":{"type":"Point","coordinates":[-101.148473,33.408978]}},{"properties":{"city":"Calgary","geo_score":0.571,"postal code":"T3J 1Z1","id":"a884ttaptng1","province":"Alberta","geo_precision":"city"},"type":"Feature","geometry":{"type":"Point","coordinates":[-101.148473,33.408978]}},{"properties":{"city":"Calgary","geo_score":0.571,"postal code":"T3J 1Z1","id":"a884tta4yplo","province":"Alberta","geo_precision":"city"},"type":"Feature","geometry":{"type":"Point","coordinates":[-101.148473,33.408978]}},{"properties":{"city":"Calgary","geo_score":0.571,"postal code":"T3J 1Z1","id":"a884tte672bi","province":"Alberta","geo_precision":"city"},"type":"Feature","geometry":{"type":"Point","coordinates":[-101.148473,33.408978]}},{"properties":{"city":"Calgary","geo_score":0.571,"postal code":"T3J 1Z1","id":"a884tt6cbman","province":"Alberta","geo_precision":"city"},"type":"Feature","geometry":{"type":"Point","coordinates":[-101.148473,33.408978]}},{"properties":{"city":"Calgary","geo_score":0.571,"postal code":"T3J 1Z1","id":"a884ttacamfj","province":"Alberta","geo_precision":"city"},"type":"Feature","geometry":{"type":"Point","coordinates":[-101.148473,33.408978]}},{"properties":{"city":"Calgary","geo_score":0.571,"postal code":"T3J 1Z1","id":"a884ttj7bvmx","province":"Alberta","geo_precision":"city"},"type":"Feature","geometry":{"type":"Point","coordinates":[-101.148473,33.408978]}},{"properties":{"city":"Calgary","geo_score":0.571,"postal code":"T3J 1Z1","id":"a884ttgxjr6y","province":"Alberta","geo_precision":"city"},"type":"Feature","geometry":{"type":"Point","coordinates":[-101.148473,33.408978]}},{"properties":{"city":"Calgary","geo_score":0.571,"postal code":"T3J 1Z1","id":"a884tt6vm7qn","province":"Alberta","geo_precision":"city"},"type":"Feature","geometry":{"type":"Point","coordinates":[-101.148473,33.408978]}},{"properties":{"city":"Calgary","geo_score":0.571,"postal code":"T3J 1Z1","id":"a884tti4f95l","province":"Alberta","geo_precision":"city"},"type":"Feature","geometry":{"type":"Point","coordinates":[-101.148473,33.408978]}},{"properties":{"city":"Calgary","geo_score":0.571,"postal code":"T3J 1Z1","id":"a884ttbsup8v","province":"Alberta","geo_precision":"city"},"type":"Feature","geometry":{"type":"Point","coordinates":[-101.148473,33.408978]}},{"properties":{"city":"Calgary","geo_score":0.571,"postal code":"T3J 1Z1","id":"a884tt5e6y60","province":"Alberta","geo_precision":"city"},"type":"Feature","geometry":{"type":"Point","coordinates":[-101.148473,33.408978]}},{"properties":{"city":"Calgary","geo_score":0.571,"postal code":"T3J 1Z1","id":"a884tthlqdsw","province":"Alberta","geo_precision":"city"},"type":"Feature","geometry":{"type":"Point","coordinates":[-101.148473,33.408978]}},{"properties":{"city":"Calgary","geo_score":0.571,"postal code":"T3J 1Z1","id":"a884tt9xchyy","province":"Alberta","geo_precision":"city"},"type":"Feature","geometry":{"type":"Point","coordinates":[-101.148473,33.408978]}},{"properties":{"city":"Calgary","geo_score":0.571,"postal code":"T3J 1Z1","id":"a884tt843x8c","province":"Alberta","geo_precision":"city"},"type":"Feature","geometry":{"type":"Point","coordinates":[-101.148473,33.408978]}},{"properties":{"city":"Calgary","geo_score":0.571,"postal code":"T3J 1Z1","id":"a884tt8eg75r","province":"Alberta","geo_precision":"city"},"type":"Feature","geometry":{"type":"Point","coordinates":[-101.148473,33.408978]}},{"properties":{"city":"Calgary","geo_score":0.571,"postal code":"T3J 1Z1","id":"a884ttejfscb","province":"Alberta","geo_precision":"city"},"type":"Feature","geometry":{"type":"Point","coordinates":[-101.148473,33.408978]}},{"properties":{"city":"Calgary","geo_score":0.571,"postal code":"T3J 1Z1","id":"a884tte3xfrc","province":"Alberta","geo_precision":"city"},"type":"Feature","geometry":{"type":"Point","coordinates":[-101.148473,33.408978]}},{"properties":{"city":"Calgary","geo_score":0.571,"postal code":"T3J 1Z1","id":"a884ttefu4mp","province":"Alberta","geo_precision":"city"},"type":"Feature","geometry":{"type":"Point","coordinates":[-101.148473,33.408978]}},{"properties":{"city":"Calgary","geo_score":0.571,"postal code":"T3J 1Z1","id":"a884tt9bszdt","province":"Alberta","geo_precision":"city"},"type":"Feature","geometry":{"type":"Point","coordinates":[-101.148473,33.408978]}},{"properties":{"city":"Calgary","geo_score":0.571,"postal code":"T3J 1Z1","id":"a884tt7ojyyv","province":"Alberta","geo_precision":"city"},"type":"Feature","geometry":{"type":"Point","coordinates":[-101.148473,33.408978]}},{"properties":{"city":"Calgary","geo_score":0.571,"postal code":"T3J 1Z1","id":"a884tth2t6lj","province":"Alberta","geo_precision":"city"},"type":"Feature","geometry":{"type":"Point","coordinates":[-101.148473,33.408978]}},{"properties":{"city":"Calgary","geo_score":0.571,"postal code":"T3J 1Z1","id":"a884tt5wk7vn","province":"Alberta","geo_precision":"city"},"type":"Feature","geometry":{"type":"Point","coordinates":[-101.148473,33.408978]}},{"properties":{"city":"Calgary","geo_score":0.571,"postal code":"T3J 1Z1","id":"a884ttezq2wq","province":"Alberta","geo_precision":"city"},"type":"Feature","geometry":{"type":"Point","coordinates":[-101.148473,33.408978]}},{"properties":{"city":"Calgary","geo_score":0.571,"postal code":"T3J 1Z1","id":"a884tt7lvjs1","province":"Alberta","geo_precision":"city"},"type":"Feature","geometry":{"type":"Point","coordinates":[-101.148473,33.408978]}},{"properties":{"city":"Calgary","geo_score":0.571,"postal code":"T3J 1Z1","id":"a884tthalklb","province":"Alberta","geo_precision":"city"},"type":"Feature","geometry":{"type":"Point","coordinates":[-101.148473,33.408978]}},{"properties":{"city":"Calgary","geo_score":0.571,"postal code":"T3J 1Z1","id":"a884tterde4w","province":"Alberta","geo_precision":"city"},"type":"Feature","geometry":{"type":"Point","coordinates":[-101.148473,33.408978]}},{"properties":{"city":"Calgary","geo_score":0.571,"postal code":"T3J 1Z1","id":"a884tt8hul2m","province":"Alberta","geo_precision":"city"},"type":"Feature","geometry":{"type":"Point","coordinates":[-101.148473,33.408978]}},{"properties":{"city":"Calgary","geo_score":0.571,"postal code":"T3J 1Z1","id":"a884tt86ihcq","province":"Alberta","geo_precision":"city"},"type":"Feature","geometry":{"type":"Point","coordinates":[-101.148473,33.408978]}},{"properties":{"city":"Calgary","geo_score":0.571,"postal code":"T3J 1Z1","id":"a884ttgv2z9x","province":"Alberta","geo_precision":"city"},"type":"Feature","geometry":{"type":"Point","coordinates":[-101.148473,33.408978]}},{"properties":{"city":"Calgary","geo_score":0.571,"postal code":"T3J 1Z1","id":"a884tt9cutxc","province":"Alberta","geo_precision":"city"},"type":"Feature","geometry":{"type":"Point","coordinates":[-101.148473,33.408978]}},{"properties":{"city":"Calgary","geo_score":0.571,"postal code":"T3J 1Z1","id":"a884ttfd6c05","province":"Alberta","geo_precision":"city"},"type":"Feature","geometry":{"type":"Point","coordinates":[-101.148473,33.408978]}},{"properties":{"city":"Calgary","geo_score":0.571,"postal code":"T3J 1Z1","id":"a884tt7fegfq","province":"Alberta","geo_precision":"city"},"type":"Feature","geometry":{"type":"Point","coordinates":[-101.148473,33.408978]}},{"properties":{"city":"Calgary","geo_score":0.571,"postal code":"T3J 1Z1","id":"a884ttf98612","province":"Alberta","geo_precision":"city"},"type":"Feature","geometry":{"type":"Point","coordinates":[-101.148473,33.408978]}},{"properties":{"city":"Calgary","geo_score":0.571,"postal code":"T3J 1Z1","id":"a884tt6uxt6k","province":"Alberta","geo_precision":"city"},"type":"Feature","geometry":{"type":"Point","coordinates":[-101.148473,33.408978]}},{"properties":{"city":"Calgary","geo_score":0.571,"postal code":"T3J 1Z1","id":"a884tt9x9q5w","province":"Alberta","geo_precision":"city"},"type":"Feature","geometry":{"type":"Point","coordinates":[-101.148473,33.408978]}},{"properties":{"city":"Calgary","geo_score":0.571,"postal code":"T3J 1Z1","id":"a884ttbwyhtx","province":"Alberta","geo_precision":"city"},"type":"Feature","geometry":{"type":"Point","coordinates":[-101.148473,33.408978]}},{"properties":{"city":"Calgary","geo_score":0.571,"postal code":"T3J 1Z1","id":"a884ttcpbvim","province":"Alberta","geo_precision":"city"},"type":"Feature","geometry":{"type":"Point","coordinates":[-101.148473,33.408978]}},{"properties":{"city":"Calgary","geo_score":0.571,"postal code":"T3J 1Z1","id":"a884ttezpve2","province":"Alberta","geo_precision":"city"},"type":"Feature","geometry":{"type":"Point","coordinates":[-101.148473,33.408978]}},{"properties":{"city":"Calgary","geo_score":0.571,"postal code":"T3J 1Z1","id":"a884tthgunh8","province":"Alberta","geo_precision":"city"},"type":"Feature","geometry":{"type":"Point","coordinates":[-101.148473,33.408978]}},{"properties":{"city":"Calgary","geo_score":0.571,"postal code":"T3J 1Z1","id":"a884ttds91o5","province":"Alberta","geo_precision":"city"},"type":"Feature","geometry":{"type":"Point","coordinates":[-101.148473,33.408978]}},{"properties":{"city":"Calgary","geo_score":0.571,"postal code":"T3J 1Z1","id":"a884ttbc3pjz","province":"Alberta","geo_precision":"city"},"type":"Feature","geometry":{"type":"Point","coordinates":[-101.148473,33.408978]}},{"properties":{"city":"Calgary","geo_score":0.571,"postal code":"T3J 1Z1","id":"a884ttgx3kwi","province":"Alberta","geo_precision":"city"},"type":"Feature","geometry":{"type":"Point","coordinates":[-101.148473,33.408978]}},{"properties":{"city":"Calgary","geo_score":0.571,"postal code":"T3J 1Z1","id":"a884tt9773s4","province":"Alberta","geo_precision":"city"},"type":"Feature","geometry":{"type":"Point","coordinates":[-101.148473,33.408978]}},{"properties":{"city":"Calgary","geo_score":0.571,"postal code":"T3J 1Z1","id":"a884tti4mrww","province":"Alberta","geo_precision":"city"},"type":"Feature","geometry":{"type":"Point","coordinates":[-101.148473,33.408978]}},{"properties":{"city":"Calgary","geo_score":0.571,"postal code":"T3J 1Z1","id":"a884ttaw4193","province":"Alberta","geo_precision":"city"},"type":"Feature","geometry":{"type":"Point","coordinates":[-101.148473,33.408978]}},{"properties":{"city":"Calgary","geo_score":0.571,"postal code":"T3J 1Z1","id":"a884ttl3rj5t","province":"Alberta","geo_precision":"city"},"type":"Feature","geometry":{"type":"Point","coordinates":[-101.148473,33.408978]}},{"properties":{"city":"Calgary","geo_score":0.571,"postal code":"T3J 1Z1","id":"a884tt9vfufx","province":"Alberta","geo_precision":"city"},"type":"Feature","geometry":{"type":"Point","coordinates":[-101.148473,33.408978]}},{"properties":{"city":"Calgary","geo_score":0.571,"postal code":"T3J 1Z1","id":"a884tthjam63","province":"Alberta","geo_precision":"city"},"type":"Feature","geometry":{"type":"Point","coordinates":[-101.148473,33.408978]}},{"properties":{"city":"Calgary","geo_score":0.571,"postal code":"T3J 1Z1","id":"a884tt8ijxbr","province":"Alberta","geo_precision":"city"},"type":"Feature","geometry":{"type":"Point","coordinates":[-101.148473,33.408978]}},{"properties":{"city":"Calgary","geo_score":0.571,"postal code":"T3J 1Z1","id":"a884ttj46uyo","province":"Alberta","geo_precision":"city"},"type":"Feature","geometry":{"type":"Point","coordinates":[-101.148473,33.408978]}},{"properties":{"city":"Calgary","geo_score":0.571,"postal code":"T3J 1Z1","id":"a884ttjuhx7n","province":"Alberta","geo_precision":"city"},"type":"Feature","geometry":{"type":"Point","coordinates":[-101.148473,33.408978]}},{"properties":{"city":"Calgary","geo_score":0.571,"postal code":"T3J 1Z1","id":"a884tt5kfnle","province":"Alberta","geo_precision":"city"},"type":"Feature","geometry":{"type":"Point","coordinates":[-101.148473,33.408978]}},{"properties":{"city":"Calgary","geo_score":0.571,"postal code":"T3J 1Z1","id":"a884tt8ssafa","province":"Alberta","geo_precision":"city"},"type":"Feature","geometry":{"type":"Point","coordinates":[-101.148473,33.408978]}},{"properties":{"city":"Calgary","geo_score":0.571,"postal code":"T3J 1Z1","id":"a884tt7ntnua","province":"Alberta","geo_precision":"city"},"type":"Feature","geometry":{"type":"Point","coordinates":[-101.148473,33.408978]}},{"properties":{"city":"Camrose","geo_score":0.571,"postal code":"T3J 1Z1","id":"a884tt7r7441","province":"Alberta","geo_precision":"city"},"type":"Feature","geometry":{"type":"Point","coordinates":[-86.103323,36.140057]}},{"properties":{"city":"Carstairs","geo_score":0.0,"postal code":"T3J 1Z1","id":"a884ttbrllpt","province":"Alberta","geo_precision":"unmatched"},"type":"Feature","geometry":null},{"properties":{"city":"Chestermere","geo_score":0.0,"postal code":"T3J 1Z1","id":"a884ttjxf293","province":"Alberta","geo_precision":"unmatched"},"type":"Feature","geometry":null},{"properties":{"city":"Chestermere","geo_score":0.0,"postal code":"T3J 1Z1","id":"a884tt84qww7","province":"Alberta","geo_precision":"unmatched"},"type":"Feature","geometry":null},{"properties":{"city":"Cochrane","geo_score":0.571,"postal code":"T3J 1Z1","id":"a884ttfb5zuy","province":"Alberta","geo_precision":"city"},"type":"Feature","geometry":{"type":"Point","coordinates":[-88.251143,33.065404]}},{"properties":{"city":"Cochrane","geo_score":0.571,"postal code":"T3J 1Z1","id":"a884tt73uu6k","province":"Alberta","geo_precision":"city"},"type":"Feature","geometry":{"type":"Point","coordinates":[-88.251143,33.065404]}},{"properties":{"city":"Cremona","geo_score":0.571,"postal code":"T3J 1Z1","id":"a884tt7nbcmx","province":"Alberta","geo_precision":"city"},"type":"Feature","geometry":{"type":"Point","coordinates":[-111.052868,31.587313]}},{"properties":{"city":"Crossfield","geo_score":0.571,"postal code":"T3J 1Z1","id":"a884tt509n7m","province":"Alberta","geo_precision":"city"},"type":"Feature","geometry":{"type":"Point","coordinates":[-86.297474,37.772284]}},{"properties":{"city":"Didsbury","geo_score":0.571,"postal code":"T3J 1Z1","id":"a884tthe0av2","province":"Alberta","geo_precision":"city"},"type":"Feature","geometry":{"type":"Point","coordinates":[-87.523912,39.157263]}},{"properties":{"city":"Didsbury","geo_score":0.571,"postal code":"T3J 1Z1","id":"a884ttcmfegd","province":"Alberta","geo_precision":"city"},"type":"Feature","geometry":{"type":"Point","coordinates":[-87.523912,39.157263]}},{"properties":{"city":"Didsbury","geo_score":0.571,"postal code":"T3J 1Z1","id":"a884ttho3cse","province":"Alberta","geo_precision":"city"},"type":"Feature","geometry":{"type":"Point","coordinates":[-87.523912,39.157263]}},{"properties":{"city":"Didsbury","geo_score":0.571,"postal code":"T3J 1Z1","id":"a884tt9edc6a","province":"Alberta","geo_precision":"city"},"type":"Feature","geometry":{"type":"Point","coordinates":[-87.523912,39.157263]}},{"properties":{"city":"Drumheller","geo_score":0.0,"postal code":"T3J 1Z1","id":"a884tti5pk9k","province":"Alberta","geo_precision":"unmatched"},"type":"Feature","geometry":null},{"properties":{"city":"Edmonton","geo_score":0.571,"postal code":"T3J 1Z1","id":"a884ttdj71nd","province":"Alberta","geo_precision":"city"},"type":"Feature","geometry":{"type":"Point","coordinates":[-122.372401,47.806068]}},{"properties":{"city":"Edmonton","geo_score":0.571,"postal code":"T3J 1Z1","id":"a884ttil13vw","province":"Alberta","geo_precision":"city"},"type":"Feature","geometry":{"type":"Point","coordinates":[-122.372401,47.806068]}},{"properties":{"city":"Edmonton","geo_score":0.571,"postal code":"T3J 1Z1","id":"a884tt4xaks0","province":"Alberta","geo_precision":"city"},"type":"Feature","geometry":{"type":"Point","coordinates":[-122.372401,47.806068]}},{"properties":{"city":"Edmonton","geo_score":0.571,"postal code":"T3J 1Z1","id":"a884ttimonmu","province":"Alberta","geo_precision":"city"},"type":"Feature","geometry":{"type":"Point","coordinates":[-122.372401,47.806068]}},{"properties":{"city":"Edmonton","geo_score":0.571,"postal code":"T3J 1Z1","id":"a884ttjm004d","province":"Alberta","geo_precision":"city"},"type":"Feature","geometry":{"type":"Point","coordinates":[-122.372401,47.806068]}},{"properties":{"city":"Edmonton","geo_score":0.571,"postal code":"T3J 1Z1","id":"a884ttfn12dv","province":"Alberta","geo_precision":"city"},"type":"Feature","geometry":{"type":"Point","coordinates":[-122.372401,47.806068]}},{"properties":{"city":"Edmonton","geo_score":0.571,"postal code":"T3J 1Z1","id":"a884tthu2nyn","province":"Alberta","geo_precision":"city"},"type":"Feature","geometry":{"type":"Point","coordinates":[-122.372401,47.806068]}},{"properties":{"city":"Edmonton","geo_score":0.571,"postal code":"T3J 1Z1","id":"a884tthl9t3m","province":"Alberta","geo_precision":"city"},"type":"Feature","geometry":{"type":"Point","coordinates":[-122.372401,47.806068]}},{"properties":{"city":"Edmonton","geo_score":0.571,"postal code":"T3J 1Z1","id":"a884tthffz0d","province":"Alberta","geo_precision":"city"},"type":"Feature","geometry":{"type":"Point","coordinates":[-122.372401,47.806068]}},{"properties":{"city":"Edmonton","geo_score":0.571,"postal code":"T3J 1Z1","id":"a884tt9ti8qu","province":"Alberta","geo_precision":"city"},"type":"Feature","geometry":{"type":"Point","coordinates":[-122.372401,47.806068]}},{"properties":{"city":"Edmonton","geo_score":0.571,"postal code":"T3J 1Z1","id":"a884ttiiovdt","province":"Alberta","geo_precision":"city"},"type":"Feature","geometry":{"type":"Point","coordinates":[-122.372401,47.806068]}},{"properties":{"city":"Edmonton","geo_score":0.571,"postal code":"T3J 1Z1","id":"a884tt5izw9z","province":"Alberta","geo_precision":"city"},"type":"Feature","geometry":{"type":"Point","coordinates":[-122.372401,47.806068]}},{"properties":{"city":"Edmonton","geo_score":0.571,"postal code":"T3J 1Z1","id":"a884ttbav9ln","province":"Alberta","geo_precision":"city"},"type":"Feature","geometry":{"type":"Point","coordinates":[-122.372401,47.806068]}},{"properties":{"city":"Edmonton","geo_score":0.571,"postal code":"T3J 1Z1","id":"a884tt9uy31u","province":"Alberta","geo_precision":"city"},"type":"Feature","geometry":{"type":"Point","coordinates":[-122.372401,47.806068]}},{"properties":{"city":"Edmonton","geo_score":0.571,"postal code":"T3J 1Z1","id":"a884ttjxlhcq","province":"Alberta","geo_precision":"city"},"type":"Feature","geometry":{"type":"Point","coordinates":[-122.372401,47.806068]}},{"properties":{"city":"Edmonton","geo_score":0.571,"postal code":"T3J 1Z1","id":"a884ttcwyxmj","province":"Alberta","geo_precision":"city"},"type":"Feature","geometry":{"type":"Point","coordinates":[-122.372401,47.806068]}},{"properties":{"city":"Edmonton","geo_score":0.571,"postal code":"T3J 1Z1","id":"a884tta244ao","province":"Alberta","geo_precision":"city"},"type":"Feature","geometry":{"type":"Point","coordinates":[-122.372401,47.806068]}},{"properties":{"city":"Edmonton","geo_score":0.571,"postal code":"T3J 1Z1","id":"a884tt8xr5yr","province":"Alberta","geo_precision":"city"},"type":"Feature","geometry":{"type":"Point","coordinates":[-122.372401,47.806068]}},{"properties":{"city":"Edmonton","geo_score":0.571,"postal code":"T6J 1K1","id":"a884ttesuxf8","province":"Alberta","geo_precision":"city"},"type":"Feature","geometry":{"type":"Point","coordinates":[-122.372401,47.806068]}},{"properties":{"city":"Edmonton","geo_score":0.571,"postal code":"T6J 1K1","id":"a884ttciiqha","province":"Alberta","geo_precision":"city"},"type":"Feature","geometry":{"type":"Point","coordinates":[-122.372401,47.806068]}},{"properties":{"city":"Edmonton","geo_score":0.571,"postal code":"T6J 1K1","id":"a884tt93c04w","province":"Alberta","geo_precision":"city"},"type":"Feature","geometry":{"type":"Point","coordinates":[-122.372401,47.806068]}},{"properties":{"city":"Edmonton","geo_score":0.571,"postal code":"T6J 1K1","id":"a884ttfshsct","province":"Alberta","geo_precision":"city"},"type":"Feature","geometry":{"type":"Point","coordinates":[-122.372401,47.806068]}},{"properties":{"city":"Edmonton","geo_score":0.571,"postal code":"T6J 1K1","id":"a884ttabiv7s","province":"Alberta","geo_precision":"city"},"type":"Feature","geometry":{"type":"Point","coordinates":[-122.372401,47.806068]}},{"properties":{"city":"Edmonton","geo_score":0.571,"postal code":"T6J 1K1","id":"a884ttahkzhu","province":"Alberta","geo_precision":"city"},"type":"Feature","geometry":{"type":"Point","coordinates":[-122.372401,47.806068]}},{"properties":{"city":"Edmonton","geo_score":0.571,"postal code":"T6J 1K1","id":"a884tte1kd6r","province":"Alberta","geo_precision":"city"},"type":"Feature","geometry":{"type":"Point","coordinates":[-122.372401,47.806068]}},{"properties":{"city":"Edmonton","geo_score":0.571,"postal code":"T6J 1K1","id":"a884ttj4prx5","province":"Alberta","geo_precision":"city"},"type":"Feature","geometry":{"type":"Point","coordinates":[-122.372401,47.806068]}},{"properties":{"city":"Edmonton","geo_score":0.571,"postal code":"T6J 1K1","id":"a884ttkphv93","province":"Alberta","geo_precision":"city"},"type":"Feature","geometry":{"type":"Point","coordinates":[-122.372401,47.806068]}},{"properties":{"city":"Edmonton","geo_score":0.571,"postal code":"T6J 1K1","id":"a884tt8muwng","province":"Alberta","geo_precision":"city"},"type":"Feature","geometry":{"type":"Point","coordinates":[-122.372401,47.806068]}},{"properties":{"city":"Keoma","geo_score":0.571,"postal code":"T6J 1K1","id":"a884ttklsury","province":"Alberta","geo_precision":"city"},"type":"Feature","geometry":{"type":"Point","coordinates":[-85.086914,40.385322]}},{"properties":{"city":"Leduc","geo_score":0.571,"postal code":"T6J 1K1","id":"a884ttfy4s0d","province":"Alberta","geo_precision":"city"},"type":"Feature","geometry":{"type":"Point","coordinates":[-85.581072,33.94899]}},{"properties":{"city":"Lethbridge","geo_score":0.0,"postal code":"T6J 1K1","id":"a884ttgyolua","province":"Alberta","geo_precision":"unmatched"},"type":"Feature","geometry":null},{"properties":{"city":"Lethbridge","geo_score":0.0,"postal code":"T6J 1K1","id":"a884tthybt80","province":"Alberta","geo_precision":"unmatched"},"type":"Feature","geometry":null},{"properties":{"city":"Lloydminster","geo_score":0.0,"postal code":"T6J 1K1","id":"a884tth461tt","province":"Alberta","geo_precision":"unmatched"},"type":"Feature","geometry":null},{"properties":{"city":"Lloydminster","geo_score":0.0,"postal code":"T6J 1K1","id":"a884tt5kr203","province":"Alberta","geo_precision":"unmatched"},"type":"Feature","geometry":null},{"properties":{"city":"Lloydminster","geo_score":0.0,"postal code":"T6J 1K1","id":"a884tt6zs6xa","province":"Alberta","geo_precision":"unmatched"},"type":"Feature","geometry":null},{"properties":{"city":"Lloydminster","geo_score":0.0,"postal code":"T6J 1K1","id":"a884ttgt5ulo","province":"Alberta","geo_precision":"unmatched"},"type":"Feature","geometry":null},{"properties":{"city":"Lloydminster","geo_score":0.0,"postal code":"T6J 1K1","id":"a884ttb3m7qz","province":"Alberta","geo_precision":"unmatched"},"type":"Feature","geometry":null},{"properties":{"city":"Lloydminster","geo_score":0.0,"postal code":"T6J 1K1","id":"a884tteraz6k","province":"Alberta","geo_precision":"unmatched"},"type":"Feature","geometry":null},{"properties":{"city":"Lloydminster","geo_score":0.0,"postal code":"T6J 1K1","id":"a884tt4l54r6","province":"Alberta","geo_precision":"unmatched"},"type":"Feature","geometry":null},{"properties":{"city":"Lloydminster","geo_score":0.0,"postal code":"T6J 1K1","id":"a884tt8167ae","province":"Alberta","geo_precision":"unmatched"},"type":"Feature","geometry":null},{"properties":{"city":"Lloydminster","geo_score":0.0,"postal code":"T6J 1K1","id":"a884tt80nqik","province":"Alberta","geo_precision":"unmatched"},"type":"Feature","geometry":null},{"properties":{"city":"Lloydminster","geo_score":0.0,"postal code":"T6J 1K1","id":"a884tt5tumju","province":"Alberta","geo_precision":"unmatched"},"type":"Feature","geometry":null},{"properties":{"city":"Lloydminster","geo_score":0.0,"postal code":"T6J 1K1","id":"a884tt5ftho7","province":"Alberta","geo_precision":"unmatched"},"type":"Feature","geometry":null},{"properties":{"city":"Lloydminster","geo_score":0.0,"postal code":"T6J 1K1","id":"a884ttjgn9ms","province":"Alberta","geo_precision":"unmatched"},"type":"Feature","geometry":null},{"properties":{"city":"Lloydminster","geo_score":0.0,"postal code":"T6J 1K1","id":"a884tt794t7j","province":"Alberta","geo_precision":"unmatched"},"type":"Feature","geometry":null},{"properties":{"city":"Lloydminster","geo_score":0.0,"postal code":"T6J 1K1","id":"a884ttd6feb4","province":"Alberta","geo_precision":"unmatched"},"type":"Feature","geometry":null},{"properties":{"city":"Lloydminster","geo_score":0.0,"postal code":"T6J 1K1","id":"a884tt5x3dv1","province":"Alberta","geo_precision":"unmatched"},"type":"Feature","geometry":null},{"properties":{"city":"Lloydminster","geo_score":0.0,"postal code":"T6J 1K1","id":"a884ttdakpcj","province":"Alberta","geo_precision":"unmatched"},"type":"Feature","geometry":null},{"properties":{"city":"Lumby","geo_score":0.0,"postal code":"T6J 1K1","id":"a884tt6ckt9z","province":"Alberta","geo_precision":"unmatched"},"type":"Feature","geometry":null},{"properties":{"city":"Madden","geo_score":0.571,"postal code":"T6J 1K1","id":"a884ttgedqxn","province":"Alberta","geo_precision":"city"},"type":"Feature","geometry":{"type":"Point","coordinates":[-88.023079,37.403383]}},{"properties":{"city":"Medicine Hat","geo_score":0.571,"postal code":"T6J 1K1","id":"a884ttcutfr4","province":"Alberta","geo_precision":"city"},"type":"Feature","geometry":{"type":"Point","coordinates":[-86.754233,34.651409]}},{"properties":{"city":"New Sarepta","geo_score":0.571,"postal code":"T6J 1K1","id":"a884tthf9d5f","province":"Alberta","geo_precision":"city"},"type":"Feature","geometry":{"type":"Point","coordinates":[-89.287573,34.124553]}},{"properties":{"city":"New Sarepta","geo_score":0.571,"postal code":"T6J 1K1","id":"a884tt6pq10y","province":"Alberta","geo_precision":"city"},"type":"Feature","geometry":{"type":"Point","coordinates":[-89.287573,34.124553]}},{"properties":{"city":"New Sarepta","geo_score":0.571,"postal code":"T6J 1K1","id":"a884tteb5cwn","province":"Alberta","geo_precision":"city"},"type":"Feature","geometry":{"type":"Point","coordinates":[-89.287573,34.124553]}},{"properties":{"city":"New Sarepta","geo_score":0.571,"postal code":"T6J 1K1","id":"a884ttie0ftj","province":"Alberta","geo_precision":"city"},"type":"Feature","geometry":{"type":"Point","coordinates":[-89.287573,34.124553]}},{"properties":{"city":"Okotoks","geo_score":0.0,"postal code":"T6J 1K1","id":"a884tt8mb75w","province":"Alberta","geo_precision":"unmatched"},"type":"Feature","geometry":null},{"properties":{"city":"Okotoks","geo_score":0.0,"postal code":"T6J 1K1","id":"a884tt74dmc3","province":"Alberta","geo_precision":"unmatched"},"type":"Feature","geometry":null},{"properties":{"city":"Red Deer","geo_score":0.571,"postal code":"T6J 1K1","id":"a884ttfzp5qb","province":"Alberta","geo_precision":"city"},"type":"Feature","geometry":{"type":"Point","coordinates":[-86.47137,37.371717]}},{"properties":{"city":"Red Deer","geo_score":0.571,"postal code":"T6J 1K1","id":"a884ttk16gtd","province":"Alberta","geo_precision":"city"},"type":"Feature","geometry":{"type":"Point","coordinates":[-86.47137,37.371717]}},{"properties":{"city":"Rocky View","geo_score":0.571,"postal code":"T6J 1K1","id":"a884ttalallm","province":"Alberta","geo_precision":"city"},"type":"Feature","geometry":{"type":"Point","coordinates":[-124.066463,41.546786]}},{"properties":{"city":"Sarnia","geo_score":0.571,"postal code":"T6J 1K1","id":"a884tt879iwd","province":"Alberta","geo_precision":"city"},"type":"Feature","geometry":{"type":"Point","coordinates":[-87.647775,31.75571]}},{"properties":{"city":"Scandia","geo_score":0.571,"postal code":"T6J 1K1","id":"a884tthvv31a","province":"Alberta","geo_precision":"city"},"type":"Feature","geometry":{"type":"Point","coordinates":[-87.300505,46.396896]}},{"properties":{"city":"Sherwood Park","geo_score":0.571,"postal code":"T6J 1K1","id":"a884tt6wgs8e","province":"Alberta","geo_precision":"city"},"type":"Feature","geometry":{"type":"Point","coordinates":[-85.930195,35.045233]}},{"properties":{"city":"Sherwood Park","geo_score":0.571,"postal code":"T6J 1K1","id":"a884ttgtuqtt","province":"Alberta","geo_precision":"city"},"type":"Feature","geometry":{"type":"Point","coordinates":[-85.930195,35.045233]}},{"properties":{"city":"Sherwood Park","geo_score":0.571,"postal code":"T6J 1K1","id":"a884tt6q08po","province":"Alberta","geo_precision":"city"},"type":"Feature","geometry":{"type":"Point","coordinates":[-85.930195,35.045233]}},{"properties":{"city":"Sherwood Park","geo_score":0.571,"postal code":"T6J 1K1","id":"a884ttbejvbj","province":"Alberta","geo_precision":"city"},"type":"Feature","geometry":{"type":"Point","coordinates":[-85.930195,35.045233]}},{"properties":{"city":"Sherwood Park","geo_score":0.571,"postal code":"T6J 1K1","id":"a884tt6b7uo3","province":"Alberta","geo_precision":"city"},"type":"Feature","geometry":{"type":"Point","coordinates":[-85.930195,35.045233]}},{"properties":{"city":"St. Albert","geo_score":0.571,"postal code":"T6J 1K1","id":"a884ttjlidlv","province":"Alberta","geo_precision":"city"},"type":"Feature","geometry":{"type":"Point","coordinates":[-90.226779,37.328942]}},{"properties":{"city":"Stony Plain","geo_score":0.571,"postal code":"T6J 1K1","id":"a884ttki2e0f","province":"Alberta","geo_precision":"city"},"type":"Feature","geometry":{"type":"Point","coordinates":[-119.008434,36.043564]}},{"properties":{"city":"Stony Plain","geo_score":0.571,"postal code":"T6J 1K1","id":"a884tta2okfx","province":"Alberta","geo_precision":"city"},"type":"Feature","geometry":{"type":"Point","coordinates":[-119.008434,36.043564]}},{"properties":{"city":"Stony Plain","geo_score":0.571,"postal code":"T6J 1K1","id":"a884ttjerjsi","province":"Alberta","geo_precision":"city"},"type":"Feature","geometry":{"type":"Point","coordinates":[-119.008434,36.043564]}},{"properties":{"city":"Tofield","geo_score":0.571,"postal code":"T6J 1K1","id":"a884tt8xaj3m","province":"Alberta","geo_precision":"city"},"type":"Feature","geometry":{"type":"Point","coordinates":[-83.90996,42.928085]}},{"properties":{"city":"Trochu","geo_score":0.571,"postal code":"T6J 1K1","id":"a884tt6hereq","province":"Alberta","geo_precision":"city"},"type":"Feature","geometry":{"type":"Point","coordinates":[-82.010132,39.368235]}},{"properties":{"city":"Trochu","geo_score":0.571,"postal code":"T6J 1K1","id":"a884ttiriplg","province":"Alberta","geo_precision":"city"},"type":"Feature","geometry":{"type":"Point","coordinates":[-82.010132,39.368235]}},{"properties":{"city":"Trochu","geo_score":0.571,"postal code":"T6J 1K1","id":"a884ttfgdkae","province":"Alberta","geo_precision":"city"},"type":"Feature","geometry":{"type":"Point","coordinates":[-82.010132,39.368235]}},{"properties":{"city":"Turner Valley","geo_score":0.571,"postal code":"T6J 1K1","id":"a884tt9eburq","province":"Alberta","geo_precision":"city"},"type":"Feature","geometry":{"type":"Point","coordinates":[-81.008441,39.564797]}},{"properties":{"city":"Westlock","geo_score":0.571,"postal code":"T6J 1K1","id":"a884ttatmpik","province":"Alberta","geo_precision":"city"},"type":"Feature","geometry":{"type":"Point","coordinates":[-93.337452,45.507742]}},{"properties":{"city":"Abbotsford","geo_score":0.571,"postal code":"T6J 1K1","id":"a884ttkyxluq","province":"British Columbia","geo_precision":"city"},"type":"Feature","geometry":{"type":"Point","coordinates":[-84.578287,40.03755]}},{"properties":{"city":"Abbotsford","geo_score":0.571,"postal code":"T6J 1K1","id":"a884ttixbuql","province":"British Columbia","geo_precision":"city"},"type":"Feature","geometry":{"type":"Point","coordinates":[-84.578287,40.03755]}},{"properties":{"city":"Abbotsford","geo_score":0.571,"postal code":"T6J 1K1","id":"a884tt70tynr","province":"British Columbia","geo_precision":"city"},"type":"Feature","geometry":{"type":"Point","coordinates":[-84.578287,40.03755]}},{"properties":{"city":"Abbotsford","geo_score":0.571,"postal code":"T6J 1K1","id":"a884tt5o5jrr","province":"British Columbia","geo_precision":"city"},"type":"Feature","geometry":{"type":"Point","coordinates":[-84.578287,40.03755]}},{"properties":{"city":"Aldergrove","geo_score":0.571,"postal code":"T6J 1K1","id":"a884tt5ulymt","province":"British Columbia","geo_precision":"city"},"type":"Feature","geometry":{"type":"Point","coordinates":[-122.10175,45.377897]}},{"properties":{"city":"Burnaby","geo_score":0.0,"postal code":"T6J 1K1","id":"a884ttb3gnjv","province":"British Columbia","geo_precision":"unmatched"},"type":"Feature","geometry":null},{"properties":{"city":"Cedarvale","geo_score":0.571,"postal code":"T6J 1K1","id":"a884ttaaxrnx","province":"British Columbia","geo_precision":"city"},"type":"Feature","geometry":{"type":"Point","coordinates":[-93.984384,37.574488]}},{"properties":{"city":"Coquitlam","geo_score":0.0,"postal code":"T6J 1K1","id":"a884tt6v5br0","province":"British Columbia","geo_precision":"unmatched"},"type":"Feature","geometry":null},{"properties":{"city":"Lumby","geo_score":0.0,"postal code":"T6J 1K1","id":"a884tti2m1az","province":"British Columbia","geo_precision":"unmatched"},"type":"Feature","geometry":null},{"properties":{"city":"Lumby","geo_score":0.0,"postal code":"T6J 1K1","id":"a884ttf5otle","province":"British Columbia","geo_precision":"unmatched"},"type":"Feature","geometry":null},{"properties":{"city":"Lumby","geo_score":0.0,"postal code":"T6J 1K1","id":"a884tt4r6uuz","province":"British Columbia","geo_precision":"unmatched"},"type":"Feature","geometry":null},{"properties":{"city":"Lumby","geo_score":0.0,"postal code":"T6J 1K1","id":"a884ttdt06mr","province":"British Columbia","geo_precision":"unmatched"},"type":"Feature","geometry":null},{"properties":{"city":"North Vancouver","geo_score":0.571,"postal code":"T6J 1K1","id":"a884ttbhoyj2","province":"British Columbia","geo_precision":"city"},"type":"Feature","geometry":{"type":"Point","coordinates":[-104.346079,38.261946]}},{"properties":{"city":"North Vancouver","geo_score":0.571,"postal code":"T6J 1K1","id":"a884ttdkapqa","province":"British Columbia","geo_precision":"city"},"type":"Feature","geometry":{"type":"Point","coordinates":[-104.346079,38.261946]}},{"properties":{"city":"Peachland","geo_score":0.571,"postal code":"T6J 1K1","id":"a884ttgg9o5e","province":"British Columbia","geo_precision":"city"},"type":"Feature","geometry":{"type":"Point","coordinates":[-80.255799,35.011107]}},{"properties":{"city":"Prince George","geo_score":0.571,"postal code":"T6J 1K1","id":"a884tth2ik4n","province":"British Columbia","geo_precision":"city"},"type":"Feature","geometry":{"type":"Point","coordinates":[-119.860117,47.079243]}},{"properties":{"city":"Sparwood","geo_score":0.0,"postal code":"T6J 1K1","id":"a884ttcfp4oz","province":"British Columbia","geo_precision":"unmatched"},"type":"Feature","geometry":null},{"properties":{"city":"Summerland","geo_score":0.571,"postal code":"T6J 1K1","id":"a884ttkelzuy","province":"British Columbia","geo_precision":"city"},"type":"Feature","geometry":{"type":"Point","coordinates":[-119.592561,34.422045]}},{"properties":{"city":"Surrey","geo_score":0.571,"postal code":"T6J 1K1","id":"a884tt6u04dg","province":"British Columbia","geo_precision":"city"},"type":"Feature","geometry":{"type":"Point","coordinates":[-82.058753,39.684513]}},{"properties":{"city":"Terrace","geo_score":0.571,"postal code":"T6J 1K1","id":"a884tt6nfk98","province":"British Columbia","geo_precision":"city"},"type":"Feature","geometry":{"type":"Point","coordinates":[-104.996666,37.051967]}},{"properties":{"city":"Terrace","geo_score":0.571,"postal code":"T6J 1K1","id":"a884tthdx7hp","province":"British Columbia","geo_precision":"city"},"type":"Feature","geometry":{"type":"Point","coordinates":[-104.996666,37.051967]}},{"properties":{"city":"Terrace","geo_score":0.571,"postal code":"T6J 1K1","id":"a884tt8t1lc3","province":"British Columbia","geo_precision":"city"},"type":"Feature","geometry":{"type":"Point","coordinates":[-104.996666,37.051967]}},{"properties":{"city":"Terrace","geo_score":0.571,"postal code":"T6J 1K1","id":"a884ttkr3wt3","province":"British Columbia","geo_precision":"city"},"type":"Feature","geometry":{"type":"Point","coordinates":[-104.996666,37.051967]}},{"properties":{"city":"Terrace","geo_score":0.571,"postal code":"T6J 1K1","id":"a884ttk75nin","province":"British Columbia","geo_precision":"city"},"type":"Feature","geometry":{"type":"Point","coordinates":[-104.996666,37.051967]}},{"properties":{"city":"Terrace","geo_score":0.571,"postal code":"T6J 1K1","id":"a884tt90eua3","province":"British Columbia","geo_precision":"city"},"type":"Feature","geometry":{"type":"Point","coordinates":[-104.996666,37.051967]}},{"properties":{"city":"Terrace","geo_score":0.571,"postal code":"T6J 1K1","id":"a884tt4qkgmq","province":"British Columbia","geo_precision":"city"},"type":"Feature","geometry":{"type":"Point","coordinates":[-104.996666,37.051967]}},{"properties":{"city":"Terrace","geo_score":0.571,"postal code":"T6J 1K1","id":"a884ttfp2dv6","province":"British Columbia","geo_precision":"city"},"type":"Feature","geometry":{"type":"Point","coordinates":[-104.996666,37.051967]}},{"properties":{"city":"Vancouver","geo_score":0.571,"postal code":"T6J 1K1","id":"a884tt6likbl","province":"British Columbia","geo_precision":"city"},"type":"Feature","geometry":{"type":"Point","coordinates":[-122.713366,45.74327]}},{"properties":{"city":"Vancouver","geo_score":0.571,"postal code":"T6J 1K1","id":"a884ttj3x1if","province":"British Columbia","geo_precision":"city"},"type":"Feature","geometry":{"type":"Point","coordinates":[-122.713366,45.74327]}},{"properties":{"city":"Victoria","geo_score":0.571,"postal code":"T6J 1K1","id":"a884tt55e3up","province":"British Columbia","geo_precision":"city"},"type":"Feature","geometry":{"type":"Point","coordinates":[-99.438978,34.652291]}},{"properties":{"city":"Grunthal","geo_score":0.571,"postal code":"T6J 1K1","id":"a884tt53u5ia","province":"Manitoba","geo_precision":"city"},"type":"Feature","geometry":{"type":"Point","coordinates":[-73.625673,42.8323]}},{"properties":{"city":"Grunthal","geo_score":0.571,"postal code":"T6J 1K1","id":"a884ttipgbb4","province":"Manitoba","geo_precision":"city"},"type":"Feature","geometry":{"type":"Point","coordinates":[-73.625673,42.8323]}},{"properties":{"city":"Grunthal","geo_score":0.571,"postal code":"T6J 1K1","id":"a884tthkexpb","province":"Manitoba","geo_precision":"city"},"type":"Feature","geometry":{"type":"Point","coordinates":[-73.625673,42.8323]}},{"properties":{"city":"Grunthal","geo_score":0.571,"postal code":"T6J 1K1","id":"a884tti9v0ms","province":"Manitoba","geo_precision":"city"},"type":"Feature","geometry":{"type":"Point","coordinates":[-73.625673,42.8323]}},{"properties":{"city":"Grunthal","geo_score":0.571,"postal code":"T6J 1K1","id":"a884ttgs0cpw","province":"Manitoba","geo_precision":"city"},"type":"Feature","geometry":{"type":"Point","coordinates":[-73.625673,42.8323]}},{"properties":{"city":"Grunthal","geo_score":0.571,"postal code":"T6J 1K1","id":"a884tt8fji6b","province":"Manitoba","geo_precision":"city"},"type":"Feature","geometry":{"type":"Point","coordinates":[-73.625673,42.8323]}},{"properties":{"city":"Grunthal","geo_score":0.571,"postal code":"T6J 1K1","id":"a884tt63y3lx","province":"Manitoba","geo_precision":"city"},"type":"Feature","geometry":{"type":"Point","coordinates":[-73.625673,42.8323]}},{"properties":{"city":"Grunthal","geo_score":0.571,"postal code":"T6J 1K1","id":"a884ttie1djy","province":"Manitoba","geo_precision":"city"},"type":"Feature","geometry":{"type":"Point","coordinates":[-73.625673,42.8323]}},{"properties":{"city":"Kleefeld","geo_score":0.571,"postal code":"T6J 1K1","id":"a884ttcexclo","province":"Manitoba","geo_precision":"city"},"type":"Feature","geometry":{"type":"Point","coordinates":[-81.656779,37.097892]}},{"properties":{"city":"Kleefeld","geo_score":0.571,"postal code":"T6J 1K1","id":"a884tt63v2pw","province":"Manitoba","geo_precision":"city"},"type":"Feature","geometry":{"type":"Point","coordinates":[-81.656779,37.097892]}},{"properties":{"city":"Kleefeld","geo_score":0.571,"postal code":"T6J 1K1","id":"a884ttk7s0ud","province":"Manitoba","geo_precision":"city"},"type":"Feature","geometry":{"type":"Point","coordinates":[-81.656779,37.097892]}},{"properties":{"city":"Kleefeld","geo_score":0.571,"postal code":"T6J 1K1","id":"a884ttd8i9ti","province":"Manitoba","geo_precision":"city"},"type":"Feature","geometry":{"type":"Point","coordinates":[-81.656779,37.097892]}},{"properties":{"city":"Morden","geo_score":0.571,"postal code":"T6J 1K1","id":"a884ttd3ean8","province":"Manitoba","geo_precision":"city"},"type":"Feature","geometry":{"type":"Point","coordinates":[-69.358936,43.970638]}},{"properties":{"city":"Ninette","geo_score":0.571,"postal code":"T6J 1K1","id":"a884tt5ue5fw","province":"Manitoba","geo_precision":"city"},"type":"Feature","geometry":{"type":"Point","coordinates":[-77.894474,42.591883]}},{"properties":{"city":"Goulds","geo_score":0.571,"postal code":"T6J 1K1","id":"a884tt61q9uo","province":"Newfoundland","geo_precision":"city"},"type":"Feature","geometry":{"type":"Point","coordinates":[-80.675624,37.342346]}},{"properties":{"city":"St John's","geo_score":0.571,"postal code":"T6J 1K1","id":"a884ttkfe0ym","province":"Newfoundland","geo_precision":"city"},"type":"Feature","geometry":{"type":"Point","coordinates":[-105.272768,39.685821]}},{"properties":{"city":"Barrie","geo_score":0.571,"postal code":"T6J 1K1","id":"a884ttk1ma67","province":"Ontario","geo_precision":"city"},"type":"Feature","geometry":{"type":"Point","coordinates":[-76.956918,38.648729]}},{"properties":{"city":"Barrie","geo_score":0.571,"postal code":"T6J 1K1","id":"a884tta6cjxt","province":"Ontario","geo_precision":"city"},"type":"Feature","geometry":{"type":"Point","coordinates":[-76.956918,38.648729]}},{"properties":{"city":"Barrie","geo_score":0.571,"postal code":"T6J 1K1","id":"a884ttkt6beg","province":"Ontario","geo_precision":"city"},"type":"Feature","geometry":{"type":"Point","coordinates":[-76.956918,38.648729]}},{"properties":{"city":"Barrie","geo_score":0.571,"postal code":"T6J 1K1","id":"a884ttebw7rx","province":"Ontario","geo_precision":"city"},"type":"Feature","geometry":{"type":"Point","coordinates":[-76.956918,38.648729]}},{"properties":{"city":"Barrie","geo_score":0.571,"postal code":"T6J 1K1","id":"a884ttb469dx","province":"Ontario","geo_precision":"city"},"type":"Feature","geometry":{"type":"Point","coordinates":[-76.956918,38.648729]}},{"properties":{"city":"Bradford","geo_score":0.571,"postal code":"T6J 1K1","id":"a884ttaiuzcf","province":"Ontario","geo_precision":"city"},"type":"Feature","geometry":{"type":"Point","coordinates":[-93.223204,42.600335]}},{"properties":{"city":"Cambridge","geo_score":0.571,"postal code":"T6J 1K1","id":"a884ttg9la1x","province":"Ontario","geo_precision":"city"},"type":"Feature","geometry":{"type":"Point","coordinates":[-92.948802,39.257805]}},{"properties":{"city":"Churchill","geo_score":0.571,"postal code":"T6J 1K1","id":"a884ttagj9sl","province":"Ontario","geo_precision":"city"},"type":"Feature","geometry":{"type":"Point","coordinates":[-82.732009,36.495148]}},{"properties":{"city":"Innisfil","geo_score":0.0,"postal code":"T6J 1K1","id":"a884ttexrmxs","province":"Ontario","geo_precision":"unmatched"},"type":"Feature","geometry":null},{"properties":{"city":"Innisfil","geo_score":0.0,"postal code":"T6J 1K1","id":"a884ttfykzv9","province":"Ontario","geo_precision":"unmatched"},"type":"Feature","geometry":null},{"properties":{"city":"Innisfil","geo_score":0.0,"postal code":"T6J 1K1","id":"a884ttary1lz","province":"Ontario","geo_precision":"unmatched"},"type":"Feature","geometry":null},{"properties":{"city":"Kitchener","geo_score":0.0,"postal code":"T6J 1K1","id":"a884tthv66po","province":"Ontario","geo_precision":"unmatched"},"type":"Feature","geometry":null},{"properties":{"city":"Kitchener","geo_score":0.0,"postal code":"T6J 1K1","id":"a884ttclh76k","province":"Ontario","geo_precision":"unmatched"},"type":"Feature","geometry":null},{"properties":{"city":"Kitchener","geo_score":0.0,"postal code":"T6J 1K1","id":"a884ttgxvt70","province":"Ontario","geo_precision":"unmatched"},"type":"Feature","geometry":null},{"properties":{"city":"Mount Brydges","geo_score":0.571,"postal code":"T6J 1K1","id":"a884tte0amrz","province":"Ontario","geo_precision":"city"},"type":"Feature","geometry":{"type":"Point","coordinates":[-85.161451,45.352508]}},{"properties":{"city":"Orleans","geo_score":0.571,"postal code":"T6J 1K1","id":"a884tt9gz2lq","province":"Ontario","geo_precision":"city"},"type":"Feature","geometry":{"type":"Point","coordinates":[-75.89994,44.190608]}},{"properties":{"city":"Orleans","geo_score":0.571,"postal code":"T6J 1K1","id":"a884ttif8yp9","province":"Ontario","geo_precision":"city"},"type":"Feature","geometry":{"type":"Point","coordinates":[-75.89994,44.190608]}},{"properties":{"city":"Pembrook","geo_score":0.571,"postal code":"T6J 1K1","id":"a884ttir9zpr","province":"Ontario","geo_precision":"city"},"type":"Feature","geometry":{"type":"Point","coordinates":[-81.805082,27.786418]}},{"properties":{"city":"Petawawa","geo_score":0.0,"postal code":"T6J 1K1","id":"a884ttk4j63w","province":"Ontario","geo_precision":"unmatched"},"type":"Feature","geometry":null},{"properties":{"city":"Pickering","geo_score":0.0,"postal code":"T6J 1K1","id":"a884tt50q8l1","province":"Ontario","geo_precision":"unmatched"},"type":"Feature","geometry":null},{"properties":{"city":"St Thomas","geo_score":0.571,"postal code":"T6J 1K1","id":"a884ttaeu2yj","province":"Ontario","geo_precision":"city"},"type":"Feature","geometry":{"type":"Point","coordinates":[-89.819549,41.5117]}},{"properties":{"city":"St. George","geo_score":0.571,"postal code":"T6J 1K1","id":"a884tt4kq4gc","province":"Ontario","geo_precision":"city"},"type":"Feature","geometry":{"type":"Point","coordinates":[-84.93687,31.593502]}},{"properties":{"city":"Sydenham","geo_score":0.571,"postal code":"T6J 1K1","id":"a884ttjkiexz","province":"Ontario","geo_precision":"city"},"type":"Feature","geometry":{"type":"Point","coordinates":[-103.997391,40.735758]}},{"properties":{"city":"Thunder Bay","geo_score":0.571,"postal code":"T6J 1K1","id":"a884tti7rz7u","province":"Ontario","geo_precision":"city"},"type":"Feature","geometry":{"type":"Point","coordinates":[-83.926565,31.191851]}},{"properties":{"city":"Thunder Bay","geo_score":0.571,"postal code":"T6J 1K1","id":"a884ttdnm6rv","province":"Ontario","geo_precision":"city"},"type":"Feature","geometry":{"type":"Point","coordinates":[-83.926565,31.191851]}},{"properties":{"city":"Tillsonburg","geo_score":0.0,"postal code":"T6J 1K1","id":"a884ttl0x6n8","province":"Ontario","geo_precision":"unmatched"},"type":"Feature","geometry":null},{"properties":{"city":"Toronto","geo_score":0.571,"postal code":"T6J 1K1","id":"a884ttfm1uaj","province":"Ontario","geo_precision":"city"},"type":"Feature","geometry":{"type":"Point","coordinates":[-89.62982,39.71394]}},{"properties":{"city":"Toronto","geo_score":0.571,"postal code":"T6J 1K1","id":"a884tt655wcx","province":"Ontario","geo_precision":"city"},"type":"Feature","geometry":{"type":"Point","coordinates":[-89.62982,39.71394]}},{"properties":{"city":"Toronto","geo_score":0.571,"postal code":"T6J 1K1","id":"a884ttir2ue5","province":"Ontario","geo_precision":"city"},"type":"Feature","geometry":{"type":"Point","coordinates":[-89.62982,39.71394]}},{"properties":{"city":"Trenton","geo_score":0.571,"postal code":"T6J 1K1","id":"a884ttbwvyhp","province":"Ontario","geo_precision":"city"},"type":"Feature","geometry":{"type":"Point","coordinates":[-85.50208,34.871687]}},{"properties":{"city":"Gatineau","geo_score":0.571,"postal code":"T6J 1K1","id":"a884ttcfvj26","province":"Quebec","geo_precision":"city"},"type":"Feature","geometry":{"type":"Point","coordinates":[-85.825492,31.282672]}},{"properties":{"city":"Forget","geo_score":0.0,"postal code":"T6J 1K1","id":"a884tt7s7zbi","province":"Saskatchewan","geo_precision":"unmatched"},"type":"Feature","geometry":null},{"properties":{"city":"Lashburn","geo_score":0.0,"postal code":"T6J 1K1","id":"a884tt8juwaw","province":"Saskatchewan","geo_precision":"unmatched"},"type":"Feature","geometry":null},{"properties":{"city":"Martensville","geo_score":0.571,"postal code":"T6J 1K1","id":"a884tt7hpetj","province":"Saskatchewan","geo_precision":"city"},"type":"Feature","geometry":{"type":"Point","coordinates":[-84.030741,35.025084]}},{"properties":{"city":"McMahon","geo_score":0.571,"postal code":"T6J 1K1","id":"a884ttfnhch5","province":"Saskatchewan","geo_precision":"city"},"type":"Feature","geometry":{"type":"Point","coordinates":[-97.51944,29.852724]}},{"properties":{"city":"McMahon","geo_score":0.571,"postal code":"T6J 1K1","id":"a884tt66to7a","province":"Saskatchewan","geo_precision":"city"},"type":"Feature","geometry":{"type":"Point","coordinates":[-97.51944,29.852724]}},{"properties":{"city":"McMahon","geo_score":0.571,"postal code":"T6J 1K1","id":"a884tt7tt9c7","province":"Saskatchewan","geo_precision":"city"},"type":"Feature","geometry":{"type":"Point","coordinates":[-97.51944,29.852724]}},{"properties":{"city":"McMahon","geo_score":0.571,"postal code":"T6J 1K1","id":"a884ttdpixht","province":"Saskatchewan","geo_precision":"city"},"type":"Feature","geometry":{"type":"Point","coordinates":[-97.51944,29.852724]}},{"properties":{"city":"McMahon","geo_score":0.571,"postal code":"T6J 1K1","id":"a884ttk093tg","province":"Saskatchewan","geo_precision":"city"},"type":"Feature","geometry":{"type":"Point","coordinates":[-97.51944,29.852724]}},{"properties":{"city":"Myrtle Beach","geo_score":0.571,"postal code":"T6J 1K1","id":"a884ttc663h2","province":"Saskatchewan","geo_precision":"city"},"type":"Feature","geometry":{"type":"Point","coordinates":[-82.470127,35.711779]}},{"properties":{"city":"Saskatoon","geo_score":0.0,"postal code":"T6J 1K1","id":"a884ttdhbf5d","province":"Saskatchewan","geo_precision":"unmatched"},"type":"Feature","geometry":null},{"properties":{"city":"Saskatoon","geo_score":0.0,"postal code":"T6J 1K1","id":"a884ttfrrihj","province":"Saskatchewan","geo_precision":"unmatched"},"type":"Feature","geometry":null},{"properties":{"city":"Saskatoon","geo_score":0.0,"postal code":"T6J 1K1","id":"a884ttg21ii4","province":"Saskatchewan","geo_precision":"unmatched"},"type":"Feature","geometry":null},{"properties":{"city":"Swift Current","geo_score":0.571,"postal code":"T6J 1K1","id":"a884ttdqla48","province":"Saskatchewan","geo_precision":"city"},"type":"Feature","geometry":{"type":"Point","coordinates":[-84.164088,36.130079]}},{"properties":{"city":"Swift Current","geo_score":0.571,"postal code":"T6J 1K1","id":"a884tt539f16","province":"Saskatchewan","geo_precision":"city"},"type":"Feature","geometry":{"type":"Point","coordinates":[-84.164088,36.130079]}},{"properties":{"city":"Swift Current","geo_score":0.571,"postal code":"T6J 1K1","id":"a884ttgm6sld","province":"Saskatchewan","geo_precision":"city"},"type":"Feature","geometry":{"type":"Point","coordinates":[-84.164088,36.130079]}},{"properties":{"city":"Swift Current","geo_score":0.571,"postal code":"T6J 1K1","id":"a884ttadxif5","province":"Saskatchewan","geo_precision":"city"},"type":"Feature","geometry":{"type":"Point","coordinates":[-84.164088,36.130079]}},{"properties":{"city":"Swift Current","geo_score":0.571,"postal code":"T6J 1K1","id":"a884ttcnnjg4","province":"Saskatchewan","geo_precision":"city"},"type":"Feature","geometry":{"type":"Point","coordinates":[-84.164088,36.130079]}},{"properties":{"city":"Swift Current","geo_score":0.571,"postal code":"T6J 1K1","id":"a884ttew8iaa","province":"Saskatchewan","geo_precision":"city"},"type":"Feature","geometry":{"type":"Point","coordinates":[-84.164088,36.130079]}},{"properties":{"city":"Swift Current","geo_score":0.571,"postal code":"T6J 1K1","id":"a884ttk2hoh8","province":"Saskatchewan","geo_precision":"city"},"type":"Feature","geometry":{"type":"Point","coordinates":[-84.164088,36.130079]}},{"properties":{"city":"Wymark","geo_score":0.571,"postal code":"T6J 1K1","id":"a884tt5d0k05","province":"Saskatchewan","geo_precision":"city"},"type":"Feature","geometry":{"type":"Point","coordinates":[-81.728976,25.972598]}},{"properties":{"city":"Wymark","geo_score":0.571,"postal code":"T6J 1K1","id":"a884ttjxi4gr","province":"Saskatchewan","geo_precision":"city"},"type":"Feature","geometry":{"type":"Point","coordinates":[-81.728976,25.972598]}}],"is_temporal":false,"author":{"url":"","metadata":"","contact_name":"","contact_address":"","source":"","contact_phone":""},"source":"","pagination":{"sort":null,"start":0,"total":276,"limit":1000000},"state":"complete","tags":"","published":"2014-08-14T16:24:04-04:00","id":271350}