{"type":"FeatureCollection","data_type":"Dataset","url_type":null,"permissions":[{"permissions":{"download":true,"view":true},"group_id":"everyone"}],"classification":null,"title":"in n out burger texas locations","count":10,"stream_id":271412,"contributor":{"url":"http://geocommons.com/users/47383","name":"jccDtc"},"data_attributes":null,"calculation_params":null,"icon_link":null,"link":"http://geocommons.com/overlays/271412.json","extent":[-97.3315,32.3707,-96.2405,33.1807],"geometry_types":["point"],"unique_name":null,"name":"in n out burger texas locations","feature_count":10,"description":"re-geocoded texas in n out locations","next_feature":null,"is_raster":false,"short_classification":"Y","stats":{},"features":[{"properties":{"city":"allen","geo_score":0.471,"store":"250","id":"a88m4oy1gpy4","address":"190 e. stacy rd.","geo_precision":"street","state":"texas"},"type":"Feature","geometry":{"type":"Point","coordinates":[-96.615507,33.128852]}},{"properties":{"city":"arlington","geo_score":0.49,"store":"251","id":"a88m4olti2dh","address":"1075 w. I-20","geo_precision":"street","state":"texas"},"type":"Feature","geometry":{"type":"Point","coordinates":[-97.118001,32.677639]}},{"properties":{"city":"dallas","geo_score":0.471,"store":"252","id":"a88m4osa0zhp","address":"7940 N. Central Exwy","geo_precision":"street","state":"texas"},"type":"Feature","geometry":{"type":"Point","coordinates":[-96.792448,32.798885]}},{"properties":{"city":"Dallas","geo_score":0.488,"store":"253","id":"a88m4otba54e","address":"7909 LBJ Fwy.","geo_precision":"city","state":"texas"},"type":"Feature","geometry":{"type":"Point","coordinates":[-96.240533,32.370699]}},{"properties":{"city":"Fort Worth","geo_score":0.482,"store":"254","id":"a88m4owq46jd","address":"2900 W. 7th St.","geo_precision":"street","state":"texas"},"type":"Feature","geometry":{"type":"Point","coordinates":[-97.331454,32.75192]}},{"properties":{"city":"Frisco","geo_score":0.902,"store":"255","id":"a88m4ow0uez6","address":"2800 Preston Rd.","geo_precision":"range","state":"texas"},"type":"Feature","geometry":{"type":"Point","coordinates":[-96.805326,33.101597]}},{"properties":{"city":"Irving","geo_score":0.321,"store":"256","id":"a88m4on9304t","address":"6501 N. MacArtur Blvd.","geo_precision":"street","state":"texas"},"type":"Feature","geometry":{"type":"Point","coordinates":[-96.876481,33.180693]}},{"properties":{"city":"Rockwall","geo_score":0.0,"store":"257","id":"a88m4osqboc2","address":"1106 I-30 E.","geo_precision":"unmatched","state":"texas"},"type":"Feature","geometry":null},{"properties":{"city":"Dallas","geo_score":0.902,"store":"258","id":"a88m4ox7ti71","address":"12909 Midway Rd.","geo_precision":"range","state":"texas"},"type":"Feature","geometry":{"type":"Point","coordinates":[-96.83877,32.925214]}},{"properties":{"city":"Dallas","geo_score":0.667,"store":"warehouse","id":"a88m4omgd06q","address":"3901 adler dr. suite 200","geo_precision":"street","state":"texas"},"type":"Feature","geometry":{"type":"Point","coordinates":[-96.73025,32.86701]}}],"is_temporal":false,"author":{"url":"","metadata":"","contact_name":"","contact_address":"","source":"","contact_phone":""},"source":"","pagination":{"sort":null,"start":0,"total":10,"limit":1000000},"state":"complete","tags":"burgers","published":"2014-08-14T16:28:39-04:00","id":271412}