{"type":"FeatureCollection","data_type":"Dataset","url_type":null,"permissions":[{"permissions":{"download":true,"view":true},"group_id":"everyone"}],"classification":null,"title":"PDW Dealer Locator List - 9-6-12","count":13,"stream_id":272711,"contributor":{"url":"http://geocommons.com/users/47735","name":"kevin@ridepdw.com"},"data_attributes":null,"calculation_params":null,"icon_link":null,"link":"http://geocommons.com/overlays/272711.json","extent":[-122.422,37.7612,-74.0554,47.6702],"geometry_types":["point"],"unique_name":null,"name":"PDW Dealer Locator List - 9-6-12","feature_count":13,"description":"","next_feature":null,"is_raster":false,"short_classification":"Y","stats":{},"features":[{"properties":{"city":"San Francisco","geo_score":1.0,"zip code":"94133","phone":"(415) 374-7865","id":"a8esagz0i5tf","address":"548 Union St","geo_precision":"range","shop name":"Cykel","state":"CA"},"type":"Feature","geometry":{"type":"Point","coordinates":[-122.408009,37.800587]}},{"properties":{"city":"San Francisco","geo_score":1.0,"zip code":"94110","phone":"(415) 683-6166","id":"a8esahawst8x","address":"766 Valencia St","geo_precision":"range","shop name":"Mission Bicycle co","state":"CA"},"type":"Feature","geometry":{"type":"Point","coordinates":[-122.421581,37.761172]}},{"properties":{"city":"Albany","geo_score":0.915,"zip code":"94707","phone":"(510) 524-1094","id":"a8esah4eoclr","address":"1554 Solano Ave","geo_precision":"range","shop name":"Solano Ave","state":"CA"},"type":"Feature","geometry":{"type":"Point","coordinates":[-122.284613,37.890977]}},{"properties":{"city":"Washington","geo_score":1.0,"zip code":"20009","phone":"(202) 387-2453","id":"a8esah909a07","address":"1412 Q St NW","geo_precision":"range","shop name":"The Bike Rack DC","state":"DC"},"type":"Feature","geometry":{"type":"Point","coordinates":[-77.034308,38.91105]}},{"properties":{"city":"North Liberty","geo_score":0.607,"zip code":"52317","phone":"(319) 626-2326","id":"a8esah4kz170","address":"325 N. Dubuque St","geo_precision":"street","shop name":"Sugar Bottom Bikes","state":"IA"},"type":"Feature","geometry":{"type":"Point","coordinates":[-91.592522,41.744761]}},{"properties":{"city":"Chicago","geo_score":0.6,"zip code":"60647","phone":"(773) 888-2453","id":"a8esah5vq637","address":"2130 N. Milwaukee Ave","geo_precision":"street","shop name":"The Bike Lane","state":"IL"},"type":"Feature","geometry":{"type":"Point","coordinates":[-87.679846,41.911919]}},{"properties":{"city":"Indianapolis","geo_score":0.585,"zip code":"46204","phone":"(317) 622-7988","id":"a8esah7k764p","address":"643 Masschusetts Ave","geo_precision":"zip","shop name":"Bikes on Mass Ave","state":"IN"},"type":"Feature","geometry":{"type":"Point","coordinates":[-86.158038,39.772692]}},{"properties":{"city":"Indianapolis","geo_score":0.6,"zip code":"46219","phone":"(317) 356-4585","id":"a8esahbl6ivl","address":"5804 E. Washington St","geo_precision":"street","shop name":"Indy Cycle Specialist","state":"IN"},"type":"Feature","geometry":{"type":"Point","coordinates":[-86.082188,39.770218]}},{"properties":{"city":"Portage","geo_score":1.0,"zip code":"49024","phone":"(269) 324-5555","id":"a8esah6q4q0u","address":"185 Romence Rd","geo_precision":"range","shop name":"Breakaway Bicycles","state":"MI"},"type":"Feature","geometry":{"type":"Point","coordinates":[-85.59145,42.215459]}},{"properties":{"city":"Brielle","geo_score":1.0,"zip code":"08730","phone":"(732) 528-9121","id":"a8esah6o9y8k","address":"205 Union Ave","geo_precision":"range","shop name":"Brielle Cyclery","state":"NJ"},"type":"Feature","geometry":{"type":"Point","coordinates":[-74.055385,40.114465]}},{"properties":{"city":"Seattle","geo_score":0.947,"zip code":"98107","phone":"(206) 706-4700","id":"a8esahe3phez","address":"5601 24th Ave NW","geo_precision":"range","shop name":"Bicycle Sport Seattle","state":"WA"},"type":"Feature","geometry":{"type":"Point","coordinates":[-122.387588,47.670186]}},{"properties":{"city":"Seattle","geo_score":1.0,"zip code":"98144","phone":"(206) 805-6700","id":"a8esaha47eax","address":"3067 Beacon Ave South","geo_precision":"range","shop name":"Hello Bicycle Seattle","state":"WA"},"type":"Feature","geometry":{"type":"Point","coordinates":[-122.30951,47.576095]}},{"properties":{"city":"Huntington","geo_score":0.916,"zip code":"25701","phone":"(304) 522-8240","id":"a8esahe7lz4i","address":"1455 4th Ave","geo_precision":"range","shop name":"Huntington Cycle and Sport","state":"WV"},"type":"Feature","geometry":{"type":"Point","coordinates":[-82.434272,38.422294]}}],"is_temporal":false,"author":{"url":"","metadata":"","contact_name":"","contact_address":"","source":"","contact_phone":""},"source":"","pagination":{"sort":null,"start":0,"total":13,"limit":1000000},"state":"complete","tags":"2,dealers,pdw","published":"2014-08-14T17:59:37-04:00","id":272711}