{"type":"FeatureCollection","data_type":"Dataset","url_type":null,"permissions":[{"permissions":{"download":true,"view":true},"group_id":"everyone"}],"classification":null,"title":"2nd due calls in July 2012 in Station 5 area","count":25,"stream_id":273327,"contributor":{"url":"http://geocommons.com/users/51527","name":"radoni"},"data_attributes":null,"calculation_params":null,"icon_link":null,"link":"http://geocommons.com/overlays/273327.json","extent":[-121.925,37.2867,-121.874,37.3861],"geometry_types":["point"],"unique_name":null,"name":"2nd due calls in July 2012 in Station 5 area","feature_count":25,"description":"","next_feature":null,"is_raster":false,"short_classification":"Y","stats":{"number":{"max":11561,"variance":5401306.04210526,"mean":2000.4,"stdev":2324.07100625288,"min":55,"median":1706}},"features":[{"properties":{"city":"SAN JOSE","zip":"95112","number":1550,"geo_score":0.385,"st_type":"ST","street":"1ST","id":"a8i5kk8ilw53","st_prefix":"N","geo_precision":"street"},"type":"Feature","geometry":{"type":"Point","coordinates":[-121.890566,37.336168]}},{"properties":{"city":"SAN JOSE","zip":"95112","number":914,"geo_score":0.385,"st_type":"ST","street":"5TH","id":"a8i5kk9jzmcs","st_prefix":"N","geo_precision":"street"},"type":"Feature","geometry":{"type":"Point","coordinates":[-121.885673,37.337305]}},{"properties":{"city":"SAN JOSE","zip":"95112","number":1450,"geo_score":0.546,"st_type":"CL","street":"KOLL","id":"a8i5kkl388vs","st_prefix":null,"geo_precision":"street"},"type":"Feature","geometry":{"type":"Point","coordinates":[-121.907977,37.366073]}},{"properties":{"city":"SAN JOSE","zip":"95112","number":55,"geo_score":0.562,"st_type":"AV","street":"YOUNGER","id":"a8i5kkajjo96","st_prefix":"W","geo_precision":"street"},"type":"Feature","geometry":{"type":"Point","coordinates":[-121.903679,37.355636]}},{"properties":{"city":"SAN JOSE","zip":"95112","number":1740,"geo_score":0.385,"st_type":"ST","street":"1ST","id":"a8i5kkhsuns0","st_prefix":"N","geo_precision":"street"},"type":"Feature","geometry":{"type":"Point","coordinates":[-121.890566,37.336168]}},{"properties":{"city":"SAN JOSE","zip":"95133-1009","number":11561,"geo_score":0.653,"st_type":"RD","street":"BERRYESSA","id":"a8i5kkkv7mmj","st_prefix":null,"geo_precision":"street"},"type":"Feature","geometry":{"type":"Point","coordinates":[-121.885606,37.363868]}},{"properties":{"city":"SAN JOSE","zip":"95112","number":887,"geo_score":0.427,"st_type":"ST","street":"11TH","id":"a8i5kkc1gnvu","st_prefix":"N","geo_precision":"street"},"type":"Feature","geometry":{"type":"Point","coordinates":[-121.879986,37.341193]}},{"properties":{"city":"SAN JOSE","zip":"95112","number":1136,"geo_score":0.385,"st_type":"ST","street":"3RD","id":"a8i5kkkkct7j","st_prefix":"N","geo_precision":"street"},"type":"Feature","geometry":{"type":"Point","coordinates":[-121.88958,37.338671]}},{"properties":{"city":"SAN JOSE","zip":"95112","number":null,"geo_score":0.427,"st_type":"ST","street":"13TH","id":"a8i5kkeydjvt","st_prefix":"N","geo_precision":"street"},"type":"Feature","geometry":{"type":"Point","coordinates":[-121.876734,37.340275]}},{"properties":{"city":"SAN JOSE","zip":"95112","number":875,"geo_score":0.427,"st_type":"ST","street":"13TH","id":"a8i5kkfx07eq","st_prefix":"N","geo_precision":"street"},"type":"Feature","geometry":{"type":"Point","coordinates":[-121.876734,37.340275]}},{"properties":{"city":"SAN JOSE","zip":"95112","number":1706,"geo_score":0.489,"st_type":"RD","street":"OAKLAND","id":"a8i5kkj8hhz9","st_prefix":null,"geo_precision":"range"},"type":"Feature","geometry":{"type":"Point","coordinates":[-121.892777,37.369528]}},{"properties":{"city":"SAN JOSE","zip":"95112","number":2151,"geo_score":0.489,"st_type":"RD","street":"OAKLAND","id":"a8i5kk8kq0qg","st_prefix":null,"geo_precision":"range"},"type":"Feature","geometry":{"type":"Point","coordinates":[-121.892777,37.369528]}},{"properties":{"city":"SAN JOSE","zip":"95112","number":1776,"geo_score":0.489,"st_type":"RD","street":"OAKLAND","id":"a8i5kkkrts6q","st_prefix":null,"geo_precision":"range"},"type":"Feature","geometry":{"type":"Point","coordinates":[-121.892777,37.369528]}},{"properties":{"city":"SAN JOSE","zip":"95112","number":2151,"geo_score":0.489,"st_type":"RD","street":"OAKLAND","id":"a8i5kkclj5ns","st_prefix":null,"geo_precision":"range"},"type":"Feature","geometry":{"type":"Point","coordinates":[-121.892777,37.369528]}},{"properties":{"city":"SAN JOSE","zip":"95112","number":1331,"geo_score":0.582,"st_type":"CL","street":"LAKESHORE","id":"a8i5kki187wz","st_prefix":null,"geo_precision":"street"},"type":"Feature","geometry":{"type":"Point","coordinates":[-121.893163,37.386086]}},{"properties":{"city":"SAN JOSE","zip":"95112","number":2033,"geo_score":0.586,"st_type":"PL","street":"GATEWAY","id":"a8i5kkec1kqc","st_prefix":null,"geo_precision":"street"},"type":"Feature","geometry":{"type":"Point","coordinates":[-121.925071,37.372074]}},{"properties":{"city":"SAN JOSE","zip":"95112","number":null,"geo_score":0.349,"st_type":null,"street":"101","id":"a8i5kkkj2nlq","st_prefix":null,"geo_precision":"street"},"type":"Feature","geometry":{"type":"Point","coordinates":[-121.896169,37.363436]}},{"properties":{"city":"SAN JOSE","zip":"95112","number":null,"geo_score":0.488,"st_type":null,"street":"880","id":"a8i5kkarhpg2","st_prefix":null,"geo_precision":"zip"},"type":"Feature","geometry":{"type":"Point","coordinates":[-121.892093,37.37004]}},{"properties":{"city":"SAN JOSE","zip":"95112","number":2180,"geo_score":0.347,"st_type":"DR","street":"O'NEL","id":"a8i5kkb549qb","st_prefix":null,"geo_precision":"street"},"type":"Feature","geometry":{"type":"Point","coordinates":[-121.900452,37.286736]}},{"properties":{"city":"SAN JOSE","zip":"95112","number":1550,"geo_score":0.615,"st_type":"DR","street":"TECHNOLOGY","id":"a8i5kkc63600","st_prefix":null,"geo_precision":"street"},"type":"Feature","geometry":{"type":"Point","coordinates":[-121.917063,37.365317]}},{"properties":{"city":"SAN JOSE","zip":"95112","number":null,"geo_score":0.714,"st_type":null,"street":null,"id":"a8i5kkd25v6v","st_prefix":null,"geo_precision":"zip"},"type":"Feature","geometry":{"type":"Point","coordinates":[-121.892093,37.37004]}},{"properties":{"city":"SAN JOSE","zip":"95112","number":2151,"geo_score":0.489,"st_type":"RD","street":"OAKLAND","id":"a8i5kkg3kutz","st_prefix":null,"geo_precision":"range"},"type":"Feature","geometry":{"type":"Point","coordinates":[-121.892777,37.369528]}},{"properties":{"city":"SAN JOSE","zip":"95112","number":2050,"geo_score":0.385,"st_type":"ST","street":"1ST","id":"a8i5kkdz5t55","st_prefix":"N","geo_precision":"street"},"type":"Feature","geometry":{"type":"Point","coordinates":[-121.890566,37.336168]}},{"properties":{"city":"SAN JOSE","zip":"95112","number":null,"geo_score":0.427,"st_type":"ST","street":"21ST","id":"a8i5kk7qu8n0","st_prefix":"N","geo_precision":"street"},"type":"Feature","geometry":{"type":"Point","coordinates":[-121.873912,37.350003]}},{"properties":{"city":"SAN JOSE","zip":"95112","number":761,"geo_score":0.427,"st_type":"ST","street":"15TH","id":"a8i5kkgxl54k","st_prefix":"N","geo_precision":"street"},"type":"Feature","geometry":{"type":"Point","coordinates":[-121.876218,37.342977]}}],"is_temporal":false,"author":{"url":"","metadata":"","contact_name":"","contact_address":"","source":"","contact_phone":""},"source":"","pagination":{"sort":null,"start":0,"total":25,"limit":1000000},"state":"complete","tags":"","published":"2014-08-14T19:05:00-04:00","id":273327}