{"type":"FeatureCollection","data_type":"Dataset","url_type":null,"permissions":[{"permissions":{"download":true,"view":true},"group_id":"everyone"}],"classification":null,"title":"E5 1st due July 12","count":174,"stream_id":273617,"contributor":{"url":"http://geocommons.com/users/51527","name":"radoni"},"data_attributes":null,"calculation_params":null,"icon_link":null,"link":"http://geocommons.com/overlays/273617.json","extent":[-121.991,37.2583,-121.786,37.4066],"geometry_types":["point"],"unique_name":null,"name":"E5 1st due July 12","feature_count":174,"description":"","next_feature":null,"is_raster":false,"short_classification":"Y","stats":{},"features":[{"properties":{"city":"SAN JOSE","zip":"95112","number":"297","addr_2":null,"geo_score":0.661,"st_type":"ST","street":"COMMERCIAL","id":"a8isjpbezrjh","st_prefix":null,"geo_precision":"street"},"type":"Feature","geometry":{"type":"Point","coordinates":[-121.900199,37.360676]}},{"properties":{"city":"SAN JOSE","zip":"95112","number":null,"addr_2":null,"geo_score":0.581,"st_type":"ST","street":"HEDDING","id":"a8isjpbvbkqe","st_prefix":"E","geo_precision":"street"},"type":"Feature","geometry":{"type":"Point","coordinates":[-121.902332,37.353877]}},{"properties":{"city":"SAN JOSE","zip":"95112","number":"1174","addr_2":null,"geo_score":0.653,"st_type":null,"street":"OLD BAYSHORE","id":"a8isjpfxnuah","st_prefix":null,"geo_precision":"street"},"type":"Feature","geometry":{"type":"Point","coordinates":[-121.896701,37.364688]}},{"properties":{"city":"SAN JOSE","zip":"95112","number":null,"addr_2":null,"geo_score":0.385,"st_type":"ST","street":"1ST","id":"a8isjp7cb8xz","st_prefix":"N","geo_precision":"street"},"type":"Feature","geometry":{"type":"Point","coordinates":[-121.890566,37.336168]}},{"properties":{"city":"SAN JOSE","zip":"95112","number":"1460","addr_2":null,"geo_score":0.617,"st_type":"AV","street":"TERMINAL","id":"a8isjpg6tuaw","st_prefix":null,"geo_precision":"street"},"type":"Feature","geometry":{"type":"Point","coordinates":[-121.903384,37.365413]}},{"properties":{"city":"SAN JOSE","zip":"95112","number":"1550","addr_2":null,"geo_score":0.385,"st_type":"ST","street":"1ST","id":"a8isjpmrg2ll","st_prefix":"N","geo_precision":"street"},"type":"Feature","geometry":{"type":"Point","coordinates":[-121.890566,37.336168]}},{"properties":{"city":"SAN JOSE","zip":"95112","number":"901","addr_2":null,"geo_score":0.489,"st_type":"RD","street":"OAKLAND","id":"a8isjpju1hwm","st_prefix":null,"geo_precision":"range"},"type":"Feature","geometry":{"type":"Point","coordinates":[-121.892777,37.369528]}},{"properties":{"city":"SAN JOSE","zip":"95112","number":"2001","addr_2":null,"geo_score":0.586,"st_type":"PL","street":"GATEWAY","id":"a8isjpkz9egt","st_prefix":null,"geo_precision":"street"},"type":"Feature","geometry":{"type":"Point","coordinates":[-121.925071,37.372074]}},{"properties":{"city":"SAN JOSE","zip":"95112","number":"1610","addr_2":null,"geo_score":0.599,"st_type":"CT","street":"CRANE","id":"a8isjp8tt506","st_prefix":null,"geo_precision":"street"},"type":"Feature","geometry":{"type":"Point","coordinates":[-121.914553,37.372792]}},{"properties":{"city":"SAN JOSE","zip":"95112","number":"1155","addr_2":null,"geo_score":0.427,"st_type":"ST","street":"15TH","id":"a8isjp6za337","st_prefix":"N","geo_precision":"street"},"type":"Feature","geometry":{"type":"Point","coordinates":[-121.876218,37.342977]}},{"properties":{"city":"SAN JOSE","zip":"95112","number":"800","addr_2":null,"geo_score":0.385,"st_type":"ST","street":"8TH","id":"a8isjpcs98wp","st_prefix":"N","geo_precision":"street"},"type":"Feature","geometry":{"type":"Point","coordinates":[-121.88425,37.341184]}},{"properties":{"city":"SAN JOSE","zip":"95112","number":"2180","addr_2":null,"geo_score":0.347,"st_type":"DR","street":"O'NEL","id":"a8isjp9n2ovn","st_prefix":null,"geo_precision":"street"},"type":"Feature","geometry":{"type":"Point","coordinates":[-121.900452,37.286736]}},{"properties":{"city":"SAN JOSE","zip":"95112","number":"101","addr_2":null,"geo_score":0.562,"st_type":"AV","street":"YOUNGER","id":"a8isjph9x1cr","st_prefix":"W","geo_precision":"street"},"type":"Feature","geometry":{"type":"Point","coordinates":[-121.903679,37.355636]}},{"properties":{"city":"SAN JOSE","zip":"95112","number":"836","addr_2":null,"geo_score":0.427,"st_type":"ST","street":"12TH","id":"a8isjpgp9j3h","st_prefix":"N","geo_precision":"street"},"type":"Feature","geometry":{"type":"Point","coordinates":[-121.879054,37.341637]}},{"properties":{"city":"SAN JOSE","zip":"95112","number":"2180","addr_2":null,"geo_score":0.347,"st_type":"DR","street":"O'NEL","id":"a8isjpfg69gy","st_prefix":null,"geo_precision":"street"},"type":"Feature","geometry":{"type":"Point","coordinates":[-121.900452,37.286736]}},{"properties":{"city":"SAN JOSE","zip":"95112","number":"915","addr_2":null,"geo_score":0.427,"st_type":"ST","street":"16TH","id":"a8isjpelk66w","st_prefix":"N","geo_precision":"street"},"type":"Feature","geometry":{"type":"Point","coordinates":[-121.876426,37.344899]}},{"properties":{"city":"SAN JOSE","zip":"95112","number":"2151","addr_2":null,"geo_score":0.489,"st_type":"RD","street":"OAKLAND","id":"a8isjpczwyhu","st_prefix":null,"geo_precision":"range"},"type":"Feature","geometry":{"type":"Point","coordinates":[-121.892777,37.369528]}},{"properties":{"city":"SAN JOSE","zip":"95112","number":null,"addr_2":"off ramp to Coleman Ave.","geo_score":0.488,"st_type":null,"street":"880","id":"a8isjpmw2oen","st_prefix":null,"geo_precision":"zip"},"type":"Feature","geometry":{"type":"Point","coordinates":[-121.892093,37.37004]}},{"properties":{"city":"SAN JOSE","zip":"95112","number":"2114","addr_2":null,"geo_score":0.385,"st_type":"ST","street":"1ST","id":"a8isjpbxp3cg","st_prefix":"N","geo_precision":"street"},"type":"Feature","geometry":{"type":"Point","coordinates":[-121.890566,37.336168]}},{"properties":{"city":"SAN JOSE","zip":"95112","number":null,"addr_2":"on Old Bayshore Overcrossing","geo_score":0.488,"st_type":null,"street":"880","id":"a8isjphcewdm","st_prefix":null,"geo_precision":"zip"},"type":"Feature","geometry":{"type":"Point","coordinates":[-121.892093,37.37004]}},{"properties":{"city":"SAN JOSE","zip":"95112","number":"1530","addr_2":null,"geo_score":0.489,"st_type":"RD","street":"OAKLAND","id":"a8isjpmc8jmp","st_prefix":null,"geo_precision":"range"},"type":"Feature","geometry":{"type":"Point","coordinates":[-121.892777,37.369528]}},{"properties":{"city":"SAN JOSE","zip":"95112","number":"1408","addr_2":null,"geo_score":0.385,"st_type":"ST","street":"1ST","id":"a8isjph216hh","st_prefix":"N","geo_precision":"street"},"type":"Feature","geometry":{"type":"Point","coordinates":[-121.890566,37.336168]}},{"properties":{"city":"SAN JOSE","zip":"95112","number":null,"addr_2":null,"geo_score":0.385,"st_type":"RP","street":"NB 101 TO NB 880","id":"a8isjpc8t7u2","st_prefix":null,"geo_precision":"street"},"type":"Feature","geometry":{"type":"Point","coordinates":[-121.896169,37.363436]}},{"properties":{"city":"SAN JOSE","zip":"95112","number":"1410","addr_2":null,"geo_score":0.427,"st_type":"ST","street":"10TH","id":"a8isjp9e66rk","st_prefix":"N","geo_precision":"street"},"type":"Feature","geometry":{"type":"Point","coordinates":[-121.881038,37.340693]}},{"properties":{"city":"SAN JOSE","zip":"95112","number":null,"addr_2":null,"geo_score":0.385,"st_type":"ST","street":"1ST","id":"a8isjphtkfw6","st_prefix":"N","geo_precision":"street"},"type":"Feature","geometry":{"type":"Point","coordinates":[-121.890566,37.336168]}},{"properties":{"city":"SAN JOSE","zip":"95112","number":"1700","addr_2":null,"geo_score":0.385,"st_type":"ST","street":"1ST","id":"a8isjpndrid3","st_prefix":"N","geo_precision":"street"},"type":"Feature","geometry":{"type":"Point","coordinates":[-121.890566,37.336168]}},{"properties":{"city":"SAN JOSE","zip":"95112","number":"1174","addr_2":null,"geo_score":0.653,"st_type":null,"street":"OLD BAYSHORE","id":"a8isjpe0rvx7","st_prefix":null,"geo_precision":"street"},"type":"Feature","geometry":{"type":"Point","coordinates":[-121.896701,37.364688]}},{"properties":{"city":"SAN JOSE","zip":"95112","number":"734","addr_2":null,"geo_score":0.427,"st_type":"ST","street":"11TH","id":"a8isjpkj9gg4","st_prefix":"N","geo_precision":"street"},"type":"Feature","geometry":{"type":"Point","coordinates":[-121.879986,37.341193]}},{"properties":{"city":"SAN JOSE","zip":"95112","number":"2040","addr_2":null,"geo_score":0.385,"st_type":"ST","street":"1ST","id":"a8isjpgpspe6","st_prefix":"N","geo_precision":"street"},"type":"Feature","geometry":{"type":"Point","coordinates":[-121.890566,37.336168]}},{"properties":{"city":"SAN JOSE","zip":"95112","number":"297","addr_2":null,"geo_score":0.661,"st_type":"ST","street":"COMMERCIAL","id":"a8isjpcc3ky9","st_prefix":null,"geo_precision":"street"},"type":"Feature","geometry":{"type":"Point","coordinates":[-121.900199,37.360676]}},{"properties":{"city":"SAN JOSE","zip":"95112","number":"1080","addr_2":null,"geo_score":0.385,"st_type":"ST","street":"7TH","id":"a8isjp8w0l74","st_prefix":"N","geo_precision":"street"},"type":"Feature","geometry":{"type":"Point","coordinates":[-121.880729,37.334381]}},{"properties":{"city":"SAN JOSE","zip":"95112","number":"1550","addr_2":null,"geo_score":0.385,"st_type":"ST","street":"1ST","id":"a8isjp8ri2jo","st_prefix":"N","geo_precision":"street"},"type":"Feature","geometry":{"type":"Point","coordinates":[-121.890566,37.336168]}},{"properties":{"city":"SAN JOSE","zip":"95112","number":"1321","addr_2":null,"geo_score":0.582,"st_type":"CL","street":"LAKESHORE","id":"a8isjpfx9hrb","st_prefix":null,"geo_precision":"street"},"type":"Feature","geometry":{"type":"Point","coordinates":[-121.893163,37.386086]}},{"properties":{"city":"SAN JOSE","zip":"95112","number":"1610","addr_2":null,"geo_score":0.599,"st_type":"CT","street":"CRANE","id":"a8isjpl4azd3","st_prefix":null,"geo_precision":"street"},"type":"Feature","geometry":{"type":"Point","coordinates":[-121.914553,37.372792]}},{"properties":{"city":"SAN JOSE","zip":"95112","number":"640","addr_2":null,"geo_score":0.661,"st_type":"ST","street":"COMMERCIAL","id":"a8isjphmg9nj","st_prefix":null,"geo_precision":"street"},"type":"Feature","geometry":{"type":"Point","coordinates":[-121.900199,37.360676]}},{"properties":{"city":"SAN JOSE","zip":"95112","number":"1095","addr_2":null,"geo_score":0.476,"st_type":"DR","street":"MCKAY","id":"a8isjp6yxohh","st_prefix":null,"geo_precision":"street"},"type":"Feature","geometry":{"type":"Point","coordinates":[-121.829605,37.258348]}},{"properties":{"city":"SAN JOSE","zip":"95112","number":null,"addr_2":null,"geo_score":0.385,"st_type":"ST","street":"1ST","id":"a8isjp9tllnz","st_prefix":"N","geo_precision":"street"},"type":"Feature","geometry":{"type":"Point","coordinates":[-121.890566,37.336168]}},{"properties":{"city":"SAN JOSE","zip":"95112","number":"2050","addr_2":null,"geo_score":0.385,"st_type":"ST","street":"1ST","id":"a8isjp9jppu5","st_prefix":"N","geo_precision":"street"},"type":"Feature","geometry":{"type":"Point","coordinates":[-121.890566,37.336168]}},{"properties":{"city":"SAN JOSE","zip":"95112","number":null,"addr_2":null,"geo_score":0.385,"st_type":"ST","street":"1ST","id":"a8isjpk1q5ic","st_prefix":"N","geo_precision":"street"},"type":"Feature","geometry":{"type":"Point","coordinates":[-121.890566,37.336168]}},{"properties":{"city":"SAN JOSE","zip":"95112","number":"1437","addr_2":null,"geo_score":0.571,"st_type":"AV","street":"SAN JUAN","id":"a8isjpmu3sbf","st_prefix":null,"geo_precision":"street"},"type":"Feature","geometry":{"type":"Point","coordinates":[-121.91289,37.357889]}},{"properties":{"city":"SAN JOSE","zip":"95112","number":"1560","addr_2":null,"geo_score":0.617,"st_type":"DR","street":"BERGER","id":"a8isjplnrxl7","st_prefix":null,"geo_precision":"street"},"type":"Feature","geometry":{"type":"Point","coordinates":[-121.897067,37.369688]}},{"properties":{"city":"SAN JOSE","zip":"95112","number":"1005","addr_2":null,"geo_score":0.586,"st_type":"DR","street":"TIMOTHY","id":"a8isjp7g2fky","st_prefix":null,"geo_precision":"street"},"type":"Feature","geometry":{"type":"Point","coordinates":[-121.881235,37.362159]}},{"properties":{"city":"SAN JOSE","zip":"95112","number":"2151","addr_2":null,"geo_score":0.489,"st_type":"RD","street":"OAKLAND","id":"a8isjpkwvf14","st_prefix":null,"geo_precision":"range"},"type":"Feature","geometry":{"type":"Point","coordinates":[-121.892777,37.369528]}},{"properties":{"city":"SAN JOSE","zip":"95112","number":"729","addr_2":null,"geo_score":0.427,"st_type":"ST","street":"15TH","id":"a8isjpgj4f1n","st_prefix":"N","geo_precision":"street"},"type":"Feature","geometry":{"type":"Point","coordinates":[-121.876218,37.342977]}},{"properties":{"city":"SAN JOSE","zip":"95112","number":null,"addr_2":null,"geo_score":0.565,"st_type":"RD","street":"BROKAW","id":"a8isjpeql3na","st_prefix":"E","geo_precision":"street"},"type":"Feature","geometry":{"type":"Point","coordinates":[-121.91822,37.373252]}},{"properties":{"city":"SAN JOSE","zip":"95112","number":"2025","addr_2":null,"geo_score":0.586,"st_type":"PL","street":"GATEWAY","id":"a8isjphmhwpn","st_prefix":null,"geo_precision":"street"},"type":"Feature","geometry":{"type":"Point","coordinates":[-121.925071,37.372074]}},{"properties":{"city":"SAN JOSE","zip":"95112","number":"1035","addr_2":null,"geo_score":0.476,"st_type":"DR","street":"MCKAY","id":"a8isjpmpzyzq","st_prefix":null,"geo_precision":"street"},"type":"Feature","geometry":{"type":"Point","coordinates":[-121.829605,37.258348]}},{"properties":{"city":"SAN JOSE","zip":"95112","number":"2151","addr_2":null,"geo_score":0.489,"st_type":"RD","street":"OAKLAND","id":"a8isjphaqsxq","st_prefix":null,"geo_precision":"range"},"type":"Feature","geometry":{"type":"Point","coordinates":[-121.892777,37.369528]}},{"properties":{"city":"SAN JOSE","zip":"95112","number":"90","addr_2":null,"geo_score":0.522,"st_type":"RD","street":"GISH","id":"a8isjpjiwnsb","st_prefix":"E","geo_precision":"street"},"type":"Feature","geometry":{"type":"Point","coordinates":[-121.909637,37.361737]}},{"properties":{"city":"SAN JOSE","zip":"95112","number":"776","addr_2":null,"geo_score":0.427,"st_type":"ST","street":"12TH","id":"a8isjphtge5e","st_prefix":"N","geo_precision":"street"},"type":"Feature","geometry":{"type":"Point","coordinates":[-121.879054,37.341637]}},{"properties":{"city":"SAN JOSE","zip":"95112","number":null,"addr_2":null,"geo_score":0.558,"st_type":"AV","street":"CHARCOT","id":"a8isjp7y367m","st_prefix":null,"geo_precision":"street"},"type":"Feature","geometry":{"type":"Point","coordinates":[-121.922611,37.379157]}},{"properties":{"city":"SAN JOSE","zip":"95112","number":null,"addr_2":null,"geo_score":0.385,"st_type":"RP","street":"SB 101 TO NB 880","id":"a8isjpk7wbkc","st_prefix":null,"geo_precision":"street"},"type":"Feature","geometry":{"type":"Point","coordinates":[-121.896169,37.363436]}},{"properties":{"city":"SAN JOSE","zip":"95112","number":"1415","addr_2":null,"geo_score":0.489,"st_type":"RD","street":"OAKLAND","id":"a8isjpamplfx","st_prefix":null,"geo_precision":"range"},"type":"Feature","geometry":{"type":"Point","coordinates":[-121.892777,37.369528]}},{"properties":{"city":"SAN JOSE","zip":"95112","number":"462","addr_2":null,"geo_score":0.617,"st_type":"CL","street":"REYNOLDS","id":"a8isjpbogjv0","st_prefix":null,"geo_precision":"street"},"type":"Feature","geometry":{"type":"Point","coordinates":[-121.909933,37.370644]}},{"properties":{"city":"SAN JOSE","zip":"95112","number":"1380","addr_2":null,"geo_score":0.427,"st_type":"ST","street":"10TH","id":"a8isjpmygcd9","st_prefix":"N","geo_precision":"street"},"type":"Feature","geometry":{"type":"Point","coordinates":[-121.881038,37.340693]}},{"properties":{"city":"SAN JOSE","zip":"95112","number":"536","addr_2":null,"geo_score":0.457,"st_type":"ST","street":"MISSION","id":"a8isjpf3at9l","st_prefix":"E","geo_precision":"street"},"type":"Feature","geometry":{"type":"Point","coordinates":[-121.858898,37.406589]}},{"properties":{"city":"SAN JOSE","zip":"95112","number":"701","addr_2":null,"geo_score":0.57,"st_type":"ROW","street":"KINGS","id":"a8isjpf7rsqo","st_prefix":null,"geo_precision":"street"},"type":"Feature","geometry":{"type":"Point","coordinates":[-121.900428,37.371074]}},{"properties":{"city":"SAN JOSE","zip":"95112","number":"1310","addr_2":null,"geo_score":0.385,"st_type":"ST","street":"1ST","id":"a8isjpao8gfu","st_prefix":"N","geo_precision":"street"},"type":"Feature","geometry":{"type":"Point","coordinates":[-121.890566,37.336168]}},{"properties":{"city":"SAN JOSE","zip":"95112","number":"2211","addr_2":null,"geo_score":0.385,"st_type":"ST","street":"1ST","id":"a8isjpnbv05v","st_prefix":"N","geo_precision":"street"},"type":"Feature","geometry":{"type":"Point","coordinates":[-121.890566,37.336168]}},{"properties":{"city":"SAN JOSE","zip":"95112","number":"1744","addr_2":null,"geo_score":0.643,"st_type":"AV","street":"JUNCTION","id":"a8isjp92aen5","st_prefix":null,"geo_precision":"street"},"type":"Feature","geometry":{"type":"Point","coordinates":[-121.904695,37.375389]}},{"properties":{"city":"SAN JOSE","zip":"95112","number":null,"addr_2":null,"geo_score":0.427,"st_type":"ST","street":"13TH","id":"a8isjplv8fa6","st_prefix":"N","geo_precision":"street"},"type":"Feature","geometry":{"type":"Point","coordinates":[-121.876734,37.340275]}},{"properties":{"city":"SAN JOSE","zip":"95112","number":"2001","addr_2":null,"geo_score":0.586,"st_type":"PL","street":"GATEWAY","id":"a8isjpaugd2f","st_prefix":null,"geo_precision":"street"},"type":"Feature","geometry":{"type":"Point","coordinates":[-121.925071,37.372074]}},{"properties":{"city":"SAN JOSE","zip":"95112","number":"2050","addr_2":null,"geo_score":0.586,"st_type":"PL","street":"GATEWAY","id":"a8isjpa6tw3w","st_prefix":null,"geo_precision":"street"},"type":"Feature","geometry":{"type":"Point","coordinates":[-121.925071,37.372074]}},{"properties":{"city":"SAN JOSE","zip":"95112","number":"1440","addr_2":null,"geo_score":0.385,"st_type":"ST","street":"1ST","id":"a8isjpffn6t2","st_prefix":"N","geo_precision":"street"},"type":"Feature","geometry":{"type":"Point","coordinates":[-121.890566,37.336168]}},{"properties":{"city":"SAN JOSE","zip":"95112","number":"908","addr_2":null,"geo_score":0.427,"st_type":"ST","street":"17TH","id":"a8isjpcjzgf4","st_prefix":"N","geo_precision":"street"},"type":"Feature","geometry":{"type":"Point","coordinates":[-121.874381,37.343854]}},{"properties":{"city":"SAN JOSE","zip":"95112","number":"1754","addr_2":null,"geo_score":0.615,"st_type":"DR","street":"TECHNOLOGY","id":"a8isjpkewbnv","st_prefix":null,"geo_precision":"street"},"type":"Feature","geometry":{"type":"Point","coordinates":[-121.917063,37.365317]}},{"properties":{"city":"SAN JOSE","zip":"95112","number":"1550","addr_2":null,"geo_score":0.385,"st_type":"ST","street":"1ST","id":"a8isjp8je9a8","st_prefix":"N","geo_precision":"street"},"type":"Feature","geometry":{"type":"Point","coordinates":[-121.890566,37.336168]}},{"properties":{"city":"SAN JOSE","zip":"95112","number":"947","addr_2":null,"geo_score":0.385,"st_type":"ST","street":"7TH","id":"a8isjpdtsae2","st_prefix":"N","geo_precision":"street"},"type":"Feature","geometry":{"type":"Point","coordinates":[-121.880729,37.334381]}},{"properties":{"city":"SAN JOSE","zip":"95112","number":"1205","addr_2":null,"geo_score":0.597,"st_type":"CT","street":"ELM LAKE","id":"a8isjp9inzka","st_prefix":null,"geo_precision":"street"},"type":"Feature","geometry":{"type":"Point","coordinates":[-121.894566,37.38445]}},{"properties":{"city":"SAN JOSE","zip":"95112","number":"1515","addr_2":null,"geo_score":0.617,"st_type":"DR","street":"BERGER","id":"a8isjpic9ruf","st_prefix":null,"geo_precision":"street"},"type":"Feature","geometry":{"type":"Point","coordinates":[-121.897067,37.369688]}},{"properties":{"city":"SAN JOSE","zip":"95112","number":"2151","addr_2":null,"geo_score":0.489,"st_type":"RD","street":"OAKLAND","id":"a8isjp9p1e39","st_prefix":null,"geo_precision":"range"},"type":"Feature","geometry":{"type":"Point","coordinates":[-121.892777,37.369528]}},{"properties":{"city":"SAN JOSE","zip":"95112","number":"795","addr_2":null,"geo_score":0.427,"st_type":"ST","street":"13TH","id":"a8isjpejbb9e","st_prefix":"N","geo_precision":"street"},"type":"Feature","geometry":{"type":"Point","coordinates":[-121.876734,37.340275]}},{"properties":{"city":"SAN JOSE","zip":"95112","number":null,"addr_2":null,"geo_score":0.631,"st_type":"ST","street":"CHARLES","id":"a8isjp89l9v8","st_prefix":null,"geo_precision":"street"},"type":"Feature","geometry":{"type":"Point","coordinates":[-121.896662,37.365251]}},{"properties":{"city":"SAN JOSE","zip":"95112","number":"743","addr_2":null,"geo_score":0.427,"st_type":"ST","street":"16TH","id":"a8isjpmpsw00","st_prefix":"N","geo_precision":"street"},"type":"Feature","geometry":{"type":"Point","coordinates":[-121.876426,37.344899]}},{"properties":{"city":"SAN JOSE","zip":"95112","number":null,"addr_2":null,"geo_score":0.581,"st_type":"ST","street":"HEDDING","id":"a8isjpfxqeh6","st_prefix":"E","geo_precision":"street"},"type":"Feature","geometry":{"type":"Point","coordinates":[-121.902332,37.353877]}},{"properties":{"city":"SAN JOSE","zip":"95112","number":"1135","addr_2":null,"geo_score":0.489,"st_type":"RD","street":"OAKLAND","id":"a8isjphvjqij","st_prefix":null,"geo_precision":"range"},"type":"Feature","geometry":{"type":"Point","coordinates":[-121.892777,37.369528]}},{"properties":{"city":"SAN JOSE","zip":"95112","number":"1550","addr_2":null,"geo_score":0.385,"st_type":"ST","street":"1ST","id":"a8isjpkj5t5x","st_prefix":"N","geo_precision":"street"},"type":"Feature","geometry":{"type":"Point","coordinates":[-121.890566,37.336168]}},{"properties":{"city":"SAN JOSE","zip":"95112","number":"1174","addr_2":null,"geo_score":0.653,"st_type":null,"street":"OLD BAYSHORE","id":"a8isjpna3wq9","st_prefix":null,"geo_precision":"street"},"type":"Feature","geometry":{"type":"Point","coordinates":[-121.896701,37.364688]}},{"properties":{"city":"SAN JOSE","zip":"95112","number":null,"addr_2":null,"geo_score":0.522,"st_type":"RD","street":"GISH","id":"a8isjp7aduji","st_prefix":"E","geo_precision":"street"},"type":"Feature","geometry":{"type":"Point","coordinates":[-121.909637,37.361737]}},{"properties":{"city":"SAN JOSE","zip":"95112","number":null,"addr_2":null,"geo_score":0.427,"st_type":"RP","street":"NB 880 FROM BROKAW","id":"a8isjp9disyv","st_prefix":null,"geo_precision":"street"},"type":"Feature","geometry":{"type":"Point","coordinates":[-121.91822,37.373252]}},{"properties":{"city":"SAN JOSE","zip":"95112","number":"1536","addr_2":null,"geo_score":0.617,"st_type":"DR","street":"KERLEY","id":"a8isjpb5nif9","st_prefix":null,"geo_precision":"street"},"type":"Feature","geometry":{"type":"Point","coordinates":[-121.906784,37.36079]}},{"properties":{"city":"SAN JOSE","zip":"95112","number":"1505","addr_2":null,"geo_score":0.714,"st_type":"RD","street":"SCHALLENBERGER","id":"a8isjpbznk8r","st_prefix":null,"geo_precision":"zip"},"type":"Feature","geometry":{"type":"Point","coordinates":[-121.892093,37.37004]}},{"properties":{"city":"SAN JOSE","zip":"95112","number":"1045","addr_2":null,"geo_score":0.385,"st_type":"ST","street":"4TH","id":"a8isjpe58nog","st_prefix":"N","geo_precision":"street"},"type":"Feature","geometry":{"type":"Point","coordinates":[-121.886029,37.335832]}},{"properties":{"city":"SAN JOSE","zip":"95112","number":"2121","addr_2":null,"geo_score":0.385,"st_type":"ST","street":"1ST","id":"a8isjpa1u29m","st_prefix":"N","geo_precision":"street"},"type":"Feature","geometry":{"type":"Point","coordinates":[-121.890566,37.336168]}},{"properties":{"city":"SAN JOSE","zip":"95112","number":"725","addr_2":null,"geo_score":0.427,"st_type":"ST","street":"10TH","id":"a8isjpk5yoss","st_prefix":"N","geo_precision":"street"},"type":"Feature","geometry":{"type":"Point","coordinates":[-121.881038,37.340693]}},{"properties":{"city":"SAN JOSE","zip":"95112","number":null,"addr_2":null,"geo_score":0.349,"st_type":null,"street":"101","id":"a8isjp7hnio7","st_prefix":null,"geo_precision":"street"},"type":"Feature","geometry":{"type":"Point","coordinates":[-121.896169,37.363436]}},{"properties":{"city":"SAN JOSE","zip":"95112","number":"2151","addr_2":null,"geo_score":0.489,"st_type":"RD","street":"OAKLAND","id":"a8isjphuztbh","st_prefix":null,"geo_precision":"range"},"type":"Feature","geometry":{"type":"Point","coordinates":[-121.892777,37.369528]}},{"properties":{"city":"SAN JOSE","zip":"95112","number":null,"addr_2":null,"geo_score":0.195,"st_type":null,"street":"87","id":"a8isjpb6jdaa","st_prefix":null,"geo_precision":"street"},"type":"Feature","geometry":{"type":"Point","coordinates":[-121.909196,37.350484]}},{"properties":{"city":"SAN JOSE","zip":"95112","number":"2211","addr_2":null,"geo_score":0.385,"st_type":"ST","street":"1ST","id":"a8isjphtl2jr","st_prefix":"N","geo_precision":"street"},"type":"Feature","geometry":{"type":"Point","coordinates":[-121.890566,37.336168]}},{"properties":{"city":"SAN JOSE","zip":"95112","number":"900","addr_2":null,"geo_score":0.487,"st_type":"DR","street":"GOLDEN WHEEL PARK","id":"a8isjpdv7ppn","st_prefix":null,"geo_precision":"street"},"type":"Feature","geometry":{"type":"Point","coordinates":[-121.990767,37.302108]}},{"properties":{"city":"SAN JOSE","zip":"95112","number":"1610","addr_2":null,"geo_score":0.599,"st_type":"CT","street":"CRANE","id":"a8isjpktpjx8","st_prefix":null,"geo_precision":"street"},"type":"Feature","geometry":{"type":"Point","coordinates":[-121.914553,37.372792]}},{"properties":{"city":"SAN JOSE","zip":"95112","number":"2033","addr_2":null,"geo_score":0.586,"st_type":"PL","street":"GATEWAY","id":"a8isjp8lb6k0","st_prefix":null,"geo_precision":"street"},"type":"Feature","geometry":{"type":"Point","coordinates":[-121.925071,37.372074]}},{"properties":{"city":"SAN JOSE","zip":"95112","number":"2180","addr_2":null,"geo_score":0.347,"st_type":"DR","street":"O'NEL","id":"a8isjpa9h8bg","st_prefix":null,"geo_precision":"street"},"type":"Feature","geometry":{"type":"Point","coordinates":[-121.900452,37.286736]}},{"properties":{"city":"SAN JOSE","zip":"95112","number":null,"addr_2":null,"geo_score":0.385,"st_type":"ST","street":"1ST","id":"a8isjp7nxxfg","st_prefix":"N","geo_precision":"street"},"type":"Feature","geometry":{"type":"Point","coordinates":[-121.890566,37.336168]}},{"properties":{"city":"SAN JOSE","zip":"95112","number":"854","addr_2":null,"geo_score":0.427,"st_type":"ST","street":"19TH","id":"a8isjpcl26ya","st_prefix":"N","geo_precision":"street"},"type":"Feature","geometry":{"type":"Point","coordinates":[-121.874707,37.34767]}},{"properties":{"city":"SAN JOSE","zip":"95112","number":"1174","addr_2":null,"geo_score":0.653,"st_type":null,"street":"OLD BAYSHORE","id":"a8isjplkmumh","st_prefix":null,"geo_precision":"street"},"type":"Feature","geometry":{"type":"Point","coordinates":[-121.896701,37.364688]}},{"properties":{"city":"SAN JOSE","zip":"95112","number":"2099","addr_2":null,"geo_score":0.586,"st_type":"PL","street":"GATEWAY","id":"a8isjp97trb2","st_prefix":null,"geo_precision":"street"},"type":"Feature","geometry":{"type":"Point","coordinates":[-121.925071,37.372074]}},{"properties":{"city":"SAN JOSE","zip":"95112","number":"2180","addr_2":null,"geo_score":0.347,"st_type":"DR","street":"O'NEL","id":"a8isjp9skuwu","st_prefix":null,"geo_precision":"street"},"type":"Feature","geometry":{"type":"Point","coordinates":[-121.900452,37.286736]}},{"properties":{"city":"SAN JOSE","zip":"95112","number":null,"addr_2":null,"geo_score":0.349,"st_type":null,"street":"101","id":"a8isjp7zbrqm","st_prefix":null,"geo_precision":"street"},"type":"Feature","geometry":{"type":"Point","coordinates":[-121.896169,37.363436]}},{"properties":{"city":"SAN JOSE","zip":"95112","number":"667","addr_2":null,"geo_score":0.661,"st_type":"ST","street":"COMMERCIAL","id":"a8isjpi4las4","st_prefix":null,"geo_precision":"street"},"type":"Feature","geometry":{"type":"Point","coordinates":[-121.900199,37.360676]}},{"properties":{"city":"SAN JOSE","zip":"95112","number":"1350","addr_2":null,"geo_score":0.385,"st_type":"ST","street":"1ST","id":"a8isjpiw0lbh","st_prefix":"N","geo_precision":"street"},"type":"Feature","geometry":{"type":"Point","coordinates":[-121.890566,37.336168]}},{"properties":{"city":"SAN JOSE","zip":"95112","number":null,"addr_2":"b/t 101 and Bering","geo_score":0.565,"st_type":"RD","street":"BROKAW","id":"a8isjpm1yvhn","st_prefix":null,"geo_precision":"street"},"type":"Feature","geometry":{"type":"Point","coordinates":[-121.91822,37.373252]}},{"properties":{"city":"SAN JOSE","zip":"95112","number":"1488","addr_2":null,"geo_score":0.586,"st_type":"LN","street":"SEAREEL","id":"a8isjp8mtyza","st_prefix":null,"geo_precision":"street"},"type":"Feature","geometry":{"type":"Point","coordinates":[-121.904751,37.398616]}},{"properties":{"city":"SAN JOSE","zip":"95112","number":"1380","addr_2":null,"geo_score":0.427,"st_type":"ST","street":"10TH","id":"a8isjp9vhtlz","st_prefix":"N","geo_precision":"street"},"type":"Feature","geometry":{"type":"Point","coordinates":[-121.881038,37.340693]}},{"properties":{"city":"SAN JOSE","zip":"95112","number":"1555","addr_2":null,"geo_score":0.617,"st_type":"DR","street":"BERGER","id":"a8isjphywug8","st_prefix":null,"geo_precision":"street"},"type":"Feature","geometry":{"type":"Point","coordinates":[-121.897067,37.369688]}},{"properties":{"city":"SAN JOSE","zip":"95112","number":"1070","addr_2":null,"geo_score":0.661,"st_type":"ST","street":"COMMERCIAL","id":"a8isjpau98kl","st_prefix":null,"geo_precision":"street"},"type":"Feature","geometry":{"type":"Point","coordinates":[-121.900199,37.360676]}},{"properties":{"city":"SAN JOSE","zip":"95112","number":null,"addr_2":null,"geo_score":0.487,"st_type":"RP","street":"NB 101 TO OLD BAYSHORE","id":"a8isjpafw48e","st_prefix":null,"geo_precision":"street"},"type":"Feature","geometry":{"type":"Point","coordinates":[-121.896701,37.364688]}},{"properties":{"city":"SAN JOSE","zip":"95112","number":"1460","addr_2":null,"geo_score":0.385,"st_type":"ST","street":"4TH","id":"a8isjpeb84fa","st_prefix":"N","geo_precision":"street"},"type":"Feature","geometry":{"type":"Point","coordinates":[-121.886029,37.335832]}},{"properties":{"city":"SAN JOSE","zip":"95112","number":"2081","addr_2":null,"geo_score":0.385,"st_type":"ST","street":"1ST","id":"a8isjpf8lvdm","st_prefix":"N","geo_precision":"street"},"type":"Feature","geometry":{"type":"Point","coordinates":[-121.890566,37.336168]}},{"properties":{"city":"SAN JOSE","zip":"95112","number":"1174","addr_2":null,"geo_score":0.653,"st_type":null,"street":"OLD BAYSHORE","id":"a8isjpfy28lr","st_prefix":null,"geo_precision":"street"},"type":"Feature","geometry":{"type":"Point","coordinates":[-121.896701,37.364688]}},{"properties":{"city":"SAN JOSE","zip":"95112","number":null,"addr_2":null,"geo_score":0.489,"st_type":"RD","street":"OAKLAND","id":"a8isjpctzzv8","st_prefix":null,"geo_precision":"range"},"type":"Feature","geometry":{"type":"Point","coordinates":[-121.892777,37.369528]}},{"properties":{"city":"SAN JOSE","zip":"95112","number":"680","addr_2":null,"geo_score":0.427,"st_type":"ST","street":"11TH","id":"a8isjp7393ys","st_prefix":"N","geo_precision":"street"},"type":"Feature","geometry":{"type":"Point","coordinates":[-121.879986,37.341193]}},{"properties":{"city":"SAN JOSE","zip":"95112","number":null,"addr_2":null,"geo_score":0.488,"st_type":null,"street":"880","id":"a8isjpn1olzf","st_prefix":null,"geo_precision":"zip"},"type":"Feature","geometry":{"type":"Point","coordinates":[-121.892093,37.37004]}},{"properties":{"city":"SAN JOSE","zip":"95112","number":null,"addr_2":null,"geo_score":0.349,"st_type":null,"street":"101","id":"a8isjpbbb6fb","st_prefix":null,"geo_precision":"street"},"type":"Feature","geometry":{"type":"Point","coordinates":[-121.896169,37.363436]}},{"properties":{"city":"SAN JOSE","zip":"95112","number":"1488","addr_2":null,"geo_score":0.385,"st_type":"ST","street":"1ST","id":"a8isjpbniqek","st_prefix":"N","geo_precision":"street"},"type":"Feature","geometry":{"type":"Point","coordinates":[-121.890566,37.336168]}},{"properties":{"city":"SAN JOSE","zip":"95112","number":"850","addr_2":null,"geo_score":0.653,"st_type":"CT","street":"FAULSTICH","id":"a8isjpaj1n42","st_prefix":null,"geo_precision":"street"},"type":"Feature","geometry":{"type":"Point","coordinates":[-121.890388,37.370962]}},{"properties":{"city":"SAN JOSE","zip":"95112","number":"1801","addr_2":null,"geo_score":0.617,"st_type":"DR","street":"BERING","id":"a8isjp8nva8k","st_prefix":null,"geo_precision":"street"},"type":"Feature","geometry":{"type":"Point","coordinates":[-121.911762,37.373118]}},{"properties":{"city":"SAN JOSE","zip":"95112","number":"1550","addr_2":null,"geo_score":0.385,"st_type":"ST","street":"1ST","id":"a8isjpaox5at","st_prefix":"N","geo_precision":"street"},"type":"Feature","geometry":{"type":"Point","coordinates":[-121.890566,37.336168]}},{"properties":{"city":"SAN JOSE","zip":"95112","number":"831","addr_2":null,"geo_score":0.427,"st_type":"ST","street":"15TH","id":"a8isjp7z3di5","st_prefix":"N","geo_precision":"street"},"type":"Feature","geometry":{"type":"Point","coordinates":[-121.876218,37.342977]}},{"properties":{"city":"SAN JOSE","zip":"95112","number":"1212","addr_2":null,"geo_score":0.489,"st_type":"RD","street":"OAKLAND","id":"a8isjpf3j7td","st_prefix":null,"geo_precision":"range"},"type":"Feature","geometry":{"type":"Point","coordinates":[-121.892777,37.369528]}},{"properties":{"city":"SAN JOSE","zip":"95112","number":"1144","addr_2":null,"geo_score":0.385,"st_type":"ST","street":"4TH","id":"a8isjpmq7ag1","st_prefix":"N","geo_precision":"street"},"type":"Feature","geometry":{"type":"Point","coordinates":[-121.886029,37.335832]}},{"properties":{"city":"SAN JOSE","zip":"95112","number":null,"addr_2":null,"geo_score":0.427,"st_type":"ST","street":"12TH","id":"a8isjplqesep","st_prefix":"N","geo_precision":"street"},"type":"Feature","geometry":{"type":"Point","coordinates":[-121.879054,37.341637]}},{"properties":{"city":"SAN JOSE","zip":"95112","number":"1550","addr_2":null,"geo_score":0.385,"st_type":"ST","street":"1ST","id":"a8isjpavo2dz","st_prefix":"N","geo_precision":"street"},"type":"Feature","geometry":{"type":"Point","coordinates":[-121.890566,37.336168]}},{"properties":{"city":"SAN JOSE","zip":"95112","number":"900","addr_2":null,"geo_score":0.487,"st_type":"DR","street":"GOLDEN WHEEL PARK","id":"a8isjpfuwng6","st_prefix":null,"geo_precision":"street"},"type":"Feature","geometry":{"type":"Point","coordinates":[-121.990767,37.302108]}},{"properties":{"city":"SAN JOSE","zip":"95112","number":"2180","addr_2":null,"geo_score":0.347,"st_type":"DR","street":"O'NEL","id":"a8isjpb8e265","st_prefix":null,"geo_precision":"street"},"type":"Feature","geometry":{"type":"Point","coordinates":[-121.900452,37.286736]}},{"properties":{"city":"SAN JOSE","zip":"95112","number":"1550","addr_2":null,"geo_score":0.385,"st_type":"ST","street":"1ST","id":"a8isjpanj1pz","st_prefix":"N","geo_precision":"street"},"type":"Feature","geometry":{"type":"Point","coordinates":[-121.890566,37.336168]}},{"properties":{"city":"SAN JOSE","zip":"95112","number":"740","addr_2":null,"geo_score":0.427,"st_type":"ST","street":"11TH","id":"a8isjpamzkl9","st_prefix":"N","geo_precision":"street"},"type":"Feature","geometry":{"type":"Point","coordinates":[-121.879986,37.341193]}},{"properties":{"city":"SAN JOSE","zip":"95112","number":null,"addr_2":null,"geo_score":0.488,"st_type":null,"street":"858 1","id":"a8isjpk9wdaf","st_prefix":null,"geo_precision":"zip"},"type":"Feature","geometry":{"type":"Point","coordinates":[-121.892093,37.37004]}},{"properties":{"city":"SAN JOSE","zip":"95112","number":"101","addr_2":null,"geo_score":0.417,"st_type":"DR","street":"METRO","id":"a8isjpmdxtgu","st_prefix":null,"geo_precision":"street"},"type":"Feature","geometry":{"type":"Point","coordinates":[-121.894354,37.35857]}},{"properties":{"city":"SAN JOSE","zip":"95112","number":"1160","addr_2":null,"geo_score":0.385,"st_type":"ST","street":"4TH","id":"a8isjpiuytzv","st_prefix":"N","geo_precision":"street"},"type":"Feature","geometry":{"type":"Point","coordinates":[-121.886029,37.335832]}},{"properties":{"city":"SAN JOSE","zip":"95112","number":"2151","addr_2":null,"geo_score":0.489,"st_type":"RD","street":"OAKLAND","id":"a8isjp730ndp","st_prefix":null,"geo_precision":"range"},"type":"Feature","geometry":{"type":"Point","coordinates":[-121.892777,37.369528]}},{"properties":{"city":"SAN JOSE","zip":"95112","number":"1042","addr_2":null,"geo_score":0.393,"st_type":"AV","street":"ROCK","id":"a8isjphiq7wl","st_prefix":null,"geo_precision":"street"},"type":"Feature","geometry":{"type":"Point","coordinates":[-121.785826,37.33114]}},{"properties":{"city":"SAN JOSE","zip":"95112","number":"1275","addr_2":null,"geo_score":0.385,"st_type":"ST","street":"4TH","id":"a8isjpjn4bl8","st_prefix":"N","geo_precision":"street"},"type":"Feature","geometry":{"type":"Point","coordinates":[-121.886029,37.335832]}},{"properties":{"city":"SAN JOSE","zip":"95112","number":"1730","addr_2":null,"geo_score":0.615,"st_type":"DR","street":"TECHNOLOGY","id":"a8isjpcw520f","st_prefix":null,"geo_precision":"street"},"type":"Feature","geometry":{"type":"Point","coordinates":[-121.917063,37.365317]}},{"properties":{"city":"SAN JOSE","zip":"95112","number":"1275","addr_2":null,"geo_score":0.385,"st_type":"ST","street":"4TH","id":"a8isjpgt3sz6","st_prefix":"N","geo_precision":"street"},"type":"Feature","geometry":{"type":"Point","coordinates":[-121.886029,37.335832]}},{"properties":{"city":"SAN JOSE","zip":"95112","number":"1488","addr_2":null,"geo_score":0.586,"st_type":"LN","street":"SEAREEL","id":"a8isjpk24u97","st_prefix":null,"geo_precision":"street"},"type":"Feature","geometry":{"type":"Point","coordinates":[-121.904751,37.398616]}},{"properties":{"city":"SAN JOSE","zip":"95112","number":"1412","addr_2":null,"geo_score":0.385,"st_type":"ST","street":"1ST","id":"a8isjpdqaf4g","st_prefix":"N","geo_precision":"street"},"type":"Feature","geometry":{"type":"Point","coordinates":[-121.890566,37.336168]}},{"properties":{"city":"SAN JOSE","zip":"95112","number":"55","addr_2":null,"geo_score":0.562,"st_type":"AV","street":"YOUNGER","id":"a8isjpg0a91g","st_prefix":"W","geo_precision":"street"},"type":"Feature","geometry":{"type":"Point","coordinates":[-121.903679,37.355636]}},{"properties":{"city":"SAN JOSE","zip":"95112","number":null,"addr_2":null,"geo_score":0.349,"st_type":null,"street":"101","id":"a8isjpff6v9g","st_prefix":null,"geo_precision":"street"},"type":"Feature","geometry":{"type":"Point","coordinates":[-121.896169,37.363436]}},{"properties":{"city":"SAN JOSE","zip":"95112","number":"1550","addr_2":null,"geo_score":0.385,"st_type":"ST","street":"1ST","id":"a8isjp9tskm8","st_prefix":"N","geo_precision":"street"},"type":"Feature","geometry":{"type":"Point","coordinates":[-121.890566,37.336168]}},{"properties":{"city":"SAN JOSE","zip":"95112","number":"1002","addr_2":null,"geo_score":0.385,"st_type":"ST","street":"1ST","id":"a8isjpbki311","st_prefix":"N","geo_precision":"street"},"type":"Feature","geometry":{"type":"Point","coordinates":[-121.890566,37.336168]}},{"properties":{"city":"SAN JOSE","zip":"95112","number":null,"addr_2":null,"geo_score":0.349,"st_type":null,"street":"101","id":"a8isjpf14bm1","st_prefix":null,"geo_precision":"street"},"type":"Feature","geometry":{"type":"Point","coordinates":[-121.896169,37.363436]}},{"properties":{"city":"SAN JOSE","zip":"95112","number":"1200","addr_2":null,"geo_score":0.427,"st_type":"ST","street":"15TH","id":"a8isjpiulbsg","st_prefix":"N","geo_precision":"street"},"type":"Feature","geometry":{"type":"Point","coordinates":[-121.876218,37.342977]}},{"properties":{"city":"SAN JOSE","zip":"95112","number":"226","addr_2":null,"geo_score":0.536,"st_type":null,"street":"AIRPORT","id":"a8isjp8foojt","st_prefix":null,"geo_precision":"street"},"type":"Feature","geometry":{"type":"Point","coordinates":[-121.923606,37.368453]}},{"properties":{"city":"SAN JOSE","zip":"95112","number":null,"addr_2":null,"geo_score":0.349,"st_type":null,"street":"101","id":"a8isjperwukt","st_prefix":null,"geo_precision":"street"},"type":"Feature","geometry":{"type":"Point","coordinates":[-121.896169,37.363436]}},{"properties":{"city":"SAN JOSE","zip":"95112","number":"2020","addr_2":null,"geo_score":0.643,"st_type":"AV","street":"JUNCTION","id":"a8isjpj5blls","st_prefix":null,"geo_precision":"street"},"type":"Feature","geometry":{"type":"Point","coordinates":[-121.904695,37.375389]}},{"properties":{"city":"SAN JOSE","zip":"95112","number":"1460","addr_2":null,"geo_score":0.617,"st_type":"AV","street":"TERMINAL","id":"a8isjp8hgkoy","st_prefix":null,"geo_precision":"street"},"type":"Feature","geometry":{"type":"Point","coordinates":[-121.903384,37.365413]}},{"properties":{"city":"SAN JOSE","zip":"95112","number":"1801","addr_2":null,"geo_score":0.617,"st_type":"DR","street":"BERING","id":"a8isjp78iy17","st_prefix":null,"geo_precision":"street"},"type":"Feature","geometry":{"type":"Point","coordinates":[-121.911762,37.373118]}},{"properties":{"city":"SAN JOSE","zip":"95112","number":"845","addr_2":null,"geo_score":0.457,"st_type":"ST","street":"MISSION","id":"a8isjpe5709l","st_prefix":"E","geo_precision":"street"},"type":"Feature","geometry":{"type":"Point","coordinates":[-121.858898,37.406589]}},{"properties":{"city":"SAN JOSE","zip":"95112","number":"777","addr_2":null,"geo_score":0.565,"st_type":"RD","street":"BROKAW","id":"a8isjpli1qji","st_prefix":"E","geo_precision":"street"},"type":"Feature","geometry":{"type":"Point","coordinates":[-121.91822,37.373252]}},{"properties":{"city":"SAN JOSE","zip":"95112","number":"1445","addr_2":null,"geo_score":0.582,"st_type":"ST","street":"SAN PEDRO","id":"a8isjp7nq00e","st_prefix":"N","geo_precision":"street"},"type":"Feature","geometry":{"type":"Point","coordinates":[-121.89962,37.344153]}},{"properties":{"city":"SAN JOSE","zip":"95112","number":null,"addr_2":null,"geo_score":0.565,"st_type":"RD","street":"BROKAW","id":"a8isjpgr64j3","st_prefix":"E","geo_precision":"street"},"type":"Feature","geometry":{"type":"Point","coordinates":[-121.91822,37.373252]}},{"properties":{"city":"SAN JOSE","zip":"95112","number":"635","addr_2":null,"geo_score":0.457,"st_type":"ST","street":"MISSION","id":"a8isjpmthbi3","st_prefix":"E","geo_precision":"street"},"type":"Feature","geometry":{"type":"Point","coordinates":[-121.858898,37.406589]}},{"properties":{"city":"SAN JOSE","zip":"95112","number":"894","addr_2":null,"geo_score":0.653,"st_type":"CT","street":"FAULSTICH","id":"a8isjpfqgzqw","st_prefix":null,"geo_precision":"street"},"type":"Feature","geometry":{"type":"Point","coordinates":[-121.890388,37.370962]}},{"properties":{"city":"SAN JOSE","zip":"95112","number":"2151","addr_2":null,"geo_score":0.489,"st_type":"RD","street":"OAKLAND","id":"a8isjp72025q","st_prefix":null,"geo_precision":"range"},"type":"Feature","geometry":{"type":"Point","coordinates":[-121.892777,37.369528]}},{"properties":{"city":"SAN JOSE","zip":"95112","number":"1440","addr_2":null,"geo_score":0.385,"st_type":"ST","street":"1ST","id":"a8isjpaqozcm","st_prefix":"N","geo_precision":"street"},"type":"Feature","geometry":{"type":"Point","coordinates":[-121.890566,37.336168]}},{"properties":{"city":"SAN JOSE","zip":"95112","number":"900","addr_2":null,"geo_score":0.487,"st_type":"DR","street":"GOLDEN WHEEL PARK","id":"a8isjpbuien7","st_prefix":null,"geo_precision":"street"},"type":"Feature","geometry":{"type":"Point","coordinates":[-121.990767,37.302108]}},{"properties":{"city":"SAN JOSE","zip":"95112","number":null,"addr_2":null,"geo_score":0.522,"st_type":"RD","street":"GISH","id":"a8isjpgmbhwh","st_prefix":"E","geo_precision":"street"},"type":"Feature","geometry":{"type":"Point","coordinates":[-121.909637,37.361737]}},{"properties":{"city":"SAN JOSE","zip":"95112","number":"858","addr_2":null,"geo_score":0.427,"st_type":"ST","street":"13TH","id":"a8isjp9ncldd","st_prefix":"N","geo_precision":"street"},"type":"Feature","geometry":{"type":"Point","coordinates":[-121.876734,37.340275]}},{"properties":{"city":"SAN JOSE","zip":"95112","number":"55","addr_2":null,"geo_score":0.562,"st_type":"AV","street":"YOUNGER","id":"a8isjp7tyamw","st_prefix":"W","geo_precision":"street"},"type":"Feature","geometry":{"type":"Point","coordinates":[-121.903679,37.355636]}},{"properties":{"city":"SAN JOSE","zip":"95112","number":"1358","addr_2":null,"geo_score":0.489,"st_type":"RD","street":"OAKLAND","id":"a8isjpiapwne","st_prefix":null,"geo_precision":"range"},"type":"Feature","geometry":{"type":"Point","coordinates":[-121.892777,37.369528]}},{"properties":{"city":"SAN JOSE","zip":"95112","number":"1610","addr_2":null,"geo_score":0.599,"st_type":"CT","street":"CRANE","id":"a8isjpbkv4yl","st_prefix":null,"geo_precision":"street"},"type":"Feature","geometry":{"type":"Point","coordinates":[-121.914553,37.372792]}},{"properties":{"city":"SAN JOSE","zip":"95112","number":"865","addr_2":null,"geo_score":0.427,"st_type":"ST","street":"15TH","id":"a8isjpj88vu1","st_prefix":"N","geo_precision":"street"},"type":"Feature","geometry":{"type":"Point","coordinates":[-121.876218,37.342977]}},{"properties":{"city":"SAN JOSE","zip":"95112","number":"1610","addr_2":null,"geo_score":0.599,"st_type":"CT","street":"CRANE","id":"a8isjpanwb2j","st_prefix":null,"geo_precision":"street"},"type":"Feature","geometry":{"type":"Point","coordinates":[-121.914553,37.372792]}},{"properties":{"city":"SAN JOSE","zip":"95112","number":"1610","addr_2":null,"geo_score":0.599,"st_type":"CT","street":"CRANE","id":"a8isjpb67yh8","st_prefix":null,"geo_precision":"street"},"type":"Feature","geometry":{"type":"Point","coordinates":[-121.914553,37.372792]}},{"properties":{"city":"SAN JOSE","zip":"95112","number":"1740","addr_2":null,"geo_score":0.385,"st_type":"ST","street":"1ST","id":"a8isjpj776tb","st_prefix":"N","geo_precision":"street"},"type":"Feature","geometry":{"type":"Point","coordinates":[-121.890566,37.336168]}},{"properties":{"city":"SAN JOSE","zip":"95112","number":"879","addr_2":null,"geo_score":0.385,"st_type":"ST","street":"7TH","id":"a8isjpcalm2g","st_prefix":"N","geo_precision":"street"},"type":"Feature","geometry":{"type":"Point","coordinates":[-121.880729,37.334381]}},{"properties":{"city":"SAN JOSE","zip":"95112","number":"2151","addr_2":null,"geo_score":0.489,"st_type":"RD","street":"OAKLAND","id":"a8isjpa6eedk","st_prefix":null,"geo_precision":"range"},"type":"Feature","geometry":{"type":"Point","coordinates":[-121.892777,37.369528]}},{"properties":{"city":"SAN JOSE","zip":"95112","number":"1791","addr_2":null,"geo_score":0.615,"st_type":"CT","street":"MAPLE LAKE","id":"a8isjp8n7xq0","st_prefix":null,"geo_precision":"street"},"type":"Feature","geometry":{"type":"Point","coordinates":[-121.893619,37.38585]}},{"properties":{"city":"SAN JOSE","zip":"95112","number":"800","addr_2":null,"geo_score":0.385,"st_type":"ST","street":"8TH","id":"a8isjpauqtku","st_prefix":"N","geo_precision":"street"},"type":"Feature","geometry":{"type":"Point","coordinates":[-121.88425,37.341184]}},{"properties":{"city":"SAN JOSE","zip":"95112","number":"361-391","addr_2":null,"geo_score":0.565,"st_type":"RD","street":"BROKAW","id":"a8isjpivzl71","st_prefix":"E","geo_precision":"street"},"type":"Feature","geometry":{"type":"Point","coordinates":[-121.91822,37.373252]}},{"properties":{"city":"SAN JOSE","zip":"95112","number":null,"addr_2":null,"geo_score":0.385,"st_type":"ST","street":"1ST","id":"a8isjpfshmsh","st_prefix":"N","geo_precision":"street"},"type":"Feature","geometry":{"type":"Point","coordinates":[-121.890566,37.336168]}},{"properties":{"city":"SAN JOSE","zip":"95112","number":"1350","addr_2":null,"geo_score":0.489,"st_type":"RD","street":"OAKLAND","id":"a8isjphjjycn","st_prefix":null,"geo_precision":"range"},"type":"Feature","geometry":{"type":"Point","coordinates":[-121.892777,37.369528]}},{"properties":{"city":"SAN JOSE","zip":"95112","number":"1460","addr_2":null,"geo_score":0.489,"st_type":"RD","street":"OAKLAND","id":"a8isjpf3q4kk","st_prefix":null,"geo_precision":"range"},"type":"Feature","geometry":{"type":"Point","coordinates":[-121.892777,37.369528]}}],"is_temporal":false,"author":{"url":"","metadata":"","contact_name":"","contact_address":"","source":"","contact_phone":""},"source":"","pagination":{"sort":null,"start":0,"total":174,"limit":1000000},"state":"complete","tags":"","published":"2014-08-14T19:35:56-04:00","id":273617}