{"type":"FeatureCollection","data_type":"Dataset","url_type":null,"permissions":[{"permissions":{"download":true,"view":true},"group_id":"everyone"}],"classification":null,"title":"zipcoderes2","count":97,"stream_id":274629,"contributor":{"url":"http://geocommons.com/users/51763","name":"thompson@evergreenecon.com"},"data_attributes":null,"calculation_params":null,"icon_link":null,"link":"http://geocommons.com/overlays/274629.json","extent":[-168.022,19.0933,-154.979,24.8598],"geometry_types":["point"],"unique_name":null,"name":"zipcoderes2","feature_count":97,"description":"","next_feature":null,"is_raster":false,"short_classification":"Y","stats":{"percent":{"max":4.8,"variance":2.00178049828179,"mean":1.0319587628866,"stdev":1.41484292353667,"min":0.0,"median":0.3},"frequency":{"max":18569,"variance":30228776.8533075,"mean":4007.71134020619,"stdev":5498.07028450051,"min":1,"median":1084}},"features":[{"properties":{"region":"Big Island Zone 4","geo_score":0.714,"service_zip":"96740","id":"a8lpt9z8pgsq","percent":3.8,"geo_precision":"zip","frequency":14751},"type":"Feature","geometry":{"type":"Point","coordinates":[-155.995556,19.640556]}},{"properties":{"region":"Big Island Zone 4","geo_score":0.714,"service_zip":"96750","id":"a8lpta6rn538","percent":0.3,"geo_precision":"zip","frequency":1205},"type":"Feature","geometry":{"type":"Point","coordinates":[-155.874923,19.343913]}},{"properties":{"region":"Big Island Zone 4","geo_score":0.714,"service_zip":"96750","id":"a8lptadg2n1h","percent":0.0,"geo_precision":"zip","frequency":1},"type":"Feature","geometry":{"type":"Point","coordinates":[-155.874923,19.343913]}},{"properties":{"region":"Big Island Zone 5","geo_score":0.714,"service_zip":"96720","id":"a8lpta3l5n9s","percent":4.0,"geo_precision":"zip","frequency":15743},"type":"Feature","geometry":{"type":"Point","coordinates":[-155.138889,19.715833]}},{"properties":{"region":"Big Island Zone 5","geo_score":0.714,"service_zip":"96749","id":"a8lptaa3l1hx","percent":1.4,"geo_precision":"zip","frequency":5257},"type":"Feature","geometry":{"type":"Point","coordinates":[-155.032104,19.581873]}},{"properties":{"region":"Big Island Zone 6","geo_score":0.714,"service_zip":"96704","id":"a8lptab9txdv","percent":0.5,"geo_precision":"zip","frequency":1909},"type":"Feature","geometry":{"type":"Point","coordinates":[-155.866667,19.209167]}},{"properties":{"region":"Big Island Zone 6","geo_score":0.714,"service_zip":"96718","id":"a8lptadbxmba","percent":0.0,"geo_precision":"zip","frequency":46},"type":"Feature","geometry":{"type":"Point","coordinates":[-155.438015,19.593456]}},{"properties":{"region":"Big Island Zone 6","geo_score":0.714,"service_zip":"96725","id":"a8lpta60h7rx","percent":0.4,"geo_precision":"zip","frequency":1443},"type":"Feature","geometry":{"type":"Point","coordinates":[-155.978611,19.691389]}},{"properties":{"region":"Big Island Zone 6","geo_score":0.714,"service_zip":"96760","id":"a8lpta08qkr2","percent":0.3,"geo_precision":"zip","frequency":1053},"type":"Feature","geometry":{"type":"Point","coordinates":[-155.075278,19.606389]}},{"properties":{"region":"Big Island Zone 6","geo_score":0.714,"service_zip":"96771","id":"a8lpta57o58c","percent":0.5,"geo_precision":"zip","frequency":1819},"type":"Feature","geometry":{"type":"Point","coordinates":[-155.091111,19.576944]}},{"properties":{"region":"Big Island Zone 6","geo_score":0.714,"service_zip":"96772","id":"a8lpta6d9f4l","percent":0.2,"geo_precision":"zip","frequency":836},"type":"Feature","geometry":{"type":"Point","coordinates":[-155.551111,19.093333]}},{"properties":{"region":"Big Island Zone 6","geo_score":0.714,"service_zip":"96777","id":"a8lpta2d7fiu","percent":0.1,"geo_precision":"zip","frequency":571},"type":"Feature","geometry":{"type":"Point","coordinates":[-155.507222,19.139167]}},{"properties":{"region":"Big Island Zone 6","geo_score":0.714,"service_zip":"96778","id":"a8lpta3sqn7t","percent":1.2,"geo_precision":"zip","frequency":4817},"type":"Feature","geometry":{"type":"Point","coordinates":[-154.978611,19.354167]}},{"properties":{"region":"Big Island Zone 6","geo_score":0.714,"service_zip":"96785","id":"a8lpta6gb8t3","percent":0.4,"geo_precision":"zip","frequency":1401},"type":"Feature","geometry":{"type":"Point","coordinates":[-155.250569,19.440523]}},{"properties":{"region":"Big Island Zone 6","geo_score":0.714,"service_zip":"96725","id":"a8lpta0e5bv1","percent":0.0,"geo_precision":"zip","frequency":1},"type":"Feature","geometry":{"type":"Point","coordinates":[-155.978611,19.691389]}},{"properties":{"region":"Big Island Zone 7","geo_score":0.714,"service_zip":"96710","id":"a8lpta0hecsn","percent":0.0,"geo_precision":"zip","frequency":172},"type":"Feature","geometry":{"type":"Point","coordinates":[-155.123611,19.8875]}},{"properties":{"region":"Big Island Zone 7","geo_score":0.714,"service_zip":"96719","id":"a8lpta4bfjy3","percent":0.2,"geo_precision":"zip","frequency":724},"type":"Feature","geometry":{"type":"Point","coordinates":[-155.818291,20.222737]}},{"properties":{"region":"Big Island Zone 7","geo_score":0.714,"service_zip":"96727","id":"a8lpta1k7nb7","percent":0.4,"geo_precision":"zip","frequency":1527},"type":"Feature","geometry":{"type":"Point","coordinates":[-155.570833,20.121389]}},{"properties":{"region":"Big Island Zone 7","geo_score":0.714,"service_zip":"96728","id":"a8lpta8ckuj0","percent":0.1,"geo_precision":"zip","frequency":233},"type":"Feature","geometry":{"type":"Point","coordinates":[-155.438015,19.593456]}},{"properties":{"region":"Big Island Zone 7","geo_score":0.714,"service_zip":"96738","id":"a8lptabibluz","percent":1.1,"geo_precision":"zip","frequency":4275},"type":"Feature","geometry":{"type":"Point","coordinates":[-155.867865,19.941039]}},{"properties":{"region":"Big Island Zone 7","geo_score":0.714,"service_zip":"96743","id":"a8lptaco9b0u","percent":1.3,"geo_precision":"zip","frequency":5086},"type":"Feature","geometry":{"type":"Point","coordinates":[-155.830556,20.041111]}},{"properties":{"region":"Big Island Zone 7","geo_score":0.714,"service_zip":"96755","id":"a8lptadiy28t","percent":0.3,"geo_precision":"zip","frequency":1084},"type":"Feature","geometry":{"type":"Point","coordinates":[-155.780556,20.2375]}},{"properties":{"region":"Big Island Zone 7","geo_score":0.714,"service_zip":"96764","id":"a8lpta0jdu1d","percent":0.1,"geo_precision":"zip","frequency":275},"type":"Feature","geometry":{"type":"Point","coordinates":[-155.248429,19.985166]}},{"properties":{"region":"Big Island Zone 7","geo_score":0.714,"service_zip":"96773","id":"a8lpta3dpg9u","percent":0.0,"geo_precision":"zip","frequency":78},"type":"Feature","geometry":{"type":"Point","coordinates":[-155.166821,19.935047]}},{"properties":{"region":"Big Island Zone 7","geo_score":0.714,"service_zip":"96774","id":"a8lptabmzbg1","percent":0.0,"geo_precision":"zip","frequency":95},"type":"Feature","geometry":{"type":"Point","coordinates":[-155.285,20.016389]}},{"properties":{"region":"Big Island Zone 7","geo_score":0.714,"service_zip":"96776","id":"a8lpta4gtf9e","percent":0.1,"geo_precision":"zip","frequency":409},"type":"Feature","geometry":{"type":"Point","coordinates":[-155.350278,20.032778]}},{"properties":{"region":"Big Island Zone 7","geo_score":0.714,"service_zip":"96780","id":"a8lpt9yfdzkl","percent":0.0,"geo_precision":"zip","frequency":160},"type":"Feature","geometry":{"type":"Point","coordinates":[-155.201267,19.964138]}},{"properties":{"region":"Big Island Zone 7","geo_score":0.714,"service_zip":"96781","id":"a8lptaenh3rp","percent":0.2,"geo_precision":"zip","frequency":597},"type":"Feature","geometry":{"type":"Point","coordinates":[-155.116093,19.798878]}},{"properties":{"region":"Big Island Zone 7","geo_score":0.714,"service_zip":"96783","id":"a8lptaa8tia7","percent":0.2,"geo_precision":"zip","frequency":729},"type":"Feature","geometry":{"type":"Point","coordinates":[-155.097778,19.828056]}},{"properties":{"region":"Big Island Zone 7","geo_score":0.714,"service_zip":"96743","id":"a8lptacxl6lj","percent":0.0,"geo_precision":"zip","frequency":1},"type":"Feature","geometry":{"type":"Point","coordinates":[-155.830556,20.041111]}},{"properties":{"region":"Lanai","geo_score":0.714,"service_zip":"96763","id":"a8lpta8gcnoa","percent":0.4,"geo_precision":"zip","frequency":1405},"type":"Feature","geometry":{"type":"Point","coordinates":[-156.95283,20.812854]}},{"properties":{"region":"Maui Zone 8","geo_score":0.714,"service_zip":"96708","id":"a8lptaay10fp","percent":0.8,"geo_precision":"zip","frequency":3166},"type":"Feature","geometry":{"type":"Point","coordinates":[-156.136389,20.848611]}},{"properties":{"region":"Maui Zone 8","geo_score":0.714,"service_zip":"96713","id":"a8lpta6evlol","percent":0.1,"geo_precision":"zip","frequency":576},"type":"Feature","geometry":{"type":"Point","coordinates":[-156.020278,20.689722]}},{"properties":{"region":"Maui Zone 8","geo_score":0.714,"service_zip":"96732","id":"a8lpta9m9xpa","percent":1.6,"geo_precision":"zip","frequency":6146},"type":"Feature","geometry":{"type":"Point","coordinates":[-156.259166,20.859244]}},{"properties":{"region":"Maui Zone 8","geo_score":0.714,"service_zip":"96753","id":"a8lpta27nc14","percent":3.8,"geo_precision":"zip","frequency":14896},"type":"Feature","geometry":{"type":"Point","coordinates":[-156.447778,20.7075]}},{"properties":{"region":"Maui Zone 8","geo_score":0.714,"service_zip":"96761","id":"a8lpta2hw9z9","percent":2.6,"geo_precision":"zip","frequency":9952},"type":"Feature","geometry":{"type":"Point","coordinates":[-156.685833,20.882222]}},{"properties":{"region":"Maui Zone 8","geo_score":0.714,"service_zip":"96767","id":"a8lpta66id3c","percent":0.0,"geo_precision":"zip","frequency":2},"type":"Feature","geometry":{"type":"Point","coordinates":[-156.646667,20.866638]}},{"properties":{"region":"Maui Zone 8","geo_score":0.714,"service_zip":"96768","id":"a8lpta83v2fr","percent":1.5,"geo_precision":"zip","frequency":5831},"type":"Feature","geometry":{"type":"Point","coordinates":[-156.320242,20.832664]}},{"properties":{"region":"Maui Zone 8","geo_score":0.714,"service_zip":"96779","id":"a8lpta2doyrc","percent":0.3,"geo_precision":"zip","frequency":1112},"type":"Feature","geometry":{"type":"Point","coordinates":[-156.374167,20.906667]}},{"properties":{"region":"Maui Zone 8","geo_score":0.714,"service_zip":"96784","id":"a8lpta6k8a2x","percent":0.0,"geo_precision":"zip","frequency":3},"type":"Feature","geometry":{"type":"Point","coordinates":[-156.454167,20.865833]}},{"properties":{"region":"Maui Zone 8","geo_score":0.714,"service_zip":"96788","id":"a8lpta03jl1b","percent":0.0,"geo_precision":"zip","frequency":64},"type":"Feature","geometry":{"type":"Point","coordinates":[-156.325923,20.855864]}},{"properties":{"region":"Maui Zone 8","geo_score":0.714,"service_zip":"96790","id":"a8lpta0tjdia","percent":0.9,"geo_precision":"zip","frequency":3311},"type":"Feature","geometry":{"type":"Point","coordinates":[-156.328611,20.78]}},{"properties":{"region":"Maui Zone 8","geo_score":0.714,"service_zip":"96793","id":"a8lpta8oq3an","percent":2.3,"geo_precision":"zip","frequency":9030},"type":"Feature","geometry":{"type":"Point","coordinates":[-156.510833,20.882222]}},{"properties":{"region":"Maui Zone 8","geo_score":0.714,"service_zip":"96790","id":"a8lpt9zgyb20","percent":0.0,"geo_precision":"zip","frequency":1},"type":"Feature","geometry":{"type":"Point","coordinates":[-156.328611,20.78]}},{"properties":{"region":"Maui Zone 8","geo_score":0.714,"service_zip":"96790","id":"a8lpta3tj5qc","percent":0.0,"geo_precision":"zip","frequency":1},"type":"Feature","geometry":{"type":"Point","coordinates":[-156.328611,20.78]}},{"properties":{"region":"Molokai","geo_score":0.714,"service_zip":"96729","id":"a8lptaa4753c","percent":0.1,"geo_precision":"zip","frequency":307},"type":"Feature","geometry":{"type":"Point","coordinates":[-157.008333,21.165278]}},{"properties":{"region":"Molokai","geo_score":0.714,"service_zip":"96748","id":"a8lpta9jp3sz","percent":0.4,"geo_precision":"zip","frequency":1605},"type":"Feature","geometry":{"type":"Point","coordinates":[-156.761389,21.100278]}},{"properties":{"region":"Molokai","geo_score":0.714,"service_zip":"96770","id":"a8lpta7ttcns","percent":0.1,"geo_precision":"zip","frequency":423},"type":"Feature","geometry":{"type":"Point","coordinates":[-157.257157,21.176357]}},{"properties":{"region":"Oahu Zone 1","geo_score":0.714,"service_zip":"96701","id":"a8lpta2dahq6","percent":3.0,"geo_precision":"zip","frequency":11582},"type":"Feature","geometry":{"type":"Point","coordinates":[-157.921667,21.379444]}},{"properties":{"region":"Oahu Zone 1","geo_score":0.714,"service_zip":"96706","id":"a8lpta5gq3d9","percent":4.1,"geo_precision":"zip","frequency":16121},"type":"Feature","geometry":{"type":"Point","coordinates":[-158.028611,21.360278]}},{"properties":{"region":"Oahu Zone 1","geo_score":0.714,"service_zip":"96707","id":"a8lptad1f1a8","percent":2.9,"geo_precision":"zip","frequency":11307},"type":"Feature","geometry":{"type":"Point","coordinates":[-158.091383,21.341784]}},{"properties":{"region":"Oahu Zone 1","geo_score":0.714,"service_zip":"96759","id":"a8lpta11zuki","percent":0.0,"geo_precision":"zip","frequency":114},"type":"Feature","geometry":{"type":"Point","coordinates":[-158.06385,21.463]}},{"properties":{"region":"Oahu Zone 1","geo_score":0.714,"service_zip":"96782","id":"a8lpta9sk6r0","percent":2.6,"geo_precision":"zip","frequency":10223},"type":"Feature","geometry":{"type":"Point","coordinates":[-157.960833,21.425556]}},{"properties":{"region":"Oahu Zone 1","geo_score":0.714,"service_zip":"96789","id":"a8lptacoaq56","percent":4.7,"geo_precision":"zip","frequency":18190},"type":"Feature","geometry":{"type":"Point","coordinates":[-158.001111,21.45]}},{"properties":{"region":"Oahu Zone 1","geo_score":0.714,"service_zip":"96792","id":"a8lpta61wo80","percent":3.0,"geo_precision":"zip","frequency":11763},"type":"Feature","geometry":{"type":"Point","coordinates":[-158.2175,21.469444]}},{"properties":{"region":"Oahu Zone 1","geo_score":0.714,"service_zip":"96797","id":"a8lpta0ms7n7","percent":4.8,"geo_precision":"zip","frequency":18569},"type":"Feature","geometry":{"type":"Point","coordinates":[-157.999444,21.408889]}},{"properties":{"region":"Oahu Zone 2","geo_score":0.714,"service_zip":"96734","id":"a8lpta6jbwhs","percent":3.5,"geo_precision":"zip","frequency":13571},"type":"Feature","geometry":{"type":"Point","coordinates":[-157.715833,21.391944]}},{"properties":{"region":"Oahu Zone 2","geo_score":0.714,"service_zip":"96744","id":"a8lpt9zbnusb","percent":4.2,"geo_precision":"zip","frequency":16359},"type":"Feature","geometry":{"type":"Point","coordinates":[-157.93955,21.66875]}},{"properties":{"region":"Oahu Zone 2","geo_score":0.714,"service_zip":"96795","id":"a8lpta6iy6sm","percent":0.6,"geo_precision":"zip","frequency":2347},"type":"Feature","geometry":{"type":"Point","coordinates":[-168.021815,24.859832]}},{"properties":{"region":"Oahu Zone 2","geo_score":0.714,"service_zip":"96813","id":"a8lpta0zvgce","percent":1.7,"geo_precision":"zip","frequency":6440},"type":"Feature","geometry":{"type":"Point","coordinates":[-168.021815,24.859832]}},{"properties":{"region":"Oahu Zone 2","geo_score":0.714,"service_zip":"96814","id":"a8lpta5ppvmk","percent":1.5,"geo_precision":"zip","frequency":5770},"type":"Feature","geometry":{"type":"Point","coordinates":[-168.021815,24.859832]}},{"properties":{"region":"Oahu Zone 2","geo_score":0.714,"service_zip":"96815","id":"a8lpta6fkv0j","percent":2.6,"geo_precision":"zip","frequency":10013},"type":"Feature","geometry":{"type":"Point","coordinates":[-168.021815,24.859832]}},{"properties":{"region":"Oahu Zone 2","geo_score":0.714,"service_zip":"96816","id":"a8lpta5o055w","percent":4.4,"geo_precision":"zip","frequency":17011},"type":"Feature","geometry":{"type":"Point","coordinates":[-168.021815,24.859832]}},{"properties":{"region":"Oahu Zone 2","geo_score":0.714,"service_zip":"96817","id":"a8lpta36k512","percent":4.0,"geo_precision":"zip","frequency":15373},"type":"Feature","geometry":{"type":"Point","coordinates":[-157.922303,21.65098]}},{"properties":{"region":"Oahu Zone 2","geo_score":0.714,"service_zip":"96818","id":"a8lpta1aajhz","percent":2.0,"geo_precision":"zip","frequency":7877},"type":"Feature","geometry":{"type":"Point","coordinates":[-157.93965,21.347951]}},{"properties":{"region":"Oahu Zone 2","geo_score":0.714,"service_zip":"96819","id":"a8lpta44e218","percent":2.2,"geo_precision":"zip","frequency":8585},"type":"Feature","geometry":{"type":"Point","coordinates":[-157.901979,21.373179]}},{"properties":{"region":"Oahu Zone 2","geo_score":0.714,"service_zip":"96821","id":"a8lpta8gtqah","percent":1.7,"geo_precision":"zip","frequency":6564},"type":"Feature","geometry":{"type":"Point","coordinates":[-168.021815,24.859832]}},{"properties":{"region":"Oahu Zone 2","geo_score":0.714,"service_zip":"96822","id":"a8lpta0f5t0o","percent":4.2,"geo_precision":"zip","frequency":16514},"type":"Feature","geometry":{"type":"Point","coordinates":[-157.94085,21.67115]}},{"properties":{"region":"Oahu Zone 2","geo_score":0.714,"service_zip":"96825","id":"a8lptabz9j9j","percent":2.9,"geo_precision":"zip","frequency":11083},"type":"Feature","geometry":{"type":"Point","coordinates":[-157.940731,21.670926]}},{"properties":{"region":"Oahu Zone 2","geo_score":0.714,"service_zip":"96826","id":"a8lpta3ev3dw","percent":3.1,"geo_precision":"zip","frequency":12073},"type":"Feature","geometry":{"type":"Point","coordinates":[-168.021815,24.859832]}},{"properties":{"region":"Oahu Zone 2","geo_score":0.714,"service_zip":"96744","id":"a8lptadndwf5","percent":0.0,"geo_precision":"zip","frequency":1},"type":"Feature","geometry":{"type":"Point","coordinates":[-157.93955,21.66875]}},{"properties":{"region":"Oahu Zone 2","geo_score":0.714,"service_zip":"96744","id":"a8lpta1tbon5","percent":0.0,"geo_precision":"zip","frequency":1},"type":"Feature","geometry":{"type":"Point","coordinates":[-157.93955,21.66875]}},{"properties":{"region":"Oahu Zone 2","geo_score":0.714,"service_zip":"96814","id":"a8lptaaz35am","percent":0.0,"geo_precision":"zip","frequency":1},"type":"Feature","geometry":{"type":"Point","coordinates":[-168.021815,24.859832]}},{"properties":{"region":"Oahu Zone 2","geo_score":0.714,"service_zip":"96816","id":"a8lpta2acusi","percent":0.0,"geo_precision":"zip","frequency":1},"type":"Feature","geometry":{"type":"Point","coordinates":[-168.021815,24.859832]}},{"properties":{"region":"Oahu Zone 2","geo_score":0.714,"service_zip":"96826","id":"a8lpta79iasv","percent":0.0,"geo_precision":"zip","frequency":1},"type":"Feature","geometry":{"type":"Point","coordinates":[-168.021815,24.859832]}},{"properties":{"region":"Oahu Zone 3","geo_score":0.714,"service_zip":"96712","id":"a8lptaatw7a9","percent":0.7,"geo_precision":"zip","frequency":2550},"type":"Feature","geometry":{"type":"Point","coordinates":[-158.03645,21.63185]}},{"properties":{"region":"Oahu Zone 3","geo_score":0.714,"service_zip":"96717","id":"a8lpta75y7nq","percent":0.3,"geo_precision":"zip","frequency":1324},"type":"Feature","geometry":{"type":"Point","coordinates":[-157.882511,21.583507]}},{"properties":{"region":"Oahu Zone 3","geo_score":0.714,"service_zip":"96730","id":"a8lpta1xvlsv","percent":0.1,"geo_precision":"zip","frequency":540},"type":"Feature","geometry":{"type":"Point","coordinates":[-157.883316,21.585127]}},{"properties":{"region":"Oahu Zone 3","geo_score":0.714,"service_zip":"96731","id":"a8lpta329wia","percent":0.3,"geo_precision":"zip","frequency":1090},"type":"Feature","geometry":{"type":"Point","coordinates":[-157.935304,21.6277]}},{"properties":{"region":"Oahu Zone 3","geo_score":0.714,"service_zip":"96762","id":"a8lpta6wag73","percent":0.2,"geo_precision":"zip","frequency":847},"type":"Feature","geometry":{"type":"Point","coordinates":[-157.90205,21.61095]}},{"properties":{"region":"Oahu Zone 3","geo_score":0.714,"service_zip":"96786","id":"a8lpta8yr52d","percent":1.7,"geo_precision":"zip","frequency":6460},"type":"Feature","geometry":{"type":"Point","coordinates":[-158.016389,21.4675]}},{"properties":{"region":"Oahu Zone 3","geo_score":0.714,"service_zip":"96791","id":"a8lpta4ko72x","percent":0.6,"geo_precision":"zip","frequency":2417},"type":"Feature","geometry":{"type":"Point","coordinates":[-158.151944,21.584167]}},{"properties":{"region":"Oahu Zone 3","geo_score":0.714,"service_zip":"96709","id":"a8lpta8mdojt","percent":0.0,"geo_precision":"zip","frequency":56},"type":"Feature","geometry":{"type":"Point","coordinates":[-164.701172,23.573339]}},{"properties":{"region":"Big Island Zone 5","geo_score":0.714,"service_zip":"96721","id":"a8lpta4lvheo","percent":0.0,"geo_precision":"zip","frequency":1},"type":"Feature","geometry":{"type":"Point","coordinates":[-155.438015,19.593456]}},{"properties":{"region":"Unknown","geo_score":0.0,"service_zip":"96723","id":"a8lpta7okg48","percent":0.0,"geo_precision":"unmatched","frequency":2},"type":"Feature","geometry":null},{"properties":{"region":"Big Island Zone 4","geo_score":0.714,"service_zip":"96726","id":"a8lpta9wpsq3","percent":0.1,"geo_precision":"zip","frequency":398},"type":"Feature","geometry":{"type":"Point","coordinates":[-155.927222,19.464444]}},{"properties":{"region":"Big Island Zone 6","geo_score":0.714,"service_zip":"96737","id":"a8lptacl4ue4","percent":0.3,"geo_precision":"zip","frequency":1069},"type":"Feature","geometry":{"type":"Point","coordinates":[-155.725803,19.100167]}},{"properties":{"region":"Big Island Zone 4","geo_score":0.714,"service_zip":"96739","id":"a8lpta0f8547","percent":0.0,"geo_precision":"zip","frequency":7},"type":"Feature","geometry":{"type":"Point","coordinates":[-155.438015,19.593456]}},{"properties":{"region":"Big Island Zone 4","geo_score":0.714,"service_zip":"96745","id":"a8lpta2tstpe","percent":0.0,"geo_precision":"zip","frequency":6},"type":"Feature","geometry":{"type":"Point","coordinates":[-155.438015,19.593456]}},{"properties":{"region":"Molokai","geo_score":0.714,"service_zip":"96757","id":"a8lpta2rvdd0","percent":0.1,"geo_precision":"zip","frequency":266},"type":"Feature","geometry":{"type":"Point","coordinates":[-157.022778,21.165833]}},{"properties":{"region":"Big Island Zone 7","geo_score":0.714,"service_zip":"96775","id":"a8lpta91eurt","percent":0.0,"geo_precision":"zip","frequency":122},"type":"Feature","geometry":{"type":"Point","coordinates":[-155.438015,19.593456]}},{"properties":{"region":"Unknown","geo_score":0.714,"service_zip":"96787","id":"a8lptaaknr2f","percent":0.0,"geo_precision":"zip","frequency":5},"type":"Feature","geometry":{"type":"Point","coordinates":[-156.343889,20.871111]}},{"properties":{"region":"Kauai","geo_score":0.714,"service_zip":"96796","id":"a8lpta145ow5","percent":0.0,"geo_precision":"zip","frequency":1},"type":"Feature","geometry":{"type":"Point","coordinates":[-159.686193,21.966709]}},{"properties":{"region":"Oahu Zone 1","geo_score":0.714,"service_zip":"96803","id":"a8lpt9zjry04","percent":0.0,"geo_precision":"zip","frequency":1},"type":"Feature","geometry":{"type":"Point","coordinates":[-168.021815,24.859832]}},{"properties":{"region":"Oahu Zone 1","geo_score":0.714,"service_zip":"96812","id":"a8lpta4dv4iu","percent":0.0,"geo_precision":"zip","frequency":1},"type":"Feature","geometry":{"type":"Point","coordinates":[-168.021815,24.859832]}},{"properties":{"region":"Unknown","geo_score":0.0,"service_zip":"96875","id":"a8lptadbzh8p","percent":0.0,"geo_precision":"unmatched","frequency":1},"type":"Feature","geometry":null},{"properties":{"region":"Big Island Zone 6","geo_score":0.714,"service_zip":"96737","id":"a8lptabaxqsy","percent":0.0,"geo_precision":"zip","frequency":1},"type":"Feature","geometry":{"type":"Point","coordinates":[-155.725803,19.100167]}}],"is_temporal":false,"author":{"url":"","metadata":"","contact_name":"","contact_address":"","source":"","contact_phone":""},"source":"","pagination":{"sort":null,"start":0,"total":97,"limit":1000000},"state":"complete","tags":"","published":"2014-08-14T21:08:33-04:00","id":274629}