{"type":"FeatureCollection","data_type":"Dataset","url_type":null,"permissions":[{"permissions":{"download":true,"view":true},"group_id":"everyone"}],"classification":null,"title":"Mail-In Ballots : Cameron County 2012 Primary Runoff (Dem)","count":534,"stream_id":274801,"contributor":{"url":"http://geocommons.com/users/51793","name":"BegumMiniel"},"data_attributes":null,"calculation_params":null,"icon_link":null,"link":"http://geocommons.com/overlays/274801.json","extent":[-99.5101,25.8787,-85.6402,38.2758],"geometry_types":["point"],"unique_name":null,"name":"Mail-In Ballots : Cameron County 2012 Primary Runoff (Dem)","feature_count":534,"description":"Voter fraud study in south Texas. Disproportionate number of the entire county's 2012 Democrat Primary Runoff mail-ballots concentrated in one Justice of the Peace district in Brownsville, Texas.","next_feature":null,"is_raster":false,"short_classification":"Y","stats":{"date voted":{"max":20120731,"variance":43.1893564095534,"mean":20120720.2078652,"stdev":6.571860954825,"min":20120710,"median":20120718}},"features":[{"properties":{"city":"BROWNSVILLE","zip":"78520","geo_score":1.0,"date voted":20120716,"id":"a8n7r83g4bxt","address":"1655 E HARRISON ST","geo_precision":"range","state":"TX"},"type":"Feature","geometry":{"type":"Point","coordinates":[-97.489133,25.902912]}},{"properties":{"city":"BROWNSVILLE","zip":"78520","geo_score":1.0,"date voted":20120717,"id":"a8n7r82rvyx1","address":"2134 E HARRISON ST","geo_precision":"range","state":"TX"},"type":"Feature","geometry":{"type":"Point","coordinates":[-97.485253,25.899569]}},{"properties":{"city":"BROWNSVILLE","zip":"78520","geo_score":1.0,"date voted":20120710,"id":"a8n7r8eeqvaf","address":"2165 E HARRISON ST","geo_precision":"range","state":"TX"},"type":"Feature","geometry":{"type":"Point","coordinates":[-97.485761,25.899957]}},{"properties":{"city":"BROWNSVILLE","zip":"78520","geo_score":1.0,"date voted":20120710,"id":"a8n7r889gc5d","address":"2165 E HARRISON ST","geo_precision":"range","state":"TX"},"type":"Feature","geometry":{"type":"Point","coordinates":[-97.485761,25.899957]}},{"properties":{"city":"BROWNSVILLE","zip":"78520","geo_score":1.0,"date voted":20120713,"id":"a8n7r825hew2","address":"2165 E HARRISON ST","geo_precision":"range","state":"TX"},"type":"Feature","geometry":{"type":"Point","coordinates":[-97.485761,25.899957]}},{"properties":{"city":"BROWNSVILLE","zip":"78520","geo_score":1.0,"date voted":20120717,"id":"a8n7r8507qpy","address":"2165 E HARRISON ST","geo_precision":"range","state":"TX"},"type":"Feature","geometry":{"type":"Point","coordinates":[-97.485761,25.899957]}},{"properties":{"city":"BROWNSVILLE","zip":"78520","geo_score":1.0,"date voted":20120718,"id":"a8n7r8gl4z6q","address":"2404 E HARRISON ST","geo_precision":"range","state":"TX"},"type":"Feature","geometry":{"type":"Point","coordinates":[-97.481932,25.89722]}},{"properties":{"city":"BROWNSVILLE","zip":"78520","geo_score":1.0,"date voted":20120720,"id":"a8n7r8bdybgl","address":"2517 E HARRISON ST","geo_precision":"range","state":"TX"},"type":"Feature","geometry":{"type":"Point","coordinates":[-97.482496,25.8979]}},{"properties":{"city":"BROWNSVILLE","zip":"78520","geo_score":1.0,"date voted":20120731,"id":"a8n7r8buyr4f","address":"2538 E HARRISON ST","geo_precision":"range","state":"TX"},"type":"Feature","geometry":{"type":"Point","coordinates":[-97.482724,25.897898]}},{"properties":{"city":"BROWNSVILLE","zip":"78520","geo_score":0.585,"date voted":20120716,"id":"a8n7r80suc6l","address":"1736 E JACKSON ST","geo_precision":"zip","state":"TX"},"type":"Feature","geometry":{"type":"Point","coordinates":[-97.556098,25.950913]}},{"properties":{"city":"BROWNSVILLE","zip":"78520","geo_score":0.585,"date voted":20120724,"id":"a8n7r8ayse6h","address":"1833 E JACKSON ST","geo_precision":"zip","state":"TX"},"type":"Feature","geometry":{"type":"Point","coordinates":[-97.556098,25.950913]}},{"properties":{"city":"BROWNSVILLE","zip":"78520","geo_score":0.585,"date voted":20120720,"id":"a8n7r82d57jf","address":"2438 E JACKSON ST","geo_precision":"zip","state":"TX"},"type":"Feature","geometry":{"type":"Point","coordinates":[-97.556098,25.950913]}},{"properties":{"city":"BROWNSVILLE","zip":"78520","geo_score":1.0,"date voted":20120724,"id":"a8n7r87amed2","address":"110 MIRAFLORES ST","geo_precision":"range","state":"TX"},"type":"Feature","geometry":{"type":"Point","coordinates":[-97.488892,25.90538]}},{"properties":{"city":"BROWNSVILLE","zip":"78520","geo_score":1.0,"date voted":20120712,"id":"a8n7r851md53","address":"208 MIRAFLORES ST","geo_precision":"range","state":"TX"},"type":"Feature","geometry":{"type":"Point","coordinates":[-97.488861,25.905458]}},{"properties":{"city":"BROWNSVILLE","zip":"78520","geo_score":1.0,"date voted":20120731,"id":"a8n7r87n8plf","address":"221 MIRAFLORES ST","geo_precision":"range","state":"TX"},"type":"Feature","geometry":{"type":"Point","coordinates":[-97.488361,25.904958]}},{"properties":{"city":"BROWNSVILLE","zip":"78520","geo_score":1.0,"date voted":20120713,"id":"a8n7r8bw9z8n","address":"1344 E POLK ST","geo_precision":"range","state":"TX"},"type":"Feature","geometry":{"type":"Point","coordinates":[-97.490025,25.905911]}},{"properties":{"city":"BROWNSVILLE","zip":"78520","geo_score":1.0,"date voted":20120713,"id":"a8n7r8btlfq6","address":"1344 E POLK ST","geo_precision":"range","state":"TX"},"type":"Feature","geometry":{"type":"Point","coordinates":[-97.490025,25.905911]}},{"properties":{"city":"BROWNSVILLE","zip":"78520","geo_score":1.0,"date voted":20120713,"id":"a8n7r84mfrnf","address":"1344 E POLK ST","geo_precision":"range","state":"TX"},"type":"Feature","geometry":{"type":"Point","coordinates":[-97.490025,25.905911]}},{"properties":{"city":"BROWNSVILLE","zip":"78520","geo_score":1.0,"date voted":20120717,"id":"a8n7r8bdb8qo","address":"1910 E POLK ST","geo_precision":"range","state":"TX"},"type":"Feature","geometry":{"type":"Point","coordinates":[-97.485442,25.901722]}},{"properties":{"city":"BROWNSVILLE","zip":"78520","geo_score":1.0,"date voted":20120717,"id":"a8n7r8f1y0ca","address":"2155 E POLK ST","geo_precision":"range","state":"TX"},"type":"Feature","geometry":{"type":"Point","coordinates":[-97.484223,25.90082]}},{"properties":{"city":"BROWNSVILLE","zip":"78520","geo_score":1.0,"date voted":20120717,"id":"a8n7r84a48hl","address":"2155 E POLK ST","geo_precision":"range","state":"TX"},"type":"Feature","geometry":{"type":"Point","coordinates":[-97.484223,25.90082]}},{"properties":{"city":"BROWNSVILLE","zip":"78520","geo_score":1.0,"date voted":20120717,"id":"a8n7r84zofxk","address":"2214 E POLK ST","geo_precision":"range","state":"TX"},"type":"Feature","geometry":{"type":"Point","coordinates":[-97.483303,25.899721]}},{"properties":{"city":"BROWNSVILLE","zip":"78520","geo_score":1.0,"date voted":20120724,"id":"a8n7r872s8nm","address":"2214 E POLK ST","geo_precision":"range","state":"TX"},"type":"Feature","geometry":{"type":"Point","coordinates":[-97.483303,25.899721]}},{"properties":{"city":"BROWNSVILLE","zip":"78520","geo_score":1.0,"date voted":20120717,"id":"a8n7r89c2gwq","address":"2252 E POLK ST","geo_precision":"range","state":"TX"},"type":"Feature","geometry":{"type":"Point","coordinates":[-97.483568,25.900004]}},{"properties":{"city":"BROWNSVILLE","zip":"78520","geo_score":0.955,"date voted":20120712,"id":"a8n7r88qv2c6","address":"1510 RINGGOLD ST","geo_precision":"range","state":"TX"},"type":"Feature","geometry":{"type":"Point","coordinates":[-97.48698,25.905672]}},{"properties":{"city":"BROWNSVILLE","zip":"78520","geo_score":0.955,"date voted":20120712,"id":"a8n7r879lpr9","address":"1529 RINGGOLD ST","geo_precision":"range","state":"TX"},"type":"Feature","geometry":{"type":"Point","coordinates":[-97.486994,25.905898]}},{"properties":{"city":"BROWNSVILLE","zip":"78520","geo_score":0.955,"date voted":20120712,"id":"a8n7r82ehl2q","address":"1529 RINGGOLD ST","geo_precision":"range","state":"TX"},"type":"Feature","geometry":{"type":"Point","coordinates":[-97.486994,25.905898]}},{"properties":{"city":"BROWNSVILLE","zip":"78520","geo_score":0.955,"date voted":20120731,"id":"a8n7r86kfth8","address":"1905 RINGGOLD ST","geo_precision":"range","state":"TX"},"type":"Feature","geometry":{"type":"Point","coordinates":[-97.483938,25.903039]}},{"properties":{"city":"BROWNSVILLE","zip":"78520","geo_score":0.805,"date voted":20120716,"id":"a8n7r846l3ak","address":"1940 TAYLOR ST","geo_precision":"street","state":"TX"},"type":"Feature","geometry":{"type":"Point","coordinates":[-97.494048,25.911136]}},{"properties":{"city":"BROWNSVILLE","zip":"78520","geo_score":0.805,"date voted":20120712,"id":"a8n7r884b2s5","address":"2214 TAYLOR ST","geo_precision":"street","state":"TX"},"type":"Feature","geometry":{"type":"Point","coordinates":[-97.494048,25.911136]}},{"properties":{"city":"BROWNSVILLE","zip":"78520","geo_score":0.805,"date voted":20120719,"id":"a8n7r888g3l4","address":"2434 TAYLOR ST","geo_precision":"street","state":"TX"},"type":"Feature","geometry":{"type":"Point","coordinates":[-97.494048,25.911136]}},{"properties":{"city":"BROWNSVILLE","zip":"78520","geo_score":1.0,"date voted":20120730,"id":"a8n7r8e7n9ii","address":"2014 E TYLER ST","geo_precision":"range","state":"TX"},"type":"Feature","geometry":{"type":"Point","coordinates":[-97.485407,25.900508]}},{"properties":{"city":"BROWNSVILLE","zip":"78520","geo_score":1.0,"date voted":20120717,"id":"a8n7r8ep4znd","address":"2118 E TYLER ST","geo_precision":"range","state":"TX"},"type":"Feature","geometry":{"type":"Point","coordinates":[-97.484732,25.899836]}},{"properties":{"city":"BROWNSVILLE","zip":"78520","geo_score":1.0,"date voted":20120730,"id":"a8n7r82qdtj7","address":"2154 E TYLER ST","geo_precision":"range","state":"TX"},"type":"Feature","geometry":{"type":"Point","coordinates":[-97.484963,25.900094]}},{"properties":{"city":"BROWNSVILLE","zip":"78520","geo_score":1.0,"date voted":20120730,"id":"a8n7r8cm9bue","address":"2154 E TYLER ST","geo_precision":"range","state":"TX"},"type":"Feature","geometry":{"type":"Point","coordinates":[-97.484963,25.900094]}},{"properties":{"city":"BROWNSVILLE","zip":"78520","geo_score":1.0,"date voted":20120719,"id":"a8n7r80xjhdz","address":"2424 E TYLER ST","geo_precision":"range","state":"TX"},"type":"Feature","geometry":{"type":"Point","coordinates":[-97.482297,25.898016]}},{"properties":{"city":"BROWNSVILLE","zip":"78520","geo_score":1.0,"date voted":20120724,"id":"a8n7r8a2jtyy","address":"1844 E VAN BUREN ST","geo_precision":"range","state":"TX"},"type":"Feature","geometry":{"type":"Point","coordinates":[-97.488542,25.900859]}},{"properties":{"city":"BROWNSVILLE","zip":"78520","geo_score":1.0,"date voted":20120718,"id":"a8n7r8ewuy41","address":"2029 E VAN BUREN ST","geo_precision":"range","state":"TX"},"type":"Feature","geometry":{"type":"Point","coordinates":[-97.487441,25.900154]}},{"properties":{"city":"BROWNSVILLE","zip":"78520","geo_score":1.0,"date voted":20120717,"id":"a8n7r83aj5vt","address":"2034 E VAN BUREN ST","geo_precision":"range","state":"TX"},"type":"Feature","geometry":{"type":"Point","coordinates":[-97.486561,25.899258]}},{"properties":{"city":"BROWNSVILLE","zip":"78520","geo_score":1.0,"date voted":20120711,"id":"a8n7r83bp2rg","address":"2038 E VAN BUREN ST","geo_precision":"range","state":"TX"},"type":"Feature","geometry":{"type":"Point","coordinates":[-97.486561,25.899258]}},{"properties":{"city":"BROWNSVILLE","zip":"78520","geo_score":1.0,"date voted":20120711,"id":"a8n7r86rnue2","address":"2038 E VAN BUREN ST","geo_precision":"range","state":"TX"},"type":"Feature","geometry":{"type":"Point","coordinates":[-97.486561,25.899258]}},{"properties":{"city":"BROWNSVILLE","zip":"78520","geo_score":1.0,"date voted":20120713,"id":"a8n7r8g8y0f5","address":"2038 E VAN BUREN ST","geo_precision":"range","state":"TX"},"type":"Feature","geometry":{"type":"Point","coordinates":[-97.486561,25.899258]}},{"properties":{"city":"BROWNSVILLE","zip":"78520","geo_score":1.0,"date voted":20120717,"id":"a8n7r8gkhe9i","address":"2127 E VAN BUREN ST","geo_precision":"range","state":"TX"},"type":"Feature","geometry":{"type":"Point","coordinates":[-97.485836,25.898954]}},{"properties":{"city":"BROWNSVILLE","zip":"78520","geo_score":0.958,"date voted":20120718,"id":"a8n7r8ffdyq6","address":"2133 VAN BUREN ST","geo_precision":"range","state":"TX"},"type":"Feature","geometry":{"type":"Point","coordinates":[-97.485886,25.898984]}},{"properties":{"city":"BROWNSVILLE","zip":"78520","geo_score":1.0,"date voted":20120718,"id":"a8n7r8csdpv0","address":"2133 E VAN BUREN ST","geo_precision":"range","state":"TX"},"type":"Feature","geometry":{"type":"Point","coordinates":[-97.485886,25.898984]}},{"properties":{"city":"BROWNSVILLE","zip":"78520","geo_score":1.0,"date voted":20120718,"id":"a8n7r852jrrp","address":"2133 E VAN BUREN ST","geo_precision":"range","state":"TX"},"type":"Feature","geometry":{"type":"Point","coordinates":[-97.485886,25.898984]}},{"properties":{"city":"BROWNSVILLE","zip":"78520","geo_score":1.0,"date voted":20120718,"id":"a8n7r8bc4ae3","address":"2145 E VAN BUREN ST","geo_precision":"range","state":"TX"},"type":"Feature","geometry":{"type":"Point","coordinates":[-97.485985,25.899046]}},{"properties":{"city":"BROWNSVILLE","zip":"78520","geo_score":1.0,"date voted":20120717,"id":"a8n7r80vv82s","address":"2148 E VAN BUREN ST","geo_precision":"range","state":"TX"},"type":"Feature","geometry":{"type":"Point","coordinates":[-97.48386,25.897458]}},{"properties":{"city":"BROWNSVILLE","zip":"78520","geo_score":1.0,"date voted":20120720,"id":"a8n7r8fxz77z","address":"2564 E VAN BUREN ST","geo_precision":"range","state":"TX"},"type":"Feature","geometry":{"type":"Point","coordinates":[-97.483546,25.897242]}},{"properties":{"city":"BROWNSVILLE","zip":"78520","geo_score":1.0,"date voted":20120720,"id":"a8n7r831cc9k","address":"2564 E VAN BUREN ST","geo_precision":"range","state":"TX"},"type":"Feature","geometry":{"type":"Point","coordinates":[-97.483546,25.897242]}},{"properties":{"city":"BROWNSVILLE","zip":"78520","geo_score":0.935,"date voted":20120716,"id":"a8n7r89l76zy","address":"1230 E 16TH ST","geo_precision":"range","state":"TX"},"type":"Feature","geometry":{"type":"Point","coordinates":[-97.489691,25.902899]}},{"properties":{"city":"BROWNSVILLE","zip":"78520","geo_score":0.935,"date voted":20120724,"id":"a8n7r87z07lv","address":"1425 E 17TH ST","geo_precision":"range","state":"TX"},"type":"Feature","geometry":{"type":"Point","coordinates":[-97.48768,25.90362]}},{"properties":{"city":"BROWNSVILLE","zip":"78520","geo_score":1.0,"date voted":20120719,"id":"a8n7r8476hm6","address":"1427 E HARRISON ST","geo_precision":"range","state":"TX"},"type":"Feature","geometry":{"type":"Point","coordinates":[-97.490427,25.90411]}},{"properties":{"city":"BROWNSVILLE","zip":"78520","geo_score":0.919,"date voted":20120727,"id":"a8n7r86cf1lv","address":"1427 E HARRISON ST REAR","geo_precision":"range","state":"TX"},"type":"Feature","geometry":{"type":"Point","coordinates":[-97.490427,25.90411]}},{"properties":{"city":"BROWNSVILLE","zip":"78520","geo_score":1.0,"date voted":20120724,"id":"a8n7r88ta9kh","address":"1500 E TYLER ST","geo_precision":"range","state":"TX"},"type":"Feature","geometry":{"type":"Point","coordinates":[-97.490285,25.905134]}},{"properties":{"city":"BROWNSVILLE","zip":"78520","geo_score":0.464,"date voted":20120724,"id":"a8n7r84fwvl0","address":"P O BOX 1925","geo_precision":"street","state":"TX"},"type":"Feature","geometry":{"type":"Point","coordinates":[-98.166298,26.338597]}},{"properties":{"city":"BROWNSVILLE","zip":"78520","geo_score":1.0,"date voted":20120731,"id":"a8n7r846x9t6","address":"924 E FILMORE ST","geo_precision":"range","state":"TX"},"type":"Feature","geometry":{"type":"Point","coordinates":[-97.490775,25.91037]}},{"properties":{"city":"BROWNSVILLE","zip":"78520","geo_score":1.0,"date voted":20120730,"id":"a8n7r8dzix5l","address":"944 E POLK ST","geo_precision":"range","state":"TX"},"type":"Feature","geometry":{"type":"Point","coordinates":[-97.492922,25.908696]}},{"properties":{"city":"BROWNSVILLE","zip":"78520","geo_score":1.0,"date voted":20120730,"id":"a8n7r8ca1tcx","address":"1054 E POLK ST","geo_precision":"range","state":"TX"},"type":"Feature","geometry":{"type":"Point","coordinates":[-97.492306,25.908169]}},{"properties":{"city":"BROWNSVILLE","zip":"78520","geo_score":0.955,"date voted":20120730,"id":"a8n7r86ou1wn","address":"1144 RINGGOLD ST","geo_precision":"range","state":"TX"},"type":"Feature","geometry":{"type":"Point","coordinates":[-97.490198,25.908584]}},{"properties":{"city":"BROWNSVILLE","zip":"78520","geo_score":0.806,"date voted":20120718,"id":"a8n7r82xzlyk","address":"938 TAYLOR ST","geo_precision":"street","state":"TX"},"type":"Feature","geometry":{"type":"Point","coordinates":[-97.494048,25.911136]}},{"properties":{"city":"BROWNSVILLE","zip":"78520","geo_score":0.558,"date voted":20120718,"id":"a8n7r853betv","address":"PO BOX 1018","geo_precision":"street","state":"TX"},"type":"Feature","geometry":{"type":"Point","coordinates":[-97.522458,26.13325]}},{"properties":{"city":"BROWNSVILLE","zip":"78520","geo_score":1.0,"date voted":20120723,"id":"a8n7r82qienh","address":"1025 E TYLER ST","geo_precision":"range","state":"TX"},"type":"Feature","geometry":{"type":"Point","coordinates":[-97.492348,25.907069]}},{"properties":{"city":"BROWNSVILLE","zip":"78520","geo_score":0.927,"date voted":20120713,"id":"a8n7r84zurfh","address":"209 E 9TH ST","geo_precision":"range","state":"TX"},"type":"Feature","geometry":{"type":"Point","coordinates":[-97.501759,25.901875]}},{"properties":{"city":"BROWNSVILLE","zip":"78520","geo_score":0.91,"date voted":20120711,"id":"a8n7r8d08zwo","address":"700 E SAINT CHARLES ST APT 102","geo_precision":"range","state":"TX"},"type":"Feature","geometry":{"type":"Point","coordinates":[-97.502361,25.902558]}},{"properties":{"city":"BROWNSVILLE","zip":"78520","geo_score":0.91,"date voted":20120716,"id":"a8n7r82jxa0k","address":"700 E SAINT CHARLES ST APT 105","geo_precision":"range","state":"TX"},"type":"Feature","geometry":{"type":"Point","coordinates":[-97.502361,25.902558]}},{"properties":{"city":"BROWNSVILLE","zip":"78520","geo_score":0.91,"date voted":20120716,"id":"a8n7r8a77yp1","address":"700 E SAINT CHARLES ST APT 414","geo_precision":"range","state":"TX"},"type":"Feature","geometry":{"type":"Point","coordinates":[-97.502361,25.902558]}},{"properties":{"city":"BROWNSVILLE","zip":"78520","geo_score":0.91,"date voted":20120716,"id":"a8n7r830ftdq","address":"700 E SAINT CHARLES ST APT 215","geo_precision":"range","state":"TX"},"type":"Feature","geometry":{"type":"Point","coordinates":[-97.502361,25.902558]}},{"properties":{"city":"BROWNSVILLE","zip":"78520","geo_score":0.902,"date voted":20120716,"id":"a8n7r8f9jn0b","address":"700 E SAINT CHARLES ST APT 1103","geo_precision":"range","state":"TX"},"type":"Feature","geometry":{"type":"Point","coordinates":[-97.502361,25.902558]}},{"properties":{"city":"BROWNSVILLE","zip":"78520","geo_score":0.91,"date voted":20120716,"id":"a8n7r8dodnjy","address":"700 E SAINT CHARLES ST APT 709","geo_precision":"range","state":"TX"},"type":"Feature","geometry":{"type":"Point","coordinates":[-97.502361,25.902558]}},{"properties":{"city":"BROWNSVILLE","zip":"78520","geo_score":0.91,"date voted":20120716,"id":"a8n7r8cw9vxf","address":"700 E SAINT CHARLES ST APT 708","geo_precision":"range","state":"TX"},"type":"Feature","geometry":{"type":"Point","coordinates":[-97.502361,25.902558]}},{"properties":{"city":"BROWNSVILLE","zip":"78520","geo_score":0.902,"date voted":20120716,"id":"a8n7r83ypljv","address":"700 E SAINT CHARLES ST APT 1108","geo_precision":"range","state":"TX"},"type":"Feature","geometry":{"type":"Point","coordinates":[-97.502361,25.902558]}},{"properties":{"city":"BROWNSVILLE","zip":"78520","geo_score":0.91,"date voted":20120716,"id":"a8n7r88j1vgw","address":"700 E SAINT CHARLES ST APT 205","geo_precision":"range","state":"TX"},"type":"Feature","geometry":{"type":"Point","coordinates":[-97.502361,25.902558]}},{"properties":{"city":"BROWNSVILLE","zip":"78520","geo_score":0.902,"date voted":20120716,"id":"a8n7r82qpnmm","address":"700 E SAINT CHARLES ST APT 1313","geo_precision":"range","state":"TX"},"type":"Feature","geometry":{"type":"Point","coordinates":[-97.502361,25.902558]}},{"properties":{"city":"BROWNSVILLE","zip":"78520","geo_score":0.91,"date voted":20120716,"id":"a8n7r8fz8aqr","address":"700 E SAINT CHARLES ST APT 213","geo_precision":"range","state":"TX"},"type":"Feature","geometry":{"type":"Point","coordinates":[-97.502361,25.902558]}},{"properties":{"city":"BROWNSVILLE","zip":"78520","geo_score":0.902,"date voted":20120716,"id":"a8n7r8fiavxm","address":"700 E SAINT CHARLES ST APT 1301","geo_precision":"range","state":"TX"},"type":"Feature","geometry":{"type":"Point","coordinates":[-97.502361,25.902558]}},{"properties":{"city":"BROWNSVILLE","zip":"78520","geo_score":0.91,"date voted":20120716,"id":"a8n7r87pg5z8","address":"700 E SAINT CHARLES ST APT 802","geo_precision":"range","state":"TX"},"type":"Feature","geometry":{"type":"Point","coordinates":[-97.502361,25.902558]}},{"properties":{"city":"BROWNSVILLE","zip":"78520","geo_score":0.902,"date voted":20120716,"id":"a8n7r82yuaga","address":"700 E SAINT CHARLES ST APT 1001","geo_precision":"range","state":"TX"},"type":"Feature","geometry":{"type":"Point","coordinates":[-97.502361,25.902558]}},{"properties":{"city":"BROWNSVILLE","zip":"78520","geo_score":0.91,"date voted":20120716,"id":"a8n7r8byhk7c","address":"700 E SAINT CHARLES ST APT 709","geo_precision":"range","state":"TX"},"type":"Feature","geometry":{"type":"Point","coordinates":[-97.502361,25.902558]}},{"properties":{"city":"BROWNSVILLE","zip":"78520","geo_score":0.91,"date voted":20120716,"id":"a8n7r89z8bys","address":"700 E SAINT CHARLES ST APT 509","geo_precision":"range","state":"TX"},"type":"Feature","geometry":{"type":"Point","coordinates":[-97.502361,25.902558]}},{"properties":{"city":"BROWNSVILLE","zip":"78520","geo_score":0.91,"date voted":20120716,"id":"a8n7r8ea5t1p","address":"700 E SAINT CHARLES ST APT 909","geo_precision":"range","state":"TX"},"type":"Feature","geometry":{"type":"Point","coordinates":[-97.502361,25.902558]}},{"properties":{"city":"BROWNSVILLE","zip":"78520","geo_score":0.902,"date voted":20120716,"id":"a8n7r8dgfwo8","address":"700 E SAINT CHARLES ST APT 1310","geo_precision":"range","state":"TX"},"type":"Feature","geometry":{"type":"Point","coordinates":[-97.502361,25.902558]}},{"properties":{"city":"BROWNSVILLE","zip":"78520","geo_score":0.902,"date voted":20120716,"id":"a8n7r89ch5l7","address":"700 E SAINT CHARLES ST APT 1202","geo_precision":"range","state":"TX"},"type":"Feature","geometry":{"type":"Point","coordinates":[-97.502361,25.902558]}},{"properties":{"city":"BROWNSVILLE","zip":"78520","geo_score":0.91,"date voted":20120716,"id":"a8n7r8d2h556","address":"700 E SAINT CHARLES ST APT 911","geo_precision":"range","state":"TX"},"type":"Feature","geometry":{"type":"Point","coordinates":[-97.502361,25.902558]}},{"properties":{"city":"BROWNSVILLE","zip":"78520","geo_score":0.91,"date voted":20120716,"id":"a8n7r88upqk3","address":"700 E SAINT CHARLES ST APT 715","geo_precision":"range","state":"TX"},"type":"Feature","geometry":{"type":"Point","coordinates":[-97.502361,25.902558]}},{"properties":{"city":"BROWNSVILLE","zip":"78520","geo_score":0.91,"date voted":20120716,"id":"a8n7r8gdwzmd","address":"700 E SAINT CHARLES ST APT 408","geo_precision":"range","state":"TX"},"type":"Feature","geometry":{"type":"Point","coordinates":[-97.502361,25.902558]}},{"properties":{"city":"BROWNSVILLE","zip":"78520","geo_score":0.91,"date voted":20120717,"id":"a8n7r88oi9c6","address":"700 E SAINT CHARLES ST APT 702","geo_precision":"range","state":"TX"},"type":"Feature","geometry":{"type":"Point","coordinates":[-97.502361,25.902558]}},{"properties":{"city":"BROWNSVILLE","zip":"78520","geo_score":0.91,"date voted":20120717,"id":"a8n7r8b4g3yq","address":"700 E SAINT CHARLES ST APT 511","geo_precision":"range","state":"TX"},"type":"Feature","geometry":{"type":"Point","coordinates":[-97.502361,25.902558]}},{"properties":{"city":"BROWNSVILLE","zip":"78520","geo_score":0.91,"date voted":20120717,"id":"a8n7r8gxq6zh","address":"700 E SAINT CHARLES ST APT 514","geo_precision":"range","state":"TX"},"type":"Feature","geometry":{"type":"Point","coordinates":[-97.502361,25.902558]}},{"properties":{"city":"BROWNSVILLE","zip":"78520","geo_score":0.91,"date voted":20120724,"id":"a8n7r86agni8","address":"700 E SAINT CHARLES ST APT 810","geo_precision":"range","state":"TX"},"type":"Feature","geometry":{"type":"Point","coordinates":[-97.502361,25.902558]}},{"properties":{"city":"BROWNSVILLE","zip":"78520","geo_score":0.91,"date voted":20120724,"id":"a8n7r83tkwx0","address":"700 E SAINT CHARLES ST APT 311","geo_precision":"range","state":"TX"},"type":"Feature","geometry":{"type":"Point","coordinates":[-97.502361,25.902558]}},{"properties":{"city":"BROWNSVILLE","zip":"78520","geo_score":0.91,"date voted":20120725,"id":"a8n7r84e9ewc","address":"700 E SAINT CHARLES ST APT 407","geo_precision":"range","state":"TX"},"type":"Feature","geometry":{"type":"Point","coordinates":[-97.502361,25.902558]}},{"properties":{"city":"BROWNSVILLE","zip":"78520","geo_score":1.0,"date voted":20120717,"id":"a8n7r8ajvn1s","address":"332 E SAINT FRANCIS ST","geo_precision":"range","state":"TX"},"type":"Feature","geometry":{"type":"Point","coordinates":[-97.506222,25.904836]}},{"properties":{"city":"BROWNSVILLE","zip":"78520","geo_score":1.0,"date voted":20120710,"id":"a8n7r84qnco7","address":"1044 E SAINT FRANCIS ST","geo_precision":"range","state":"TX"},"type":"Feature","geometry":{"type":"Point","coordinates":[-97.501295,25.900273]}},{"properties":{"city":"BROWNSVILLE","zip":"78520","geo_score":0.927,"date voted":20120716,"id":"a8n7r8eecx3l","address":"732 E 5TH ST","geo_precision":"range","state":"TX"},"type":"Feature","geometry":{"type":"Point","coordinates":[-97.501215,25.907208]}},{"properties":{"city":"BROWNSVILLE","zip":"78520","geo_score":1.0,"date voted":20120716,"id":"a8n7r8d0ukid","address":"244 ALAMO ST","geo_precision":"range","state":"TX"},"type":"Feature","geometry":{"type":"Point","coordinates":[-97.514509,25.907483]}},{"properties":{"city":"BROWNSVILLE","zip":"78520","geo_score":1.0,"date voted":20120716,"id":"a8n7r8awhy45","address":"244 ALAMO ST","geo_precision":"range","state":"TX"},"type":"Feature","geometry":{"type":"Point","coordinates":[-97.514509,25.907483]}},{"properties":{"city":"BROWNSVILLE","zip":"78520","geo_score":0.912,"date voted":20120725,"id":"a8n7r87efxl5","address":"122 DAWLEY ST","geo_precision":"range","state":"TX"},"type":"Feature","geometry":{"type":"Point","coordinates":[-97.520212,25.910047]}},{"properties":{"city":"BROWNSVILLE","zip":"78520","geo_score":1.0,"date voted":20120724,"id":"a8n7r8ddbofe","address":"401 W FRONTON ST","geo_precision":"range","state":"TX"},"type":"Feature","geometry":{"type":"Point","coordinates":[-97.51199,25.908751]}},{"properties":{"city":"BROWNSVILLE","zip":"78520","geo_score":1.0,"date voted":20120724,"id":"a8n7r8foauxr","address":"401 W FRONTON ST","geo_precision":"range","state":"TX"},"type":"Feature","geometry":{"type":"Point","coordinates":[-97.51199,25.908751]}},{"properties":{"city":"BROWNSVILLE","zip":"78520","geo_score":1.0,"date voted":20120713,"id":"a8n7r86zg0dr","address":"409 W LEVEE ST","geo_precision":"range","state":"TX"},"type":"Feature","geometry":{"type":"Point","coordinates":[-97.511166,25.911851]}},{"properties":{"city":"BROWNSVILLE","zip":"78520","geo_score":1.0,"date voted":20120727,"id":"a8n7r82yps61","address":"1637 W LEVEE ST","geo_precision":"range","state":"TX"},"type":"Feature","geometry":{"type":"Point","coordinates":[-97.519825,25.920021]}},{"properties":{"city":"BROWNSVILLE","zip":"78520","geo_score":1.0,"date voted":20120727,"id":"a8n7r8e2tqqh","address":"1637 W LEVEE ST","geo_precision":"range","state":"TX"},"type":"Feature","geometry":{"type":"Point","coordinates":[-97.519825,25.920021]}},{"properties":{"city":"BROWNSVILLE","zip":"78520","geo_score":1.0,"date voted":20120717,"id":"a8n7r8fphmy5","address":"304 N PARK DR","geo_precision":"range","state":"TX"},"type":"Feature","geometry":{"type":"Point","coordinates":[-97.519576,25.911924]}},{"properties":{"city":"BROWNSVILLE","zip":"78520","geo_score":1.0,"date voted":20120717,"id":"a8n7r85y9apf","address":"304 N PARK DR","geo_precision":"range","state":"TX"},"type":"Feature","geometry":{"type":"Point","coordinates":[-97.519576,25.911924]}},{"properties":{"city":"BROWNSVILLE","zip":"78520","geo_score":1.0,"date voted":20120720,"id":"a8n7r8bggi73","address":"304 N PARK DR","geo_precision":"range","state":"TX"},"type":"Feature","geometry":{"type":"Point","coordinates":[-97.519576,25.911924]}},{"properties":{"city":"BROWNSVILLE","zip":"78520","geo_score":1.0,"date voted":20120723,"id":"a8n7r83g95nf","address":"1024 W SAINT FRANCIS ST","geo_precision":"range","state":"TX"},"type":"Feature","geometry":{"type":"Point","coordinates":[-97.516632,25.91464]}},{"properties":{"city":"BROWNSVILLE","zip":"78520","geo_score":1.0,"date voted":20120716,"id":"a8n7r8eykkpl","address":"1435 BROWNFIELD RD","geo_precision":"range","state":"TX"},"type":"Feature","geometry":{"type":"Point","coordinates":[-97.512236,25.929098]}},{"properties":{"city":"BROWNSVILLE","zip":"78520","geo_score":1.0,"date voted":20120713,"id":"a8n7r8fcy3u6","address":"1547 W WASHINGTON ST","geo_precision":"range","state":"TX"},"type":"Feature","geometry":{"type":"Point","coordinates":[-97.517622,25.920478]}},{"properties":{"city":"BROWNSVILLE","zip":"78520","geo_score":0.902,"date voted":20120713,"id":"a8n7r83od8p7","address":"220 W JEFFERSON ST APT 71","geo_precision":"range","state":"TX"},"type":"Feature","geometry":{"type":"Point","coordinates":[-97.506809,25.912995]}},{"properties":{"city":"BROWNSVILLE","zip":"78520","geo_score":0.902,"date voted":20120716,"id":"a8n7r86bjdaa","address":"205 W MADISON ST APT 2","geo_precision":"range","state":"TX"},"type":"Feature","geometry":{"type":"Point","coordinates":[-97.506324,25.913642]}},{"properties":{"city":"BROWNSVILLE","zip":"78520","geo_score":0.902,"date voted":20120716,"id":"a8n7r89p514d","address":"205 W MADISON ST APT 2","geo_precision":"range","state":"TX"},"type":"Feature","geometry":{"type":"Point","coordinates":[-97.506324,25.913642]}},{"properties":{"city":"BROWNSVILLE","zip":"78520","geo_score":1.0,"date voted":20120712,"id":"a8n7r8fli1s6","address":"44 ALICE CIR","geo_precision":"range","state":"TX"},"type":"Feature","geometry":{"type":"Point","coordinates":[-97.497866,25.926233]}},{"properties":{"city":"BROWNSVILLE","zip":"78520","geo_score":0.585,"date voted":20120724,"id":"a8n7r8cghqir","address":"425 N EXPRESSWAY APT 155","geo_precision":"zip","state":"TX"},"type":"Feature","geometry":{"type":"Point","coordinates":[-97.556098,25.950913]}},{"properties":{"city":"BROWNSVILLE","zip":"78520","geo_score":1.0,"date voted":20120710,"id":"a8n7r8d6d9op","address":"1711 MARQUETTE AVE","geo_precision":"range","state":"TX"},"type":"Feature","geometry":{"type":"Point","coordinates":[-97.492287,25.925193]}},{"properties":{"city":"BROWNSVILLE","zip":"78520","geo_score":1.0,"date voted":20120731,"id":"a8n7r89zpmpx","address":"1661 TULANE AVE","geo_precision":"range","state":"TX"},"type":"Feature","geometry":{"type":"Point","coordinates":[-97.496974,25.928854]}},{"properties":{"city":"BROWNSVILLE","zip":"78520","geo_score":0.937,"date voted":20120730,"id":"a8n7r86ttezt","address":"9876 LAGUNA SECA","geo_precision":"range","state":"TX"},"type":"Feature","geometry":{"type":"Point","coordinates":[-97.582786,26.014683]}},{"properties":{"city":"BROWNSVILLE","zip":"78520","geo_score":0.751,"date voted":20120724,"id":"a8n7r8gmrbfw","address":"9876 LUZ AVE","geo_precision":"street","state":"TX"},"type":"Feature","geometry":{"type":"Point","coordinates":[-97.607092,26.010825]}},{"properties":{"city":"BROWNSVILLE","zip":"78520","geo_score":0.741,"date voted":20120717,"id":"a8n7r8eededs","address":"2075 E 15TH ST","geo_precision":"street","state":"TX"},"type":"Feature","geometry":{"type":"Point","coordinates":[-97.487586,25.906311]}},{"properties":{"city":"BROWNSVILLE","zip":"78520","geo_score":0.74,"date voted":20120718,"id":"a8n7r891iyrf","address":"2134 E 19TH ST","geo_precision":"street","state":"TX"},"type":"Feature","geometry":{"type":"Point","coordinates":[-97.485361,25.903057]}},{"properties":{"city":"BROWNSVILLE","zip":"78520","geo_score":0.74,"date voted":20120723,"id":"a8n7r8ftvus6","address":"3034 E 19TH ST","geo_precision":"street","state":"TX"},"type":"Feature","geometry":{"type":"Point","coordinates":[-97.485361,25.903057]}},{"properties":{"city":"BROWNSVILLE","zip":"78520","geo_score":1.0,"date voted":20120727,"id":"a8n7r8eehbbi","address":"285 CALLE JACARANDA","geo_precision":"range","state":"TX"},"type":"Feature","geometry":{"type":"Point","coordinates":[-97.505467,25.916943]}},{"properties":{"city":"BROWNSVILLE","zip":"78520","geo_score":1.0,"date voted":20120710,"id":"a8n7r8bqqj38","address":"1180 TOYA LN","geo_precision":"range","state":"TX"},"type":"Feature","geometry":{"type":"Point","coordinates":[-97.505849,25.922681]}},{"properties":{"city":"BROWNSVILLE","zip":"78520","geo_score":0.74,"date voted":20120712,"id":"a8n7r8ahmvdk","address":"3024 E 28TH ST","geo_precision":"range","state":"TX"},"type":"Feature","geometry":{"type":"Point","coordinates":[-97.466216,25.905414]}},{"properties":{"city":"BROWNSVILLE","zip":"78520","geo_score":0.393,"date voted":20120716,"id":"a8n7r8bgm3t8","address":"P O BOX 4945","geo_precision":"street","state":"TX"},"type":"Feature","geometry":{"type":"Point","coordinates":[-98.971847,26.405002]}},{"properties":{"city":"BROWNSVILLE","zip":"78520","geo_score":0.393,"date voted":20120718,"id":"a8n7r8h0i44h","address":"P O BOX 4945","geo_precision":"street","state":"TX"},"type":"Feature","geometry":{"type":"Point","coordinates":[-98.971847,26.405002]}},{"properties":{"city":"BROWNSVILLE","zip":"78520","geo_score":0.861,"date voted":20120723,"id":"a8n7r8b61hg2","address":"301 HORIZON LN APT 1119","geo_precision":"range","state":"TX"},"type":"Feature","geometry":{"type":"Point","coordinates":[-97.513925,25.935938]}},{"properties":{"city":"BROWNSVILLE","zip":"78520","geo_score":1.0,"date voted":20120731,"id":"a8n7r82bpsjr","address":"301 HORIZON LN","geo_precision":"range","state":"TX"},"type":"Feature","geometry":{"type":"Point","coordinates":[-97.513925,25.935938]}},{"properties":{"city":"BROWNSVILLE","zip":"78520","geo_score":1.0,"date voted":20120711,"id":"a8n7r8aio92j","address":"1264 LANTANA LANE","geo_precision":"range","state":"TX"},"type":"Feature","geometry":{"type":"Point","coordinates":[-97.502626,25.934541]}},{"properties":{"city":"BROWNSVILLE","zip":"78520","geo_score":0.854,"date voted":20120712,"id":"a8n7r8azg5gs","address":"1025 WILDROSE LN LOT 804A","geo_precision":"range","state":"TX"},"type":"Feature","geometry":{"type":"Point","coordinates":[-97.502919,25.938653]}},{"properties":{"city":"BROWNSVILLE","zip":"78520","geo_score":0.847,"date voted":20120717,"id":"a8n7r83t136r","address":"1025 WILDROSE LN APT 701-C","geo_precision":"range","state":"TX"},"type":"Feature","geometry":{"type":"Point","coordinates":[-97.502919,25.938653]}},{"properties":{"city":"BROWNSVILLE","zip":"78520","geo_score":0.764,"date voted":20120716,"id":"a8n7r831imsj","address":"1165 WILDROSE LN APT 126","geo_precision":"street","state":"TX"},"type":"Feature","geometry":{"type":"Point","coordinates":[-97.502919,25.938653]}},{"properties":{"city":"BROWNSVILLE","zip":"78520","geo_score":1.0,"date voted":20120725,"id":"a8n7r8ccfaw2","address":"256 W TANDY RD","geo_precision":"range","state":"TX"},"type":"Feature","geometry":{"type":"Point","coordinates":[-97.529864,25.976907]}},{"properties":{"city":"BROWNSVILLE","zip":"78520","geo_score":1.0,"date voted":20120730,"id":"a8n7r85ku7ys","address":"256 W TANDY RD","geo_precision":"range","state":"TX"},"type":"Feature","geometry":{"type":"Point","coordinates":[-97.529864,25.976907]}},{"properties":{"city":"BROWNSVILLE","zip":"78520","geo_score":0.79,"date voted":20120725,"id":"a8n7r80yp5ch","address":"601 CONTINENTAL DR APT 2","geo_precision":"range","state":"TX"},"type":"Feature","geometry":{"type":"Point","coordinates":[-97.513116,25.951023]}},{"properties":{"city":"BROWNSVILLE","zip":"78520","geo_score":1.0,"date voted":20120716,"id":"a8n7r80ma3js","address":"4 CALLE CONDESA","geo_precision":"range","state":"TX"},"type":"Feature","geometry":{"type":"Point","coordinates":[-97.523508,25.934633]}},{"properties":{"city":"BROWNSVILLE","zip":"78520","geo_score":1.0,"date voted":20120716,"id":"a8n7r8ccg465","address":"4 CALLE CONDESA","geo_precision":"range","state":"TX"},"type":"Feature","geometry":{"type":"Point","coordinates":[-97.523508,25.934633]}},{"properties":{"city":"BROWNSVILLE","zip":"78520","geo_score":1.0,"date voted":20120730,"id":"a8n7r8guem5b","address":"84 CALLE REAL","geo_precision":"range","state":"TX"},"type":"Feature","geometry":{"type":"Point","coordinates":[-97.521942,25.928778]}},{"properties":{"city":"BROWNSVILLE","zip":"78520","geo_score":1.0,"date voted":20120712,"id":"a8n7r80y87wk","address":"304 N CAMINO DEL REY","geo_precision":"range","state":"TX"},"type":"Feature","geometry":{"type":"Point","coordinates":[-97.522467,25.935223]}},{"properties":{"city":"BROWNSVILLE","zip":"78520","geo_score":1.0,"date voted":20120730,"id":"a8n7r8gjillm","address":"185 CENTER DR","geo_precision":"range","state":"TX"},"type":"Feature","geometry":{"type":"Point","coordinates":[-97.532378,25.935677]}},{"properties":{"city":"BROWNSVILLE","zip":"78520","geo_score":1.0,"date voted":20120720,"id":"a8n7r81aqdjs","address":"227 CENTER DR","geo_precision":"range","state":"TX"},"type":"Feature","geometry":{"type":"Point","coordinates":[-97.528457,25.937765]}},{"properties":{"city":"BROWNSVILLE","zip":"78520","geo_score":1.0,"date voted":20120720,"id":"a8n7r89nf0r3","address":"635 CENTER DR","geo_precision":"range","state":"TX"},"type":"Feature","geometry":{"type":"Point","coordinates":[-97.525847,25.94177]}},{"properties":{"city":"BROWNSVILLE","zip":"78520","geo_score":1.0,"date voted":20120720,"id":"a8n7r86trz65","address":"649 CENTER DR","geo_precision":"range","state":"TX"},"type":"Feature","geometry":{"type":"Point","coordinates":[-97.525869,25.941573]}},{"properties":{"city":"BROWNSVILLE","zip":"78520","geo_score":1.0,"date voted":20120724,"id":"a8n7r816a9br","address":"649 CENTER DR","geo_precision":"range","state":"TX"},"type":"Feature","geometry":{"type":"Point","coordinates":[-97.525869,25.941573]}},{"properties":{"city":"BROWNSVILLE","zip":"78520","geo_score":0.87,"date voted":20120713,"id":"a8n7r86c54gb","address":"455 EL PASO RD APT E-3","geo_precision":"range","state":"TX"},"type":"Feature","geometry":{"type":"Point","coordinates":[-97.523614,25.933868]}},{"properties":{"city":"BROWNSVILLE","zip":"78520","geo_score":0.89,"date voted":20120720,"id":"a8n7r85zvmlm","address":"455 EL PASO RD APT F7","geo_precision":"range","state":"TX"},"type":"Feature","geometry":{"type":"Point","coordinates":[-97.523614,25.933868]}},{"properties":{"city":"BROWNSVILLE","zip":"78520","geo_score":0.87,"date voted":20120730,"id":"a8n7r86fb8hq","address":"455 EL PASO RD APT G-2","geo_precision":"range","state":"TX"},"type":"Feature","geometry":{"type":"Point","coordinates":[-97.523614,25.933868]}},{"properties":{"city":"BROWNSVILLE","zip":"78520","geo_score":0.87,"date voted":20120730,"id":"a8n7r8a8re4y","address":"455 EL PASO RD APT G-8","geo_precision":"range","state":"TX"},"type":"Feature","geometry":{"type":"Point","coordinates":[-97.523614,25.933868]}},{"properties":{"city":"BROWNSVILLE","zip":"78520","geo_score":0.89,"date voted":20120731,"id":"a8n7r85n4i79","address":"455 EL PASO RD APT G7","geo_precision":"range","state":"TX"},"type":"Feature","geometry":{"type":"Point","coordinates":[-97.523614,25.933868]}},{"properties":{"city":"BROWNSVILLE","zip":"78520","geo_score":0.683,"date voted":20120731,"id":"a8n7r8ee3tc6","address":"3080 EL PASO RD","geo_precision":"street","state":"TX"},"type":"Feature","geometry":{"type":"Point","coordinates":[-97.522987,25.939209]}},{"properties":{"city":"BROWNSVILLE","zip":"78520","geo_score":0.683,"date voted":20120731,"id":"a8n7r8dnhqpu","address":"3080 EL PASO RD","geo_precision":"street","state":"TX"},"type":"Feature","geometry":{"type":"Point","coordinates":[-97.522987,25.939209]}},{"properties":{"city":"BROWNSVILLE","zip":"78520","geo_score":1.0,"date voted":20120730,"id":"a8n7r8gfux8v","address":"157 GARDEN ST","geo_precision":"range","state":"TX"},"type":"Feature","geometry":{"type":"Point","coordinates":[-97.53055,25.934448]}},{"properties":{"city":"BROWNSVILLE","zip":"78520","geo_score":1.0,"date voted":20120720,"id":"a8n7r8ax15ks","address":"364 GARDEN ST","geo_precision":"range","state":"TX"},"type":"Feature","geometry":{"type":"Point","coordinates":[-97.527027,25.936925]}},{"properties":{"city":"BROWNSVILLE","zip":"78520","geo_score":1.0,"date voted":20120724,"id":"a8n7r844ualo","address":"364 GARDEN ST","geo_precision":"range","state":"TX"},"type":"Feature","geometry":{"type":"Point","coordinates":[-97.527027,25.936925]}},{"properties":{"city":"BROWNSVILLE","zip":"78520","geo_score":1.0,"date voted":20120724,"id":"a8n7r8as1jyh","address":"364 GARDEN ST","geo_precision":"range","state":"TX"},"type":"Feature","geometry":{"type":"Point","coordinates":[-97.527027,25.936925]}},{"properties":{"city":"BROWNSVILLE","zip":"78520","geo_score":0.805,"date voted":20120710,"id":"a8n7r88kg2w3","address":"63 IMPERIAL AVE","geo_precision":"range","state":"TX"},"type":"Feature","geometry":{"type":"Point","coordinates":[-97.522042,25.929313]}},{"properties":{"city":"BROWNSVILLE","zip":"78520","geo_score":0.805,"date voted":20120710,"id":"a8n7r8clv922","address":"63 IMPERIAL AVE","geo_precision":"range","state":"TX"},"type":"Feature","geometry":{"type":"Point","coordinates":[-97.522042,25.929313]}},{"properties":{"city":"BROWNSVILLE","zip":"78520","geo_score":0.707,"date voted":20120731,"id":"a8n7r81n50dy","address":"105 IMPERIAL AVE","geo_precision":"street","state":"TX"},"type":"Feature","geometry":{"type":"Point","coordinates":[-97.521549,25.928745]}},{"properties":{"city":"BROWNSVILLE","zip":"78520","geo_score":1.0,"date voted":20120717,"id":"a8n7r8er6qjj","address":"44 MIDWAY DR","geo_precision":"range","state":"TX"},"type":"Feature","geometry":{"type":"Point","coordinates":[-97.528636,25.933425]}},{"properties":{"city":"BROWNSVILLE","zip":"78520","geo_score":1.0,"date voted":20120717,"id":"a8n7r8dnivkt","address":"44 MIDWAY DR","geo_precision":"range","state":"TX"},"type":"Feature","geometry":{"type":"Point","coordinates":[-97.528636,25.933425]}},{"properties":{"city":"BROWNSVILLE","zip":"78520","geo_score":0.854,"date voted":20120718,"id":"a8n7r810c9b2","address":"167 NORTH DR","geo_precision":"range","state":"TX"},"type":"Feature","geometry":{"type":"Point","coordinates":[-97.531796,25.939163]}},{"properties":{"city":"BROWNSVILLE","zip":"78520","geo_score":0.854,"date voted":20120720,"id":"a8n7r8963pis","address":"605 NORTH DR","geo_precision":"range","state":"TX"},"type":"Feature","geometry":{"type":"Point","coordinates":[-97.526111,25.940866]}},{"properties":{"city":"BROWNSVILLE","zip":"78520","geo_score":0.854,"date voted":20120720,"id":"a8n7r80xajra","address":"615 NORTH DR","geo_precision":"range","state":"TX"},"type":"Feature","geometry":{"type":"Point","coordinates":[-97.526171,25.940847]}},{"properties":{"city":"BROWNSVILLE","zip":"78520","geo_score":0.854,"date voted":20120724,"id":"a8n7r8exu9ce","address":"104 SOUTH DR","geo_precision":"range","state":"TX"},"type":"Feature","geometry":{"type":"Point","coordinates":[-97.53071,25.93913]}},{"properties":{"city":"BROWNSVILLE","zip":"78520","geo_score":1.0,"date voted":20120726,"id":"a8n7r84vf03w","address":"435 WATER ST","geo_precision":"range","state":"TX"},"type":"Feature","geometry":{"type":"Point","coordinates":[-97.527381,25.933828]}},{"properties":{"city":"BROWNSVILLE","zip":"78520","geo_score":1.0,"date voted":20120716,"id":"a8n7r820hu0w","address":"117 WESTERN BLVD","geo_precision":"range","state":"TX"},"type":"Feature","geometry":{"type":"Point","coordinates":[-97.532503,25.9376]}},{"properties":{"city":"BROWNSVILLE","zip":"78520","geo_score":1.0,"date voted":20120717,"id":"a8n7r86szab5","address":"117 WESTERN BLVD","geo_precision":"range","state":"TX"},"type":"Feature","geometry":{"type":"Point","coordinates":[-97.532503,25.9376]}},{"properties":{"city":"BROWNSVILLE","zip":"78520","geo_score":1.0,"date voted":20120711,"id":"a8n7r81in4lr","address":"118 WESTERN BLVD","geo_precision":"range","state":"TX"},"type":"Feature","geometry":{"type":"Point","coordinates":[-97.532387,25.937503]}},{"properties":{"city":"BROWNSVILLE","zip":"78520","geo_score":1.0,"date voted":20120730,"id":"a8n7r87l7ow2","address":"118 WESTERN BLVD","geo_precision":"range","state":"TX"},"type":"Feature","geometry":{"type":"Point","coordinates":[-97.532387,25.937503]}},{"properties":{"city":"BROWNSVILLE","zip":"78520","geo_score":1.0,"date voted":20120730,"id":"a8n7r8b0pqz9","address":"124 WESTERN BLVD","geo_precision":"range","state":"TX"},"type":"Feature","geometry":{"type":"Point","coordinates":[-97.532444,25.937411]}},{"properties":{"city":"BROWNSVILLE","zip":"78520","geo_score":1.0,"date voted":20120730,"id":"a8n7r8f6mx5i","address":"127 WESTERN BLVD","geo_precision":"range","state":"TX"},"type":"Feature","geometry":{"type":"Point","coordinates":[-97.532598,25.937449]}},{"properties":{"city":"BROWNSVILLE","zip":"78520","geo_score":1.0,"date voted":20120730,"id":"a8n7r8a5dody","address":"129 WESTERN BLVD","geo_precision":"range","state":"TX"},"type":"Feature","geometry":{"type":"Point","coordinates":[-97.532616,25.937418]}},{"properties":{"city":"BROWNSVILLE","zip":"78520","geo_score":1.0,"date voted":20120730,"id":"a8n7r89d93vq","address":"129 WESTERN BLVD","geo_precision":"range","state":"TX"},"type":"Feature","geometry":{"type":"Point","coordinates":[-97.532616,25.937418]}},{"properties":{"city":"BROWNSVILLE","zip":"78520","geo_score":0.403,"date voted":20120723,"id":"a8n7r814edrd","address":"P O BOX 685","geo_precision":"street","state":"TX"},"type":"Feature","geometry":{"type":"Point","coordinates":[-98.971847,26.405002]}},{"properties":{"city":"BROWNSVILLE","zip":"78520","geo_score":0.805,"date voted":20120717,"id":"a8n7r863so20","address":"5058 BRYAN CT","geo_precision":"range","state":"TX"},"type":"Feature","geometry":{"type":"Point","coordinates":[-97.438398,25.926182]}},{"properties":{"city":"BROWNSVILLE","zip":"78520","geo_score":0.805,"date voted":20120724,"id":"a8n7r8c2vv9n","address":"5058 BRYAN CT","geo_precision":"range","state":"TX"},"type":"Feature","geometry":{"type":"Point","coordinates":[-97.438398,25.926182]}},{"properties":{"city":"BROWNSVILLE","zip":"78520","geo_score":0.403,"date voted":20120730,"id":"a8n7r82l3rrl","address":"P O BOX 655","geo_precision":"street","state":"TX"},"type":"Feature","geometry":{"type":"Point","coordinates":[-98.971847,26.405002]}},{"properties":{"city":"BROWNSVILLE","zip":"78520","geo_score":0.707,"date voted":20120731,"id":"a8n7r825x0qm","address":"2304 DELIA AVE","geo_precision":"street","state":"TX"},"type":"Feature","geometry":{"type":"Point","coordinates":[-97.539662,25.935557]}},{"properties":{"city":"BROWNSVILLE","zip":"78520","geo_score":0.393,"date voted":20120731,"id":"a8n7r8d14jqd","address":"P O BOX 8642","geo_precision":"street","state":"TX"},"type":"Feature","geometry":{"type":"Point","coordinates":[-98.971847,26.405002]}},{"properties":{"city":"BROWNSVILLE","zip":"78520","geo_score":0.778,"date voted":20120713,"id":"a8n7r8b5lrpc","address":"2206 JEFFREY AVE","geo_precision":"range","state":"TX"},"type":"Feature","geometry":{"type":"Point","coordinates":[-97.478962,25.967589]}},{"properties":{"city":"BROWNSVILLE","zip":"78520","geo_score":0.753,"date voted":20120726,"id":"a8n7r8f40laz","address":"2205 RANCHO VIEJO AVE","geo_precision":"street","state":"TX"},"type":"Feature","geometry":{"type":"Point","coordinates":[-97.436307,25.965107]}},{"properties":{"city":"BROWNSVILLE","zip":"78520","geo_score":1.0,"date voted":20120717,"id":"a8n7r850t3if","address":"1681 CALLE ESPACIO","geo_precision":"range","state":"TX"},"type":"Feature","geometry":{"type":"Point","coordinates":[-97.544633,25.939143]}},{"properties":{"city":"BROWNSVILLE","zip":"78520","geo_score":1.0,"date voted":20120718,"id":"a8n7r877bsb8","address":"744 FLORENCE LN","geo_precision":"range","state":"TX"},"type":"Feature","geometry":{"type":"Point","coordinates":[-97.539581,25.936627]}},{"properties":{"city":"BROWNSVILLE","zip":"78520","geo_score":1.0,"date voted":20120730,"id":"a8n7r88c1par","address":"744 FLORENCE LN","geo_precision":"range","state":"TX"},"type":"Feature","geometry":{"type":"Point","coordinates":[-97.539581,25.936627]}},{"properties":{"city":"BROWNSVILLE","zip":"78520","geo_score":1.0,"date voted":20120716,"id":"a8n7r8bnecut","address":"65 JO ANN LN","geo_precision":"range","state":"TX"},"type":"Feature","geometry":{"type":"Point","coordinates":[-97.537162,25.934257]}},{"properties":{"city":"BROWNSVILLE","zip":"78520","geo_score":0.702,"date voted":20120717,"id":"a8n7r89lcc2h","address":"905 MILITARY RD APT 2","geo_precision":"street","state":"TX"},"type":"Feature","geometry":{"type":"Point","coordinates":[-97.520062,25.923357]}},{"properties":{"city":"BROWNSVILLE","zip":"78520","geo_score":0.702,"date voted":20120717,"id":"a8n7r8273yvl","address":"905 MILITARY RD APT 2","geo_precision":"street","state":"TX"},"type":"Feature","geometry":{"type":"Point","coordinates":[-97.520062,25.923357]}},{"properties":{"city":"BROWNSVILLE","zip":"78520","geo_score":0.488,"date voted":20120717,"id":"a8n7r86wezlr","address":"1664 SIESTA ST","geo_precision":"street","state":"TX"},"type":"Feature","geometry":{"type":"Point","coordinates":[-98.401826,26.241752]}},{"properties":{"city":"BROWNSVILLE","zip":"78520","geo_score":0.973,"date voted":20120710,"id":"a8n7r8fpa53b","address":"2555 MCALLEN RD","geo_precision":"range","state":"TX"},"type":"Feature","geometry":{"type":"Point","coordinates":[-97.515312,25.955092]}},{"properties":{"city":"BROWNSVILLE","zip":"78520","geo_score":0.846,"date voted":20120730,"id":"a8n7r81perva","address":"3375 MCALLEN RD APT 1301","geo_precision":"range","state":"TX"},"type":"Feature","geometry":{"type":"Point","coordinates":[-97.514265,25.963136]}},{"properties":{"city":"BROWNSVILLE","zip":"78520","geo_score":0.724,"date voted":20120712,"id":"a8n7r82ykxen","address":"3385 MCALLEN RD APT 5201","geo_precision":"range","state":"TX"},"type":"Feature","geometry":{"type":"Point","coordinates":[-97.51417,25.963244]}},{"properties":{"city":"BROWNSVILLE","zip":"78520","geo_score":0.724,"date voted":20120712,"id":"a8n7r8gxhida","address":"3385 MCALLEN RD APT 5702","geo_precision":"range","state":"TX"},"type":"Feature","geometry":{"type":"Point","coordinates":[-97.51417,25.963244]}},{"properties":{"city":"BROWNSVILLE","zip":"78520","geo_score":0.724,"date voted":20120720,"id":"a8n7r8fqrzh9","address":"3385 MCALLEN RD APT 3504","geo_precision":"range","state":"TX"},"type":"Feature","geometry":{"type":"Point","coordinates":[-97.51417,25.963244]}},{"properties":{"city":"BROWNSVILLE","zip":"78521","geo_score":1.0,"date voted":20120731,"id":"a8n7r867hj6c","address":"54 VELMA ST","geo_precision":"range","state":"TX"},"type":"Feature","geometry":{"type":"Point","coordinates":[-97.479975,25.919636]}},{"properties":{"city":"BROWNSVILLE","zip":"78521","geo_score":0.74,"date voted":20120724,"id":"a8n7r88qb8ey","address":"1425 E 17TH ST","geo_precision":"street","state":"TX"},"type":"Feature","geometry":{"type":"Point","coordinates":[-97.484057,25.906568]}},{"properties":{"city":"BROWNSVILLE","zip":"78521","geo_score":0.74,"date voted":20120724,"id":"a8n7r8g7gz08","address":"1425 E 17TH ST","geo_precision":"street","state":"TX"},"type":"Feature","geometry":{"type":"Point","coordinates":[-97.484057,25.906568]}},{"properties":{"city":"BROWNSVILLE","zip":"78521","geo_score":1.0,"date voted":20120726,"id":"a8n7r835qcxa","address":"144 KEITH LN","geo_precision":"range","state":"TX"},"type":"Feature","geometry":{"type":"Point","coordinates":[-97.486761,25.912858]}},{"properties":{"city":"BROWNSVILLE","zip":"78521","geo_score":1.0,"date voted":20120730,"id":"a8n7r80pxecm","address":"214 KEITH LN","geo_precision":"range","state":"TX"},"type":"Feature","geometry":{"type":"Point","coordinates":[-97.483505,25.914422]}},{"properties":{"city":"BROWNSVILLE","zip":"78521","geo_score":0.89,"date voted":20120726,"id":"a8n7r87hlscy","address":"1237 LINCOLN ST APT 2","geo_precision":"range","state":"TX"},"type":"Feature","geometry":{"type":"Point","coordinates":[-97.486734,25.91]}},{"properties":{"city":"BROWNSVILLE","zip":"78521","geo_score":0.935,"date voted":20120719,"id":"a8n7r82wky8p","address":"2103 E 12TH ST","geo_precision":"range","state":"TX"},"type":"Feature","geometry":{"type":"Point","coordinates":[-97.485509,25.911517]}},{"properties":{"city":"BROWNSVILLE","zip":"78521","geo_score":0.842,"date voted":20120727,"id":"a8n7r8cpr1sb","address":"2015 E 13TH ST APT B","geo_precision":"range","state":"TX"},"type":"Feature","geometry":{"type":"Point","coordinates":[-97.485861,25.910208]}},{"properties":{"city":"BROWNSVILLE","zip":"78521","geo_score":1.0,"date voted":20120716,"id":"a8n7r83rmvrk","address":"3345 DAISY DR","geo_precision":"range","state":"TX"},"type":"Feature","geometry":{"type":"Point","coordinates":[-97.458469,25.896727]}},{"properties":{"city":"BROWNSVILLE","zip":"78521","geo_score":1.0,"date voted":20120726,"id":"a8n7r87uuu1d","address":"3404 DAISY DR","geo_precision":"range","state":"TX"},"type":"Feature","geometry":{"type":"Point","coordinates":[-97.458957,25.896229]}},{"properties":{"city":"BROWNSVILLE","zip":"78521","geo_score":1.0,"date voted":20120726,"id":"a8n7r86f6585","address":"3404 DAISY DR","geo_precision":"range","state":"TX"},"type":"Feature","geometry":{"type":"Point","coordinates":[-97.458957,25.896229]}},{"properties":{"city":"BROWNSVILLE","zip":"78521","geo_score":1.0,"date voted":20120716,"id":"a8n7r8dhjapc","address":"3425 DAISY DR","geo_precision":"range","state":"TX"},"type":"Feature","geometry":{"type":"Point","coordinates":[-97.459229,25.89623]}},{"properties":{"city":"BROWNSVILLE","zip":"78521","geo_score":1.0,"date voted":20120716,"id":"a8n7r88m35z8","address":"3425 DAISY DR","geo_precision":"range","state":"TX"},"type":"Feature","geometry":{"type":"Point","coordinates":[-97.459229,25.89623]}},{"properties":{"city":"BROWNSVILLE","zip":"78521","geo_score":1.0,"date voted":20120723,"id":"a8n7r88qgtku","address":"44 DELTA DR","geo_precision":"range","state":"TX"},"type":"Feature","geometry":{"type":"Point","coordinates":[-97.464171,25.897498]}},{"properties":{"city":"BROWNSVILLE","zip":"78521","geo_score":1.0,"date voted":20120723,"id":"a8n7r8920stc","address":"85 DELTA DR","geo_precision":"range","state":"TX"},"type":"Feature","geometry":{"type":"Point","coordinates":[-97.463511,25.896599]}},{"properties":{"city":"BROWNSVILLE","zip":"78521","geo_score":0.89,"date voted":20120716,"id":"a8n7r83hkn3w","address":"3014 EAST AVE","geo_precision":"range","state":"TX"},"type":"Feature","geometry":{"type":"Point","coordinates":[-97.462917,25.898476]}},{"properties":{"city":"BROWNSVILLE","zip":"78521","geo_score":0.89,"date voted":20120716,"id":"a8n7r8f1k3ar","address":"3014 EAST AVE","geo_precision":"range","state":"TX"},"type":"Feature","geometry":{"type":"Point","coordinates":[-97.462917,25.898476]}},{"properties":{"city":"BROWNSVILLE","zip":"78521","geo_score":0.585,"date voted":20120731,"id":"a8n7r8gljkfd","address":"3374 EAST AVE APT A-2","geo_precision":"zip","state":"TX"},"type":"Feature","geometry":{"type":"Point","coordinates":[-97.5069,26.098629]}},{"properties":{"city":"BROWNSVILLE","zip":"78521","geo_score":1.0,"date voted":20120725,"id":"a8n7r8c94chu","address":"3334 GARDENIA ST","geo_precision":"range","state":"TX"},"type":"Feature","geometry":{"type":"Point","coordinates":[-97.457169,25.895911]}},{"properties":{"city":"BROWNSVILLE","zip":"78521","geo_score":1.0,"date voted":20120716,"id":"a8n7r8cnrahp","address":"3434 GARDENIA ST","geo_precision":"range","state":"TX"},"type":"Feature","geometry":{"type":"Point","coordinates":[-97.458497,25.895078]}},{"properties":{"city":"BROWNSVILLE","zip":"78521","geo_score":0.92,"date voted":20120716,"id":"a8n7r81uctdl","address":"3434 GARDENIA","geo_precision":"range","state":"TX"},"type":"Feature","geometry":{"type":"Point","coordinates":[-97.458497,25.895078]}},{"properties":{"city":"BROWNSVILLE","zip":"78521","geo_score":1.0,"date voted":20120731,"id":"a8n7r87w56ok","address":"2903 IMPALA DR","geo_precision":"range","state":"TX"},"type":"Feature","geometry":{"type":"Point","coordinates":[-97.465002,25.896737]}},{"properties":{"city":"BROWNSVILLE","zip":"78521","geo_score":1.0,"date voted":20120710,"id":"a8n7r81g9rhp","address":"2854 LA VILLITA ST","geo_precision":"range","state":"TX"},"type":"Feature","geometry":{"type":"Point","coordinates":[-97.457396,25.900453]}},{"properties":{"city":"BROWNSVILLE","zip":"78521","geo_score":1.0,"date voted":20120710,"id":"a8n7r86ixh3j","address":"2854 LA VILLITA ST","geo_precision":"range","state":"TX"},"type":"Feature","geometry":{"type":"Point","coordinates":[-97.457396,25.900453]}},{"properties":{"city":"BROWNSVILLE","zip":"78521","geo_score":1.0,"date voted":20120730,"id":"a8n7r86ocgwj","address":"2914 LA VILLITA ST","geo_precision":"range","state":"TX"},"type":"Feature","geometry":{"type":"Point","coordinates":[-97.457914,25.903547]}},{"properties":{"city":"BROWNSVILLE","zip":"78521","geo_score":1.0,"date voted":20120712,"id":"a8n7r85p79fo","address":"3155 LEOPARD ST","geo_precision":"range","state":"TX"},"type":"Feature","geometry":{"type":"Point","coordinates":[-97.459633,25.894693]}},{"properties":{"city":"BROWNSVILLE","zip":"78521","geo_score":1.0,"date voted":20120712,"id":"a8n7r8eoz4df","address":"3155 LEOPARD ST","geo_precision":"range","state":"TX"},"type":"Feature","geometry":{"type":"Point","coordinates":[-97.459633,25.894693]}},{"properties":{"city":"BROWNSVILLE","zip":"78521","geo_score":1.0,"date voted":20120731,"id":"a8n7r87h6f8e","address":"2735 LIMA ST","geo_precision":"range","state":"TX"},"type":"Feature","geometry":{"type":"Point","coordinates":[-97.461108,25.901291]}},{"properties":{"city":"BROWNSVILLE","zip":"78521","geo_score":1.0,"date voted":20120724,"id":"a8n7r8ek8vox","address":"2844 LIMA ST","geo_precision":"range","state":"TX"},"type":"Feature","geometry":{"type":"Point","coordinates":[-97.460563,25.899887]}},{"properties":{"city":"BROWNSVILLE","zip":"78521","geo_score":1.0,"date voted":20120725,"id":"a8n7r89g46ty","address":"2855 LIMA ST","geo_precision":"range","state":"TX"},"type":"Feature","geometry":{"type":"Point","coordinates":[-97.460672,25.899716]}},{"properties":{"city":"BROWNSVILLE","zip":"78521","geo_score":1.0,"date voted":20120731,"id":"a8n7r8et0c2n","address":"3034 PALO BLANCO ST","geo_precision":"range","state":"TX"},"type":"Feature","geometry":{"type":"Point","coordinates":[-97.461959,25.904958]}},{"properties":{"city":"BROWNSVILLE","zip":"78521","geo_score":1.0,"date voted":20120718,"id":"a8n7r8fvf8m1","address":"2264 TULIPAN ST","geo_precision":"range","state":"TX"},"type":"Feature","geometry":{"type":"Point","coordinates":[-97.456324,25.894605]}},{"properties":{"city":"BROWNSVILLE","zip":"78521","geo_score":0.912,"date voted":20120726,"id":"a8n7r821pftr","address":"2814 TULIPAN","geo_precision":"range","state":"TX"},"type":"Feature","geometry":{"type":"Point","coordinates":[-97.457923,25.900762]}},{"properties":{"city":"BROWNSVILLE","zip":"78521","geo_score":1.0,"date voted":20120726,"id":"a8n7r8blx2n7","address":"2814 TULIPAN ST","geo_precision":"range","state":"TX"},"type":"Feature","geometry":{"type":"Point","coordinates":[-97.457923,25.900762]}},{"properties":{"city":"BROWNSVILLE","zip":"78521","geo_score":0.935,"date voted":20120716,"id":"a8n7r87kz944","address":"2525 E 30TH ST","geo_precision":"range","state":"TX"},"type":"Feature","geometry":{"type":"Point","coordinates":[-97.463232,25.897182]}},{"properties":{"city":"BROWNSVILLE","zip":"78521","geo_score":0.935,"date voted":20120723,"id":"a8n7r83wlsyf","address":"2555 E 30TH ST","geo_precision":"range","state":"TX"},"type":"Feature","geometry":{"type":"Point","coordinates":[-97.463359,25.896807]}},{"properties":{"city":"BROWNSVILLE","zip":"78521","geo_score":0.935,"date voted":20120724,"id":"a8n7r86kk7xp","address":"2775 E 32ND ST","geo_precision":"range","state":"TX"},"type":"Feature","geometry":{"type":"Point","coordinates":[-97.461997,25.900505]}},{"properties":{"city":"BROWNSVILLE","zip":"78521","geo_score":0.912,"date voted":20120717,"id":"a8n7r8fybjas","address":"502 CIRUELA","geo_precision":"range","state":"TX"},"type":"Feature","geometry":{"type":"Point","coordinates":[-97.40309,25.912974]}},{"properties":{"city":"BROWNSVILLE","zip":"78521","geo_score":0.771,"date voted":20120731,"id":"a8n7r8c4aaii","address":"1504 E LOS EBANOS BLVD","geo_precision":"street","state":"TX"},"type":"Feature","geometry":{"type":"Point","coordinates":[-97.49091,25.928171]}},{"properties":{"city":"BROWNSVILLE","zip":"78521","geo_score":1.0,"date voted":20120712,"id":"a8n7r85b8o29","address":"1457 CLEVELAND ST","geo_precision":"range","state":"TX"},"type":"Feature","geometry":{"type":"Point","coordinates":[-97.482443,25.910593]}},{"properties":{"city":"BROWNSVILLE","zip":"78521","geo_score":0.867,"date voted":20120716,"id":"a8n7r84h8a2k","address":"1732 E COOLIDGE","geo_precision":"range","state":"TX"},"type":"Feature","geometry":{"type":"Point","coordinates":[-97.474969,25.911806]}},{"properties":{"city":"BROWNSVILLE","zip":"78521","geo_score":1.0,"date voted":20120716,"id":"a8n7r87eu28h","address":"1768 COOLIDGE ST","geo_precision":"range","state":"TX"},"type":"Feature","geometry":{"type":"Point","coordinates":[-97.47592,25.912216]}},{"properties":{"city":"BROWNSVILLE","zip":"78521","geo_score":1.0,"date voted":20120716,"id":"a8n7r8clsoqa","address":"1768 COOLIDGE ST","geo_precision":"range","state":"TX"},"type":"Feature","geometry":{"type":"Point","coordinates":[-97.47592,25.912216]}},{"properties":{"city":"BROWNSVILLE","zip":"78521","geo_score":1.0,"date voted":20120717,"id":"a8n7r8a3o778","address":"1444 GARFIELD ST","geo_precision":"range","state":"TX"},"type":"Feature","geometry":{"type":"Point","coordinates":[-97.483715,25.909676]}},{"properties":{"city":"BROWNSVILLE","zip":"78521","geo_score":1.0,"date voted":20120717,"id":"a8n7r8gbuton","address":"1444 GARFIELD ST","geo_precision":"range","state":"TX"},"type":"Feature","geometry":{"type":"Point","coordinates":[-97.483715,25.909676]}},{"properties":{"city":"BROWNSVILLE","zip":"78521","geo_score":1.0,"date voted":20120720,"id":"a8n7r8gqbo5r","address":"1463 GARFIELD ST","geo_precision":"range","state":"TX"},"type":"Feature","geometry":{"type":"Point","coordinates":[-97.483693,25.909916]}},{"properties":{"city":"BROWNSVILLE","zip":"78521","geo_score":1.0,"date voted":20120720,"id":"a8n7r80m9zza","address":"1463 GARFIELD ST","geo_precision":"range","state":"TX"},"type":"Feature","geometry":{"type":"Point","coordinates":[-97.483693,25.909916]}},{"properties":{"city":"BROWNSVILLE","zip":"78521","geo_score":1.0,"date voted":20120720,"id":"a8n7r8dts21k","address":"1504 GARFIELD ST","geo_precision":"range","state":"TX"},"type":"Feature","geometry":{"type":"Point","coordinates":[-97.48287,25.90849]}},{"properties":{"city":"BROWNSVILLE","zip":"78521","geo_score":1.0,"date voted":20120720,"id":"a8n7r8glrgnm","address":"1539 GARFIELD ST","geo_precision":"range","state":"TX"},"type":"Feature","geometry":{"type":"Point","coordinates":[-97.482936,25.908862]}},{"properties":{"city":"BROWNSVILLE","zip":"78521","geo_score":1.0,"date voted":20120724,"id":"a8n7r83pvg8h","address":"1555 GRANT ST","geo_precision":"range","state":"TX"},"type":"Feature","geometry":{"type":"Point","coordinates":[-97.484258,25.908265]}},{"properties":{"city":"BROWNSVILLE","zip":"78521","geo_score":1.0,"date voted":20120712,"id":"a8n7r853d3r6","address":"1808 GRANT ST","geo_precision":"range","state":"TX"},"type":"Feature","geometry":{"type":"Point","coordinates":[-97.482123,25.905572]}},{"properties":{"city":"BROWNSVILLE","zip":"78521","geo_score":1.0,"date voted":20120712,"id":"a8n7r8c81s7m","address":"1810 GRANT ST","geo_precision":"range","state":"TX"},"type":"Feature","geometry":{"type":"Point","coordinates":[-97.482092,25.905447]}},{"properties":{"city":"BROWNSVILLE","zip":"78521","geo_score":1.0,"date voted":20120717,"id":"a8n7r86erbnk","address":"1848 HARDING ST","geo_precision":"range","state":"TX"},"type":"Feature","geometry":{"type":"Point","coordinates":[-97.474654,25.909115]}},{"properties":{"city":"BROWNSVILLE","zip":"78521","geo_score":1.0,"date voted":20120720,"id":"a8n7r84i8bn9","address":"1539 HAYES ST","geo_precision":"range","state":"TX"},"type":"Feature","geometry":{"type":"Point","coordinates":[-97.483529,25.908509]}},{"properties":{"city":"BROWNSVILLE","zip":"78521","geo_score":1.0,"date voted":20120711,"id":"a8n7r82h7trt","address":"1725 HAYES ST","geo_precision":"range","state":"TX"},"type":"Feature","geometry":{"type":"Point","coordinates":[-97.482198,25.906605]}},{"properties":{"city":"BROWNSVILLE","zip":"78521","geo_score":1.0,"date voted":20120711,"id":"a8n7r85rmxm6","address":"1725 HAYES ST","geo_precision":"range","state":"TX"},"type":"Feature","geometry":{"type":"Point","coordinates":[-97.482198,25.906605]}},{"properties":{"city":"BROWNSVILLE","zip":"78521","geo_score":1.0,"date voted":20120716,"id":"a8n7r87khkl3","address":"1643 MORTON ST","geo_precision":"range","state":"TX"},"type":"Feature","geometry":{"type":"Point","coordinates":[-97.480534,25.909148]}},{"properties":{"city":"BROWNSVILLE","zip":"78521","geo_score":0.935,"date voted":20120717,"id":"a8n7r8cob1lf","address":"2075 E 15TH ST","geo_precision":"range","state":"TX"},"type":"Feature","geometry":{"type":"Point","coordinates":[-97.485187,25.908321]}},{"properties":{"city":"BROWNSVILLE","zip":"78521","geo_score":0.935,"date voted":20120712,"id":"a8n7r866p5ja","address":"3018 E 19TH ST","geo_precision":"range","state":"TX"},"type":"Feature","geometry":{"type":"Point","coordinates":[-97.47496,25.907158]}},{"properties":{"city":"BROWNSVILLE","zip":"78521","geo_score":0.935,"date voted":20120712,"id":"a8n7r86rlocl","address":"3018 E 19TH ST","geo_precision":"range","state":"TX"},"type":"Feature","geometry":{"type":"Point","coordinates":[-97.47496,25.907158]}},{"properties":{"city":"BROWNSVILLE","zip":"78521","geo_score":0.935,"date voted":20120730,"id":"a8n7r8cld4it","address":"3024 E 19TH ST","geo_precision":"range","state":"TX"},"type":"Feature","geometry":{"type":"Point","coordinates":[-97.474209,25.908484]}},{"properties":{"city":"BROWNSVILLE","zip":"78521","geo_score":0.935,"date voted":20120723,"id":"a8n7r8ak1mga","address":"3034 E 19TH ST","geo_precision":"range","state":"TX"},"type":"Feature","geometry":{"type":"Point","coordinates":[-97.474255,25.908368]}},{"properties":{"city":"BROWNSVILLE","zip":"78521","geo_score":0.935,"date voted":20120717,"id":"a8n7r8giqnq3","address":"3038 E 19TH ST","geo_precision":"range","state":"TX"},"type":"Feature","geometry":{"type":"Point","coordinates":[-97.474273,25.908322]}},{"properties":{"city":"BROWNSVILLE","zip":"78521","geo_score":0.935,"date voted":20120712,"id":"a8n7r85n1rxz","address":"3115 E 19TH ST","geo_precision":"range","state":"TX"},"type":"Feature","geometry":{"type":"Point","coordinates":[-97.47398,25.909274]}},{"properties":{"city":"BROWNSVILLE","zip":"78521","geo_score":0.935,"date voted":20120712,"id":"a8n7r8ciedpb","address":"3115 E 19TH ST","geo_precision":"range","state":"TX"},"type":"Feature","geometry":{"type":"Point","coordinates":[-97.47398,25.909274]}},{"properties":{"city":"BROWNSVILLE","zip":"78521","geo_score":0.935,"date voted":20120717,"id":"a8n7r867rly4","address":"3124 E 19TH ST","geo_precision":"range","state":"TX"},"type":"Feature","geometry":{"type":"Point","coordinates":[-97.47388,25.909131]}},{"properties":{"city":"BROWNSVILLE","zip":"78521","geo_score":0.935,"date voted":20120717,"id":"a8n7r819scch","address":"3033 E 20TH ST","geo_precision":"range","state":"TX"},"type":"Feature","geometry":{"type":"Point","coordinates":[-97.473563,25.907766]}},{"properties":{"city":"BROWNSVILLE","zip":"78521","geo_score":0.935,"date voted":20120717,"id":"a8n7r8cjljzn","address":"3033 E 20TH ST","geo_precision":"range","state":"TX"},"type":"Feature","geometry":{"type":"Point","coordinates":[-97.473563,25.907766]}},{"properties":{"city":"BROWNSVILLE","zip":"78521","geo_score":0.935,"date voted":20120717,"id":"a8n7r8e3yr31","address":"3033 E 20TH ST","geo_precision":"range","state":"TX"},"type":"Feature","geometry":{"type":"Point","coordinates":[-97.473563,25.907766]}},{"properties":{"city":"BROWNSVILLE","zip":"78521","geo_score":0.935,"date voted":20120723,"id":"a8n7r8a53lio","address":"3033 E 20TH ST","geo_precision":"range","state":"TX"},"type":"Feature","geometry":{"type":"Point","coordinates":[-97.473563,25.907766]}},{"properties":{"city":"BROWNSVILLE","zip":"78521","geo_score":0.935,"date voted":20120726,"id":"a8n7r8guvjzf","address":"2047 E 21ST ST","geo_precision":"range","state":"TX"},"type":"Feature","geometry":{"type":"Point","coordinates":[-97.479488,25.902806]}},{"properties":{"city":"BROWNSVILLE","zip":"78521","geo_score":0.935,"date voted":20120726,"id":"a8n7r84inheo","address":"2047 E 21ST ST","geo_precision":"range","state":"TX"},"type":"Feature","geometry":{"type":"Point","coordinates":[-97.479488,25.902806]}},{"properties":{"city":"BROWNSVILLE","zip":"78521","geo_score":0.98,"date voted":20120720,"id":"a8n7r8b23qhy","address":"805 AVENIDA DE LA PLATA","geo_precision":"range","state":"TX"},"type":"Feature","geometry":{"type":"Point","coordinates":[-97.468747,25.901046]}},{"properties":{"city":"BROWNSVILLE","zip":"78521","geo_score":0.98,"date voted":20120712,"id":"a8n7r8eahdzc","address":"934 AVENIDA DE LA PLATA","geo_precision":"range","state":"TX"},"type":"Feature","geometry":{"type":"Point","coordinates":[-97.468553,25.900883]}},{"properties":{"city":"BROWNSVILLE","zip":"78521","geo_score":0.98,"date voted":20120712,"id":"a8n7r8f0egw9","address":"934 AVENIDA DE LA PLATA","geo_precision":"range","state":"TX"},"type":"Feature","geometry":{"type":"Point","coordinates":[-97.468553,25.900883]}},{"properties":{"city":"BROWNSVILLE","zip":"78521","geo_score":1.0,"date voted":20120724,"id":"a8n7r85v8zyi","address":"2799 CAROLINA ST","geo_precision":"range","state":"TX"},"type":"Feature","geometry":{"type":"Point","coordinates":[-97.466773,25.899102]}},{"properties":{"city":"BROWNSVILLE","zip":"78521","geo_score":1.0,"date voted":20120712,"id":"a8n7r8agx5lt","address":"2985 ELENA ST","geo_precision":"range","state":"TX"},"type":"Feature","geometry":{"type":"Point","coordinates":[-97.464881,25.901673]}},{"properties":{"city":"BROWNSVILLE","zip":"78521","geo_score":1.0,"date voted":20120712,"id":"a8n7r8fc1daa","address":"2985 ELENA ST","geo_precision":"range","state":"TX"},"type":"Feature","geometry":{"type":"Point","coordinates":[-97.464881,25.901673]}},{"properties":{"city":"BROWNSVILLE","zip":"78521","geo_score":1.0,"date voted":20120712,"id":"a8n7r8bcho9q","address":"2985 ELENA ST","geo_precision":"range","state":"TX"},"type":"Feature","geometry":{"type":"Point","coordinates":[-97.464881,25.901673]}},{"properties":{"city":"BROWNSVILLE","zip":"78521","geo_score":1.0,"date voted":20120712,"id":"a8n7r8af7kik","address":"2985 ELENA ST","geo_precision":"range","state":"TX"},"type":"Feature","geometry":{"type":"Point","coordinates":[-97.464881,25.901673]}},{"properties":{"city":"BROWNSVILLE","zip":"78521","geo_score":1.0,"date voted":20120712,"id":"a8n7r80yieh5","address":"2985 ELENA ST","geo_precision":"range","state":"TX"},"type":"Feature","geometry":{"type":"Point","coordinates":[-97.464881,25.901673]}},{"properties":{"city":"BROWNSVILLE","zip":"78521","geo_score":1.0,"date voted":20120718,"id":"a8n7r8ebbznh","address":"654 HORTENCIA BLVD","geo_precision":"range","state":"TX"},"type":"Feature","geometry":{"type":"Point","coordinates":[-97.468564,25.905938]}},{"properties":{"city":"BROWNSVILLE","zip":"78521","geo_score":1.0,"date voted":20120727,"id":"a8n7r8fr0hwh","address":"2062 JOHNSON ST","geo_precision":"range","state":"TX"},"type":"Feature","geometry":{"type":"Point","coordinates":[-97.472144,25.905591]}},{"properties":{"city":"BROWNSVILLE","zip":"78521","geo_score":1.0,"date voted":20120730,"id":"a8n7r82un8ks","address":"2875 MARGARITA ST","geo_precision":"range","state":"TX"},"type":"Feature","geometry":{"type":"Point","coordinates":[-97.464157,25.900192]}},{"properties":{"city":"BROWNSVILLE","zip":"78521","geo_score":1.0,"date voted":20120724,"id":"a8n7r8aja0h0","address":"2914 MARGARITA ST","geo_precision":"range","state":"TX"},"type":"Feature","geometry":{"type":"Point","coordinates":[-97.463706,25.900131]}},{"properties":{"city":"BROWNSVILLE","zip":"78521","geo_score":1.0,"date voted":20120718,"id":"a8n7r81sscm1","address":"2620 ROOSEVELT ST","geo_precision":"range","state":"TX"},"type":"Feature","geometry":{"type":"Point","coordinates":[-97.469546,25.903764]}},{"properties":{"city":"BROWNSVILLE","zip":"78521","geo_score":1.0,"date voted":20120730,"id":"a8n7r8exgtvh","address":"2730 ROOSEVELT ST","geo_precision":"range","state":"TX"},"type":"Feature","geometry":{"type":"Point","coordinates":[-97.468917,25.903456]}},{"properties":{"city":"BROWNSVILLE","zip":"78521","geo_score":0.935,"date voted":20120731,"id":"a8n7r82jbzfh","address":"3004 E 23RD ST","geo_precision":"range","state":"TX"},"type":"Feature","geometry":{"type":"Point","coordinates":[-97.470609,25.907185]}},{"properties":{"city":"BROWNSVILLE","zip":"78521","geo_score":0.935,"date voted":20120731,"id":"a8n7r8clob5k","address":"3004 E 23RD ST","geo_precision":"range","state":"TX"},"type":"Feature","geometry":{"type":"Point","coordinates":[-97.470609,25.907185]}},{"properties":{"city":"BROWNSVILLE","zip":"78521","geo_score":0.935,"date voted":20120730,"id":"a8n7r834udyn","address":"3033 E 20TH ST","geo_precision":"range","state":"TX"},"type":"Feature","geometry":{"type":"Point","coordinates":[-97.473563,25.907766]}},{"properties":{"city":"BROWNSVILLE","zip":"78521","geo_score":0.935,"date voted":20120712,"id":"a8n7r844f4mp","address":"3144 E 28TH ST","geo_precision":"range","state":"TX"},"type":"Feature","geometry":{"type":"Point","coordinates":[-97.465554,25.90653]}},{"properties":{"city":"BROWNSVILLE","zip":"78521","geo_score":0.907,"date voted":20120730,"id":"a8n7r8dgkh7n","address":"3801 BOCA CHICA BLVD APT 23","geo_precision":"range","state":"TX"},"type":"Feature","geometry":{"type":"Point","coordinates":[-97.460964,25.918913]}},{"properties":{"city":"BROWNSVILLE","zip":"78521","geo_score":1.0,"date voted":20120730,"id":"a8n7r8h5ln3i","address":"954 CALLE ROBLE","geo_precision":"range","state":"TX"},"type":"Feature","geometry":{"type":"Point","coordinates":[-97.451015,25.92761]}},{"properties":{"city":"BROWNSVILLE","zip":"78521","geo_score":1.0,"date voted":20120730,"id":"a8n7r8do212o","address":"3799 CATTADORI CT","geo_precision":"range","state":"TX"},"type":"Feature","geometry":{"type":"Point","coordinates":[-97.457997,25.939229]}},{"properties":{"city":"BROWNSVILLE","zip":"78521","geo_score":1.0,"date voted":20120731,"id":"a8n7r863jty1","address":"3799 CATTADORI CT","geo_precision":"range","state":"TX"},"type":"Feature","geometry":{"type":"Point","coordinates":[-97.457997,25.939229]}},{"properties":{"city":"BROWNSVILLE","zip":"78521","geo_score":0.947,"date voted":20120712,"id":"a8n7r8ghvueo","address":"3418 LIVEOAK RD","geo_precision":"range","state":"TX"},"type":"Feature","geometry":{"type":"Point","coordinates":[-97.467227,25.939281]}},{"properties":{"city":"BROWNSVILLE","zip":"78521","geo_score":1.0,"date voted":20120725,"id":"a8n7r84axv7b","address":"673 REY SALOMON ST","geo_precision":"range","state":"TX"},"type":"Feature","geometry":{"type":"Point","coordinates":[-97.455942,25.935847]}},{"properties":{"city":"BROWNSVILLE","zip":"78521","geo_score":1.0,"date voted":20120725,"id":"a8n7r8gt9s1d","address":"673 REY SALOMON ST","geo_precision":"range","state":"TX"},"type":"Feature","geometry":{"type":"Point","coordinates":[-97.455942,25.935847]}},{"properties":{"city":"BROWNSVILLE","zip":"78521","geo_score":1.0,"date voted":20120716,"id":"a8n7r8defful","address":"6900 CALIFORNIA RD","geo_precision":"range","state":"TX"},"type":"Feature","geometry":{"type":"Point","coordinates":[-97.417012,25.895153]}},{"properties":{"city":"BROWNSVILLE","zip":"78521","geo_score":1.0,"date voted":20120730,"id":"a8n7r8fckzoc","address":"1969 DEL PRADO DR","geo_precision":"range","state":"TX"},"type":"Feature","geometry":{"type":"Point","coordinates":[-97.441636,25.879638]}},{"properties":{"city":"BROWNSVILLE","zip":"78521","geo_score":1.0,"date voted":20120731,"id":"a8n7r8eywmbr","address":"7092 LOS LOBOS","geo_precision":"range","state":"TX"},"type":"Feature","geometry":{"type":"Point","coordinates":[-97.415858,25.88031]}},{"properties":{"city":"BROWNSVILLE","zip":"78521","geo_score":1.0,"date voted":20120724,"id":"a8n7r84nlrt0","address":"7152 LOS LOBOS","geo_precision":"range","state":"TX"},"type":"Feature","geometry":{"type":"Point","coordinates":[-97.41614,25.880081]}},{"properties":{"city":"BROWNSVILLE","zip":"78521","geo_score":0.842,"date voted":20120726,"id":"a8n7r8c71r0w","address":"3030 RENE RD APT 6","geo_precision":"range","state":"TX"},"type":"Feature","geometry":{"type":"Point","coordinates":[-97.432672,25.883181]}},{"properties":{"city":"BROWNSVILLE","zip":"78521","geo_score":1.0,"date voted":20120718,"id":"a8n7r8e3tmtm","address":"1855 VICTORIA DR","geo_precision":"range","state":"TX"},"type":"Feature","geometry":{"type":"Point","coordinates":[-97.444291,25.87865]}},{"properties":{"city":"BROWNSVILLE","zip":"78521","geo_score":0.468,"date voted":20120718,"id":"a8n7r89e6e3s","address":"515 AVENIDA DEL SOL","geo_precision":"street","state":"TX"},"type":"Feature","geometry":{"type":"Point","coordinates":[-97.457337,25.977222]}},{"properties":{"city":"BROWNSVILLE","zip":"78521","geo_score":0.913,"date voted":20120717,"id":"a8n7r8ap9agg","address":"375 BILLY MITCHELL BLVD APT 506","geo_precision":"range","state":"TX"},"type":"Feature","geometry":{"type":"Point","coordinates":[-97.453662,25.912282]}},{"properties":{"city":"BROWNSVILLE","zip":"78521","geo_score":0.898,"date voted":20120723,"id":"a8n7r8donnhd","address":"4200 BOCA CHICA BLVD APT 222","geo_precision":"range","state":"TX"},"type":"Feature","geometry":{"type":"Point","coordinates":[-97.452,25.915649]}},{"properties":{"city":"BROWNSVILLE","zip":"78521","geo_score":0.898,"date voted":20120730,"id":"a8n7r81uwwv1","address":"4200 BOCA CHICA BLVD APT 214","geo_precision":"range","state":"TX"},"type":"Feature","geometry":{"type":"Point","coordinates":[-97.452,25.915649]}},{"properties":{"city":"BROWNSVILLE","zip":"78521","geo_score":0.898,"date voted":20120730,"id":"a8n7r87pyjzp","address":"4200 BOCA CHICA BLVD APT 303","geo_precision":"range","state":"TX"},"type":"Feature","geometry":{"type":"Point","coordinates":[-97.452,25.915649]}},{"properties":{"city":"BROWNSVILLE","zip":"78521","geo_score":0.898,"date voted":20120731,"id":"a8n7r8dnrjex","address":"4200 BOCA CHICA BLVD APT 245","geo_precision":"range","state":"TX"},"type":"Feature","geometry":{"type":"Point","coordinates":[-97.452,25.915649]}},{"properties":{"city":"BROWNSVILLE","zip":"78521","geo_score":0.898,"date voted":20120716,"id":"a8n7r831vflj","address":"5107 BOCA CHICA BLVD TRLR 73","geo_precision":"range","state":"TX"},"type":"Feature","geometry":{"type":"Point","coordinates":[-97.438253,25.915512]}},{"properties":{"city":"BROWNSVILLE","zip":"78521","geo_score":1.0,"date voted":20120726,"id":"a8n7r80yg37p","address":"254 S CENTRAL AVE","geo_precision":"range","state":"TX"},"type":"Feature","geometry":{"type":"Point","coordinates":[-97.447618,25.911187]}},{"properties":{"city":"BROWNSVILLE","zip":"78521","geo_score":1.0,"date voted":20120723,"id":"a8n7r84fuu7i","address":"824 SAN JOSE LN","geo_precision":"range","state":"TX"},"type":"Feature","geometry":{"type":"Point","coordinates":[-97.447201,25.901701]}},{"properties":{"city":"BROWNSVILLE","zip":"78521","geo_score":1.0,"date voted":20120718,"id":"a8n7r86rngnh","address":"814 SAN PEDRO LN","geo_precision":"range","state":"TX"},"type":"Feature","geometry":{"type":"Point","coordinates":[-97.4472,25.90239]}},{"properties":{"city":"BROWNSVILLE","zip":"78521","geo_score":1.0,"date voted":20120718,"id":"a8n7r82r8fuk","address":"814 SAN PEDRO LN","geo_precision":"range","state":"TX"},"type":"Feature","geometry":{"type":"Point","coordinates":[-97.4472,25.90239]}},{"properties":{"city":"BROWNSVILLE","zip":"78521","geo_score":1.0,"date voted":20120727,"id":"a8n7r8eenike","address":"334 GALVESTON RD","geo_precision":"range","state":"TX"},"type":"Feature","geometry":{"type":"Point","coordinates":[-97.491293,25.942467]}},{"properties":{"city":"BROWNSVILLE","zip":"78521","geo_score":1.0,"date voted":20120711,"id":"a8n7r8419qur","address":"4 CROWNRIDGE DR","geo_precision":"range","state":"TX"},"type":"Feature","geometry":{"type":"Point","coordinates":[-97.462192,25.930045]}},{"properties":{"city":"BROWNSVILLE","zip":"78521","geo_score":1.0,"date voted":20120725,"id":"a8n7r8bjazyq","address":"74 SHORELINE DR","geo_precision":"range","state":"TX"},"type":"Feature","geometry":{"type":"Point","coordinates":[-97.468982,25.933316]}},{"properties":{"city":"BROWNSVILLE","zip":"78521","geo_score":1.0,"date voted":20120723,"id":"a8n7r8gist6v","address":"195 AGUILA DR","geo_precision":"range","state":"TX"},"type":"Feature","geometry":{"type":"Point","coordinates":[-97.450407,25.906829]}},{"properties":{"city":"BROWNSVILLE","zip":"78521","geo_score":1.0,"date voted":20120727,"id":"a8n7r8gbjs9s","address":"4424 DEI GRATIA DR","geo_precision":"range","state":"TX"},"type":"Feature","geometry":{"type":"Point","coordinates":[-97.451054,25.900463]}},{"properties":{"city":"BROWNSVILLE","zip":"78521","geo_score":0.883,"date voted":20120717,"id":"a8n7r8a9efr5","address":"2800 CHAPARRAL ST APT 1-B","geo_precision":"range","state":"TX"},"type":"Feature","geometry":{"type":"Point","coordinates":[-97.46346,25.908458]}},{"properties":{"city":"BROWNSVILLE","zip":"78521","geo_score":0.935,"date voted":20120718,"id":"a8n7r8b8u1oe","address":"3354 E 26TH ST","geo_precision":"range","state":"TX"},"type":"Feature","geometry":{"type":"Point","coordinates":[-97.46669,25.908282]}},{"properties":{"city":"BROWNSVILLE","zip":"78521","geo_score":0.935,"date voted":20120718,"id":"a8n7r897765j","address":"3354 E 26TH ST","geo_precision":"range","state":"TX"},"type":"Feature","geometry":{"type":"Point","coordinates":[-97.46669,25.908282]}},{"properties":{"city":"BROWNSVILLE","zip":"78521","geo_score":0.935,"date voted":20120724,"id":"a8n7r8ggdm9l","address":"3434 E 26TH ST","geo_precision":"range","state":"TX"},"type":"Feature","geometry":{"type":"Point","coordinates":[-97.465975,25.9106]}},{"properties":{"city":"BROWNSVILLE","zip":"78521","geo_score":0.935,"date voted":20120717,"id":"a8n7r8d4np03","address":"3444 E 26TH ST","geo_precision":"range","state":"TX"},"type":"Feature","geometry":{"type":"Point","coordinates":[-97.466001,25.910469]}},{"properties":{"city":"BROWNSVILLE","zip":"78521","geo_score":0.935,"date voted":20120724,"id":"a8n7r8eyfhuk","address":"3444 E 26TH ST","geo_precision":"range","state":"TX"},"type":"Feature","geometry":{"type":"Point","coordinates":[-97.466001,25.910469]}},{"properties":{"city":"BROWNSVILLE","zip":"78521","geo_score":0.935,"date voted":20120712,"id":"a8n7r84k4txm","address":"3644 E 26TH ST","geo_precision":"range","state":"TX"},"type":"Feature","geometry":{"type":"Point","coordinates":[-97.465603,25.911719]}},{"properties":{"city":"BROWNSVILLE","zip":"78521","geo_score":0.935,"date voted":20120723,"id":"a8n7r87dprnu","address":"3655 E 27TH ST","geo_precision":"range","state":"TX"},"type":"Feature","geometry":{"type":"Point","coordinates":[-97.46527,25.909346]}},{"properties":{"city":"BROWNSVILLE","zip":"78521","geo_score":1.0,"date voted":20120711,"id":"a8n7r839lzjo","address":"5205 AUSTIN RD","geo_precision":"range","state":"TX"},"type":"Feature","geometry":{"type":"Point","coordinates":[-97.435457,25.929875]}},{"properties":{"city":"BROWNSVILLE","zip":"78521","geo_score":1.0,"date voted":20120712,"id":"a8n7r80tctlo","address":"4622 CENTRAL CIR","geo_precision":"range","state":"TX"},"type":"Feature","geometry":{"type":"Point","coordinates":[-97.44632,25.918149]}},{"properties":{"city":"BROWNSVILLE","zip":"78521","geo_score":1.0,"date voted":20120730,"id":"a8n7r879a7my","address":"34 ELOY ST","geo_precision":"range","state":"TX"},"type":"Feature","geometry":{"type":"Point","coordinates":[-97.445144,25.927158]}},{"properties":{"city":"BROWNSVILLE","zip":"78521","geo_score":0.629,"date voted":20120731,"id":"a8n7r855nd6u","address":"2310 DENNIS AVE","geo_precision":"street","state":"TX"},"type":"Feature","geometry":{"type":"Point","coordinates":[-97.4733,25.947927]}},{"properties":{"city":"BROWNSVILLE","zip":"78521","geo_score":0.629,"date voted":20120717,"id":"a8n7r88wtqq8","address":"2720 DENNIS AVE","geo_precision":"street","state":"TX"},"type":"Feature","geometry":{"type":"Point","coordinates":[-97.4733,25.947927]}},{"properties":{"city":"BROWNSVILLE","zip":"78521","geo_score":0.805,"date voted":20120717,"id":"a8n7r8eq9pqn","address":"2217 EDUARDO AVE","geo_precision":"range","state":"TX"},"type":"Feature","geometry":{"type":"Point","coordinates":[-97.481963,25.972875]}},{"properties":{"city":"BROWNSVILLE","zip":"78521","geo_score":0.805,"date voted":20120717,"id":"a8n7r8clxhfx","address":"2217 EDUARDO AVE","geo_precision":"range","state":"TX"},"type":"Feature","geometry":{"type":"Point","coordinates":[-97.481963,25.972875]}},{"properties":{"city":"BROWNSVILLE","zip":"78521","geo_score":0.805,"date voted":20120712,"id":"a8n7r83d742l","address":"2221 EDUARDO AVE","geo_precision":"range","state":"TX"},"type":"Feature","geometry":{"type":"Point","coordinates":[-97.482038,25.972878]}},{"properties":{"city":"BROWNSVILLE","zip":"78521","geo_score":0.708,"date voted":20120712,"id":"a8n7r859s6kb","address":"4913 FLORENCIA AVE","geo_precision":"street","state":"TX"},"type":"Feature","geometry":{"type":"Point","coordinates":[-97.482565,25.972973]}},{"properties":{"city":"BROWNSVILLE","zip":"78521","geo_score":0.805,"date voted":20120712,"id":"a8n7r86ap1ci","address":"2028 RANCHO VIEJO AVE","geo_precision":"range","state":"TX"},"type":"Feature","geometry":{"type":"Point","coordinates":[-97.482171,25.977577]}},{"properties":{"city":"BROWNSVILLE","zip":"78521","geo_score":0.89,"date voted":20120717,"id":"a8n7r82tj6x8","address":"2443 CARNESI DR APT B","geo_precision":"range","state":"TX"},"type":"Feature","geometry":{"type":"Point","coordinates":[-97.481408,25.931997]}},{"properties":{"city":"BROWNSVILLE","zip":"78521","geo_score":0.88,"date voted":20120712,"id":"a8n7r81tmd55","address":"375 MEDIA LUNA RD APT 3608","geo_precision":"range","state":"TX"},"type":"Feature","geometry":{"type":"Point","coordinates":[-97.503702,25.944351]}},{"properties":{"city":"BROWNSVILLE","zip":"78521","geo_score":0.88,"date voted":20120717,"id":"a8n7r87m5sc0","address":"375 MEDIA LUNA RD APT 3008","geo_precision":"range","state":"TX"},"type":"Feature","geometry":{"type":"Point","coordinates":[-97.503702,25.944351]}},{"properties":{"city":"BROWNSVILLE","zip":"78521","geo_score":1.0,"date voted":20120711,"id":"a8n7r8gdgrpe","address":"1208 MEDIA LUNA RD","geo_precision":"range","state":"TX"},"type":"Feature","geometry":{"type":"Point","coordinates":[-97.500785,25.944275]}},{"properties":{"city":"BROWNSVILLE","zip":"78521","geo_score":1.0,"date voted":20120730,"id":"a8n7r8f0qm5q","address":"1208 MEDIA LUNA RD","geo_precision":"range","state":"TX"},"type":"Feature","geometry":{"type":"Point","coordinates":[-97.500785,25.944275]}},{"properties":{"city":"BROWNSVILLE","zip":"78521","geo_score":1.0,"date voted":20120731,"id":"a8n7r886yif8","address":"1208 MEDIA LUNA RD","geo_precision":"range","state":"TX"},"type":"Feature","geometry":{"type":"Point","coordinates":[-97.500785,25.944275]}},{"properties":{"city":"BROWNSVILLE","zip":"78521","geo_score":0.398,"date voted":20120712,"id":"a8n7r84mtsmr","address":"2745 ROCKWELL CIR APT B","geo_precision":"street","state":"TX"},"type":"Feature","geometry":{"type":"Point","coordinates":[-99.002123,26.40297]}},{"properties":{"city":"BROWNSVILLE","zip":"78521","geo_score":1.0,"date voted":20120730,"id":"a8n7r8fpflzy","address":"203 AZUCENA AVE","geo_precision":"range","state":"TX"},"type":"Feature","geometry":{"type":"Point","coordinates":[-97.455273,25.893046]}},{"properties":{"city":"BROWNSVILLE","zip":"78521","geo_score":0.979,"date voted":20120717,"id":"a8n7r8eu1mxe","address":"4632 CALLE LA MANSION","geo_precision":"range","state":"TX"},"type":"Feature","geometry":{"type":"Point","coordinates":[-97.447025,25.882082]}},{"properties":{"city":"BROWNSVILLE","zip":"78521","geo_score":0.979,"date voted":20120717,"id":"a8n7r8g5vcih","address":"4632 CALLE LA MANSION","geo_precision":"range","state":"TX"},"type":"Feature","geometry":{"type":"Point","coordinates":[-97.447025,25.882082]}},{"properties":{"city":"BROWNSVILLE","zip":"78521","geo_score":0.979,"date voted":20120717,"id":"a8n7r8by0g99","address":"4632 CALLE LA MANSION","geo_precision":"range","state":"TX"},"type":"Feature","geometry":{"type":"Point","coordinates":[-97.447025,25.882082]}},{"properties":{"city":"BROWNSVILLE","zip":"78521","geo_score":1.0,"date voted":20120717,"id":"a8n7r81dsu75","address":"2695 COTTAGE DR","geo_precision":"range","state":"TX"},"type":"Feature","geometry":{"type":"Point","coordinates":[-97.442219,25.886577]}},{"properties":{"city":"BROWNSVILLE","zip":"78521","geo_score":1.0,"date voted":20120717,"id":"a8n7r87upeeg","address":"2695 COTTAGE DR","geo_precision":"range","state":"TX"},"type":"Feature","geometry":{"type":"Point","coordinates":[-97.442219,25.886577]}},{"properties":{"city":"BROWNSVILLE","zip":"78521","geo_score":1.0,"date voted":20120717,"id":"a8n7r8edkaow","address":"2695 COTTAGE DR","geo_precision":"range","state":"TX"},"type":"Feature","geometry":{"type":"Point","coordinates":[-97.442219,25.886577]}},{"properties":{"city":"BROWNSVILLE","zip":"78521","geo_score":1.0,"date voted":20120717,"id":"a8n7r85mugbw","address":"2695 COTTAGE DR","geo_precision":"range","state":"TX"},"type":"Feature","geometry":{"type":"Point","coordinates":[-97.442219,25.886577]}},{"properties":{"city":"BROWNSVILLE","zip":"78521","geo_score":0.971,"date voted":20120713,"id":"a8n7r8350vhf","address":"25 DURAZNO CT","geo_precision":"range","state":"TX"},"type":"Feature","geometry":{"type":"Point","coordinates":[-97.454442,25.89569]}},{"properties":{"city":"BROWNSVILLE","zip":"78521","geo_score":1.0,"date voted":20120727,"id":"a8n7r8f0q2pg","address":"195 ELDA DR","geo_precision":"range","state":"TX"},"type":"Feature","geometry":{"type":"Point","coordinates":[-97.453047,25.892597]}},{"properties":{"city":"BROWNSVILLE","zip":"78521","geo_score":1.0,"date voted":20120720,"id":"a8n7r8a6jf16","address":"114 FRESNO ST","geo_precision":"range","state":"TX"},"type":"Feature","geometry":{"type":"Point","coordinates":[-97.45619,25.896815]}},{"properties":{"city":"BROWNSVILLE","zip":"78521","geo_score":1.0,"date voted":20120716,"id":"a8n7r885t2yt","address":"165 FRESNO ST","geo_precision":"range","state":"TX"},"type":"Feature","geometry":{"type":"Point","coordinates":[-97.456611,25.897044]}},{"properties":{"city":"BROWNSVILLE","zip":"78521","geo_score":1.0,"date voted":20120716,"id":"a8n7r87dc4rl","address":"214 FRESNO ST","geo_precision":"range","state":"TX"},"type":"Feature","geometry":{"type":"Point","coordinates":[-97.45514,25.8955]}},{"properties":{"city":"BROWNSVILLE","zip":"78521","geo_score":1.0,"date voted":20120712,"id":"a8n7r80mgg0w","address":"1326 LA POSADA DR","geo_precision":"range","state":"TX"},"type":"Feature","geometry":{"type":"Point","coordinates":[-97.446489,25.886921]}},{"properties":{"city":"BROWNSVILLE","zip":"78521","geo_score":1.0,"date voted":20120724,"id":"a8n7r8dboksb","address":"741 MILPA VERDE","geo_precision":"range","state":"TX"},"type":"Feature","geometry":{"type":"Point","coordinates":[-97.457446,25.893638]}},{"properties":{"city":"BROWNSVILLE","zip":"78521","geo_score":1.0,"date voted":20120718,"id":"a8n7r82xfanz","address":"788 MILPA VERDE","geo_precision":"range","state":"TX"},"type":"Feature","geometry":{"type":"Point","coordinates":[-97.455097,25.891576]}},{"properties":{"city":"BROWNSVILLE","zip":"78521","geo_score":1.0,"date voted":20120718,"id":"a8n7r86sec5n","address":"788 MILPA VERDE","geo_precision":"range","state":"TX"},"type":"Feature","geometry":{"type":"Point","coordinates":[-97.455097,25.891576]}},{"properties":{"city":"BROWNSVILLE","zip":"78521","geo_score":0.897,"date voted":20120719,"id":"a8n7r87psrkh","address":"934 MILPA VERDE APT 1","geo_precision":"range","state":"TX"},"type":"Feature","geometry":{"type":"Point","coordinates":[-97.453977,25.890698]}},{"properties":{"city":"BROWNSVILLE","zip":"78521","geo_score":0.694,"date voted":20120724,"id":"a8n7r85gorp9","address":"4606 PALACIO REAL DR APT 4","geo_precision":"street","state":"TX"},"type":"Feature","geometry":{"type":"Point","coordinates":[-97.448127,25.883862]}},{"properties":{"city":"BROWNSVILLE","zip":"78521","geo_score":1.0,"date voted":20120724,"id":"a8n7r88ybda9","address":"13 PINO ST","geo_precision":"range","state":"TX"},"type":"Feature","geometry":{"type":"Point","coordinates":[-97.456323,25.896064]}},{"properties":{"city":"BROWNSVILLE","zip":"78521","geo_score":1.0,"date voted":20120724,"id":"a8n7r89njbmy","address":"13 PINO ST","geo_precision":"range","state":"TX"},"type":"Feature","geometry":{"type":"Point","coordinates":[-97.456323,25.896064]}},{"properties":{"city":"BROWNSVILLE","zip":"78521","geo_score":1.0,"date voted":20120717,"id":"a8n7r8dm4p1e","address":"354 SAN EUGENIO ST","geo_precision":"range","state":"TX"},"type":"Feature","geometry":{"type":"Point","coordinates":[-97.455531,25.88997]}},{"properties":{"city":"BROWNSVILLE","zip":"78521","geo_score":1.0,"date voted":20120717,"id":"a8n7r82uxexp","address":"354 SAN EUGENIO ST","geo_precision":"range","state":"TX"},"type":"Feature","geometry":{"type":"Point","coordinates":[-97.455531,25.88997]}},{"properties":{"city":"BROWNSVILLE","zip":"78521","geo_score":0.878,"date voted":20120716,"id":"a8n7r83avvde","address":"5098 SONNY DR","geo_precision":"range","state":"TX"},"type":"Feature","geometry":{"type":"Point","coordinates":[-97.444645,25.891269]}},{"properties":{"city":"BROWNSVILLE","zip":"78521","geo_score":0.878,"date voted":20120716,"id":"a8n7r8gxijit","address":"5098 SONNY DR","geo_precision":"range","state":"TX"},"type":"Feature","geometry":{"type":"Point","coordinates":[-97.444645,25.891269]}},{"properties":{"city":"BROWNSVILLE","zip":"78521","geo_score":0.878,"date voted":20120716,"id":"a8n7r8gl5pf5","address":"5098 SONNY DR","geo_precision":"range","state":"TX"},"type":"Feature","geometry":{"type":"Point","coordinates":[-97.444645,25.891269]}},{"properties":{"city":"BROWNSVILLE","zip":"78521","geo_score":0.902,"date voted":20120719,"id":"a8n7r8fzr1xx","address":"110 ATLANTIC AVE","geo_precision":"street","state":"TX"},"type":"Feature","geometry":{"type":"Point","coordinates":[-97.414202,25.918403]}},{"properties":{"city":"BROWNSVILLE","zip":"78521","geo_score":0.902,"date voted":20120719,"id":"a8n7r8a912l0","address":"110 ATLANTIC AVE","geo_precision":"street","state":"TX"},"type":"Feature","geometry":{"type":"Point","coordinates":[-97.414202,25.918403]}},{"properties":{"city":"BROWNSVILLE","zip":"78521","geo_score":0.655,"date voted":20120727,"id":"a8n7r87jy902","address":"6900 COFFEEPORT RD APT 418","geo_precision":"street","state":"TX"},"type":"Feature","geometry":{"type":"Point","coordinates":[-97.41335,25.93872]}},{"properties":{"city":"BROWNSVILLE","zip":"78521","geo_score":1.0,"date voted":20120713,"id":"a8n7r80w8yn5","address":"6544 LEE ROY CIR","geo_precision":"range","state":"TX"},"type":"Feature","geometry":{"type":"Point","coordinates":[-97.423489,25.927335]}},{"properties":{"city":"BROWNSVILLE","zip":"78521","geo_score":1.0,"date voted":20120725,"id":"a8n7r8c5omu7","address":"6544 LEE ROY CIR","geo_precision":"range","state":"TX"},"type":"Feature","geometry":{"type":"Point","coordinates":[-97.423489,25.927335]}},{"properties":{"city":"BROWNSVILLE","zip":"78521","geo_score":0.927,"date voted":20120730,"id":"a8n7r815781m","address":"7402 MARYLAND AVE","geo_precision":"range","state":"TX"},"type":"Feature","geometry":{"type":"Point","coordinates":[-97.407186,25.935143]}},{"properties":{"city":"BROWNSVILLE","zip":"78521","geo_score":0.927,"date voted":20120731,"id":"a8n7r8d2zq1z","address":"7402 MARYLAND AVE","geo_precision":"range","state":"TX"},"type":"Feature","geometry":{"type":"Point","coordinates":[-97.407186,25.935143]}},{"properties":{"city":"BROWNSVILLE","zip":"78521","geo_score":1.0,"date voted":20120712,"id":"a8n7r8dubat3","address":"6220 TEPEPAN DR","geo_precision":"range","state":"TX"},"type":"Feature","geometry":{"type":"Point","coordinates":[-97.424514,25.929547]}},{"properties":{"city":"BROWNSVILLE","zip":"78521","geo_score":1.0,"date voted":20120712,"id":"a8n7r8dgi8sr","address":"6220 TEPEPAN DR","geo_precision":"range","state":"TX"},"type":"Feature","geometry":{"type":"Point","coordinates":[-97.424514,25.929547]}},{"properties":{"city":"BROWNSVILLE","zip":"78521","geo_score":1.0,"date voted":20120712,"id":"a8n7r81vqthk","address":"2234 OLD PORT ISABEL RD","geo_precision":"range","state":"TX"},"type":"Feature","geometry":{"type":"Point","coordinates":[-97.465936,25.947608]}},{"properties":{"city":"BROWNSVILLE","zip":"78521","geo_score":1.0,"date voted":20120717,"id":"a8n7r80rx7gs","address":"84 SAN MARTIN DR","geo_precision":"range","state":"TX"},"type":"Feature","geometry":{"type":"Point","coordinates":[-97.433539,25.943368]}},{"properties":{"city":"BROWNSVILLE","zip":"78521","geo_score":1.0,"date voted":20120717,"id":"a8n7r80ndcsj","address":"84 SAN MARTIN DR","geo_precision":"range","state":"TX"},"type":"Feature","geometry":{"type":"Point","coordinates":[-97.433539,25.943368]}},{"properties":{"city":"BROWNSVILLE","zip":"78521","geo_score":1.0,"date voted":20120727,"id":"a8n7r8djatsr","address":"354 CEDAR ST","geo_precision":"range","state":"TX"},"type":"Feature","geometry":{"type":"Point","coordinates":[-97.4828,25.926077]}},{"properties":{"city":"BROWNSVILLE","zip":"78521","geo_score":1.0,"date voted":20120723,"id":"a8n7r87ivtox","address":"2624 EASTERN BLVD","geo_precision":"range","state":"TX"},"type":"Feature","geometry":{"type":"Point","coordinates":[-97.48176,25.924457]}},{"properties":{"city":"BROWNSVILLE","zip":"78521","geo_score":0.971,"date voted":20120731,"id":"a8n7r87nnnie","address":"2465 GOODWIN CT","geo_precision":"range","state":"TX"},"type":"Feature","geometry":{"type":"Point","coordinates":[-97.484559,25.925631]}},{"properties":{"city":"BROWNSVILLE","zip":"78521","geo_score":0.87,"date voted":20120716,"id":"a8n7r8758upx","address":"24 LINDALE DR APT 222","geo_precision":"range","state":"TX"},"type":"Feature","geometry":{"type":"Point","coordinates":[-97.48608,25.92958]}},{"properties":{"city":"BROWNSVILLE","zip":"78521","geo_score":0.87,"date voted":20120716,"id":"a8n7r8dpjocl","address":"24 LINDALE DR APT 421","geo_precision":"range","state":"TX"},"type":"Feature","geometry":{"type":"Point","coordinates":[-97.48608,25.92958]}},{"properties":{"city":"BROWNSVILLE","zip":"78521","geo_score":0.87,"date voted":20120716,"id":"a8n7r8b74zo5","address":"24 LINDALE DR APT 533","geo_precision":"range","state":"TX"},"type":"Feature","geometry":{"type":"Point","coordinates":[-97.48608,25.92958]}},{"properties":{"city":"BROWNSVILLE","zip":"78521","geo_score":0.87,"date voted":20120717,"id":"a8n7r83tiaww","address":"24 LINDALE DR APT 311","geo_precision":"range","state":"TX"},"type":"Feature","geometry":{"type":"Point","coordinates":[-97.48608,25.92958]}},{"properties":{"city":"BROWNSVILLE","zip":"78521","geo_score":0.87,"date voted":20120717,"id":"a8n7r842fk0c","address":"24 LINDALE DR APT 331","geo_precision":"range","state":"TX"},"type":"Feature","geometry":{"type":"Point","coordinates":[-97.48608,25.92958]}},{"properties":{"city":"BROWNSVILLE","zip":"78521","geo_score":0.87,"date voted":20120717,"id":"a8n7r8265b6p","address":"24 LINDALE DR APT 511","geo_precision":"range","state":"TX"},"type":"Feature","geometry":{"type":"Point","coordinates":[-97.48608,25.92958]}},{"properties":{"city":"BROWNSVILLE","zip":"78521","geo_score":0.87,"date voted":20120718,"id":"a8n7r8atfk1q","address":"24 LINDALE DR APT 525","geo_precision":"range","state":"TX"},"type":"Feature","geometry":{"type":"Point","coordinates":[-97.48608,25.92958]}},{"properties":{"city":"BROWNSVILLE","zip":"78521","geo_score":0.707,"date voted":20120718,"id":"a8n7r80mh3c3","address":"24 LINDALE DR APT #515","geo_precision":"range","state":"TX"},"type":"Feature","geometry":{"type":"Point","coordinates":[-97.483206,25.934478]}},{"properties":{"city":"BROWNSVILLE","zip":"78521","geo_score":0.87,"date voted":20120723,"id":"a8n7r8ckgv1x","address":"24 LINDALE DR APT 524","geo_precision":"range","state":"TX"},"type":"Feature","geometry":{"type":"Point","coordinates":[-97.48608,25.92958]}},{"properties":{"city":"BROWNSVILLE","zip":"78521","geo_score":0.87,"date voted":20120726,"id":"a8n7r86uxmo8","address":"24 LINDALE DR APT 435","geo_precision":"range","state":"TX"},"type":"Feature","geometry":{"type":"Point","coordinates":[-97.48608,25.92958]}},{"properties":{"city":"BROWNSVILLE","zip":"78521","geo_score":0.87,"date voted":20120730,"id":"a8n7r88tr9wg","address":"2304 SHIDLER DR UNIT 25","geo_precision":"range","state":"TX"},"type":"Feature","geometry":{"type":"Point","coordinates":[-97.486053,25.930976]}},{"properties":{"city":"BROWNSVILLE","zip":"78521","geo_score":0.879,"date voted":20120730,"id":"a8n7r8docgjh","address":"2304 SHIDLER DR APT 25","geo_precision":"range","state":"TX"},"type":"Feature","geometry":{"type":"Point","coordinates":[-97.486053,25.930976]}},{"properties":{"city":"BROWNSVILLE","zip":"78521","geo_score":0.879,"date voted":20120730,"id":"a8n7r8h2giq7","address":"2304 SHIDLER DR APT 25","geo_precision":"range","state":"TX"},"type":"Feature","geometry":{"type":"Point","coordinates":[-97.486053,25.930976]}},{"properties":{"city":"BROWNSVILLE","zip":"78521","geo_score":0.879,"date voted":20120730,"id":"a8n7r86g45uo","address":"2304 SHIDLER DR APT 25","geo_precision":"range","state":"TX"},"type":"Feature","geometry":{"type":"Point","coordinates":[-97.486053,25.930976]}},{"properties":{"city":"BROWNSVILLE","zip":"78521","geo_score":0.879,"date voted":20120731,"id":"a8n7r89zuasy","address":"2304 SHIDLER DR APT 25","geo_precision":"range","state":"TX"},"type":"Feature","geometry":{"type":"Point","coordinates":[-97.486053,25.930976]}},{"properties":{"city":"BROWNSVILLE","zip":"78521","geo_score":1.0,"date voted":20120712,"id":"a8n7r851byoz","address":"314 SIMPSON ST","geo_precision":"range","state":"TX"},"type":"Feature","geometry":{"type":"Point","coordinates":[-97.48816,25.923757]}},{"properties":{"city":"BROWNSVILLE","zip":"78526","geo_score":1.0,"date voted":20120718,"id":"a8n7r8a9nkfb","address":"515 AVENIDA DEL SOL","geo_precision":"range","state":"TX"},"type":"Feature","geometry":{"type":"Point","coordinates":[-97.50956,25.971786]}},{"properties":{"city":"BROWNSVILLE","zip":"78526","geo_score":1.0,"date voted":20120718,"id":"a8n7r8ckty3q","address":"515 AVENIDA DEL SOL","geo_precision":"range","state":"TX"},"type":"Feature","geometry":{"type":"Point","coordinates":[-97.50956,25.971786]}},{"properties":{"city":"BROWNSVILLE","zip":"78526","geo_score":1.0,"date voted":20120724,"id":"a8n7r8egyt7h","address":"5273 CLEARVIEW DR","geo_precision":"range","state":"TX"},"type":"Feature","geometry":{"type":"Point","coordinates":[-97.493234,25.981462]}},{"properties":{"city":"BROWNSVILLE","zip":"78526","geo_score":1.0,"date voted":20120718,"id":"a8n7r84tvwkf","address":"4775 LA CARRETA TRL","geo_precision":"range","state":"TX"},"type":"Feature","geometry":{"type":"Point","coordinates":[-97.493887,25.976444]}},{"properties":{"city":"BROWNSVILLE","zip":"78526","geo_score":1.0,"date voted":20120723,"id":"a8n7r822cn7h","address":"5078 LA CARRETA TRL","geo_precision":"range","state":"TX"},"type":"Feature","geometry":{"type":"Point","coordinates":[-97.494323,25.979375]}},{"properties":{"city":"BROWNSVILLE","zip":"78526","geo_score":1.0,"date voted":20120717,"id":"a8n7r8ch7gfw","address":"1104 PASADERO DR","geo_precision":"range","state":"TX"},"type":"Feature","geometry":{"type":"Point","coordinates":[-97.500916,25.974625]}},{"properties":{"city":"BROWNSVILLE","zip":"78526","geo_score":0.327,"date voted":20120731,"id":"a8n7r8agr5n2","address":"7960 TOPO CHICO CIR APT B","geo_precision":"street","state":"TX"},"type":"Feature","geometry":{"type":"Point","coordinates":[-97.750388,26.202892]}},{"properties":{"city":"BROWNSVILLE","zip":"78526","geo_score":0.695,"date voted":20120716,"id":"a8n7r8g2ok00","address":"1155 PAREDES LINE RD APT 1005","geo_precision":"street","state":"TX"},"type":"Feature","geometry":{"type":"Point","coordinates":[-97.483434,25.992435]}},{"properties":{"city":"BROWNSVILLE","zip":"78526","geo_score":0.695,"date voted":20120716,"id":"a8n7r832r29c","address":"1155 PAREDES LINE RD APT 1005","geo_precision":"street","state":"TX"},"type":"Feature","geometry":{"type":"Point","coordinates":[-97.483434,25.992435]}},{"properties":{"city":"BROWNSVILLE","zip":"78526","geo_score":0.732,"date voted":20120730,"id":"a8n7r8ec63n9","address":"602 OLD PORT ISABEL RD APT 2","geo_precision":"street","state":"TX"},"type":"Feature","geometry":{"type":"Point","coordinates":[-97.464777,25.949863]}},{"properties":{"city":"BROWNSVILLE","zip":"78526","geo_score":0.732,"date voted":20120731,"id":"a8n7r8aouibd","address":"602 OLD PORT ISABEL RD APT 2","geo_precision":"street","state":"TX"},"type":"Feature","geometry":{"type":"Point","coordinates":[-97.464777,25.949863]}},{"properties":{"city":"BROWNSVILLE","zip":"78526","geo_score":1.0,"date voted":20120724,"id":"a8n7r8bg5d4k","address":"6802 EL LAGO DR","geo_precision":"range","state":"TX"},"type":"Feature","geometry":{"type":"Point","coordinates":[-97.417678,25.94267]}},{"properties":{"city":"BROWNSVILLE","zip":"78526","geo_score":0.76,"date voted":20120716,"id":"a8n7r8adcq9q","address":"1308 GUADALUPE CIR","geo_precision":"range","state":"TX"},"type":"Feature","geometry":{"type":"Point","coordinates":[-98.177325,26.289651]}},{"properties":{"city":"BROWNSVILLE","zip":"78526","geo_score":1.0,"date voted":20120731,"id":"a8n7r81qg0i0","address":"6761 LAGUNA MADRE DR","geo_precision":"range","state":"TX"},"type":"Feature","geometry":{"type":"Point","coordinates":[-97.419846,25.943381]}},{"properties":{"city":"BROWNSVILLE","zip":"78526","geo_score":0.875,"date voted":20120726,"id":"a8n7r87bto4g","address":"6630 SIMON PLACE APT 1","geo_precision":"range","state":"TX"},"type":"Feature","geometry":{"type":"Point","coordinates":[-97.415526,25.941867]}},{"properties":{"city":"BROWNSVILLE","zip":"78526","geo_score":0.503,"date voted":20120730,"id":"a8n7r8b1sxhk","address":"3546 BRASILIA DR","geo_precision":"street","state":"TX"},"type":"Feature","geometry":{"type":"Point","coordinates":[-97.725837,26.196454]}},{"properties":{"city":"BROWNSVILLE","zip":"78526","geo_score":0.976,"date voted":20120725,"id":"a8n7r89pamrj","address":"3694 CALLE NORTENIA","geo_precision":"range","state":"TX"},"type":"Feature","geometry":{"type":"Point","coordinates":[-97.482693,25.967143]}},{"properties":{"city":"BROWNSVILLE","zip":"78526","geo_score":0.585,"date voted":20120716,"id":"a8n7r8beil3v","address":"77 CASTELLANO CIR","geo_precision":"zip","state":"TX"},"type":"Feature","geometry":{"type":"Point","coordinates":[-97.469871,25.971728]}},{"properties":{"city":"BROWNSVILLE","zip":"78526","geo_score":0.766,"date voted":20120712,"id":"a8n7r83doa17","address":"2800 FM 802 APT 1044","geo_precision":"range","state":"TX"},"type":"Feature","geometry":{"type":"Point","coordinates":[-97.486866,25.951154]}},{"properties":{"city":"BROWNSVILLE","zip":"78526","geo_score":0.766,"date voted":20120712,"id":"a8n7r8e3ok4l","address":"2800 FM 802 APT 1056","geo_precision":"range","state":"TX"},"type":"Feature","geometry":{"type":"Point","coordinates":[-97.486866,25.951154]}},{"properties":{"city":"BROWNSVILLE","zip":"78526","geo_score":0.785,"date voted":20120712,"id":"a8n7r8eafl4w","address":"2800 FM 802 APT 1042","geo_precision":"range","state":"TX"},"type":"Feature","geometry":{"type":"Point","coordinates":[-97.486866,25.951154]}},{"properties":{"city":"BROWNSVILLE","zip":"78526","geo_score":0.766,"date voted":20120712,"id":"a8n7r8d6v23t","address":"2800 FM 802 APT 1043","geo_precision":"range","state":"TX"},"type":"Feature","geometry":{"type":"Point","coordinates":[-97.486866,25.951154]}},{"properties":{"city":"BROWNSVILLE","zip":"78526","geo_score":0.785,"date voted":20120718,"id":"a8n7r8chm9lr","address":"2800 FM 802 APT 3023","geo_precision":"range","state":"TX"},"type":"Feature","geometry":{"type":"Point","coordinates":[-97.486866,25.951154]}},{"properties":{"city":"BROWNSVILLE","zip":"78526","geo_score":0.785,"date voted":20120718,"id":"a8n7r8eumq97","address":"2800 FM 802 APT 1025","geo_precision":"range","state":"TX"},"type":"Feature","geometry":{"type":"Point","coordinates":[-97.486866,25.951154]}},{"properties":{"city":"BROWNSVILLE","zip":"78526","geo_score":0.766,"date voted":20120730,"id":"a8n7r84b4i2e","address":"2800 FM 802 APT 1059","geo_precision":"range","state":"TX"},"type":"Feature","geometry":{"type":"Point","coordinates":[-97.486866,25.951154]}},{"properties":{"city":"BROWNSVILLE","zip":"78526","geo_score":0.766,"date voted":20120730,"id":"a8n7r8735lih","address":"2800 FM 802 APT 2041","geo_precision":"range","state":"TX"},"type":"Feature","geometry":{"type":"Point","coordinates":[-97.486866,25.951154]}},{"properties":{"city":"BROWNSVILLE","zip":"78526","geo_score":0.766,"date voted":20120730,"id":"a8n7r8c4wzce","address":"2800 FM 802 APT 1056","geo_precision":"range","state":"TX"},"type":"Feature","geometry":{"type":"Point","coordinates":[-97.486866,25.951154]}},{"properties":{"city":"BROWNSVILLE","zip":"78526","geo_score":0.766,"date voted":20120730,"id":"a8n7r80s7o6w","address":"2800 FM 802 APT 1051","geo_precision":"range","state":"TX"},"type":"Feature","geometry":{"type":"Point","coordinates":[-97.486866,25.951154]}},{"properties":{"city":"BROWNSVILLE","zip":"78526","geo_score":0.766,"date voted":20120731,"id":"a8n7r8eq96rc","address":"2800 FM 802 APT 1081","geo_precision":"range","state":"TX"},"type":"Feature","geometry":{"type":"Point","coordinates":[-97.486866,25.951154]}},{"properties":{"city":"BROWNSVILLE","zip":"78526","geo_score":0.766,"date voted":20120731,"id":"a8n7r8egjojq","address":"2800 FM 802 APT 2055","geo_precision":"range","state":"TX"},"type":"Feature","geometry":{"type":"Point","coordinates":[-97.486866,25.951154]}},{"properties":{"city":"BROWNSVILLE","zip":"78526","geo_score":0.717,"date voted":20120720,"id":"a8n7r8fvwdjt","address":"2301 OLD PORT ISABEL RD TRLR 75","geo_precision":"street","state":"TX"},"type":"Feature","geometry":{"type":"Point","coordinates":[-97.464777,25.949863]}},{"properties":{"city":"BROWNSVILLE","zip":"78526","geo_score":1.0,"date voted":20120723,"id":"a8n7r82ntnu8","address":"403 WINTERHAVEN LN","geo_precision":"range","state":"TX"},"type":"Feature","geometry":{"type":"Point","coordinates":[-97.460828,25.959166]}},{"properties":{"city":"BROWNSVILLE","zip":"78526","geo_score":1.0,"date voted":20120723,"id":"a8n7r89yrw4e","address":"403 WINTERHAVEN LN","geo_precision":"range","state":"TX"},"type":"Feature","geometry":{"type":"Point","coordinates":[-97.460828,25.959166]}},{"properties":{"city":"BROWNSVILLE","zip":"78526","geo_score":1.0,"date voted":20120723,"id":"a8n7r8ffakis","address":"85 VARADERO ST","geo_precision":"range","state":"TX"},"type":"Feature","geometry":{"type":"Point","coordinates":[-97.491166,25.967715]}},{"properties":{"city":"BROWNSVILLE","zip":"78526","geo_score":0.884,"date voted":20120712,"id":"a8n7r8b25u94","address":"5225 CAMINO DE LA TIERRA","geo_precision":"range","state":"TX"},"type":"Feature","geometry":{"type":"Point","coordinates":[-97.463042,25.979024]}},{"properties":{"city":"BROWNSVILLE","zip":"78526","geo_score":1.0,"date voted":20120713,"id":"a8n7r8c4u8ml","address":"2409 CARLOS AVE","geo_precision":"range","state":"TX"},"type":"Feature","geometry":{"type":"Point","coordinates":[-97.480059,25.973787]}},{"properties":{"city":"BROWNSVILLE","zip":"78526","geo_score":1.0,"date voted":20120731,"id":"a8n7r88m6jdy","address":"2304 DELIA AVE","geo_precision":"range","state":"TX"},"type":"Feature","geometry":{"type":"Point","coordinates":[-97.48081,25.973645]}},{"properties":{"city":"BROWNSVILLE","zip":"78526","geo_score":1.0,"date voted":20120718,"id":"a8n7r8ek7zce","address":"2206 DENNIS AVE","geo_precision":"range","state":"TX"},"type":"Feature","geometry":{"type":"Point","coordinates":[-97.480962,25.970887]}},{"properties":{"city":"BROWNSVILLE","zip":"78526","geo_score":1.0,"date voted":20120731,"id":"a8n7r8bby08c","address":"2215 DENNIS AVE","geo_precision":"range","state":"TX"},"type":"Feature","geometry":{"type":"Point","coordinates":[-97.481099,25.970801]}},{"properties":{"city":"BROWNSVILLE","zip":"78526","geo_score":1.0,"date voted":20120718,"id":"a8n7r88khh2i","address":"2310 DENNIS AVE","geo_precision":"range","state":"TX"},"type":"Feature","geometry":{"type":"Point","coordinates":[-97.48166,25.971336]}},{"properties":{"city":"BROWNSVILLE","zip":"78526","geo_score":1.0,"date voted":20120719,"id":"a8n7r826vhzc","address":"2508 DENNIS AVE","geo_precision":"range","state":"TX"},"type":"Feature","geometry":{"type":"Point","coordinates":[-97.478724,25.969493]}},{"properties":{"city":"BROWNSVILLE","zip":"78526","geo_score":1.0,"date voted":20120717,"id":"a8n7r8f103p7","address":"4601 EDUARDO AVE","geo_precision":"range","state":"TX"},"type":"Feature","geometry":{"type":"Point","coordinates":[-97.484355,25.97274]}},{"properties":{"city":"BROWNSVILLE","zip":"78526","geo_score":1.0,"date voted":20120712,"id":"a8n7r86fw3oe","address":"4602 EDUARDO AVE","geo_precision":"range","state":"TX"},"type":"Feature","geometry":{"type":"Point","coordinates":[-97.483558,25.972761]}},{"properties":{"city":"BROWNSVILLE","zip":"78526","geo_score":1.0,"date voted":20120712,"id":"a8n7r8ei4pf5","address":"4602 EDUARDO AVE","geo_precision":"range","state":"TX"},"type":"Feature","geometry":{"type":"Point","coordinates":[-97.483558,25.972761]}},{"properties":{"city":"BROWNSVILLE","zip":"78526","geo_score":1.0,"date voted":20120713,"id":"a8n7r8h5hx7x","address":"2409 FLORENCIA AVE","geo_precision":"range","state":"TX"},"type":"Feature","geometry":{"type":"Point","coordinates":[-97.475714,25.964391]}},{"properties":{"city":"BROWNSVILLE","zip":"78526","geo_score":1.0,"date voted":20120713,"id":"a8n7r85m8bi5","address":"2601 FLORENCIA AVE","geo_precision":"range","state":"TX"},"type":"Feature","geometry":{"type":"Point","coordinates":[-97.480219,25.967271]}},{"properties":{"city":"BROWNSVILLE","zip":"78526","geo_score":1.0,"date voted":20120723,"id":"a8n7r8a8f2uo","address":"4801 FLORENCIA AVE","geo_precision":"range","state":"TX"},"type":"Feature","geometry":{"type":"Point","coordinates":[-97.48243,25.974555]}},{"properties":{"city":"BROWNSVILLE","zip":"78526","geo_score":1.0,"date voted":20120712,"id":"a8n7r8gvnky2","address":"4913 FLORENCIA AVE","geo_precision":"range","state":"TX"},"type":"Feature","geometry":{"type":"Point","coordinates":[-97.48243,25.974555]}},{"properties":{"city":"BROWNSVILLE","zip":"78526","geo_score":1.0,"date voted":20120712,"id":"a8n7r86rypga","address":"4913 FLORENCIA AVE","geo_precision":"range","state":"TX"},"type":"Feature","geometry":{"type":"Point","coordinates":[-97.48243,25.974555]}},{"properties":{"city":"BROWNSVILLE","zip":"78526","geo_score":1.0,"date voted":20120731,"id":"a8n7r8bnklsl","address":"2601 GREGORY AVE","geo_precision":"range","state":"TX"},"type":"Feature","geometry":{"type":"Point","coordinates":[-97.478254,25.967883]}},{"properties":{"city":"BROWNSVILLE","zip":"78526","geo_score":1.0,"date voted":20120731,"id":"a8n7r8fdvzl9","address":"2710 GREGORY AVE","geo_precision":"range","state":"TX"},"type":"Feature","geometry":{"type":"Point","coordinates":[-97.476852,25.96706]}},{"properties":{"city":"BROWNSVILLE","zip":"78526","geo_score":1.0,"date voted":20120731,"id":"a8n7r80nlajc","address":"2710 GREGORY AVE","geo_precision":"range","state":"TX"},"type":"Feature","geometry":{"type":"Point","coordinates":[-97.476852,25.96706]}},{"properties":{"city":"BROWNSVILLE","zip":"78526","geo_score":1.0,"date voted":20120713,"id":"a8n7r86eyv88","address":"2722 GREGORY AVE","geo_precision":"range","state":"TX"},"type":"Feature","geometry":{"type":"Point","coordinates":[-97.476709,25.966957]}},{"properties":{"city":"BROWNSVILLE","zip":"78526","geo_score":1.0,"date voted":20120712,"id":"a8n7r8e9c8e9","address":"2733 GREGORY AVE","geo_precision":"range","state":"TX"},"type":"Feature","geometry":{"type":"Point","coordinates":[-97.476677,25.96675]}},{"properties":{"city":"BROWNSVILLE","zip":"78526","geo_score":1.0,"date voted":20120713,"id":"a8n7r86hps4d","address":"2206 JEFFERY AVE","geo_precision":"range","state":"TX"},"type":"Feature","geometry":{"type":"Point","coordinates":[-97.478962,25.967589]}},{"properties":{"city":"BROWNSVILLE","zip":"78526","geo_score":1.0,"date voted":20120726,"id":"a8n7r878cs2m","address":"2409 JEFFERY AVE","geo_precision":"range","state":"TX"},"type":"Feature","geometry":{"type":"Point","coordinates":[-97.480959,25.968844]}},{"properties":{"city":"BROWNSVILLE","zip":"78526","geo_score":1.0,"date voted":20120726,"id":"a8n7r8ao7xx5","address":"2411 JEFFERY AVE","geo_precision":"range","state":"TX"},"type":"Feature","geometry":{"type":"Point","coordinates":[-97.480978,25.968858]}},{"properties":{"city":"BROWNSVILLE","zip":"78526","geo_score":1.0,"date voted":20120713,"id":"a8n7r8di1igc","address":"4008 KATARINA AVE","geo_precision":"range","state":"TX"},"type":"Feature","geometry":{"type":"Point","coordinates":[-97.47269,25.966219]}},{"properties":{"city":"BROWNSVILLE","zip":"78526","geo_score":1.0,"date voted":20120731,"id":"a8n7r85zbj3m","address":"4124 KATARINA AVE","geo_precision":"range","state":"TX"},"type":"Feature","geometry":{"type":"Point","coordinates":[-97.472644,25.966721]}},{"properties":{"city":"BROWNSVILLE","zip":"78526","geo_score":1.0,"date voted":20120731,"id":"a8n7r8ak4i7r","address":"2308 LOUIS AVE","geo_precision":"range","state":"TX"},"type":"Feature","geometry":{"type":"Point","coordinates":[-97.476305,25.974822]}},{"properties":{"city":"BROWNSVILLE","zip":"78526","geo_score":1.0,"date voted":20120718,"id":"a8n7r8dihedp","address":"2408 LOUIS AVE","geo_precision":"range","state":"TX"},"type":"Feature","geometry":{"type":"Point","coordinates":[-97.476112,25.974774]}},{"properties":{"city":"BROWNSVILLE","zip":"78526","geo_score":1.0,"date voted":20120713,"id":"a8n7r8eptb4c","address":"2407 MAGDALENA AVE","geo_precision":"range","state":"TX"},"type":"Feature","geometry":{"type":"Point","coordinates":[-97.476866,25.972848]}},{"properties":{"city":"BROWNSVILLE","zip":"78526","geo_score":1.0,"date voted":20120713,"id":"a8n7r83kx1i7","address":"2407 MAGDALENA AVE","geo_precision":"range","state":"TX"},"type":"Feature","geometry":{"type":"Point","coordinates":[-97.476866,25.972848]}},{"properties":{"city":"BROWNSVILLE","zip":"78526","geo_score":1.0,"date voted":20120719,"id":"a8n7r89d1d65","address":"2208 NANNETTE AVE","geo_precision":"range","state":"TX"},"type":"Feature","geometry":{"type":"Point","coordinates":[-97.481687,25.972168]}},{"properties":{"city":"BROWNSVILLE","zip":"78526","geo_score":1.0,"date voted":20120727,"id":"a8n7r8e5dazm","address":"2210 NANNETTE AVE","geo_precision":"range","state":"TX"},"type":"Feature","geometry":{"type":"Point","coordinates":[-97.481711,25.97217]}},{"properties":{"city":"BROWNSVILLE","zip":"78526","geo_score":1.0,"date voted":20120717,"id":"a8n7r877lmg2","address":"2711 NANNETTE AVE","geo_precision":"range","state":"TX"},"type":"Feature","geometry":{"type":"Point","coordinates":[-97.475676,25.968312]}},{"properties":{"city":"BROWNSVILLE","zip":"78526","geo_score":1.0,"date voted":20120713,"id":"a8n7r84hqlfu","address":"2024 RANCHO VIEJO AVE","geo_precision":"range","state":"TX"},"type":"Feature","geometry":{"type":"Point","coordinates":[-97.482171,25.977577]}},{"properties":{"city":"BROWNSVILLE","zip":"78526","geo_score":1.0,"date voted":20120713,"id":"a8n7r894hh7z","address":"2024 RANCHO VIEJO AVE","geo_precision":"range","state":"TX"},"type":"Feature","geometry":{"type":"Point","coordinates":[-97.482171,25.977577]}},{"properties":{"city":"BROWNSVILLE","zip":"78526","geo_score":1.0,"date voted":20120713,"id":"a8n7r86bebgg","address":"2028 RANCHO VIEJO AVE","geo_precision":"range","state":"TX"},"type":"Feature","geometry":{"type":"Point","coordinates":[-97.482171,25.977577]}},{"properties":{"city":"BROWNSVILLE","zip":"78526","geo_score":1.0,"date voted":20120726,"id":"a8n7r8a5ak1j","address":"2205 RANCHO VIEJO AVE","geo_precision":"range","state":"TX"},"type":"Feature","geometry":{"type":"Point","coordinates":[-97.483381,25.979529]}},{"properties":{"city":"BROWNSVILLE","zip":"78526","geo_score":1.0,"date voted":20120723,"id":"a8n7r8ftoyn6","address":"2710 SMITH RD","geo_precision":"range","state":"TX"},"type":"Feature","geometry":{"type":"Point","coordinates":[-97.444727,25.975989]}},{"properties":{"city":"BROWNSVILLE","zip":"78526","geo_score":1.0,"date voted":20120723,"id":"a8n7r8gjj6q1","address":"2710 SMITH RD","geo_precision":"range","state":"TX"},"type":"Feature","geometry":{"type":"Point","coordinates":[-97.444727,25.975989]}},{"properties":{"city":"BROWNSVILLE","zip":"78526","geo_score":0.805,"date voted":20120723,"id":"a8n7r8gj42fn","address":"4820 SOL RD STE 206-333","geo_precision":"range","state":"TX"},"type":"Feature","geometry":{"type":"Point","coordinates":[-97.455126,25.973183]}},{"properties":{"city":"BROWNSVILLE","zip":"78526","geo_score":0.805,"date voted":20120727,"id":"a8n7r81b3w6x","address":"4820 SOL RD STE 206-333","geo_precision":"range","state":"TX"},"type":"Feature","geometry":{"type":"Point","coordinates":[-97.455126,25.973183]}},{"properties":{"city":"BROWNSVILLE","zip":"78526","geo_score":0.749,"date voted":20120724,"id":"a8n7r86xe8bl","address":"5565 FM 802 APT 333","geo_precision":"range","state":"TX"},"type":"Feature","geometry":{"type":"Point","coordinates":[-97.433993,25.945912]}},{"properties":{"city":"BROWNSVILLE","zip":"78526","geo_score":0.806,"date voted":20120712,"id":"a8n7r8bizxgw","address":"2234 OLD PORT ISABEL RD","geo_precision":"street","state":"TX"},"type":"Feature","geometry":{"type":"Point","coordinates":[-97.464777,25.949863]}},{"properties":{"city":"BROWNSVILLE","zip":"78526","geo_score":0.806,"date voted":20120712,"id":"a8n7r89bksj4","address":"2234 OLD PORT ISABEL RD","geo_precision":"street","state":"TX"},"type":"Feature","geometry":{"type":"Point","coordinates":[-97.464777,25.949863]}},{"properties":{"city":"BROWNSVILLE","zip":"78526","geo_score":0.806,"date voted":20120730,"id":"a8n7r87h75nz","address":"2246 OLD PORT ISABEL RD","geo_precision":"street","state":"TX"},"type":"Feature","geometry":{"type":"Point","coordinates":[-97.464777,25.949863]}},{"properties":{"city":"BROWNSVILLE","zip":"78526","geo_score":0.806,"date voted":20120731,"id":"a8n7r85nns59","address":"2246 OLD PORT ISABEL RD","geo_precision":"street","state":"TX"},"type":"Feature","geometry":{"type":"Point","coordinates":[-97.464777,25.949863]}},{"properties":{"city":"BROWNSVILLE","zip":"78526","geo_score":0.807,"date voted":20120712,"id":"a8n7r8f9zaym","address":"2300 OLD PORT ISABEL RD","geo_precision":"street","state":"TX"},"type":"Feature","geometry":{"type":"Point","coordinates":[-97.464777,25.949863]}},{"properties":{"city":"BROWNSVILLE","zip":"78526","geo_score":0.807,"date voted":20120712,"id":"a8n7r8248chx","address":"2300 OLD PORT ISABEL RD","geo_precision":"street","state":"TX"},"type":"Feature","geometry":{"type":"Point","coordinates":[-97.464777,25.949863]}},{"properties":{"city":"BROWNSVILLE","zip":"78526","geo_score":1.0,"date voted":20120730,"id":"a8n7r8drdlr7","address":"2728 OLD PORT ISABEL RD","geo_precision":"range","state":"TX"},"type":"Feature","geometry":{"type":"Point","coordinates":[-97.461705,25.9549]}},{"properties":{"city":"BROWNSVILLE","zip":"78526","geo_score":0.715,"date voted":20120716,"id":"a8n7r8clh5ob","address":"529 OLD PORT ISABEL RD APT 216","geo_precision":"street","state":"TX"},"type":"Feature","geometry":{"type":"Point","coordinates":[-97.464777,25.949863]}},{"properties":{"city":"BROWNSVILLE","zip":"78526","geo_score":0.707,"date voted":20120717,"id":"a8n7r8ft2pru","address":"529 OLD PORT ISABEL RD APT 1204","geo_precision":"street","state":"TX"},"type":"Feature","geometry":{"type":"Point","coordinates":[-97.464777,25.949863]}},{"properties":{"city":"BROWNSVILLE","zip":"78526","geo_score":0.805,"date voted":20120730,"id":"a8n7r8cg72j3","address":"45 EBONY AVE","geo_precision":"range","state":"TX"},"type":"Feature","geometry":{"type":"Point","coordinates":[-97.494498,25.917875]}},{"properties":{"city":"BROWNSVILLE","zip":"78526","geo_score":0.805,"date voted":20120730,"id":"a8n7r88lnag0","address":"45 EBONY AVE","geo_precision":"range","state":"TX"},"type":"Feature","geometry":{"type":"Point","coordinates":[-97.494498,25.917875]}},{"properties":{"city":"BROWNSVILLE","zip":"78526","geo_score":0.782,"date voted":20120731,"id":"a8n7r8efp2vw","address":"6006 BLANCO RIVER ST","geo_precision":"street","state":"TX"},"type":"Feature","geometry":{"type":"Point","coordinates":[-97.515683,25.997087]}},{"properties":{"city":"BROWNSVILLE","zip":"78526","geo_score":0.473,"date voted":20120717,"id":"a8n7r81adao2","address":"5940 HIDDEN HIDEAWAY","geo_precision":"street","state":"TX"},"type":"Feature","geometry":{"type":"Point","coordinates":[-97.769557,26.183498]}},{"properties":{"city":"BROWNSVILLE","zip":"78526","geo_score":1.0,"date voted":20120727,"id":"a8n7r8cc05yq","address":"5517 SAWMILL DRAW","geo_precision":"range","state":"TX"},"type":"Feature","geometry":{"type":"Point","coordinates":[-97.501353,25.987399]}},{"properties":{"city":"LOS FRESNOS","zip":"78566","geo_score":1.0,"date voted":20120727,"id":"a8n7r87zmm3r","address":"32543 ORO ST","geo_precision":"range","state":"TX"},"type":"Feature","geometry":{"type":"Point","coordinates":[-97.499545,26.060573]}},{"properties":{"city":"LOS FRESNOS","zip":"78566","geo_score":0.585,"date voted":20120727,"id":"a8n7r8cysyhx","address":"34 N TEXOMA ST","geo_precision":"zip","state":"TX"},"type":"Feature","geometry":{"type":"Point","coordinates":[-97.552425,26.131503]}},{"properties":{"city":"LOS FRESNOS","zip":"78566","geo_score":0.382,"date voted":20120716,"id":"a8n7r8c4q802","address":"29911 ESQUINA CIR LOT 27","geo_precision":"street","state":"TX"},"type":"Feature","geometry":{"type":"Point","coordinates":[-98.245266,26.234083]}},{"properties":{"city":"LOS FRESNOS","zip":"78566","geo_score":0.854,"date voted":20120731,"id":"a8n7r83z532v","address":"31794 FM 3069","geo_precision":"range","state":"TX"},"type":"Feature","geometry":{"type":"Point","coordinates":[-97.435925,26.0977]}},{"properties":{"city":"LOUSIVILLE","zip":"40207","geo_score":0.503,"date voted":20120716,"id":"a8n7r837lf42","address":"4106 WATERFORD CIR # 7","geo_precision":"street","state":"KY"},"type":"Feature","geometry":{"type":"Point","coordinates":[-85.640154,38.275788]}},{"properties":{"city":"LAREDO","zip":"78041","geo_score":1.0,"date voted":20120716,"id":"a8n7r843401m","address":"3820 SANTA MARIA AVE","geo_precision":"range","state":"TX"},"type":"Feature","geometry":{"type":"Point","coordinates":[-99.510052,27.534481]}},{"properties":{"city":"BROWNSVILLE","zip":"78520","geo_score":1.0,"date voted":20120731,"id":"a8n7r83k2a69","address":"54 S CAMINO DEL REY","geo_precision":"range","state":"TX"},"type":"Feature","geometry":{"type":"Point","coordinates":[-97.52277,25.930129]}},{"properties":{"city":"BROWNSVILLE","zip":"78520","geo_score":1.0,"date voted":20120717,"id":"a8n7r83g3fof","address":"255 JO ANN LN","geo_precision":"range","state":"TX"},"type":"Feature","geometry":{"type":"Point","coordinates":[-97.537162,25.934257]}},{"properties":{"city":"BROWNSVILLE","zip":"78520","geo_score":1.0,"date voted":20120723,"id":"a8n7r80of6mh","address":"12 N CAMINO DEL REY","geo_precision":"range","state":"TX"},"type":"Feature","geometry":{"type":"Point","coordinates":[-97.521767,25.931199]}},{"properties":{"city":"BROWNSVILLE","zip":"78520","geo_score":1.0,"date voted":20120723,"id":"a8n7r884hsfz","address":"12 N CAMINO DEL REY","geo_precision":"range","state":"TX"},"type":"Feature","geometry":{"type":"Point","coordinates":[-97.521767,25.931199]}},{"properties":{"city":"BROWNSVILLE","zip":"78520","geo_score":1.0,"date voted":20120716,"id":"a8n7r8c19yyq","address":"1655 E HARRISON ST","geo_precision":"range","state":"TX"},"type":"Feature","geometry":{"type":"Point","coordinates":[-97.489133,25.902912]}},{"properties":{"city":"BROWNSVILLE","zip":"78520","geo_score":1.0,"date voted":20120710,"id":"a8n7r8ei3we0","address":"409 W LEVEE ST","geo_precision":"range","state":"TX"},"type":"Feature","geometry":{"type":"Point","coordinates":[-97.511166,25.911851]}},{"properties":{"city":"BROWNSVILLE","zip":"78521","geo_score":0.935,"date voted":20120723,"id":"a8n7r8a95y3u","address":"3034 E 19TH ST","geo_precision":"range","state":"TX"},"type":"Feature","geometry":{"type":"Point","coordinates":[-97.474255,25.908368]}},{"properties":{"city":"BROWNSVILLE","zip":"78521","geo_score":1.0,"date voted":20120712,"id":"a8n7r8eaz06f","address":"875 CALLE ROBLE","geo_precision":"range","state":"TX"},"type":"Feature","geometry":{"type":"Point","coordinates":[-97.451201,25.926808]}},{"properties":{"city":"BROWNSVILLE","zip":"78521","geo_score":1.0,"date voted":20120730,"id":"a8n7r86xxv1a","address":"124 AUGUSTA RD","geo_precision":"range","state":"TX"},"type":"Feature","geometry":{"type":"Point","coordinates":[-97.448334,25.912242]}},{"properties":{"city":"BROWNSVILLE","zip":"78521","geo_score":1.0,"date voted":20120717,"id":"a8n7r8bixd3p","address":"2695 COTTAGE DR","geo_precision":"range","state":"TX"},"type":"Feature","geometry":{"type":"Point","coordinates":[-97.442219,25.886577]}},{"properties":{"city":"BROWNSVILLE","zip":"78522","geo_score":0.659,"date voted":20120730,"id":"a8n7r8648xse","address":"104 SOUTH DR","geo_precision":"range","state":"TX"},"type":"Feature","geometry":{"type":"Point","coordinates":[-97.53071,25.93913]}},{"properties":{"city":"BROWNSVILLE","zip":"78523","geo_score":0.393,"date voted":20120713,"id":"a8n7r811dq4f","address":"P O BOX 5064","geo_precision":"street","state":"TX"},"type":"Feature","geometry":{"type":"Point","coordinates":[-98.971847,26.405002]}},{"properties":{"city":"BROWNSVILLE","zip":"78526","geo_score":1.0,"date voted":20120727,"id":"a8n7r864dx8c","address":"244 CAMAGUEY AVE","geo_precision":"range","state":"TX"},"type":"Feature","geometry":{"type":"Point","coordinates":[-97.498292,25.962096]}},{"properties":{"city":"BROWNSVILLE","zip":"78526","geo_score":0.902,"date voted":20120726,"id":"a8n7r8epxd7b","address":"6613 PAREDES LINE RD","geo_precision":"range","state":"TX"},"type":"Feature","geometry":{"type":"Point","coordinates":[-97.48144,26.008291]}},{"properties":{"city":"HARLINGEN","zip":"78550","geo_score":1.0,"date voted":20120730,"id":"a8n7r898fbdd","address":"2321 E MONROE AVE","geo_precision":"range","state":"TX"},"type":"Feature","geometry":{"type":"Point","coordinates":[-97.672529,26.193828]}},{"properties":{"city":"HARLINGEN","zip":"78550","geo_score":1.0,"date voted":20120723,"id":"a8n7r861kxsm","address":"321 W PIERCE AVE","geo_precision":"range","state":"TX"},"type":"Feature","geometry":{"type":"Point","coordinates":[-97.698683,26.185328]}},{"properties":{"city":"HARLINGEN","zip":"78550","geo_score":1.0,"date voted":20120716,"id":"a8n7r89veax2","address":"2901 PINE VALLEY DR","geo_precision":"range","state":"TX"},"type":"Feature","geometry":{"type":"Point","coordinates":[-97.656302,26.18026]}},{"properties":{"city":"HARLINGEN","zip":"78550","geo_score":0.906,"date voted":20120713,"id":"a8n7r84nibak","address":"2101 TREASURE HILLS BLVD UNIT 405","geo_precision":"range","state":"TX"},"type":"Feature","geometry":{"type":"Point","coordinates":[-97.66674,26.174624]}},{"properties":{"city":"HARLINGEN","zip":"78550","geo_score":1.0,"date voted":20120717,"id":"a8n7r8g0j22e","address":"3306 TREASURE HILLS BLVD","geo_precision":"range","state":"TX"},"type":"Feature","geometry":{"type":"Point","coordinates":[-97.656021,26.176305]}},{"properties":{"city":"HARLINGEN","zip":"78550","geo_score":1.0,"date voted":20120723,"id":"a8n7r85iwc7s","address":"1606 BALL ST","geo_precision":"range","state":"TX"},"type":"Feature","geometry":{"type":"Point","coordinates":[-97.681493,26.207895]}},{"properties":{"city":"HARLINGEN","zip":"78550","geo_score":0.867,"date voted":20120713,"id":"a8n7r83jzgdq","address":"2215 E VINSON AVE APT 10105","geo_precision":"range","state":"TX"},"type":"Feature","geometry":{"type":"Point","coordinates":[-97.671968,26.219902]}},{"properties":{"city":"HARLINGEN","zip":"78550","geo_score":0.867,"date voted":20120713,"id":"a8n7r83un1fi","address":"2215 E VINSON AVE APT 10105","geo_precision":"range","state":"TX"},"type":"Feature","geometry":{"type":"Point","coordinates":[-97.671968,26.219902]}},{"properties":{"city":"HARLINGEN","zip":"78550","geo_score":1.0,"date voted":20120716,"id":"a8n7r83tcju1","address":"709 HUNTER DR","geo_precision":"range","state":"TX"},"type":"Feature","geometry":{"type":"Point","coordinates":[-97.688647,26.214833]}},{"properties":{"city":"HARLINGEN","zip":"78550","geo_score":0.951,"date voted":20120719,"id":"a8n7r8f62nh0","address":"1805 N REDBIRD LN","geo_precision":"range","state":"TX"},"type":"Feature","geometry":{"type":"Point","coordinates":[-97.68344,26.210838]}},{"properties":{"city":"HARLINGEN","zip":"78550","geo_score":0.951,"date voted":20120719,"id":"a8n7r8cvq140","address":"1805 N REDBIRD LN","geo_precision":"range","state":"TX"},"type":"Feature","geometry":{"type":"Point","coordinates":[-97.68344,26.210838]}},{"properties":{"city":"HARLINGEN","zip":"78552","geo_score":1.0,"date voted":20120711,"id":"a8n7r8apij5r","address":"16263 RIO RANCHO RD","geo_precision":"range","state":"TX"},"type":"Feature","geometry":{"type":"Point","coordinates":[-97.763008,26.240497]}},{"properties":{"city":"HARLINGEN","zip":"78552","geo_score":1.0,"date voted":20120711,"id":"a8n7r8fsvluv","address":"16263 RIO RANCHO RD","geo_precision":"range","state":"TX"},"type":"Feature","geometry":{"type":"Point","coordinates":[-97.763008,26.240497]}},{"properties":{"city":"HARLINGEN","zip":"78552","geo_score":0.977,"date voted":20120723,"id":"a8n7r8gm95g2","address":"1512 SUNWEST BLVD","geo_precision":"range","state":"TX"},"type":"Feature","geometry":{"type":"Point","coordinates":[-97.754482,26.178198]}},{"properties":{"city":"LA FERIA","zip":"78559","geo_score":0.403,"date voted":20120727,"id":"a8n7r8d40zk3","address":"P O BOX 432","geo_precision":"street","state":"TX"},"type":"Feature","geometry":{"type":"Point","coordinates":[-98.971847,26.405002]}},{"properties":{"city":"LOS INDIOS","zip":"78567","geo_score":0.439,"date voted":20120724,"id":"a8n7r8ahbjiy","address":"P O BOX 433","geo_precision":"street","state":"TX"},"type":"Feature","geometry":{"type":"Point","coordinates":[-98.054165,26.171322]}},{"properties":{"city":"LOS INDIOS","zip":"78567","geo_score":0.439,"date voted":20120724,"id":"a8n7r8evsyer","address":"P O BOX 433","geo_precision":"street","state":"TX"},"type":"Feature","geometry":{"type":"Point","coordinates":[-98.054165,26.171322]}},{"properties":{"city":"OLMITO","zip":"78575","geo_score":0.805,"date voted":20120730,"id":"a8n7r822e9ww","address":"7721 W LAKESIDE BLVD","geo_precision":"street","state":"TX"},"type":"Feature","geometry":{"type":"Point","coordinates":[-97.538094,26.015148]}},{"properties":{"city":"SAN BENITO","zip":"78586","geo_score":0.393,"date voted":20120712,"id":"a8n7r817t2m8","address":"P O BOX 1737","geo_precision":"street","state":"TX"},"type":"Feature","geometry":{"type":"Point","coordinates":[-98.971847,26.405002]}},{"properties":{"city":"SAN BENITO","zip":"78586","geo_score":1.0,"date voted":20120710,"id":"a8n7r8f6u1yc","address":"270 E SWANSON ST","geo_precision":"range","state":"TX"},"type":"Feature","geometry":{"type":"Point","coordinates":[-97.633753,26.126347]}},{"properties":{"city":"SAN BENITO","zip":"78586","geo_score":0.585,"date voted":20120711,"id":"a8n7r8cl1nfe","address":"641 ROSSITER ST","geo_precision":"zip","state":"TX"},"type":"Feature","geometry":{"type":"Point","coordinates":[-97.494152,26.109243]}},{"properties":{"city":"SAN BENITO","zip":"78586","geo_score":1.0,"date voted":20120730,"id":"a8n7r8d8dobs","address":"523 WOODFORD ST","geo_precision":"range","state":"TX"},"type":"Feature","geometry":{"type":"Point","coordinates":[-97.644604,26.125548]}},{"properties":{"city":"SAN BENITO","zip":"78586","geo_score":1.0,"date voted":20120710,"id":"a8n7r8eactq0","address":"780 COMBES ST","geo_precision":"range","state":"TX"},"type":"Feature","geometry":{"type":"Point","coordinates":[-97.638351,26.136161]}},{"properties":{"city":"SAN BENITO","zip":"78586","geo_score":0.897,"date voted":20120712,"id":"a8n7r8h4aewh","address":"2095 LA PALMA ST APT 2","geo_precision":"range","state":"TX"},"type":"Feature","geometry":{"type":"Point","coordinates":[-97.646632,26.143842]}},{"properties":{"city":"SAN BENITO","zip":"78586","geo_score":0.837,"date voted":20120712,"id":"a8n7r85d4zat","address":"30177 FM 510","geo_precision":"range","state":"TX"},"type":"Feature","geometry":{"type":"Point","coordinates":[-97.538807,26.135543]}},{"properties":{"city":"SAN BENITO","zip":"78586","geo_score":0.854,"date voted":20120717,"id":"a8n7r85x7dmo","address":"33189 FM 2893","geo_precision":"range","state":"TX"},"type":"Feature","geometry":{"type":"Point","coordinates":[-97.49028,26.109081]}},{"properties":{"city":"SANTA ROSA","zip":"78593","geo_score":0.519,"date voted":20120727,"id":"a8n7r80tk34e","address":"P O BOX 361","geo_precision":"street","state":"TX"},"type":"Feature","geometry":{"type":"Point","coordinates":[-97.591712,26.187565]}},{"properties":{"city":"SANTA ROSA","zip":"78593","geo_score":0.393,"date voted":20120723,"id":"a8n7r81rg2nq","address":"P O BOX 1038","geo_precision":"street","state":"TX"},"type":"Feature","geometry":{"type":"Point","coordinates":[-98.971847,26.405002]}},{"properties":{"city":"SOUTH PADRE ISLAND","zip":"78597","geo_score":0.393,"date voted":20120723,"id":"a8n7r8g760xj","address":"P O BOX 2411","geo_precision":"street","state":"TX"},"type":"Feature","geometry":{"type":"Point","coordinates":[-98.971847,26.405002]}},{"properties":{"city":"SOUTH PADRE ISLAND","zip":"78597","geo_score":0.393,"date voted":20120723,"id":"a8n7r8e3en25","address":"P O BOX 2411","geo_precision":"street","state":"TX"},"type":"Feature","geometry":{"type":"Point","coordinates":[-98.971847,26.405002]}}],"is_temporal":false,"author":{"url":"","metadata":"","contact_name":"","contact_address":"","source":"Cameron County elections office","contact_phone":""},"source":"","pagination":{"sort":null,"start":0,"total":534,"limit":1000000},"state":"complete","tags":"","published":"2012-09-16T16:00:00Z","id":274801}