{"type":"FeatureCollection","data_type":"Dataset","url_type":null,"permissions":[{"permissions":{"download":true,"view":true},"group_id":"everyone"}],"classification":null,"title":"Cartel3","count":550,"stream_id":274906,"contributor":{"url":"http://geocommons.com/users/45258","name":"principecarmine"},"data_attributes":null,"calculation_params":null,"icon_link":null,"link":"http://geocommons.com/overlays/274906.json","extent":[0.0,0.0,0.0,0.0],"geometry_types":[],"unique_name":null,"name":"Cartel3","feature_count":550,"description":"","next_feature":null,"is_raster":false,"short_classification":"Y","stats":{},"features":[{"properties":{"geo_score":0.0,"id":"a8nwtuloaiic","geo_precision":"unmatched","state":"IND"},"type":"Feature","geometry":null},{"properties":{"geo_score":0.0,"id":"a8nwtug9jgdz","geo_precision":"unmatched","state":"IND"},"type":"Feature","geometry":null},{"properties":{"geo_score":0.0,"id":"a8nwtulx3sm9","geo_precision":"unmatched","state":"IND"},"type":"Feature","geometry":null},{"properties":{"geo_score":0.0,"id":"a8nwtuem0ml2","geo_precision":"unmatched","state":"IND"},"type":"Feature","geometry":null},{"properties":{"geo_score":0.0,"id":"a8nwtub644g8","geo_precision":"unmatched","state":"IND"},"type":"Feature","geometry":null},{"properties":{"geo_score":0.0,"id":"a8nwtup17tg8","geo_precision":"unmatched","state":"IND"},"type":"Feature","geometry":null},{"properties":{"geo_score":0.0,"id":"a8nwtulbcdnq","geo_precision":"unmatched","state":"IND"},"type":"Feature","geometry":null},{"properties":{"geo_score":0.0,"id":"a8nwtun2g2pr","geo_precision":"unmatched","state":"IND"},"type":"Feature","geometry":null},{"properties":{"geo_score":0.0,"id":"a8nwtukdd98y","geo_precision":"unmatched","state":"IND"},"type":"Feature","geometry":null},{"properties":{"geo_score":0.0,"id":"a8nwtumj66lf","geo_precision":"unmatched","state":"IND"},"type":"Feature","geometry":null},{"properties":{"geo_score":0.0,"id":"a8nwtudpflu7","geo_precision":"unmatched","state":"IND"},"type":"Feature","geometry":null},{"properties":{"geo_score":0.0,"id":"a8nwtuirszlc","geo_precision":"unmatched","state":"IND"},"type":"Feature","geometry":null},{"properties":{"geo_score":0.0,"id":"a8nwtudwcv52","geo_precision":"unmatched","state":"IND"},"type":"Feature","geometry":null},{"properties":{"geo_score":0.0,"id":"a8nwtufmx7qv","geo_precision":"unmatched","state":"IND"},"type":"Feature","geometry":null},{"properties":{"geo_score":0.0,"id":"a8nwtum0bk4q","geo_precision":"unmatched","state":"IND"},"type":"Feature","geometry":null},{"properties":{"geo_score":0.0,"id":"a8nwtubv2cz2","geo_precision":"unmatched","state":"IND"},"type":"Feature","geometry":null},{"properties":{"geo_score":0.0,"id":"a8nwtuge9su5","geo_precision":"unmatched","state":"IND"},"type":"Feature","geometry":null},{"properties":{"geo_score":0.0,"id":"a8nwtunndgsq","geo_precision":"unmatched","state":"IND"},"type":"Feature","geometry":null},{"properties":{"geo_score":0.0,"id":"a8nwturenz8r","geo_precision":"unmatched","state":"IND"},"type":"Feature","geometry":null},{"properties":{"geo_score":0.0,"id":"a8nwtup1ljm1","geo_precision":"unmatched","state":"IND"},"type":"Feature","geometry":null},{"properties":{"geo_score":0.0,"id":"a8nwtuiry8sx","geo_precision":"unmatched","state":"IND"},"type":"Feature","geometry":null},{"properties":{"geo_score":0.0,"id":"a8nwtuke1n7e","geo_precision":"unmatched","state":"IND"},"type":"Feature","geometry":null},{"properties":{"geo_score":0.0,"id":"a8nwtuicxbht","geo_precision":"unmatched","state":"IND"},"type":"Feature","geometry":null},{"properties":{"geo_score":0.0,"id":"a8nwtuposm32","geo_precision":"unmatched","state":"IND"},"type":"Feature","geometry":null},{"properties":{"geo_score":0.0,"id":"a8nwtudpang9","geo_precision":"unmatched","state":"IND"},"type":"Feature","geometry":null},{"properties":{"geo_score":0.0,"id":"a8nwtuin0ucp","geo_precision":"unmatched","state":"IND"},"type":"Feature","geometry":null},{"properties":{"geo_score":0.0,"id":"a8nwtufvf32w","geo_precision":"unmatched","state":"IND"},"type":"Feature","geometry":null},{"properties":{"geo_score":0.0,"id":"a8nwtue6mert","geo_precision":"unmatched","state":"IND"},"type":"Feature","geometry":null},{"properties":{"geo_score":0.0,"id":"a8nwtuopscqa","geo_precision":"unmatched","state":"IND"},"type":"Feature","geometry":null},{"properties":{"geo_score":0.0,"id":"a8nwtun6nqx4","geo_precision":"unmatched","state":"IND"},"type":"Feature","geometry":null},{"properties":{"geo_score":0.0,"id":"a8nwtuh75rmh","geo_precision":"unmatched","state":"IND"},"type":"Feature","geometry":null},{"properties":{"geo_score":0.0,"id":"a8nwtul9fyi7","geo_precision":"unmatched","state":"IND"},"type":"Feature","geometry":null},{"properties":{"geo_score":0.0,"id":"a8nwtujqd6mu","geo_precision":"unmatched","state":"IND"},"type":"Feature","geometry":null},{"properties":{"geo_score":0.0,"id":"a8nwtukvckft","geo_precision":"unmatched","state":"IND"},"type":"Feature","geometry":null},{"properties":{"geo_score":0.0,"id":"a8nwtudc3vp1","geo_precision":"unmatched","state":"IND"},"type":"Feature","geometry":null},{"properties":{"geo_score":0.0,"id":"a8nwtueiols3","geo_precision":"unmatched","state":"IND"},"type":"Feature","geometry":null},{"properties":{"geo_score":0.0,"id":"a8nwtunqiwvr","geo_precision":"unmatched","state":"IND"},"type":"Feature","geometry":null},{"properties":{"geo_score":0.0,"id":"a8nwtuch6em1","geo_precision":"unmatched","state":"IND"},"type":"Feature","geometry":null},{"properties":{"geo_score":0.0,"id":"a8nwtud4no5d","geo_precision":"unmatched","state":"IND"},"type":"Feature","geometry":null},{"properties":{"geo_score":0.0,"id":"a8nwtucaa6uz","geo_precision":"unmatched","state":"IND"},"type":"Feature","geometry":null},{"properties":{"geo_score":0.0,"id":"a8nwtuhgi3hm","geo_precision":"unmatched","state":"IND"},"type":"Feature","geometry":null},{"properties":{"geo_score":0.0,"id":"a8nwtul6w3lw","geo_precision":"unmatched","state":"IND"},"type":"Feature","geometry":null},{"properties":{"geo_score":0.0,"id":"a8nwtuqwl9c9","geo_precision":"unmatched","state":"IND"},"type":"Feature","geometry":null},{"properties":{"geo_score":0.0,"id":"a8nwtudymov3","geo_precision":"unmatched","state":"IND"},"type":"Feature","geometry":null},{"properties":{"geo_score":0.0,"id":"a8nwtudwumqq","geo_precision":"unmatched","state":"IND"},"type":"Feature","geometry":null},{"properties":{"geo_score":0.0,"id":"a8nwtumgg0yq","geo_precision":"unmatched","state":"IND"},"type":"Feature","geometry":null},{"properties":{"geo_score":0.0,"id":"a8nwtuok6jr9","geo_precision":"unmatched","state":"IND"},"type":"Feature","geometry":null},{"properties":{"geo_score":0.0,"id":"a8nwtuh1yq5u","geo_precision":"unmatched","state":"IND"},"type":"Feature","geometry":null},{"properties":{"geo_score":0.0,"id":"a8nwtuc3w7bn","geo_precision":"unmatched","state":"IND"},"type":"Feature","geometry":null},{"properties":{"geo_score":0.0,"id":"a8nwtuqzapx2","geo_precision":"unmatched","state":"IND"},"type":"Feature","geometry":null},{"properties":{"geo_score":0.0,"id":"a8nwtuofoq4g","geo_precision":"unmatched","state":"IND"},"type":"Feature","geometry":null},{"properties":{"geo_score":0.0,"id":"a8nwtupmp2yz","geo_precision":"unmatched","state":"IND"},"type":"Feature","geometry":null},{"properties":{"geo_score":0.0,"id":"a8nwtudmoud0","geo_precision":"unmatched","state":"IND"},"type":"Feature","geometry":null},{"properties":{"geo_score":0.0,"id":"a8nwtul6gxvm","geo_precision":"unmatched","state":"IND"},"type":"Feature","geometry":null},{"properties":{"geo_score":0.0,"id":"a8nwtue6aae7","geo_precision":"unmatched","state":"IND"},"type":"Feature","geometry":null},{"properties":{"geo_score":0.0,"id":"a8nwtuilq5n2","geo_precision":"unmatched","state":"IND"},"type":"Feature","geometry":null},{"properties":{"geo_score":0.0,"id":"a8nwtuid0ppt","geo_precision":"unmatched","state":"IND"},"type":"Feature","geometry":null},{"properties":{"geo_score":0.0,"id":"a8nwtupj43ti","geo_precision":"unmatched","state":"IND"},"type":"Feature","geometry":null},{"properties":{"geo_score":0.0,"id":"a8nwtui741rz","geo_precision":"unmatched","state":"IND"},"type":"Feature","geometry":null},{"properties":{"geo_score":0.0,"id":"a8nwtupd5ju3","geo_precision":"unmatched","state":"IND"},"type":"Feature","geometry":null},{"properties":{"geo_score":0.0,"id":"a8nwtub7z7tr","geo_precision":"unmatched","state":"IND"},"type":"Feature","geometry":null},{"properties":{"geo_score":0.0,"id":"a8nwtur6jqws","geo_precision":"unmatched","state":"IND"},"type":"Feature","geometry":null},{"properties":{"geo_score":0.0,"id":"a8nwtuequ5w7","geo_precision":"unmatched","state":"IND"},"type":"Feature","geometry":null},{"properties":{"geo_score":0.0,"id":"a8nwtund7n07","geo_precision":"unmatched","state":"IND"},"type":"Feature","geometry":null},{"properties":{"geo_score":0.0,"id":"a8nwtup5wdqc","geo_precision":"unmatched","state":"IND"},"type":"Feature","geometry":null},{"properties":{"geo_score":0.0,"id":"a8nwtunk8ooj","geo_precision":"unmatched","state":"IND"},"type":"Feature","geometry":null},{"properties":{"geo_score":0.0,"id":"a8nwtulxt33c","geo_precision":"unmatched","state":"IND"},"type":"Feature","geometry":null},{"properties":{"geo_score":0.0,"id":"a8nwtubsag2p","geo_precision":"unmatched","state":"IND"},"type":"Feature","geometry":null},{"properties":{"geo_score":0.0,"id":"a8nwtueh7zd2","geo_precision":"unmatched","state":"IND"},"type":"Feature","geometry":null},{"properties":{"geo_score":0.0,"id":"a8nwtuel88cv","geo_precision":"unmatched","state":"IND"},"type":"Feature","geometry":null},{"properties":{"geo_score":0.0,"id":"a8nwturjaxxj","geo_precision":"unmatched","state":"IND"},"type":"Feature","geometry":null},{"properties":{"geo_score":0.0,"id":"a8nwtunyasna","geo_precision":"unmatched","state":"IND"},"type":"Feature","geometry":null},{"properties":{"geo_score":0.0,"id":"a8nwtueic0go","geo_precision":"unmatched","state":"IND"},"type":"Feature","geometry":null},{"properties":{"geo_score":0.0,"id":"a8nwtubhg40z","geo_precision":"unmatched","state":"IND"},"type":"Feature","geometry":null},{"properties":{"geo_score":0.0,"id":"a8nwtumojv7s","geo_precision":"unmatched","state":"IND"},"type":"Feature","geometry":null},{"properties":{"geo_score":0.0,"id":"a8nwtuec1jwr","geo_precision":"unmatched","state":"IND"},"type":"Feature","geometry":null},{"properties":{"geo_score":0.0,"id":"a8nwtup6e4sn","geo_precision":"unmatched","state":"IND"},"type":"Feature","geometry":null},{"properties":{"geo_score":0.0,"id":"a8nwtufv3pao","geo_precision":"unmatched","state":"IND"},"type":"Feature","geometry":null},{"properties":{"geo_score":0.0,"id":"a8nwtuiktozv","geo_precision":"unmatched","state":"IND"},"type":"Feature","geometry":null},{"properties":{"geo_score":0.0,"id":"a8nwtuhf7ed0","geo_precision":"unmatched","state":"IND"},"type":"Feature","geometry":null},{"properties":{"geo_score":0.0,"id":"a8nwtur20l4p","geo_precision":"unmatched","state":"IND"},"type":"Feature","geometry":null},{"properties":{"geo_score":0.0,"id":"a8nwtufdtfbw","geo_precision":"unmatched","state":"IND"},"type":"Feature","geometry":null},{"properties":{"geo_score":0.0,"id":"a8nwtui72kee","geo_precision":"unmatched","state":"IND"},"type":"Feature","geometry":null},{"properties":{"geo_score":0.0,"id":"a8nwtuic9mzf","geo_precision":"unmatched","state":"IND"},"type":"Feature","geometry":null},{"properties":{"geo_score":0.0,"id":"a8nwtunhsytj","geo_precision":"unmatched","state":"IND"},"type":"Feature","geometry":null},{"properties":{"geo_score":0.0,"id":"a8nwtumveria","geo_precision":"unmatched","state":"IND"},"type":"Feature","geometry":null},{"properties":{"geo_score":0.0,"id":"a8nwtup2nz1z","geo_precision":"unmatched","state":"IND"},"type":"Feature","geometry":null},{"properties":{"geo_score":0.0,"id":"a8nwtuonjfen","geo_precision":"unmatched","state":"IND"},"type":"Feature","geometry":null},{"properties":{"geo_score":0.0,"id":"a8nwtugq7p9g","geo_precision":"unmatched","state":"IND"},"type":"Feature","geometry":null},{"properties":{"geo_score":0.0,"id":"a8nwtunrk1c4","geo_precision":"unmatched","state":"IND"},"type":"Feature","geometry":null},{"properties":{"geo_score":0.0,"id":"a8nwtubkdhf2","geo_precision":"unmatched","state":"IND"},"type":"Feature","geometry":null},{"properties":{"geo_score":0.0,"id":"a8nwtum25ucw","geo_precision":"unmatched","state":"IND"},"type":"Feature","geometry":null},{"properties":{"geo_score":0.0,"id":"a8nwtuiwsmp7","geo_precision":"unmatched","state":"IND"},"type":"Feature","geometry":null},{"properties":{"geo_score":0.0,"id":"a8nwtuq6x34w","geo_precision":"unmatched","state":"IND"},"type":"Feature","geometry":null},{"properties":{"geo_score":0.0,"id":"a8nwtuj5veky","geo_precision":"unmatched","state":"IND"},"type":"Feature","geometry":null},{"properties":{"geo_score":0.0,"id":"a8nwtulbtoxa","geo_precision":"unmatched","state":"IND"},"type":"Feature","geometry":null},{"properties":{"geo_score":0.0,"id":"a8nwtud7s5bh","geo_precision":"unmatched","state":"IND"},"type":"Feature","geometry":null},{"properties":{"geo_score":0.0,"id":"a8nwtuhthbvg","geo_precision":"unmatched","state":"IND"},"type":"Feature","geometry":null},{"properties":{"geo_score":0.0,"id":"a8nwtuf67pzs","geo_precision":"unmatched","state":"IND"},"type":"Feature","geometry":null},{"properties":{"geo_score":0.0,"id":"a8nwtuqn8yi1","geo_precision":"unmatched","state":"IND"},"type":"Feature","geometry":null},{"properties":{"geo_score":0.0,"id":"a8nwtujxnkbd","geo_precision":"unmatched","state":"IND"},"type":"Feature","geometry":null},{"properties":{"geo_score":0.0,"id":"a8nwturhlqlx","geo_precision":"unmatched","state":"IND"},"type":"Feature","geometry":null},{"properties":{"geo_score":0.0,"id":"a8nwtucr20xf","geo_precision":"unmatched","state":"IND"},"type":"Feature","geometry":null},{"properties":{"geo_score":0.0,"id":"a8nwtueddd0j","geo_precision":"unmatched","state":"IND"},"type":"Feature","geometry":null},{"properties":{"geo_score":0.0,"id":"a8nwtuq4byid","geo_precision":"unmatched","state":"IND"},"type":"Feature","geometry":null},{"properties":{"geo_score":0.0,"id":"a8nwtufbf5j6","geo_precision":"unmatched","state":"IND"},"type":"Feature","geometry":null},{"properties":{"geo_score":0.0,"id":"a8nwtulw5ef3","geo_precision":"unmatched","state":"IND"},"type":"Feature","geometry":null},{"properties":{"geo_score":0.0,"id":"a8nwtue78csg","geo_precision":"unmatched","state":"IND"},"type":"Feature","geometry":null},{"properties":{"geo_score":0.0,"id":"a8nwtunmdavo","geo_precision":"unmatched","state":"IND"},"type":"Feature","geometry":null},{"properties":{"geo_score":0.0,"id":"a8nwtuf247kh","geo_precision":"unmatched","state":"IND"},"type":"Feature","geometry":null},{"properties":{"geo_score":0.0,"id":"a8nwtup6ttk1","geo_precision":"unmatched","state":"IND"},"type":"Feature","geometry":null},{"properties":{"geo_score":0.0,"id":"a8nwtupmfdve","geo_precision":"unmatched","state":"IND"},"type":"Feature","geometry":null},{"properties":{"geo_score":0.0,"id":"a8nwtud2gvj9","geo_precision":"unmatched","state":"IND"},"type":"Feature","geometry":null},{"properties":{"geo_score":0.0,"id":"a8nwtufo233l","geo_precision":"unmatched","state":"IND"},"type":"Feature","geometry":null},{"properties":{"geo_score":0.0,"id":"a8nwturk8ykg","geo_precision":"unmatched","state":"IND"},"type":"Feature","geometry":null},{"properties":{"geo_score":0.0,"id":"a8nwtuoly14p","geo_precision":"unmatched","state":"IND"},"type":"Feature","geometry":null},{"properties":{"geo_score":0.0,"id":"a8nwtupai0in","geo_precision":"unmatched","state":"IND"},"type":"Feature","geometry":null},{"properties":{"geo_score":0.0,"id":"a8nwtuk04s9b","geo_precision":"unmatched","state":"IND"},"type":"Feature","geometry":null},{"properties":{"geo_score":0.0,"id":"a8nwtuo2y4tb","geo_precision":"unmatched","state":"IND"},"type":"Feature","geometry":null},{"properties":{"geo_score":0.0,"id":"a8nwtudooib3","geo_precision":"unmatched","state":"IND"},"type":"Feature","geometry":null},{"properties":{"geo_score":0.0,"id":"a8nwtueg2ugf","geo_precision":"unmatched","state":"IND"},"type":"Feature","geometry":null},{"properties":{"geo_score":0.0,"id":"a8nwtuoi9d6h","geo_precision":"unmatched","state":"IND"},"type":"Feature","geometry":null},{"properties":{"geo_score":0.0,"id":"a8nwtumictxt","geo_precision":"unmatched","state":"IND"},"type":"Feature","geometry":null},{"properties":{"geo_score":0.0,"id":"a8nwtupkqzds","geo_precision":"unmatched","state":"IND"},"type":"Feature","geometry":null},{"properties":{"geo_score":0.0,"id":"a8nwtudi4yd1","geo_precision":"unmatched","state":"IND"},"type":"Feature","geometry":null},{"properties":{"geo_score":0.0,"id":"a8nwtuct19zc","geo_precision":"unmatched","state":"IND"},"type":"Feature","geometry":null},{"properties":{"geo_score":0.0,"id":"a8nwtuollzcy","geo_precision":"unmatched","state":"IND"},"type":"Feature","geometry":null},{"properties":{"geo_score":0.0,"id":"a8nwtuk4mv1i","geo_precision":"unmatched","state":"IND"},"type":"Feature","geometry":null},{"properties":{"geo_score":0.0,"id":"a8nwtudgjm0i","geo_precision":"unmatched","state":"IND"},"type":"Feature","geometry":null},{"properties":{"geo_score":0.0,"id":"a8nwtukafbjv","geo_precision":"unmatched","state":"IND"},"type":"Feature","geometry":null},{"properties":{"geo_score":0.0,"id":"a8nwtubccffa","geo_precision":"unmatched","state":"IND"},"type":"Feature","geometry":null},{"properties":{"geo_score":0.0,"id":"a8nwtudgq27b","geo_precision":"unmatched","state":"IND"},"type":"Feature","geometry":null},{"properties":{"geo_score":0.0,"id":"a8nwtulthvmu","geo_precision":"unmatched","state":"IND"},"type":"Feature","geometry":null},{"properties":{"geo_score":0.0,"id":"a8nwtumi61mm","geo_precision":"unmatched","state":"IND"},"type":"Feature","geometry":null},{"properties":{"geo_score":0.0,"id":"a8nwtube9kwa","geo_precision":"unmatched","state":"IND"},"type":"Feature","geometry":null},{"properties":{"geo_score":0.0,"id":"a8nwtuc0j4nz","geo_precision":"unmatched","state":"IND"},"type":"Feature","geometry":null},{"properties":{"geo_score":0.0,"id":"a8nwtufqzuhb","geo_precision":"unmatched","state":"IND"},"type":"Feature","geometry":null},{"properties":{"geo_score":0.0,"id":"a8nwtugq4sbm","geo_precision":"unmatched","state":"IND"},"type":"Feature","geometry":null},{"properties":{"geo_score":0.0,"id":"a8nwtujieqh6","geo_precision":"unmatched","state":"IND"},"type":"Feature","geometry":null},{"properties":{"geo_score":0.0,"id":"a8nwtufmafx9","geo_precision":"unmatched","state":"IND"},"type":"Feature","geometry":null},{"properties":{"geo_score":0.0,"id":"a8nwtuisxa6a","geo_precision":"unmatched","state":"IND"},"type":"Feature","geometry":null},{"properties":{"geo_score":0.0,"id":"a8nwtughihhr","geo_precision":"unmatched","state":"IND"},"type":"Feature","geometry":null},{"properties":{"geo_score":0.0,"id":"a8nwtulfpxk2","geo_precision":"unmatched","state":"IND"},"type":"Feature","geometry":null},{"properties":{"geo_score":0.0,"id":"a8nwtuoce53j","geo_precision":"unmatched","state":"IND"},"type":"Feature","geometry":null},{"properties":{"geo_score":0.0,"id":"a8nwturjkdvt","geo_precision":"unmatched","state":"IND"},"type":"Feature","geometry":null},{"properties":{"geo_score":0.0,"id":"a8nwtun7bozq","geo_precision":"unmatched","state":"IND"},"type":"Feature","geometry":null},{"properties":{"geo_score":0.0,"id":"a8nwtujvm88p","geo_precision":"unmatched","state":"IND"},"type":"Feature","geometry":null},{"properties":{"geo_score":0.0,"id":"a8nwtug1wm44","geo_precision":"unmatched","state":"IND"},"type":"Feature","geometry":null},{"properties":{"geo_score":0.0,"id":"a8nwtukpxx7e","geo_precision":"unmatched","state":"IND"},"type":"Feature","geometry":null},{"properties":{"geo_score":0.0,"id":"a8nwtungjjij","geo_precision":"unmatched","state":"IND"},"type":"Feature","geometry":null},{"properties":{"geo_score":0.0,"id":"a8nwtugaif78","geo_precision":"unmatched","state":"IND"},"type":"Feature","geometry":null},{"properties":{"geo_score":0.0,"id":"a8nwtuj408ek","geo_precision":"unmatched","state":"IND"},"type":"Feature","geometry":null},{"properties":{"geo_score":0.0,"id":"a8nwtundm680","geo_precision":"unmatched","state":"IND"},"type":"Feature","geometry":null},{"properties":{"geo_score":0.0,"id":"a8nwtub81jne","geo_precision":"unmatched","state":"IND"},"type":"Feature","geometry":null},{"properties":{"geo_score":0.0,"id":"a8nwtuces2dk","geo_precision":"unmatched","state":"IND"},"type":"Feature","geometry":null},{"properties":{"geo_score":0.0,"id":"a8nwtud6d9e0","geo_precision":"unmatched","state":"IND"},"type":"Feature","geometry":null},{"properties":{"geo_score":0.0,"id":"a8nwtuerddul","geo_precision":"unmatched","state":"IND"},"type":"Feature","geometry":null},{"properties":{"geo_score":0.0,"id":"a8nwtuq07z46","geo_precision":"unmatched","state":"IND"},"type":"Feature","geometry":null},{"properties":{"geo_score":0.0,"id":"a8nwtuhdrfit","geo_precision":"unmatched","state":"IND"},"type":"Feature","geometry":null},{"properties":{"geo_score":0.0,"id":"a8nwturimewz","geo_precision":"unmatched","state":"IND"},"type":"Feature","geometry":null},{"properties":{"geo_score":0.0,"id":"a8nwtugxl5ew","geo_precision":"unmatched","state":"IND"},"type":"Feature","geometry":null},{"properties":{"geo_score":0.0,"id":"a8nwtuqbf04e","geo_precision":"unmatched","state":"IND"},"type":"Feature","geometry":null},{"properties":{"geo_score":0.0,"id":"a8nwtuqztddl","geo_precision":"unmatched","state":"IND"},"type":"Feature","geometry":null},{"properties":{"geo_score":0.0,"id":"a8nwtuiwobjg","geo_precision":"unmatched","state":"IND"},"type":"Feature","geometry":null},{"properties":{"geo_score":0.0,"id":"a8nwtuo27dm4","geo_precision":"unmatched","state":"IND"},"type":"Feature","geometry":null},{"properties":{"geo_score":0.0,"id":"a8nwtuhcagjp","geo_precision":"unmatched","state":"IND"},"type":"Feature","geometry":null},{"properties":{"geo_score":0.0,"id":"a8nwtupye2io","geo_precision":"unmatched","state":"IND"},"type":"Feature","geometry":null},{"properties":{"geo_score":0.0,"id":"a8nwtul4co2c","geo_precision":"unmatched","state":"IND"},"type":"Feature","geometry":null},{"properties":{"geo_score":0.0,"id":"a8nwtup80r54","geo_precision":"unmatched","state":"IND"},"type":"Feature","geometry":null},{"properties":{"geo_score":0.0,"id":"a8nwtun8fhfk","geo_precision":"unmatched","state":"IND"},"type":"Feature","geometry":null},{"properties":{"geo_score":0.0,"id":"a8nwtun8oa87","geo_precision":"unmatched","state":"IND"},"type":"Feature","geometry":null},{"properties":{"geo_score":0.0,"id":"a8nwtuc8u0zd","geo_precision":"unmatched","state":"IND"},"type":"Feature","geometry":null},{"properties":{"geo_score":0.0,"id":"a8nwtugr0hyj","geo_precision":"unmatched","state":"IND"},"type":"Feature","geometry":null},{"properties":{"geo_score":0.0,"id":"a8nwtud61j8i","geo_precision":"unmatched","state":"IND"},"type":"Feature","geometry":null},{"properties":{"geo_score":0.0,"id":"a8nwturap6fd","geo_precision":"unmatched","state":"IND"},"type":"Feature","geometry":null},{"properties":{"geo_score":0.0,"id":"a8nwtuopsv3p","geo_precision":"unmatched","state":"IND"},"type":"Feature","geometry":null},{"properties":{"geo_score":0.0,"id":"a8nwtup8vh04","geo_precision":"unmatched","state":"IND"},"type":"Feature","geometry":null},{"properties":{"geo_score":0.0,"id":"a8nwtuj2m7hn","geo_precision":"unmatched","state":"IND"},"type":"Feature","geometry":null},{"properties":{"geo_score":0.0,"id":"a8nwtuiglkeo","geo_precision":"unmatched","state":"IND"},"type":"Feature","geometry":null},{"properties":{"geo_score":0.0,"id":"a8nwtui0pkp9","geo_precision":"unmatched","state":"IND"},"type":"Feature","geometry":null},{"properties":{"geo_score":0.0,"id":"a8nwtufwocir","geo_precision":"unmatched","state":"IND"},"type":"Feature","geometry":null},{"properties":{"geo_score":0.0,"id":"a8nwtubeipax","geo_precision":"unmatched","state":"IND"},"type":"Feature","geometry":null},{"properties":{"geo_score":0.0,"id":"a8nwtumrwnh0","geo_precision":"unmatched","state":"IND"},"type":"Feature","geometry":null},{"properties":{"geo_score":0.0,"id":"a8nwtuiq6lp0","geo_precision":"unmatched","state":"IND"},"type":"Feature","geometry":null},{"properties":{"geo_score":0.0,"id":"a8nwtubdvt4y","geo_precision":"unmatched","state":"IND"},"type":"Feature","geometry":null},{"properties":{"geo_score":0.0,"id":"a8nwtuowux0d","geo_precision":"unmatched","state":"IND"},"type":"Feature","geometry":null},{"properties":{"geo_score":0.0,"id":"a8nwtupmaoss","geo_precision":"unmatched","state":"IND"},"type":"Feature","geometry":null},{"properties":{"geo_score":0.0,"id":"a8nwtun2cork","geo_precision":"unmatched","state":"IND"},"type":"Feature","geometry":null},{"properties":{"geo_score":0.0,"id":"a8nwtuifmtak","geo_precision":"unmatched","state":"IND"},"type":"Feature","geometry":null},{"properties":{"geo_score":0.0,"id":"a8nwtuqbft12","geo_precision":"unmatched","state":"IND"},"type":"Feature","geometry":null},{"properties":{"geo_score":0.0,"id":"a8nwtuf39nt1","geo_precision":"unmatched","state":"IND"},"type":"Feature","geometry":null},{"properties":{"geo_score":0.0,"id":"a8nwtup4nfl4","geo_precision":"unmatched","state":"IND"},"type":"Feature","geometry":null},{"properties":{"geo_score":0.0,"id":"a8nwtun12dg2","geo_precision":"unmatched","state":"IND"},"type":"Feature","geometry":null},{"properties":{"geo_score":0.0,"id":"a8nwtuq8l7ze","geo_precision":"unmatched","state":"IND"},"type":"Feature","geometry":null},{"properties":{"geo_score":0.0,"id":"a8nwtuf8jq6t","geo_precision":"unmatched","state":"IND"},"type":"Feature","geometry":null},{"properties":{"geo_score":0.0,"id":"a8nwtunufnyu","geo_precision":"unmatched","state":"IND"},"type":"Feature","geometry":null},{"properties":{"geo_score":0.0,"id":"a8nwtueilbd4","geo_precision":"unmatched","state":"IND"},"type":"Feature","geometry":null},{"properties":{"geo_score":0.0,"id":"a8nwtultc5p1","geo_precision":"unmatched","state":"IND"},"type":"Feature","geometry":null},{"properties":{"geo_score":0.0,"id":"a8nwtugorm4x","geo_precision":"unmatched","state":"IND"},"type":"Feature","geometry":null},{"properties":{"geo_score":0.0,"id":"a8nwtugxb6sc","geo_precision":"unmatched","state":"IND"},"type":"Feature","geometry":null},{"properties":{"geo_score":0.0,"id":"a8nwtuhg1um2","geo_precision":"unmatched","state":"IND"},"type":"Feature","geometry":null},{"properties":{"geo_score":0.0,"id":"a8nwtui3me2g","geo_precision":"unmatched","state":"IND"},"type":"Feature","geometry":null},{"properties":{"geo_score":0.0,"id":"a8nwtuo9fp3b","geo_precision":"unmatched","state":"IND"},"type":"Feature","geometry":null},{"properties":{"geo_score":0.0,"id":"a8nwtugbp0du","geo_precision":"unmatched","state":"IND"},"type":"Feature","geometry":null},{"properties":{"geo_score":0.0,"id":"a8nwtuh3zhgy","geo_precision":"unmatched","state":"IND"},"type":"Feature","geometry":null},{"properties":{"geo_score":0.0,"id":"a8nwtuf09xti","geo_precision":"unmatched","state":"IND"},"type":"Feature","geometry":null},{"properties":{"geo_score":0.0,"id":"a8nwtudzmbp7","geo_precision":"unmatched","state":"IND"},"type":"Feature","geometry":null},{"properties":{"geo_score":0.0,"id":"a8nwtum63rms","geo_precision":"unmatched","state":"IND"},"type":"Feature","geometry":null},{"properties":{"geo_score":0.0,"id":"a8nwtucjt8kv","geo_precision":"unmatched","state":"IND"},"type":"Feature","geometry":null},{"properties":{"geo_score":0.0,"id":"a8nwtuj78grf","geo_precision":"unmatched","state":"IND"},"type":"Feature","geometry":null},{"properties":{"geo_score":0.0,"id":"a8nwtugbmpkq","geo_precision":"unmatched","state":"IND"},"type":"Feature","geometry":null},{"properties":{"geo_score":0.0,"id":"a8nwtuhqk698","geo_precision":"unmatched","state":"IND"},"type":"Feature","geometry":null},{"properties":{"geo_score":0.0,"id":"a8nwtubdq203","geo_precision":"unmatched","state":"IND"},"type":"Feature","geometry":null},{"properties":{"geo_score":0.0,"id":"a8nwtuldw75r","geo_precision":"unmatched","state":"IND"},"type":"Feature","geometry":null},{"properties":{"geo_score":0.0,"id":"a8nwtuqqr7et","geo_precision":"unmatched","state":"IND"},"type":"Feature","geometry":null},{"properties":{"geo_score":0.0,"id":"a8nwtudicahp","geo_precision":"unmatched","state":"IND"},"type":"Feature","geometry":null},{"properties":{"geo_score":0.0,"id":"a8nwtuic48t4","geo_precision":"unmatched","state":"IND"},"type":"Feature","geometry":null},{"properties":{"geo_score":0.0,"id":"a8nwtui3hfe0","geo_precision":"unmatched","state":"IND"},"type":"Feature","geometry":null},{"properties":{"geo_score":0.0,"id":"a8nwtuo1s6gy","geo_precision":"unmatched","state":"IND"},"type":"Feature","geometry":null},{"properties":{"geo_score":0.0,"id":"a8nwtuhniwqb","geo_precision":"unmatched","state":"IND"},"type":"Feature","geometry":null},{"properties":{"geo_score":0.0,"id":"a8nwturckyro","geo_precision":"unmatched","state":"IND"},"type":"Feature","geometry":null},{"properties":{"geo_score":0.0,"id":"a8nwtuj3vr9h","geo_precision":"unmatched","state":"IND"},"type":"Feature","geometry":null},{"properties":{"geo_score":0.0,"id":"a8nwtuk7unet","geo_precision":"unmatched","state":"IND"},"type":"Feature","geometry":null},{"properties":{"geo_score":0.0,"id":"a8nwtuogn5g9","geo_precision":"unmatched","state":"IND"},"type":"Feature","geometry":null},{"properties":{"geo_score":0.0,"id":"a8nwtuko9mk3","geo_precision":"unmatched","state":"IND"},"type":"Feature","geometry":null},{"properties":{"geo_score":0.0,"id":"a8nwtuqnkoa0","geo_precision":"unmatched","state":"IND"},"type":"Feature","geometry":null},{"properties":{"geo_score":0.0,"id":"a8nwtui5di0r","geo_precision":"unmatched","state":"IND"},"type":"Feature","geometry":null},{"properties":{"geo_score":0.0,"id":"a8nwtue2pzbs","geo_precision":"unmatched","state":"IND"},"type":"Feature","geometry":null},{"properties":{"geo_score":0.0,"id":"a8nwtup7b6ku","geo_precision":"unmatched","state":"IND"},"type":"Feature","geometry":null},{"properties":{"geo_score":0.0,"id":"a8nwtuh9m0ik","geo_precision":"unmatched","state":"IND"},"type":"Feature","geometry":null},{"properties":{"geo_score":0.0,"id":"a8nwtup00lj7","geo_precision":"unmatched","state":"IND"},"type":"Feature","geometry":null},{"properties":{"geo_score":0.0,"id":"a8nwtup74r4p","geo_precision":"unmatched","state":"IND"},"type":"Feature","geometry":null},{"properties":{"geo_score":0.0,"id":"a8nwtui8jqqw","geo_precision":"unmatched","state":"IND"},"type":"Feature","geometry":null},{"properties":{"geo_score":0.0,"id":"a8nwtubs24au","geo_precision":"unmatched","state":"IND"},"type":"Feature","geometry":null},{"properties":{"geo_score":0.0,"id":"a8nwtufethyx","geo_precision":"unmatched","state":"IND"},"type":"Feature","geometry":null},{"properties":{"geo_score":0.0,"id":"a8nwtuicrylc","geo_precision":"unmatched","state":"IND"},"type":"Feature","geometry":null},{"properties":{"geo_score":0.0,"id":"a8nwtubg6bm0","geo_precision":"unmatched","state":"IND"},"type":"Feature","geometry":null},{"properties":{"geo_score":0.0,"id":"a8nwtunw2etv","geo_precision":"unmatched","state":"IND"},"type":"Feature","geometry":null},{"properties":{"geo_score":0.0,"id":"a8nwtubsd7te","geo_precision":"unmatched","state":"IND"},"type":"Feature","geometry":null},{"properties":{"geo_score":0.0,"id":"a8nwtumlof69","geo_precision":"unmatched","state":"IND"},"type":"Feature","geometry":null},{"properties":{"geo_score":0.0,"id":"a8nwtud8qtq4","geo_precision":"unmatched","state":"IND"},"type":"Feature","geometry":null},{"properties":{"geo_score":0.0,"id":"a8nwtue7xbe0","geo_precision":"unmatched","state":"IND"},"type":"Feature","geometry":null},{"properties":{"geo_score":0.0,"id":"a8nwtuhor6sm","geo_precision":"unmatched","state":"IND"},"type":"Feature","geometry":null},{"properties":{"geo_score":0.0,"id":"a8nwtug09ti3","geo_precision":"unmatched","state":"IND"},"type":"Feature","geometry":null},{"properties":{"geo_score":0.0,"id":"a8nwtuitxcsx","geo_precision":"unmatched","state":"IND"},"type":"Feature","geometry":null},{"properties":{"geo_score":0.0,"id":"a8nwtupx9kat","geo_precision":"unmatched","state":"IND"},"type":"Feature","geometry":null},{"properties":{"geo_score":0.0,"id":"a8nwtuhkvl1o","geo_precision":"unmatched","state":"IND"},"type":"Feature","geometry":null},{"properties":{"geo_score":0.0,"id":"a8nwtuit2yrn","geo_precision":"unmatched","state":"IND"},"type":"Feature","geometry":null},{"properties":{"geo_score":0.0,"id":"a8nwtuojadn8","geo_precision":"unmatched","state":"IND"},"type":"Feature","geometry":null},{"properties":{"geo_score":0.0,"id":"a8nwtucc9ya5","geo_precision":"unmatched","state":"IND"},"type":"Feature","geometry":null},{"properties":{"geo_score":0.0,"id":"a8nwtulsqje5","geo_precision":"unmatched","state":"IND"},"type":"Feature","geometry":null},{"properties":{"geo_score":0.0,"id":"a8nwtuhue32y","geo_precision":"unmatched","state":"IND"},"type":"Feature","geometry":null},{"properties":{"geo_score":0.0,"id":"a8nwtucqnade","geo_precision":"unmatched","state":"IND"},"type":"Feature","geometry":null},{"properties":{"geo_score":0.0,"id":"a8nwtuq5k8hn","geo_precision":"unmatched","state":"IND"},"type":"Feature","geometry":null},{"properties":{"geo_score":0.0,"id":"a8nwtue37wzf","geo_precision":"unmatched","state":"IND"},"type":"Feature","geometry":null},{"properties":{"geo_score":0.0,"id":"a8nwtukuqda3","geo_precision":"unmatched","state":"IND"},"type":"Feature","geometry":null},{"properties":{"geo_score":0.0,"id":"a8nwtuk68qp3","geo_precision":"unmatched","state":"IND"},"type":"Feature","geometry":null},{"properties":{"geo_score":0.0,"id":"a8nwtuhue77l","geo_precision":"unmatched","state":"IND"},"type":"Feature","geometry":null},{"properties":{"geo_score":0.0,"id":"a8nwtui4yv0m","geo_precision":"unmatched","state":"IND"},"type":"Feature","geometry":null},{"properties":{"geo_score":0.0,"id":"a8nwtujhz3c9","geo_precision":"unmatched","state":"IND"},"type":"Feature","geometry":null},{"properties":{"geo_score":0.0,"id":"a8nwtuglc0vq","geo_precision":"unmatched","state":"IND"},"type":"Feature","geometry":null},{"properties":{"geo_score":0.0,"id":"a8nwtugxp5lx","geo_precision":"unmatched","state":"IND"},"type":"Feature","geometry":null},{"properties":{"geo_score":0.0,"id":"a8nwtucnia5k","geo_precision":"unmatched","state":"IND"},"type":"Feature","geometry":null},{"properties":{"geo_score":0.0,"id":"a8nwtufx5c5y","geo_precision":"unmatched","state":"IND"},"type":"Feature","geometry":null},{"properties":{"geo_score":0.0,"id":"a8nwtulsv4g8","geo_precision":"unmatched","state":"IND"},"type":"Feature","geometry":null},{"properties":{"geo_score":0.0,"id":"a8nwtuoa0f2m","geo_precision":"unmatched","state":"IND"},"type":"Feature","geometry":null},{"properties":{"geo_score":0.0,"id":"a8nwtui5xase","geo_precision":"unmatched","state":"IND"},"type":"Feature","geometry":null},{"properties":{"geo_score":0.0,"id":"a8nwtui67swq","geo_precision":"unmatched","state":"IND"},"type":"Feature","geometry":null},{"properties":{"geo_score":0.0,"id":"a8nwtuofu67h","geo_precision":"unmatched","state":"IND"},"type":"Feature","geometry":null},{"properties":{"geo_score":0.0,"id":"a8nwtuo7o76j","geo_precision":"unmatched","state":"IND"},"type":"Feature","geometry":null},{"properties":{"geo_score":0.0,"id":"a8nwtufoqov9","geo_precision":"unmatched","state":"IND"},"type":"Feature","geometry":null},{"properties":{"geo_score":0.0,"id":"a8nwtunq47m8","geo_precision":"unmatched","state":"IND"},"type":"Feature","geometry":null},{"properties":{"geo_score":0.0,"id":"a8nwturm46rt","geo_precision":"unmatched","state":"IND"},"type":"Feature","geometry":null},{"properties":{"geo_score":0.0,"id":"a8nwtupjr5kd","geo_precision":"unmatched","state":"IND"},"type":"Feature","geometry":null},{"properties":{"geo_score":0.0,"id":"a8nwtuejcrkm","geo_precision":"unmatched","state":"IND"},"type":"Feature","geometry":null},{"properties":{"geo_score":0.0,"id":"a8nwtulbi53z","geo_precision":"unmatched","state":"IND"},"type":"Feature","geometry":null},{"properties":{"geo_score":0.0,"id":"a8nwtump596f","geo_precision":"unmatched","state":"IND"},"type":"Feature","geometry":null},{"properties":{"geo_score":0.0,"id":"a8nwtulsfkil","geo_precision":"unmatched","state":"IND"},"type":"Feature","geometry":null},{"properties":{"geo_score":0.0,"id":"a8nwtuke1xzd","geo_precision":"unmatched","state":"IND"},"type":"Feature","geometry":null},{"properties":{"geo_score":0.0,"id":"a8nwtuks3kel","geo_precision":"unmatched","state":"IND"},"type":"Feature","geometry":null},{"properties":{"geo_score":0.0,"id":"a8nwtupj57yv","geo_precision":"unmatched","state":"IND"},"type":"Feature","geometry":null},{"properties":{"geo_score":0.0,"id":"a8nwtudqvaus","geo_precision":"unmatched","state":"IND"},"type":"Feature","geometry":null},{"properties":{"geo_score":0.0,"id":"a8nwtucggy2x","geo_precision":"unmatched","state":"IND"},"type":"Feature","geometry":null},{"properties":{"geo_score":0.0,"id":"a8nwtuju6hym","geo_precision":"unmatched","state":"IND"},"type":"Feature","geometry":null},{"properties":{"geo_score":0.0,"id":"a8nwtuecbos4","geo_precision":"unmatched","state":"IND"},"type":"Feature","geometry":null},{"properties":{"geo_score":0.0,"id":"a8nwtug4aj1i","geo_precision":"unmatched","state":"IND"},"type":"Feature","geometry":null},{"properties":{"geo_score":0.0,"id":"a8nwtujsjxvf","geo_precision":"unmatched","state":"IND"},"type":"Feature","geometry":null},{"properties":{"geo_score":0.0,"id":"a8nwtulpqpdm","geo_precision":"unmatched","state":"IND"},"type":"Feature","geometry":null},{"properties":{"geo_score":0.0,"id":"a8nwtug9gc58","geo_precision":"unmatched","state":"IND"},"type":"Feature","geometry":null},{"properties":{"geo_score":0.0,"id":"a8nwtunxf9tv","geo_precision":"unmatched","state":"IND"},"type":"Feature","geometry":null},{"properties":{"geo_score":0.0,"id":"a8nwtug6or82","geo_precision":"unmatched","state":"IND"},"type":"Feature","geometry":null},{"properties":{"geo_score":0.0,"id":"a8nwtuhaxwlg","geo_precision":"unmatched","state":"IND"},"type":"Feature","geometry":null},{"properties":{"geo_score":0.0,"id":"a8nwtumnrdw5","geo_precision":"unmatched","state":"IND"},"type":"Feature","geometry":null},{"properties":{"geo_score":0.0,"id":"a8nwtulxiy0o","geo_precision":"unmatched","state":"IND"},"type":"Feature","geometry":null},{"properties":{"geo_score":0.0,"id":"a8nwtudy33lb","geo_precision":"unmatched","state":"IND"},"type":"Feature","geometry":null},{"properties":{"geo_score":0.0,"id":"a8nwtulrvmg2","geo_precision":"unmatched","state":"IND"},"type":"Feature","geometry":null},{"properties":{"geo_score":0.0,"id":"a8nwtup6a1jl","geo_precision":"unmatched","state":"IND"},"type":"Feature","geometry":null},{"properties":{"geo_score":0.0,"id":"a8nwtud21joc","geo_precision":"unmatched","state":"IND"},"type":"Feature","geometry":null},{"properties":{"geo_score":0.0,"id":"a8nwtubxckve","geo_precision":"unmatched","state":"IND"},"type":"Feature","geometry":null},{"properties":{"geo_score":0.0,"id":"a8nwtuhqjels","geo_precision":"unmatched","state":"IND"},"type":"Feature","geometry":null},{"properties":{"geo_score":0.0,"id":"a8nwtuqw57le","geo_precision":"unmatched","state":"IND"},"type":"Feature","geometry":null},{"properties":{"geo_score":0.0,"id":"a8nwtuhm7lm9","geo_precision":"unmatched","state":"IND"},"type":"Feature","geometry":null},{"properties":{"geo_score":0.0,"id":"a8nwtumxukfr","geo_precision":"unmatched","state":"IND"},"type":"Feature","geometry":null},{"properties":{"geo_score":0.0,"id":"a8nwtuc68dpv","geo_precision":"unmatched","state":"IND"},"type":"Feature","geometry":null},{"properties":{"geo_score":0.0,"id":"a8nwtui7so1n","geo_precision":"unmatched","state":"IND"},"type":"Feature","geometry":null},{"properties":{"geo_score":0.0,"id":"a8nwtubbqp17","geo_precision":"unmatched","state":"IND"},"type":"Feature","geometry":null},{"properties":{"geo_score":0.0,"id":"a8nwtueimie5","geo_precision":"unmatched","state":"IND"},"type":"Feature","geometry":null},{"properties":{"geo_score":0.0,"id":"a8nwtueh6ox6","geo_precision":"unmatched","state":"IND"},"type":"Feature","geometry":null},{"properties":{"geo_score":0.0,"id":"a8nwturcjbo9","geo_precision":"unmatched","state":"IND"},"type":"Feature","geometry":null},{"properties":{"geo_score":0.0,"id":"a8nwtuefn1dt","geo_precision":"unmatched","state":"IND"},"type":"Feature","geometry":null},{"properties":{"geo_score":0.0,"id":"a8nwtuc4etkf","geo_precision":"unmatched","state":"IND"},"type":"Feature","geometry":null},{"properties":{"geo_score":0.0,"id":"a8nwtuc0d4ft","geo_precision":"unmatched","state":"IND"},"type":"Feature","geometry":null},{"properties":{"geo_score":0.0,"id":"a8nwtubhff7t","geo_precision":"unmatched","state":"IND"},"type":"Feature","geometry":null},{"properties":{"geo_score":0.0,"id":"a8nwtukogueh","geo_precision":"unmatched","state":"IND"},"type":"Feature","geometry":null},{"properties":{"geo_score":0.0,"id":"a8nwtubet2ah","geo_precision":"unmatched","state":"IND"},"type":"Feature","geometry":null},{"properties":{"geo_score":0.0,"id":"a8nwtupntx16","geo_precision":"unmatched","state":"IND"},"type":"Feature","geometry":null},{"properties":{"geo_score":0.0,"id":"a8nwtuhjfsk5","geo_precision":"unmatched","state":"IND"},"type":"Feature","geometry":null},{"properties":{"geo_score":0.0,"id":"a8nwtudrht2l","geo_precision":"unmatched","state":"IND"},"type":"Feature","geometry":null},{"properties":{"geo_score":0.0,"id":"a8nwtuiye2og","geo_precision":"unmatched","state":"IND"},"type":"Feature","geometry":null},{"properties":{"geo_score":0.0,"id":"a8nwturhyfgc","geo_precision":"unmatched","state":"IND"},"type":"Feature","geometry":null},{"properties":{"geo_score":0.0,"id":"a8nwtuocyjt8","geo_precision":"unmatched","state":"IND"},"type":"Feature","geometry":null},{"properties":{"geo_score":0.0,"id":"a8nwtumhhgdi","geo_precision":"unmatched","state":"IND"},"type":"Feature","geometry":null},{"properties":{"geo_score":0.0,"id":"a8nwtuhiydg4","geo_precision":"unmatched","state":"IND"},"type":"Feature","geometry":null},{"properties":{"geo_score":0.0,"id":"a8nwtupdrnub","geo_precision":"unmatched","state":"IND"},"type":"Feature","geometry":null},{"properties":{"geo_score":0.0,"id":"a8nwtudpo83m","geo_precision":"unmatched","state":"IND"},"type":"Feature","geometry":null},{"properties":{"geo_score":0.0,"id":"a8nwtuqdht8a","geo_precision":"unmatched","state":"IND"},"type":"Feature","geometry":null},{"properties":{"geo_score":0.0,"id":"a8nwtuf4o3c0","geo_precision":"unmatched","state":"IND"},"type":"Feature","geometry":null},{"properties":{"geo_score":0.0,"id":"a8nwtum3tp7k","geo_precision":"unmatched","state":"IND"},"type":"Feature","geometry":null},{"properties":{"geo_score":0.0,"id":"a8nwtuqi4u2i","geo_precision":"unmatched","state":"IND"},"type":"Feature","geometry":null},{"properties":{"geo_score":0.0,"id":"a8nwtuis4nbv","geo_precision":"unmatched","state":"IND"},"type":"Feature","geometry":null},{"properties":{"geo_score":0.0,"id":"a8nwtubn9x1r","geo_precision":"unmatched","state":"IND"},"type":"Feature","geometry":null},{"properties":{"geo_score":0.0,"id":"a8nwtugpfhk1","geo_precision":"unmatched","state":"IND"},"type":"Feature","geometry":null},{"properties":{"geo_score":0.0,"id":"a8nwtubbbn59","geo_precision":"unmatched","state":"IND"},"type":"Feature","geometry":null},{"properties":{"geo_score":0.0,"id":"a8nwtug04h6a","geo_precision":"unmatched","state":"IND"},"type":"Feature","geometry":null},{"properties":{"geo_score":0.0,"id":"a8nwtulul8lm","geo_precision":"unmatched","state":"IND"},"type":"Feature","geometry":null},{"properties":{"geo_score":0.0,"id":"a8nwtucjy0r3","geo_precision":"unmatched","state":"IND"},"type":"Feature","geometry":null},{"properties":{"geo_score":0.0,"id":"a8nwtun54z9k","geo_precision":"unmatched","state":"IND"},"type":"Feature","geometry":null},{"properties":{"geo_score":0.0,"id":"a8nwtuolmkgm","geo_precision":"unmatched","state":"IND"},"type":"Feature","geometry":null},{"properties":{"geo_score":0.0,"id":"a8nwtuoi9oy3","geo_precision":"unmatched","state":"IND"},"type":"Feature","geometry":null},{"properties":{"geo_score":0.0,"id":"a8nwtucz9zb1","geo_precision":"unmatched","state":"IND"},"type":"Feature","geometry":null},{"properties":{"geo_score":0.0,"id":"a8nwtup0jpv1","geo_precision":"unmatched","state":"IND"},"type":"Feature","geometry":null},{"properties":{"geo_score":0.0,"id":"a8nwtui07skv","geo_precision":"unmatched","state":"IND"},"type":"Feature","geometry":null},{"properties":{"geo_score":0.0,"id":"a8nwtuqr5moj","geo_precision":"unmatched","state":"IND"},"type":"Feature","geometry":null},{"properties":{"geo_score":0.0,"id":"a8nwtuckovgh","geo_precision":"unmatched","state":"IND"},"type":"Feature","geometry":null},{"properties":{"geo_score":0.0,"id":"a8nwtubeh22j","geo_precision":"unmatched","state":"IND"},"type":"Feature","geometry":null},{"properties":{"geo_score":0.0,"id":"a8nwtuidj1w5","geo_precision":"unmatched","state":"IND"},"type":"Feature","geometry":null},{"properties":{"geo_score":0.0,"id":"a8nwtubchfuc","geo_precision":"unmatched","state":"IND"},"type":"Feature","geometry":null},{"properties":{"geo_score":0.0,"id":"a8nwtuccl9oc","geo_precision":"unmatched","state":"IND"},"type":"Feature","geometry":null},{"properties":{"geo_score":0.0,"id":"a8nwtuo76fng","geo_precision":"unmatched","state":"IND"},"type":"Feature","geometry":null},{"properties":{"geo_score":0.0,"id":"a8nwtunflnsw","geo_precision":"unmatched","state":"IND"},"type":"Feature","geometry":null},{"properties":{"geo_score":0.0,"id":"a8nwtufp2533","geo_precision":"unmatched","state":"IND"},"type":"Feature","geometry":null},{"properties":{"geo_score":0.0,"id":"a8nwtuc3jxz3","geo_precision":"unmatched","state":"IND"},"type":"Feature","geometry":null},{"properties":{"geo_score":0.0,"id":"a8nwtuhxjdt4","geo_precision":"unmatched","state":"IND"},"type":"Feature","geometry":null},{"properties":{"geo_score":0.0,"id":"a8nwtuqklyp8","geo_precision":"unmatched","state":"IND"},"type":"Feature","geometry":null},{"properties":{"geo_score":0.0,"id":"a8nwtun9ld53","geo_precision":"unmatched","state":"IND"},"type":"Feature","geometry":null},{"properties":{"geo_score":0.0,"id":"a8nwtuf5wug8","geo_precision":"unmatched","state":"IND"},"type":"Feature","geometry":null},{"properties":{"geo_score":0.0,"id":"a8nwtufbnlx2","geo_precision":"unmatched","state":"IND"},"type":"Feature","geometry":null},{"properties":{"geo_score":0.0,"id":"a8nwtum44f8b","geo_precision":"unmatched","state":"IND"},"type":"Feature","geometry":null},{"properties":{"geo_score":0.0,"id":"a8nwtug0l144","geo_precision":"unmatched","state":"IND"},"type":"Feature","geometry":null},{"properties":{"geo_score":0.0,"id":"a8nwtuhrjjjx","geo_precision":"unmatched","state":"IND"},"type":"Feature","geometry":null},{"properties":{"geo_score":0.0,"id":"a8nwtuocn2kw","geo_precision":"unmatched","state":"IND"},"type":"Feature","geometry":null},{"properties":{"geo_score":0.0,"id":"a8nwtuk6nh1h","geo_precision":"unmatched","state":"IND"},"type":"Feature","geometry":null},{"properties":{"geo_score":0.0,"id":"a8nwtuli95zf","geo_precision":"unmatched","state":"IND"},"type":"Feature","geometry":null},{"properties":{"geo_score":0.0,"id":"a8nwtuj6r9zw","geo_precision":"unmatched","state":"IND"},"type":"Feature","geometry":null},{"properties":{"geo_score":0.0,"id":"a8nwturnd05w","geo_precision":"unmatched","state":"IND"},"type":"Feature","geometry":null},{"properties":{"geo_score":0.0,"id":"a8nwtuco9zst","geo_precision":"unmatched","state":"IND"},"type":"Feature","geometry":null},{"properties":{"geo_score":0.0,"id":"a8nwtue7w4pb","geo_precision":"unmatched","state":"IND"},"type":"Feature","geometry":null},{"properties":{"geo_score":0.0,"id":"a8nwtuqtthk7","geo_precision":"unmatched","state":"IND"},"type":"Feature","geometry":null},{"properties":{"geo_score":0.0,"id":"a8nwtufkgs56","geo_precision":"unmatched","state":"IND"},"type":"Feature","geometry":null},{"properties":{"geo_score":0.0,"id":"a8nwtuofjp1r","geo_precision":"unmatched","state":"IND"},"type":"Feature","geometry":null},{"properties":{"geo_score":0.0,"id":"a8nwtuk4kel4","geo_precision":"unmatched","state":"IND"},"type":"Feature","geometry":null},{"properties":{"geo_score":0.0,"id":"a8nwtuj33g9p","geo_precision":"unmatched","state":"IND"},"type":"Feature","geometry":null},{"properties":{"geo_score":0.0,"id":"a8nwtukqiytq","geo_precision":"unmatched","state":"IND"},"type":"Feature","geometry":null},{"properties":{"geo_score":0.0,"id":"a8nwtuq5nndz","geo_precision":"unmatched","state":"IND"},"type":"Feature","geometry":null},{"properties":{"geo_score":0.0,"id":"a8nwtum2sy7l","geo_precision":"unmatched","state":"IND"},"type":"Feature","geometry":null},{"properties":{"geo_score":0.0,"id":"a8nwtud2q4bw","geo_precision":"unmatched","state":"IND"},"type":"Feature","geometry":null},{"properties":{"geo_score":0.0,"id":"a8nwtuhcyatx","geo_precision":"unmatched","state":"IND"},"type":"Feature","geometry":null},{"properties":{"geo_score":0.0,"id":"a8nwtugmplno","geo_precision":"unmatched","state":"IND"},"type":"Feature","geometry":null},{"properties":{"geo_score":0.0,"id":"a8nwtugulxkz","geo_precision":"unmatched","state":"IND"},"type":"Feature","geometry":null},{"properties":{"geo_score":0.0,"id":"a8nwtub6jkg1","geo_precision":"unmatched","state":"IND"},"type":"Feature","geometry":null},{"properties":{"geo_score":0.0,"id":"a8nwtuhh9t73","geo_precision":"unmatched","state":"IND"},"type":"Feature","geometry":null},{"properties":{"geo_score":0.0,"id":"a8nwtuh3zrjn","geo_precision":"unmatched","state":"IND"},"type":"Feature","geometry":null},{"properties":{"geo_score":0.0,"id":"a8nwturd7xmd","geo_precision":"unmatched","state":"IND"},"type":"Feature","geometry":null},{"properties":{"geo_score":0.0,"id":"a8nwtulnnl9v","geo_precision":"unmatched","state":"IND"},"type":"Feature","geometry":null},{"properties":{"geo_score":0.0,"id":"a8nwtudqfmvf","geo_precision":"unmatched","state":"IND"},"type":"Feature","geometry":null},{"properties":{"geo_score":0.0,"id":"a8nwtum7sex1","geo_precision":"unmatched","state":"IND"},"type":"Feature","geometry":null},{"properties":{"geo_score":0.0,"id":"a8nwtujgaa34","geo_precision":"unmatched","state":"IND"},"type":"Feature","geometry":null},{"properties":{"geo_score":0.0,"id":"a8nwtubo9cor","geo_precision":"unmatched","state":"IND"},"type":"Feature","geometry":null},{"properties":{"geo_score":0.0,"id":"a8nwtukdxzi3","geo_precision":"unmatched","state":"IND"},"type":"Feature","geometry":null},{"properties":{"geo_score":0.0,"id":"a8nwtur7cs5s","geo_precision":"unmatched","state":"IND"},"type":"Feature","geometry":null},{"properties":{"geo_score":0.0,"id":"a8nwtuqni4es","geo_precision":"unmatched","state":"IND"},"type":"Feature","geometry":null},{"properties":{"geo_score":0.0,"id":"a8nwtuiv7emo","geo_precision":"unmatched","state":"IND"},"type":"Feature","geometry":null},{"properties":{"geo_score":0.0,"id":"a8nwtuqqz2w6","geo_precision":"unmatched","state":"IND"},"type":"Feature","geometry":null},{"properties":{"geo_score":0.0,"id":"a8nwtujw6hy1","geo_precision":"unmatched","state":"IND"},"type":"Feature","geometry":null},{"properties":{"geo_score":0.0,"id":"a8nwtup3ij2p","geo_precision":"unmatched","state":"IND"},"type":"Feature","geometry":null},{"properties":{"geo_score":0.0,"id":"a8nwtupzcm6x","geo_precision":"unmatched","state":"IND"},"type":"Feature","geometry":null},{"properties":{"geo_score":0.0,"id":"a8nwtubz91ng","geo_precision":"unmatched","state":"IND"},"type":"Feature","geometry":null},{"properties":{"geo_score":0.0,"id":"a8nwtuc1f7ey","geo_precision":"unmatched","state":"IND"},"type":"Feature","geometry":null},{"properties":{"geo_score":0.0,"id":"a8nwtunpftbn","geo_precision":"unmatched","state":"IND"},"type":"Feature","geometry":null},{"properties":{"geo_score":0.0,"id":"a8nwtuobqv1s","geo_precision":"unmatched","state":"IND"},"type":"Feature","geometry":null},{"properties":{"geo_score":0.0,"id":"a8nwtui1g5vo","geo_precision":"unmatched","state":"IND"},"type":"Feature","geometry":null},{"properties":{"geo_score":0.0,"id":"a8nwtump9i80","geo_precision":"unmatched","state":"IND"},"type":"Feature","geometry":null},{"properties":{"geo_score":0.0,"id":"a8nwtuj89zs7","geo_precision":"unmatched","state":"IND"},"type":"Feature","geometry":null},{"properties":{"geo_score":0.0,"id":"a8nwtuf2e0hx","geo_precision":"unmatched","state":"IND"},"type":"Feature","geometry":null},{"properties":{"geo_score":0.0,"id":"a8nwtuc05ma0","geo_precision":"unmatched","state":"IND"},"type":"Feature","geometry":null},{"properties":{"geo_score":0.0,"id":"a8nwtuk7fprr","geo_precision":"unmatched","state":"IND"},"type":"Feature","geometry":null},{"properties":{"geo_score":0.0,"id":"a8nwtud8oqst","geo_precision":"unmatched","state":"IND"},"type":"Feature","geometry":null},{"properties":{"geo_score":0.0,"id":"a8nwtul75g45","geo_precision":"unmatched","state":"IND"},"type":"Feature","geometry":null},{"properties":{"geo_score":0.0,"id":"a8nwtuhg7n6m","geo_precision":"unmatched","state":"IND"},"type":"Feature","geometry":null},{"properties":{"geo_score":0.0,"id":"a8nwturfjkwn","geo_precision":"unmatched","state":"IND"},"type":"Feature","geometry":null},{"properties":{"geo_score":0.0,"id":"a8nwtuq8aepb","geo_precision":"unmatched","state":"IND"},"type":"Feature","geometry":null},{"properties":{"geo_score":0.0,"id":"a8nwtubwk48g","geo_precision":"unmatched","state":"IND"},"type":"Feature","geometry":null},{"properties":{"geo_score":0.0,"id":"a8nwtulf73ar","geo_precision":"unmatched","state":"IND"},"type":"Feature","geometry":null},{"properties":{"geo_score":0.0,"id":"a8nwtuizrc6p","geo_precision":"unmatched","state":"IND"},"type":"Feature","geometry":null},{"properties":{"geo_score":0.0,"id":"a8nwtud0pdom","geo_precision":"unmatched","state":"IND"},"type":"Feature","geometry":null},{"properties":{"geo_score":0.0,"id":"a8nwtult2z3t","geo_precision":"unmatched","state":"IND"},"type":"Feature","geometry":null},{"properties":{"geo_score":0.0,"id":"a8nwtukjdi1x","geo_precision":"unmatched","state":"IND"},"type":"Feature","geometry":null},{"properties":{"geo_score":0.0,"id":"a8nwtumqin75","geo_precision":"unmatched","state":"IND"},"type":"Feature","geometry":null},{"properties":{"geo_score":0.0,"id":"a8nwtulr7hr7","geo_precision":"unmatched","state":"IND"},"type":"Feature","geometry":null},{"properties":{"geo_score":0.0,"id":"a8nwtuqk7pn5","geo_precision":"unmatched","state":"IND"},"type":"Feature","geometry":null},{"properties":{"geo_score":0.0,"id":"a8nwtuqwklcf","geo_precision":"unmatched","state":"IND"},"type":"Feature","geometry":null},{"properties":{"geo_score":0.0,"id":"a8nwtuqi21t3","geo_precision":"unmatched","state":"IND"},"type":"Feature","geometry":null},{"properties":{"geo_score":0.0,"id":"a8nwtuo3h7za","geo_precision":"unmatched","state":"IND"},"type":"Feature","geometry":null},{"properties":{"geo_score":0.0,"id":"a8nwtufxmw3e","geo_precision":"unmatched","state":"IND"},"type":"Feature","geometry":null},{"properties":{"geo_score":0.0,"id":"a8nwtukbb2sm","geo_precision":"unmatched","state":"IND"},"type":"Feature","geometry":null},{"properties":{"geo_score":0.0,"id":"a8nwtuc2cinm","geo_precision":"unmatched","state":"IND"},"type":"Feature","geometry":null},{"properties":{"geo_score":0.0,"id":"a8nwtuczss5w","geo_precision":"unmatched","state":"IND"},"type":"Feature","geometry":null},{"properties":{"geo_score":0.0,"id":"a8nwtuefjs57","geo_precision":"unmatched","state":"IND"},"type":"Feature","geometry":null},{"properties":{"geo_score":0.0,"id":"a8nwtumkltdb","geo_precision":"unmatched","state":"IND"},"type":"Feature","geometry":null},{"properties":{"geo_score":0.0,"id":"a8nwtulywyyq","geo_precision":"unmatched","state":"IND"},"type":"Feature","geometry":null},{"properties":{"geo_score":0.0,"id":"a8nwtumyfphi","geo_precision":"unmatched","state":"IND"},"type":"Feature","geometry":null},{"properties":{"geo_score":0.0,"id":"a8nwtun3npp5","geo_precision":"unmatched","state":"IND"},"type":"Feature","geometry":null},{"properties":{"geo_score":0.0,"id":"a8nwtul2c0ca","geo_precision":"unmatched","state":"IND"},"type":"Feature","geometry":null},{"properties":{"geo_score":0.0,"id":"a8nwtucnlspe","geo_precision":"unmatched","state":"IND"},"type":"Feature","geometry":null},{"properties":{"geo_score":0.0,"id":"a8nwtuqdr67m","geo_precision":"unmatched","state":"IND"},"type":"Feature","geometry":null},{"properties":{"geo_score":0.0,"id":"a8nwtuqg8f0q","geo_precision":"unmatched","state":"IND"},"type":"Feature","geometry":null},{"properties":{"geo_score":0.0,"id":"a8nwtuqzqwjr","geo_precision":"unmatched","state":"IND"},"type":"Feature","geometry":null},{"properties":{"geo_score":0.0,"id":"a8nwtud3h4s5","geo_precision":"unmatched","state":"IND"},"type":"Feature","geometry":null},{"properties":{"geo_score":0.0,"id":"a8nwtui9ioil","geo_precision":"unmatched","state":"IND"},"type":"Feature","geometry":null},{"properties":{"geo_score":0.0,"id":"a8nwtubaw3gm","geo_precision":"unmatched","state":"IND"},"type":"Feature","geometry":null},{"properties":{"geo_score":0.0,"id":"a8nwtujhbmgg","geo_precision":"unmatched","state":"IND"},"type":"Feature","geometry":null},{"properties":{"geo_score":0.0,"id":"a8nwtubx0aes","geo_precision":"unmatched","state":"IND"},"type":"Feature","geometry":null},{"properties":{"geo_score":0.0,"id":"a8nwtuj3yu1x","geo_precision":"unmatched","state":"IND"},"type":"Feature","geometry":null},{"properties":{"geo_score":0.0,"id":"a8nwtulnt3ll","geo_precision":"unmatched","state":"IND"},"type":"Feature","geometry":null},{"properties":{"geo_score":0.0,"id":"a8nwtuj24u9q","geo_precision":"unmatched","state":"IND"},"type":"Feature","geometry":null},{"properties":{"geo_score":0.0,"id":"a8nwtue8bhw9","geo_precision":"unmatched","state":"IND"},"type":"Feature","geometry":null},{"properties":{"geo_score":0.0,"id":"a8nwtue1gueb","geo_precision":"unmatched","state":"IND"},"type":"Feature","geometry":null},{"properties":{"geo_score":0.0,"id":"a8nwtunccpqg","geo_precision":"unmatched","state":"IND"},"type":"Feature","geometry":null},{"properties":{"geo_score":0.0,"id":"a8nwtuk3gvtu","geo_precision":"unmatched","state":"IND"},"type":"Feature","geometry":null},{"properties":{"geo_score":0.0,"id":"a8nwtukl0zll","geo_precision":"unmatched","state":"IND"},"type":"Feature","geometry":null},{"properties":{"geo_score":0.0,"id":"a8nwtueo1r3g","geo_precision":"unmatched","state":"IND"},"type":"Feature","geometry":null},{"properties":{"geo_score":0.0,"id":"a8nwtuf29473","geo_precision":"unmatched","state":"IND"},"type":"Feature","geometry":null},{"properties":{"geo_score":0.0,"id":"a8nwtup5y1ht","geo_precision":"unmatched","state":"IND"},"type":"Feature","geometry":null},{"properties":{"geo_score":0.0,"id":"a8nwtulvbixb","geo_precision":"unmatched","state":"IND"},"type":"Feature","geometry":null},{"properties":{"geo_score":0.0,"id":"a8nwtuddljoz","geo_precision":"unmatched","state":"IND"},"type":"Feature","geometry":null},{"properties":{"geo_score":0.0,"id":"a8nwtubnjmaz","geo_precision":"unmatched","state":"IND"},"type":"Feature","geometry":null},{"properties":{"geo_score":0.0,"id":"a8nwtukzhhi7","geo_precision":"unmatched","state":"IND"},"type":"Feature","geometry":null},{"properties":{"geo_score":0.0,"id":"a8nwtuqki1jh","geo_precision":"unmatched","state":"IND"},"type":"Feature","geometry":null},{"properties":{"geo_score":0.0,"id":"a8nwtuqm4bge","geo_precision":"unmatched","state":"IND"},"type":"Feature","geometry":null},{"properties":{"geo_score":0.0,"id":"a8nwtuhsloim","geo_precision":"unmatched","state":"IND"},"type":"Feature","geometry":null},{"properties":{"geo_score":0.0,"id":"a8nwtuf9dcy5","geo_precision":"unmatched","state":"IND"},"type":"Feature","geometry":null},{"properties":{"geo_score":0.0,"id":"a8nwtufkbwye","geo_precision":"unmatched","state":"IND"},"type":"Feature","geometry":null},{"properties":{"geo_score":0.0,"id":"a8nwtudjszoq","geo_precision":"unmatched","state":"IND"},"type":"Feature","geometry":null},{"properties":{"geo_score":0.0,"id":"a8nwtumf54xf","geo_precision":"unmatched","state":"IND"},"type":"Feature","geometry":null},{"properties":{"geo_score":0.0,"id":"a8nwtuj0mpw4","geo_precision":"unmatched","state":"IND"},"type":"Feature","geometry":null},{"properties":{"geo_score":0.0,"id":"a8nwtub4wpuc","geo_precision":"unmatched","state":"IND"},"type":"Feature","geometry":null},{"properties":{"geo_score":0.0,"id":"a8nwtuh91b0q","geo_precision":"unmatched","state":"IND"},"type":"Feature","geometry":null},{"properties":{"geo_score":0.0,"id":"a8nwtud0r32b","geo_precision":"unmatched","state":"IND"},"type":"Feature","geometry":null},{"properties":{"geo_score":0.0,"id":"a8nwtudfyc7r","geo_precision":"unmatched","state":"IND"},"type":"Feature","geometry":null},{"properties":{"geo_score":0.0,"id":"a8nwtunzrx4v","geo_precision":"unmatched","state":"IND"},"type":"Feature","geometry":null},{"properties":{"geo_score":0.0,"id":"a8nwtucql8cu","geo_precision":"unmatched","state":"IND"},"type":"Feature","geometry":null},{"properties":{"geo_score":0.0,"id":"a8nwtufr0xgx","geo_precision":"unmatched","state":"IND"},"type":"Feature","geometry":null},{"properties":{"geo_score":0.0,"id":"a8nwtugvz8hd","geo_precision":"unmatched","state":"IND"},"type":"Feature","geometry":null},{"properties":{"geo_score":0.0,"id":"a8nwtuec280a","geo_precision":"unmatched","state":"IND"},"type":"Feature","geometry":null},{"properties":{"geo_score":0.0,"id":"a8nwtuilzx7h","geo_precision":"unmatched","state":"IND"},"type":"Feature","geometry":null},{"properties":{"geo_score":0.0,"id":"a8nwtudyj442","geo_precision":"unmatched","state":"IND"},"type":"Feature","geometry":null},{"properties":{"geo_score":0.0,"id":"a8nwtukr54vt","geo_precision":"unmatched","state":"IND"},"type":"Feature","geometry":null},{"properties":{"geo_score":0.0,"id":"a8nwtubo51or","geo_precision":"unmatched","state":"IND"},"type":"Feature","geometry":null},{"properties":{"geo_score":0.0,"id":"a8nwtulq2lxf","geo_precision":"unmatched","state":"USA"},"type":"Feature","geometry":null},{"properties":{"geo_score":0.0,"id":"a8nwtur9a0pe","geo_precision":"unmatched","state":"USA"},"type":"Feature","geometry":null},{"properties":{"geo_score":0.0,"id":"a8nwtui5wket","geo_precision":"unmatched","state":"USA"},"type":"Feature","geometry":null},{"properties":{"geo_score":0.0,"id":"a8nwtuos2np5","geo_precision":"unmatched","state":"USA"},"type":"Feature","geometry":null},{"properties":{"geo_score":0.0,"id":"a8nwtuqcb8ap","geo_precision":"unmatched","state":"USA"},"type":"Feature","geometry":null},{"properties":{"geo_score":0.0,"id":"a8nwtunf8r51","geo_precision":"unmatched","state":"USA"},"type":"Feature","geometry":null},{"properties":{"geo_score":0.0,"id":"a8nwtup18g2v","geo_precision":"unmatched","state":"USA"},"type":"Feature","geometry":null},{"properties":{"geo_score":0.0,"id":"a8nwtupzy3bp","geo_precision":"unmatched","state":"USA"},"type":"Feature","geometry":null},{"properties":{"geo_score":0.0,"id":"a8nwtuipufjp","geo_precision":"unmatched","state":"USA"},"type":"Feature","geometry":null},{"properties":{"geo_score":0.0,"id":"a8nwtupfn2pj","geo_precision":"unmatched","state":"USA"},"type":"Feature","geometry":null},{"properties":{"geo_score":0.0,"id":"a8nwtublalrg","geo_precision":"unmatched","state":"USA"},"type":"Feature","geometry":null},{"properties":{"geo_score":0.0,"id":"a8nwtugx6c87","geo_precision":"unmatched","state":"USA"},"type":"Feature","geometry":null},{"properties":{"geo_score":0.0,"id":"a8nwtujyd7zf","geo_precision":"unmatched","state":"USA"},"type":"Feature","geometry":null},{"properties":{"geo_score":0.0,"id":"a8nwtujj68cc","geo_precision":"unmatched","state":"USA"},"type":"Feature","geometry":null},{"properties":{"geo_score":0.0,"id":"a8nwtun9lnff","geo_precision":"unmatched","state":"USA"},"type":"Feature","geometry":null},{"properties":{"geo_score":0.0,"id":"a8nwtuctpi80","geo_precision":"unmatched","state":"USA"},"type":"Feature","geometry":null},{"properties":{"geo_score":0.0,"id":"a8nwtulslnsw","geo_precision":"unmatched","state":"USA"},"type":"Feature","geometry":null},{"properties":{"geo_score":0.0,"id":"a8nwtuetohf9","geo_precision":"unmatched","state":"USA"},"type":"Feature","geometry":null},{"properties":{"geo_score":0.0,"id":"a8nwtuiawtcu","geo_precision":"unmatched","state":"USA"},"type":"Feature","geometry":null},{"properties":{"geo_score":0.0,"id":"a8nwtug9ri0e","geo_precision":"unmatched","state":"USA"},"type":"Feature","geometry":null},{"properties":{"geo_score":0.0,"id":"a8nwtunlm347","geo_precision":"unmatched","state":"USA"},"type":"Feature","geometry":null},{"properties":{"geo_score":0.0,"id":"a8nwtuibxej1","geo_precision":"unmatched","state":"USA"},"type":"Feature","geometry":null},{"properties":{"geo_score":0.0,"id":"a8nwtujjoph9","geo_precision":"unmatched","state":"USA"},"type":"Feature","geometry":null},{"properties":{"geo_score":0.0,"id":"a8nwtug302my","geo_precision":"unmatched","state":"USA"},"type":"Feature","geometry":null},{"properties":{"geo_score":0.0,"id":"a8nwtupx5ngt","geo_precision":"unmatched","state":"USA"},"type":"Feature","geometry":null},{"properties":{"geo_score":0.0,"id":"a8nwtud592mc","geo_precision":"unmatched","state":"USA"},"type":"Feature","geometry":null},{"properties":{"geo_score":0.0,"id":"a8nwtulwfgp8","geo_precision":"unmatched","state":"USA"},"type":"Feature","geometry":null},{"properties":{"geo_score":0.0,"id":"a8nwtuh9zymz","geo_precision":"unmatched","state":"USA"},"type":"Feature","geometry":null},{"properties":{"geo_score":0.0,"id":"a8nwtukh5wbu","geo_precision":"unmatched","state":"USA"},"type":"Feature","geometry":null},{"properties":{"geo_score":0.0,"id":"a8nwtuduljg2","geo_precision":"unmatched","state":"USA"},"type":"Feature","geometry":null},{"properties":{"geo_score":0.0,"id":"a8nwtuhm93xg","geo_precision":"unmatched","state":"USA"},"type":"Feature","geometry":null},{"properties":{"geo_score":0.0,"id":"a8nwtumojuv0","geo_precision":"unmatched","state":"USA"},"type":"Feature","geometry":null},{"properties":{"geo_score":0.0,"id":"a8nwtujgrwrf","geo_precision":"unmatched","state":"USA"},"type":"Feature","geometry":null},{"properties":{"geo_score":0.0,"id":"a8nwtue9r7tq","geo_precision":"unmatched","state":"USA"},"type":"Feature","geometry":null},{"properties":{"geo_score":0.0,"id":"a8nwtugqfmax","geo_precision":"unmatched","state":"USA"},"type":"Feature","geometry":null},{"properties":{"geo_score":0.0,"id":"a8nwtubf3q0n","geo_precision":"unmatched","state":"USA"},"type":"Feature","geometry":null},{"properties":{"geo_score":0.0,"id":"a8nwtuo7j5ec","geo_precision":"unmatched","state":"USA"},"type":"Feature","geometry":null},{"properties":{"geo_score":0.0,"id":"a8nwtudek34c","geo_precision":"unmatched","state":"USA"},"type":"Feature","geometry":null},{"properties":{"geo_score":0.0,"id":"a8nwtublizst","geo_precision":"unmatched","state":"USA"},"type":"Feature","geometry":null},{"properties":{"geo_score":0.0,"id":"a8nwtuq4dk7v","geo_precision":"unmatched","state":"USA"},"type":"Feature","geometry":null},{"properties":{"geo_score":0.0,"id":"a8nwtupjtovd","geo_precision":"unmatched","state":"USA"},"type":"Feature","geometry":null},{"properties":{"geo_score":0.0,"id":"a8nwtujvij1j","geo_precision":"unmatched","state":"USA"},"type":"Feature","geometry":null},{"properties":{"geo_score":0.0,"id":"a8nwturjje02","geo_precision":"unmatched","state":"USA"},"type":"Feature","geometry":null},{"properties":{"geo_score":0.0,"id":"a8nwtuislvsa","geo_precision":"unmatched","state":"USA"},"type":"Feature","geometry":null},{"properties":{"geo_score":0.0,"id":"a8nwtunags9l","geo_precision":"unmatched","state":"USA"},"type":"Feature","geometry":null},{"properties":{"geo_score":0.0,"id":"a8nwtumaq4tn","geo_precision":"unmatched","state":"BEL"},"type":"Feature","geometry":null},{"properties":{"geo_score":0.0,"id":"a8nwtudcn7b8","geo_precision":"unmatched","state":"KHM"},"type":"Feature","geometry":null},{"properties":{"geo_score":0.0,"id":"a8nwtuna9jq4","geo_precision":"unmatched","state":"CHN"},"type":"Feature","geometry":null},{"properties":{"geo_score":0.0,"id":"a8nwtucud731","geo_precision":"unmatched","state":"FRA"},"type":"Feature","geometry":null},{"properties":{"geo_score":0.0,"id":"a8nwtufrbl39","geo_precision":"unmatched","state":"NOR"},"type":"Feature","geometry":null},{"properties":{"geo_score":0.0,"id":"a8nwtuprmcai","geo_precision":"unmatched","state":"KOR"},"type":"Feature","geometry":null},{"properties":{"geo_score":0.0,"id":"a8nwtumc9mma","geo_precision":"unmatched","state":"SWZ"},"type":"Feature","geometry":null},{"properties":{"geo_score":0.0,"id":"a8nwturgj020","geo_precision":"unmatched","state":"GBR"},"type":"Feature","geometry":null},{"properties":{"geo_score":0.0,"id":"a8nwtujk7txy","geo_precision":"unmatched","state":"AUS"},"type":"Feature","geometry":null},{"properties":{"geo_score":0.0,"id":"a8nwtuo2jrwj","geo_precision":"unmatched","state":"AUS"},"type":"Feature","geometry":null},{"properties":{"geo_score":0.0,"id":"a8nwtunkxzv4","geo_precision":"unmatched","state":"AUS"},"type":"Feature","geometry":null},{"properties":{"geo_score":0.0,"id":"a8nwtulmm0lc","geo_precision":"unmatched","state":"AUS"},"type":"Feature","geometry":null},{"properties":{"geo_score":0.0,"id":"a8nwtudt45lw","geo_precision":"unmatched","state":"AUS"},"type":"Feature","geometry":null},{"properties":{"geo_score":0.0,"id":"a8nwtujdf45v","geo_precision":"unmatched","state":"AUS"},"type":"Feature","geometry":null},{"properties":{"geo_score":0.0,"id":"a8nwtuha91ds","geo_precision":"unmatched","state":"SGP"},"type":"Feature","geometry":null},{"properties":{"geo_score":0.0,"id":"a8nwtuhgp43n","geo_precision":"unmatched","state":"SGP"},"type":"Feature","geometry":null},{"properties":{"geo_score":0.0,"id":"a8nwtuiun771","geo_precision":"unmatched","state":"SGP"},"type":"Feature","geometry":null},{"properties":{"geo_score":0.0,"id":"a8nwtudpsovp","geo_precision":"unmatched","state":"CAN"},"type":"Feature","geometry":null},{"properties":{"geo_score":0.0,"id":"a8nwtuo1ku8f","geo_precision":"unmatched","state":"DEU"},"type":"Feature","geometry":null},{"properties":{"geo_score":0.0,"id":"a8nwtuh9d6jq","geo_precision":"unmatched","state":"JPN"},"type":"Feature","geometry":null},{"properties":{"geo_score":0.0,"id":"a8nwtukrrge9","geo_precision":"unmatched","state":"CAN"},"type":"Feature","geometry":null},{"properties":{"geo_score":0.0,"id":"a8nwtunii182","geo_precision":"unmatched","state":"DEU"},"type":"Feature","geometry":null},{"properties":{"geo_score":0.0,"id":"a8nwtuhc4el7","geo_precision":"unmatched","state":"JPN"},"type":"Feature","geometry":null},{"properties":{"geo_score":0.0,"id":"a8nwtuia98uz","geo_precision":"unmatched","state":"ARE"},"type":"Feature","geometry":null},{"properties":{"geo_score":0.0,"id":"a8nwtur98jt4","geo_precision":"unmatched","state":"ARE"},"type":"Feature","geometry":null},{"properties":{"geo_score":0.0,"id":"a8nwtumiwopl","geo_precision":"unmatched","state":"ARE"},"type":"Feature","geometry":null},{"properties":{"geo_score":0.0,"id":"a8nwtunaz0lp","geo_precision":"unmatched","state":"ARE"},"type":"Feature","geometry":null}],"is_temporal":false,"author":{"url":"","metadata":null,"contact_name":null,"contact_address":null,"source":null,"contact_phone":null},"source":"","pagination":{"sort":null,"start":0,"total":550,"limit":1000000},"state":"parsed","tags":"","published":"2014-08-14T21:39:32-04:00","id":274906}