{"type":"FeatureCollection","data_type":"Dataset","url_type":null,"permissions":[{"permissions":{"download":true,"view":true},"group_id":"everyone"}],"classification":null,"title":"section_xi_HS","count":62,"stream_id":275464,"contributor":{"url":"http://geocommons.com/users/39422","name":"rshek"},"data_attributes":null,"calculation_params":null,"icon_link":null,"link":"http://geocommons.com/overlays/275464.json","extent":[-73.4412,40.6545,-72.1741,41.3247],"geometry_types":["point"],"unique_name":null,"name":"section_xi_HS","feature_count":62,"description":"","next_feature":null,"is_raster":false,"short_classification":"Y","stats":{},"features":[{"properties":{"city":"Amityville","school name":"Amityville High School","geo_score":0.581,"zip code":"11701","street":"250 Merrick Road","id":"a8pllddczfj1","geo_precision":"street","state":"NY","partnership manager":"John Lanning"},"type":"Feature","geometry":{"type":"Point","coordinates":[-73.382341,40.671305]}},{"properties":{"city":"Babylon","school name":"Babylon High School","geo_score":0.672,"zip code":"11702","street":"50 Railroad Avenue","id":"a8plldct83d9","geo_precision":"street","state":"NY","partnership manager":"John Lanning"},"type":"Feature","geometry":{"type":"Point","coordinates":[-73.325935,40.699597]}},{"properties":{"city":"Bayport","school name":"Bayport-Blue Point High School","geo_score":1.0,"zip code":"11705","street":"200 Snedecor Avenue","id":"a8plld11h5ie","geo_precision":"range","state":"NY","partnership manager":"Lisa Farrell"},"type":"Feature","geometry":{"type":"Point","coordinates":[-73.053884,40.742531]}},{"properties":{"city":"Bay Shore","school name":"Bay Shore High School","geo_score":0.878,"zip code":"11706","street":"155 Third Avenue","id":"a8plld2a8pdh","geo_precision":"range","state":"NY","partnership manager":"Lisa Farrell"},"type":"Feature","geometry":{"type":"Point","coordinates":[-73.25556,40.731221]}},{"properties":{"city":"Bellport","school name":"Bellport High School","geo_score":0.807,"zip code":"11713","street":"205 Beaver Dam Road","id":"a8pllda0xthy","geo_precision":"street","state":"NY","partnership manager":"Lisa Farrell"},"type":"Feature","geometry":{"type":"Point","coordinates":[-72.93571,40.772929]}},{"properties":{"city":"Brentwood","school name":"Brentwood High School","geo_score":0.916,"zip code":"11717","street":"2 Sixth Avenue","id":"a8plld8uime4","geo_precision":"range","state":"NY","partnership manager":"Lisa Farrell"},"type":"Feature","geometry":{"type":"Point","coordinates":[-73.252583,40.773058]}},{"properties":{"city":"Bridgehampton","school name":"Bridgehampton High School","geo_score":0.74,"zip code":"11932","street":"PO BOX 3021 2685 Montauk Highway","id":"a8plld946l4d","geo_precision":"street","state":"NY","partnership manager":"Lisa Farrell"},"type":"Feature","geometry":{"type":"Point","coordinates":[-72.328595,40.927713]}},{"properties":{"city":"Centereach","school name":"Centereach High School","geo_score":0.875,"zip code":"11720","street":"14-43rd street","id":"a8plld4vw91w","geo_precision":"range","state":"NY","partnership manager":"John Lanning"},"type":"Feature","geometry":{"type":"Point","coordinates":[-73.090973,40.87318]}},{"properties":{"city":"Center Moriches","school name":"Center Moriches High School","geo_score":1.0,"zip code":"11934","street":"311 Frowein Road","id":"a8pllczvhtdk","geo_precision":"range","state":"NY","partnership manager":"Lisa Farrell"},"type":"Feature","geometry":{"type":"Point","coordinates":[-72.807225,40.804393]}},{"properties":{"city":"Central Islip","school name":"Central Islip High School","geo_score":1.0,"zip code":"11722","street":"85 Wheeler Road","id":"a8plld67us33","geo_precision":"range","state":"NY","partnership manager":"Lisa Farrell"},"type":"Feature","geometry":{"type":"Point","coordinates":[-73.208405,40.798227]}},{"properties":{"city":"Commack","school name":"Commack High School","geo_score":0.585,"zip code":"11725","street":"1 Scholar Lane","id":"a8plld2tohsx","geo_precision":"zip","state":"NY","partnership manager":"Denise Calamusso"},"type":"Feature","geometry":{"type":"Point","coordinates":[-73.280935,40.842247]}},{"properties":{"city":"Port Jefferson Station","school name":"Comsewogue High School","geo_score":1.0,"zip code":"11776","street":"565 Bicycle Path","id":"a8plld9hl2sm","geo_precision":"range","state":"NY","partnership manager":"Denise Calamusso"},"type":"Feature","geometry":{"type":"Point","coordinates":[-73.037463,40.906877]}},{"properties":{"city":"Bohemia","school name":"Connetquot High School","geo_score":1.0,"zip code":"11716","street":"780 Ocean Avenue","id":"a8plldcb4j95","geo_precision":"range","state":"NY","partnership manager":"Denise Calamusso"},"type":"Feature","geometry":{"type":"Point","coordinates":[-73.117311,40.759656]}},{"properties":{"city":"Deer Park","school name":"Deer Park High School","geo_score":0.805,"zip code":"11729","street":"1 Falcon Place","id":"a8plld20kmv8","geo_precision":"range","state":"NY","partnership manager":"John Lanning"},"type":"Feature","geometry":{"type":"Point","coordinates":[-73.405026,40.900641]}},{"properties":{"city":"Port Jefferson","school name":"Earl L. Vandermeulen High School (Port Jefferson)","geo_score":1.0,"zip code":"11777","street":"350 Old Post Road","id":"a8plldektfih","geo_precision":"range","state":"NY","partnership manager":"Denise Calamusso"},"type":"Feature","geometry":{"type":"Point","coordinates":[-73.074122,40.938128]}},{"properties":{"city":"East Hampton","school name":"East Hampton High School","geo_score":1.0,"zip code":"11937","street":"2 Long Lane","id":"a8plldcg90ps","geo_precision":"range","state":"NY","partnership manager":"Lisa Farrell"},"type":"Feature","geometry":{"type":"Point","coordinates":[-72.209814,40.972466]}},{"properties":{"city":"Islip Terrace","school name":"East Islip High School","geo_score":0.893,"zip code":"11752","street":"Craig B. Gariepy Avenue","id":"a8plld6825kg","geo_precision":"street","state":"NY","partnership manager":"Denise Calamusso"},"type":"Feature","geometry":{"type":"Point","coordinates":[-73.165447,40.750737]}},{"properties":{"city":"Manorville","school name":"Eastport South Manor High School","geo_score":1.0,"zip code":"11949","street":"543 Moriches-Middle Island Road","id":"a8plld66haod","geo_precision":"range","state":"NY","partnership manager":"Lisa Farrell"},"type":"Feature","geometry":{"type":"Point","coordinates":[-72.832585,40.827262]}},{"properties":{"city":"Fishers Island","school name":"Fishers Island HS","geo_score":0.393,"zip code":"06390","street":"PO Box A","id":"a8plld0iu0hy","geo_precision":"street","state":"NY","partnership manager":"Denise Calamusso"},"type":"Feature","geometry":{"type":"Point","coordinates":[-72.174073,41.324681]}},{"properties":{"city":"Greenport","school name":"Greenport High School","geo_score":1.0,"zip code":"11944","street":"720 Front Street","id":"a8plld9098fc","geo_precision":"range","state":"NY","partnership manager":"Denise Calamusso"},"type":"Feature","geometry":{"type":"Point","coordinates":[-72.369649,41.100363]}},{"properties":{"city":"Dix Hills","school name":"Half Hollow Hills East High School","geo_score":1.0,"zip code":"11746","street":"50 Vanderbilt Parkway","id":"a8plld1d64j2","geo_precision":"range","state":"NY","partnership manager":"John Lanning"},"type":"Feature","geometry":{"type":"Point","coordinates":[-73.359586,40.803582]}},{"properties":{"city":"Dix Hills","school name":"Half Hollow Hills West High School","geo_score":1.0,"zip code":"11746","street":"375 Wolf Hill Road","id":"a8pllddaec0j","geo_precision":"range","state":"NY","partnership manager":"John Lanning"},"type":"Feature","geometry":{"type":"Point","coordinates":[-73.375301,40.809734]}},{"properties":{"city":"Hampton Bays","school name":"Hampton Bays High School","geo_score":0.951,"zip code":"11946","street":"88 Argonne Road","id":"a8plld325nfs","geo_precision":"range","state":"NY","partnership manager":"Lisa Farrell"},"type":"Feature","geometry":{"type":"Point","coordinates":[-72.510415,40.875451]}},{"properties":{"city":"Greenlawn","school name":"Harborfields High School","geo_score":1.0,"zip code":"11740","street":"98 Taylor Avenue","id":"a8plld8mmn0r","geo_precision":"range","state":"NY","partnership manager":"Denise Calamusso"},"type":"Feature","geometry":{"type":"Point","coordinates":[-73.360059,40.866626]}},{"properties":{"city":"Hauppauge","school name":"Hauppauge High School","geo_score":0.854,"zip code":"11788","street":"500 Lincoln Boulevard PO Box 6006","id":"a8pllde5spja","geo_precision":"range","state":"NY","partnership manager":"Lisa Farrell"},"type":"Feature","geometry":{"type":"Point","coordinates":[-73.199688,40.822365]}},{"properties":{"city":"Huntington","school name":"Huntington High School","geo_score":0.871,"zip code":"11743","street":"Oakwood &amp; Mckay Roads","id":"a8plld8xwviw","geo_precision":"street","state":"NY","partnership manager":"Denise Calamusso"},"type":"Feature","geometry":{"type":"Point","coordinates":[-73.42765,40.867442]}},{"properties":{"city":"Islip","school name":"Islip High School","geo_score":1.0,"zip code":"11751","street":"2508 Union Boulevard","id":"a8plldcgayfc","geo_precision":"range","state":"NY","partnership manager":"Lisa Farrell"},"type":"Feature","geometry":{"type":"Point","coordinates":[-73.217385,40.732686]}},{"properties":{"city":"Elwood","school name":"John H. Glenn High School (Elwood)","geo_score":0.805,"zip code":"11740","street":"478 Elwood Road","id":"a8plld8lbj27","geo_precision":"range","state":"NY","partnership manager":"Denise Calamusso"},"type":"Feature","geometry":{"type":"Point","coordinates":[-73.333646,40.857674]}},{"properties":{"city":"Kings Park","school name":"Kings Park High School","geo_score":1.0,"zip code":"11754","street":"180 Lawrence Road","id":"a8plld7em5oj","geo_precision":"range","state":"NY","partnership manager":"Denise Calamusso"},"type":"Feature","geometry":{"type":"Point","coordinates":[-73.240905,40.888048]}},{"properties":{"city":"Lindenhurst","school name":"Lindenhurst High School","geo_score":1.0,"zip code":"11757","street":"300 Charles Street","id":"a8pllczak1sa","geo_precision":"range","state":"NY","partnership manager":"John Lanning"},"type":"Feature","geometry":{"type":"Point","coordinates":[-73.367498,40.697118]}},{"properties":{"city":"Middle Island","school name":"Longwood High School","geo_score":1.0,"zip code":"11953","street":"100 Longwood Road","id":"a8plld2kqdnh","geo_precision":"range","state":"NY","partnership manager":"Lisa Farrell"},"type":"Feature","geometry":{"type":"Point","coordinates":[-72.929869,40.865677]}},{"properties":{"city":"Mattituck","school name":"Mattituck High School","geo_score":0.878,"zip code":"11952","street":"15125 Main Road","id":"a8plld77tw6l","geo_precision":"range","state":"NY","partnership manager":"Denise Calamusso"},"type":"Feature","geometry":{"type":"Point","coordinates":[-72.525711,40.99583]}},{"properties":{"city":"Riverhead","school name":"McGann-Mercy High School","geo_score":1.0,"zip code":"11901","street":"1225 Ostrander Avenue","id":"a8plld69atkg","geo_precision":"range","state":"NY","partnership manager":"Denise Calamusso"},"type":"Feature","geometry":{"type":"Point","coordinates":[-72.669944,40.935109]}},{"properties":{"city":"Miller Place","school name":"Miller Place High School","geo_score":0.585,"zip code":"11764","street":"15 Memorial Drive","id":"a8plld21dsp3","geo_precision":"zip","state":"NY","partnership manager":"Denise Calamusso"},"type":"Feature","geometry":{"type":"Point","coordinates":[-72.637078,40.922326]}},{"properties":{"city":"Mount Sinai","school name":"Mount Sinai High School","geo_score":0.511,"zip code":"11766","street":"Gertrude Goodman Drive","id":"a8pllde9ctg4","geo_precision":"street","state":"NY","partnership manager":"Denise Calamusso"},"type":"Feature","geometry":{"type":"Point","coordinates":[-73.071466,40.79519]}},{"properties":{"city":"Selden","school name":"Newfield High School","geo_score":1.0,"zip code":"11784","street":"145 Marshall Drive","id":"a8pllda0nc2d","geo_precision":"range","state":"NY","partnership manager":"Denise Calamusso"},"type":"Feature","geometry":{"type":"Point","coordinates":[-73.060189,40.870425]}},{"properties":{"city":"North Babylon","school name":"North Babylon High School","geo_score":1.0,"zip code":"11703","street":"1 Phelps Lane","id":"a8plld2mpav4","geo_precision":"range","state":"NY","partnership manager":"Lisa Farrell"},"type":"Feature","geometry":{"type":"Point","coordinates":[-73.325825,40.724622]}},{"properties":{"city":"Northport","school name":"Northport High School","geo_score":1.0,"zip code":"11768","street":"154 Laurel Hill Rd","id":"a8pllda3pkqw","geo_precision":"range","state":"NY","partnership manager":"Denise Calamusso"},"type":"Feature","geometry":{"type":"Point","coordinates":[-73.343516,40.880385]}},{"properties":{"city":"Medford","school name":"Patchogue-Medford High School","geo_score":1.0,"zip code":"11763","street":"181 Buffalo Avenue","id":"a8plld175euy","geo_precision":"range","state":"NY","partnership manager":"Lisa Farrell"},"type":"Feature","geometry":{"type":"Point","coordinates":[-72.989854,40.808086]}},{"properties":{"city":"Sag Harbor","school name":"Pierson High School","geo_score":1.0,"zip code":"11963","street":"200 Jermain Avenue","id":"a8plldbs0n5f","geo_precision":"range","state":"NY","partnership manager":"Lisa Farrell"},"type":"Feature","geometry":{"type":"Point","coordinates":[-72.287485,40.995265]}},{"properties":{"city":"Riverhead","school name":"Riverhead High School","geo_score":0.878,"zip code":"11901","street":"700 Harrison Ave","id":"a8plld78e7m7","geo_precision":"range","state":"NY","partnership manager":"Denise Calamusso"},"type":"Feature","geometry":{"type":"Point","coordinates":[-72.674872,40.92537]}},{"properties":{"city":"Rocky Point","school name":"Rocky Point High School","geo_score":0.407,"zip code":"11778","street":"82 Rocky Pt-Yphnk Rd","id":"a8plldbeft7r","geo_precision":"street","state":"NY","partnership manager":"Denise Calamusso"},"type":"Feature","geometry":{"type":"Point","coordinates":[-73.335492,40.870929]}},{"properties":{"city":"East Hampton","school name":"Ross School","geo_score":1.0,"zip code":"11937","street":"18 Goodfriend Drive","id":"a8plld28xpre","geo_precision":"range","state":"NY","partnership manager":"Lisa Farrell"},"type":"Feature","geometry":{"type":"Point","coordinates":[-72.240736,40.970268]}},{"properties":{"city":"Farmingville","school name":"Sachem High School East","geo_score":1.0,"zip code":"11738","street":"177 Granny Road","id":"a8plld4bn52o","geo_precision":"range","state":"NY","partnership manager":"Lisa Farrell"},"type":"Feature","geometry":{"type":"Point","coordinates":[-73.014696,40.837688]}},{"properties":{"city":"Lake Ronkonkoma","school name":"Sachem High School North","geo_score":1.0,"zip code":"11779","street":"212 Smith Road","id":"a8plld074ybe","geo_precision":"range","state":"NY","partnership manager":"Lisa Farrell"},"type":"Feature","geometry":{"type":"Point","coordinates":[-73.106004,40.838912]}},{"properties":{"city":"West Sayville","school name":"Sayville High School","geo_score":1.0,"zip code":"11796","street":"20 Brook Street","id":"a8plldcibfon","geo_precision":"range","state":"NY","partnership manager":"Lisa Farrell"},"type":"Feature","geometry":{"type":"Point","coordinates":[-73.094047,40.736006]}},{"properties":{"city":"Shelter Island","school name":"Shelter Island High School","geo_score":1.0,"zip code":"11964","street":"30 North Ferry Road","id":"a8plld6vgm8e","geo_precision":"range","state":"NY","partnership manager":"Lisa Farrell"},"type":"Feature","geometry":{"type":"Point","coordinates":[-72.33545,41.067947]}},{"properties":{"city":"Shoreham","school name":"Shoreham Wading River High School","geo_score":1.0,"zip code":"11786","street":"250A Route 25A","id":"a8plldecr4r6","geo_precision":"range","state":"NY","partnership manager":"Denise Calamusso"},"type":"Feature","geometry":{"type":"Point","coordinates":[-72.882672,40.945022]}},{"properties":{"city":"Smithtown","school name":"Smithtown Christian School","geo_score":1.0,"zip code":"11787","street":"1 Higbie Drive","id":"a8plldbickbv","geo_precision":"range","state":"NY","partnership manager":"Denise Calamusso"},"type":"Feature","geometry":{"type":"Point","coordinates":[-73.20893,40.850161]}},{"properties":{"city":"St. James","school name":"Smithtown East High School","geo_score":0.6,"zip code":"11780","street":"10 School Street","id":"a8pllcz1ley1","geo_precision":"range","state":"NY","partnership manager":"Lisa Farrell"},"type":"Feature","geometry":{"type":"Point","coordinates":[-73.44124,40.654481]}},{"properties":{"city":"Smithtown","school name":"Smithtown West High School","geo_score":1.0,"zip code":"11787","street":"100 Central Road","id":"a8plld0urbwl","geo_precision":"range","state":"NY","partnership manager":"Lisa Farrell"},"type":"Feature","geometry":{"type":"Point","coordinates":[-73.241784,40.861304]}},{"properties":{"city":"Southampton","school name":"Southampton High School","geo_score":1.0,"zip code":"11968","street":"141 Narrow Lane","id":"a8plld9atxnr","geo_precision":"range","state":"NY","partnership manager":"Lisa Farrell"},"type":"Feature","geometry":{"type":"Point","coordinates":[-72.372233,40.885858]}},{"properties":{"city":"Southold","school name":"Southold High School","geo_score":0.878,"zip code":"11971","street":"420 Oaklawn Avenue","id":"a8plld8aag0l","geo_precision":"range","state":"NY","partnership manager":"Denise Calamusso"},"type":"Feature","geometry":{"type":"Point","coordinates":[-72.432173,41.061919]}},{"properties":{"city":"St. James","school name":"The Knox School","geo_score":0.78,"zip code":"11780","street":"541 Long Beach Road","id":"a8plld491qb6","geo_precision":"street","state":"NY","partnership manager":"Denise Calamusso"},"type":"Feature","geometry":{"type":"Point","coordinates":[-73.191336,40.908778]}},{"properties":{"city":"Copiague","school name":"Walter G. O'Connell Copiague High School","geo_score":0.585,"zip code":"11726","street":"1100 Dixon Avenue","id":"a8plldbo9kxl","geo_precision":"zip","state":"NY","partnership manager":"John Lanning"},"type":"Feature","geometry":{"type":"Point","coordinates":[-73.394762,40.68022]}},{"properties":{"city":"Huntington Station","school name":"Walt Whitman High School","geo_score":1.0,"zip code":"11746","street":"301 West Hills Road","id":"a8plldcih7qc","geo_precision":"range","state":"NY","partnership manager":"Denise Calamusso"},"type":"Feature","geometry":{"type":"Point","coordinates":[-73.421052,40.827667]}},{"properties":{"city":"East Setauket","school name":"Ward Melville High School","geo_score":1.0,"zip code":"11733","street":"380 Old Town Road","id":"a8plld4wrzef","geo_precision":"range","state":"NY","partnership manager":"Denise Calamusso"},"type":"Feature","geometry":{"type":"Point","coordinates":[-73.076365,40.919097]}},{"properties":{"city":"West Babylon","school name":"West Babylon High School","geo_score":0.951,"zip code":"11704","street":"500 Great East Neck Road","id":"a8plld426p6c","geo_precision":"range","state":"NY","partnership manager":"John Lanning"},"type":"Feature","geometry":{"type":"Point","coordinates":[-73.342731,40.701558]}},{"properties":{"city":"Westhampton Beach","school name":"Westhampton Beach High School","geo_score":1.0,"zip code":"11978","street":"49 Lilac Road","id":"a8pllda5d246","geo_precision":"range","state":"NY","partnership manager":"Lisa Farrell"},"type":"Feature","geometry":{"type":"Point","coordinates":[-72.649169,40.817959]}},{"properties":{"city":"West Islip","school name":"West Islip High School","geo_score":0.973,"zip code":"11795","street":"1 Lion's Path","id":"a8plld2enhrd","geo_precision":"range","state":"NY","partnership manager":"Lisa Farrell"},"type":"Feature","geometry":{"type":"Point","coordinates":[-73.305183,40.701363]}},{"properties":{"city":"Mastic Beach","school name":"William Floyd High School","geo_score":1.0,"zip code":"11951","street":"240 Mastic Beach Road","id":"a8pllda1zzru","geo_precision":"range","state":"NY","partnership manager":"Lisa Farrell"},"type":"Feature","geometry":{"type":"Point","coordinates":[-72.847469,40.777883]}},{"properties":{"city":"Wyandanch","school name":"Wyandanch Memorial High School","geo_score":0.935,"zip code":"11798","street":"54 South 32nd Street","id":"a8plldas1n9q","geo_precision":"range","state":"NY","partnership manager":"John Lanning"},"type":"Feature","geometry":{"type":"Point","coordinates":[-73.374435,40.746378]}}],"is_temporal":false,"author":{"url":"","metadata":null,"contact_name":null,"contact_address":null,"source":null,"contact_phone":null},"source":"","pagination":{"sort":null,"start":0,"total":62,"limit":1000000},"state":"complete","tags":"","published":"2014-08-14T22:22:26-04:00","id":275464}