{"type":"FeatureCollection","data_type":"Dataset","url_type":null,"permissions":[{"permissions":{"download":true,"view":true},"group_id":"everyone"}],"classification":null,"title":"Geocoded-2008","count":438,"stream_id":275538,"contributor":{"url":"http://geocommons.com/users/49921","name":"fosmirel"},"data_attributes":null,"calculation_params":null,"icon_link":null,"link":"http://geocommons.com/overlays/275538.json","extent":[-123.583,44.695,-122.054,45.2632],"geometry_types":["point"],"unique_name":null,"name":"Geocoded-2008","feature_count":438,"description":"","next_feature":null,"is_raster":false,"short_classification":"Y","stats":{"Final Bid":{"max":968000.0,"variance":11710672536.4695,"mean":175522.03171123,"stdev":108215.860835967,"min":1000.0,"median":154190.27},"Date":{"max":"2008/12/31 00:00:00 -0500","variance":8267728461174.24,"mean":"2008/10/31 15:32:27 -0400","stdev":2875365.79606391,"min":"2008/08/20 00:00:00 -0400","median":"2008/10/31 00:00:00 -0400"},"Default Amt":{"max":2532569.29,"variance":32833571945.1866,"mean":177223.945479452,"stdev":181200.364086794,"min":8561.26,"median":145000.0}},"features":[{"properties":{"Status":"OFF","City":"Gervais","Final Bid":null,"Default Notice":"6/6/2008","County":"Marion","Zip Code":"97026","Date":{"end_time":"2008/10/10 00:00:00 -0400","original":"10/9/2008","granularity":"day","time":"2008/10/09 00:00:00 -0400"},"id":"a8prsx3lfe1r","Assessed Value":"NULL","Default Amt":109338.28,"Address":"1004 Depot Ct"},"type":"Feature","geometry":{"type":"Point","coordinates":[-122.8886,45.106435]}},{"properties":{"Status":"OFF","City":"Salem","Final Bid":null,"Default Notice":"5/30/2008","County":"Marion","Zip Code":"97302","Date":{"end_time":"2008/10/18 00:00:00 -0400","original":"10/17/2008","granularity":"day","time":"2008/10/17 00:00:00 -0400"},"id":"a8prsxbymx8l","Assessed Value":"$285,550.00","Default Amt":158591.26,"Address":"1005 S Madrona Ave"},"type":"Feature","geometry":{"type":"Point","coordinates":[-123.060263,44.904792]}},{"properties":{"Status":"STB","City":"Salem","Final Bid":553217.56,"Default Notice":"5/15/2008","County":"Marion","Zip Code":"97306","Date":{"end_time":"2008/09/20 00:00:00 -0400","original":"9/19/2008","granularity":"day","time":"2008/09/19 00:00:00 -0400"},"id":"a8prsxg1j3y5","Assessed Value":"NULL","Default Amt":651556.29,"Address":"10052 Lake Dr SE"},"type":"Feature","geometry":{"type":"Point","coordinates":[-123.050427,44.809706]}},{"properties":{"Status":"STB","City":"Salem","Final Bid":129320.04,"Default Notice":"6/3/2008","County":"Marion","Zip Code":"97301","Date":{"end_time":"2008/10/09 00:00:00 -0400","original":"10/8/2008","granularity":"day","time":"2008/10/08 00:00:00 -0400"},"id":"a8prsx80bi87","Assessed Value":"NULL","Default Amt":115637.72,"Address":"1018 Lanai St SE"},"type":"Feature","geometry":{"type":"Point","coordinates":[-122.956245,44.918351]}},{"properties":{"Status":"OFF","City":"Silverton","Final Bid":null,"Default Notice":"5/7/2008","County":"Marion","Zip Code":"97381","Date":{"end_time":"2008/09/13 00:00:00 -0400","original":"9/12/2008","granularity":"day","time":"2008/09/12 00:00:00 -0400"},"id":"a8prsxaamh8s","Assessed Value":"$171,350.00","Default Amt":145939.28,"Address":"1019 S Water St"},"type":"Feature","geometry":{"type":"Point","coordinates":[-122.774656,44.996142]}},{"properties":{"Status":"OFF","City":"Silverton","Final Bid":null,"Default Notice":"5/2/2008","County":"Marion","Zip Code":"97381","Date":{"end_time":"2008/09/04 00:00:00 -0400","original":"9/3/2008","granularity":"day","time":"2008/09/03 00:00:00 -0400"},"id":"a8prsx2q1d8j","Assessed Value":"NULL","Default Amt":127974.57,"Address":"102 Smith St"},"type":"Feature","geometry":{"type":"Point","coordinates":[-122.775622,44.996696]}},{"properties":{"Status":"STB","City":"Stayton","Final Bid":186643.65,"Default Notice":"7/11/2008","County":"Marion","Zip Code":"97383","Date":{"end_time":"2008/11/18 00:00:00 -0500","original":"11/17/2008","granularity":"day","time":"2008/11/17 00:00:00 -0500"},"id":"a8prsxfjm1hg","Assessed Value":"NULL","Default Amt":171920.0,"Address":"1025 Western Pl"},"type":"Feature","geometry":{"type":"Point","coordinates":[-122.80345,44.807077]}},{"properties":{"Status":"STB","City":"Woodburn","Final Bid":132000.0,"Default Notice":"6/13/2008","County":"Marion","Zip Code":"97071","Date":{"end_time":"2008/10/21 00:00:00 -0400","original":"10/20/2008","granularity":"day","time":"2008/10/20 00:00:00 -0400"},"id":"a8prsxh52pz9","Assessed Value":"NULL","Default Amt":162376.61,"Address":"1027 Williams Ave"},"type":"Feature","geometry":{"type":"Point","coordinates":[-122.838828,45.144107]}},{"properties":{"Status":"OFF","City":"Keizer","Final Bid":null,"Default Notice":"5/30/2008","County":"Marion","Zip Code":"97303","Date":{"end_time":"2008/10/07 00:00:00 -0400","original":"10/6/2008","granularity":"day","time":"2008/10/06 00:00:00 -0400"},"id":"a8prsxfzxxgp","Assessed Value":"$167,500.00","Default Amt":164192.6,"Address":"1031 N Orchard St"},"type":"Feature","geometry":{"type":"Point","coordinates":[-123.041194,44.999383]}},{"properties":{"Status":"STB","City":"Salem","Final Bid":133300.0,"Default Notice":"7/22/2008","County":"Marion","Zip Code":"97301","Date":{"end_time":"2008/12/02 00:00:00 -0500","original":"12/1/2008","granularity":"day","time":"2008/12/01 00:00:00 -0500"},"id":"a8prsxfwrkf2","Assessed Value":"NULL","Default Amt":140479.98,"Address":"1033 Hawaii St SE"},"type":"Feature","geometry":{"type":"Point","coordinates":[-122.957433,44.917638]}},{"properties":{"Status":"OFF","City":"Jefferson","Final Bid":null,"Default Notice":"8/1/2008","County":"Marion","Zip Code":"97352","Date":{"end_time":"2008/12/02 00:00:00 -0500","original":"12/1/2008","granularity":"day","time":"2008/12/01 00:00:00 -0500"},"id":"a8prsxcjym9q","Assessed Value":"NULL","Default Amt":410590.67,"Address":"10351 Kiska Rd SE"},"type":"Feature","geometry":{"type":"Point","coordinates":[-123.033629,44.806889]}},{"properties":{"Status":"STB","City":"Salem","Final Bid":111093.96,"Default Notice":"5/16/2008","County":"Marion","Zip Code":"97301","Date":{"end_time":"2008/09/27 00:00:00 -0400","original":"9/26/2008","granularity":"day","time":"2008/09/26 00:00:00 -0400"},"id":"a8prsxhqkxdg","Assessed Value":"NULL","Default Amt":99937.11,"Address":"1040 Sprue St NE"},"type":"Feature","geometry":{"type":"Point","coordinates":[-123.020477,44.961175]}},{"properties":{"Status":"STB","City":"Salem","Final Bid":63900.0,"Default Notice":"5/20/2008","County":"Marion","Zip Code":"97301","Date":{"end_time":"2008/09/30 00:00:00 -0400","original":"9/29/2008","granularity":"day","time":"2008/09/29 00:00:00 -0400"},"id":"a8prsxaioz3x","Assessed Value":"$138,640.00","Default Amt":110906.46,"Address":"1045 Shipping St NE"},"type":"Feature","geometry":{"type":"Point","coordinates":[-123.021274,44.951427]}},{"properties":{"Status":"STB","City":"Mt. Angel","Final Bid":285000.0,"Default Notice":"6/18/2008","County":"Marion","Zip Code":"97362","Date":{"end_time":"2008/10/24 00:00:00 -0400","original":"10/23/2008","granularity":"day","time":"2008/10/23 00:00:00 -0400"},"id":"a8prsxc9z8qk","Assessed Value":"NULL","Default Amt":289000.0,"Address":"1050 Hayes St"},"type":"Feature","geometry":{"type":"Point","coordinates":[-122.809349,45.073692]}},{"properties":{"Status":"OFF","City":"Salem","Final Bid":null,"Default Notice":"7/22/2008","County":"Marion","Zip Code":"97301","Date":{"end_time":"2008/11/27 00:00:00 -0500","original":"11/26/2008","granularity":"day","time":"2008/11/26 00:00:00 -0500"},"id":"a8prsxcbn9z0","Assessed Value":"NULL","Default Amt":94365.93,"Address":"1055 17th St NE"},"type":"Feature","geometry":{"type":"Point","coordinates":[-123.015121,44.945606]}},{"properties":{"Status":"STB","City":"Aumsville","Final Bid":104632.87,"Default Notice":"5/1/2008","County":"Marion","Zip Code":"97325","Date":{"end_time":"2008/09/06 00:00:00 -0400","original":"9/5/2008","granularity":"day","time":"2008/09/05 00:00:00 -0400"},"id":"a8prsxernzu1","Assessed Value":"NULL","Default Amt":93394.02,"Address":"10583 Mill Creek Rd SE"},"type":"Feature","geometry":{"type":"Point","coordinates":[-122.843801,44.834056]}},{"properties":{"Status":"OFF","City":"Salem","Final Bid":null,"Default Notice":"7/8/2008","County":"Marion","Zip Code":"97317","Date":{"end_time":"2008/11/25 00:00:00 -0500","original":"11/24/2008","granularity":"day","time":"2008/11/24 00:00:00 -0500"},"id":"a8prsxa0e9tn","Assessed Value":"NULL","Default Amt":2532569.29,"Address":"1064 Connecticut Ave SE, 2470 Trade St SE, 3165 Fisher Rd NE and 2441-2455 Saginaw St S"},"type":"Feature","geometry":{"type":"Point","coordinates":[-122.97045,44.917129]}},{"properties":{"Status":"OFF","City":"Salem","Final Bid":null,"Default Notice":"8/1/2008","County":"Marion","Zip Code":"97301","Date":{"end_time":"2008/12/05 00:00:00 -0500","original":"12/4/2008","granularity":"day","time":"2008/12/04 00:00:00 -0500"},"id":"a8prsxh4olsy","Assessed Value":"NULL","Default Amt":131698.36,"Address":"1070 Pine St NE"},"type":"Feature","geometry":{"type":"Point","coordinates":[-123.019989,44.962201]}},{"properties":{"Status":"OFF","City":"Mt. Angel","Final Bid":null,"Default Notice":"6/20/2008","County":"Marion","Zip Code":"97362","Date":{"end_time":"2008/11/01 00:00:00 -0400","original":"10/31/2008","granularity":"day","time":"2008/10/31 00:00:00 -0400"},"id":"a8prsxcic47z","Assessed Value":"NULL","Default Amt":175801.09,"Address":"10701 N Pershing St"},"type":"Feature","geometry":{"type":"Point","coordinates":[-122.802479,45.07436]}},{"properties":{"Status":"OFF","City":"Salem","Final Bid":null,"Default Notice":"6/3/2008","County":"Marion","Zip Code":"97301","Date":{"end_time":"2008/10/14 00:00:00 -0400","original":"10/13/2008","granularity":"day","time":"2008/10/13 00:00:00 -0400"},"id":"a8prsxbq5jqw","Assessed Value":"NULL","Default Amt":65071.89,"Address":"1075 Market St NE"},"type":"Feature","geometry":{"type":"Point","coordinates":[-123.022088,44.949057]}},{"properties":{"Status":"OFF","City":"Salem","Final Bid":null,"Default Notice":"5/27/2008","County":"Marion","Zip Code":"97301","Date":{"end_time":"2008/09/27 00:00:00 -0400","original":"9/26/2008","granularity":"day","time":"2008/09/26 00:00:00 -0400"},"id":"a8prsxf7quw7","Assessed Value":"NULL","Default Amt":72141.79,"Address":"1080 Madison St NE"},"type":"Feature","geometry":{"type":"Point","coordinates":[-123.019667,44.953863]}},{"properties":{"Status":"STB","City":"Salem","Final Bid":139012.04,"Default Notice":"5/16/2008","County":"Marion","Zip Code":"97306","Date":{"end_time":"2008/09/23 00:00:00 -0400","original":"9/22/2008","granularity":"day","time":"2008/09/22 00:00:00 -0400"},"id":"a8prsx4cbp0a","Assessed Value":"NULL","Default Amt":106391.86,"Address":"1089 Fabry Rd SE"},"type":"Feature","geometry":{"type":"Point","coordinates":[-123.032669,44.875737]}},{"properties":{"Status":"STB","City":"Keizer","Final Bid":229138.0,"Default Notice":"5/5/2008","County":"Marion","Zip Code":"97303","Date":{"end_time":"2008/09/09 00:00:00 -0400","original":"9/8/2008","granularity":"day","time":"2008/09/08 00:00:00 -0400"},"id":"a8prsxiv3456","Assessed Value":"NULL","Default Amt":304687.13,"Address":"1098 Northrup Ct NE"},"type":"Feature","geometry":{"type":"Point","coordinates":[-123.018408,45.019935]}},{"properties":{"Status":"OFF","City":"Lyons","Final Bid":null,"Default Notice":"7/30/2008","County":"Marion","Zip Code":"97358","Date":{"end_time":"2008/12/06 00:00:00 -0500","original":"12/5/2008","granularity":"day","time":"2008/12/05 00:00:00 -0500"},"id":"a8prsx7l0ag2","Assessed Value":"NULL","Default Amt":137227.04,"Address":"11028 Taylor Park Ln SE"},"type":"Feature","geometry":{"type":"Point","coordinates":[-122.557366,44.793311]}},{"properties":{"Status":"OFF","City":"Silverton","Final Bid":null,"Default Notice":"8/4/2008","County":"Marion","Zip Code":"97381","Date":{"end_time":"2008/12/16 00:00:00 -0500","original":"12/15/2008","granularity":"day","time":"2008/12/15 00:00:00 -0500"},"id":"a8prsx8o4ts2","Assessed Value":"NULL","Default Amt":158227.73,"Address":"11065 Silverton Rd NE"},"type":"Feature","geometry":{"type":"Point","coordinates":[-122.83385,44.994287]}},{"properties":{"Status":"OFF","City":"Salem","Final Bid":null,"Default Notice":"7/8/2008","County":"Marion","Zip Code":"97302","Date":{"end_time":"2008/11/11 00:00:00 -0500","original":"11/10/2008","granularity":"day","time":"2008/11/10 00:00:00 -0500"},"id":"a8prsx94rowo","Assessed Value":"NULL","Default Amt":164753.39,"Address":"1108 SE Oakhill Ave"},"type":"Feature","geometry":{"type":"Point","coordinates":[-123.032404,44.899971]}},{"properties":{"Status":"STB","City":"Willamina","Final Bid":127627.5,"Default Notice":"8/4/2008","County":"Polk","Zip Code":"97396","Date":{"end_time":"2008/12/09 00:00:00 -0500","original":"12/8/2008","granularity":"day","time":"2008/12/08 00:00:00 -0500"},"id":"a8prsxdjgret","Assessed Value":"$144,970.00","Default Amt":139363.67,"Address":"1112 SW Ponderosa Dr"},"type":"Feature","geometry":{"type":"Point","coordinates":[-123.49571,45.072497]}},{"properties":{"Status":"OFF","City":"Dallas","Final Bid":null,"Default Notice":"6/5/2008","County":"Polk","Zip Code":"97338","Date":{"end_time":"2008/10/10 00:00:00 -0400","original":"10/9/2008","granularity":"day","time":"2008/10/09 00:00:00 -0400"},"id":"a8prsxas6pgw","Assessed Value":"$233,970.00","Default Amt":144243.27,"Address":"1121 SW Sequoia Ln"},"type":"Feature","geometry":{"type":"Point","coordinates":[-123.331934,44.926982]}},{"properties":{"Status":"OFF","City":"Aumsville","Final Bid":null,"Default Notice":"6/3/2008","County":"Marion","Zip Code":"97325","Date":{"end_time":"2008/10/21 00:00:00 -0400","original":"10/20/2008","granularity":"day","time":"2008/10/20 00:00:00 -0400"},"id":"a8prsx78w449","Assessed Value":"$168,530.00","Default Amt":133740.33,"Address":"11226 Bean Aly SE"},"type":"Feature","geometry":{"type":"Point","coordinates":[-122.86024,44.791719]}},{"properties":{"Status":"STB","City":"Salem","Final Bid":145806.43,"Default Notice":"5/15/2008","County":"Marion","Zip Code":"97302","Date":{"end_time":"2008/09/16 00:00:00 -0400","original":"9/15/2008","granularity":"day","time":"2008/09/15 00:00:00 -0400"},"id":"a8prsxcxu5l9","Assessed Value":"$213,440.00","Default Amt":122754.56,"Address":"1134 SE Ashwood Ct"},"type":"Feature","geometry":{"type":"Point","coordinates":[-123.032798,44.899037]}},{"properties":{"Status":"OFF","City":"Independence","Final Bid":null,"Default Notice":"8/6/2008","County":"Polk","Zip Code":"97351","Date":{"end_time":"2008/12/12 00:00:00 -0500","original":"12/11/2008","granularity":"day","time":"2008/12/11 00:00:00 -0500"},"id":"a8prsx7q9yq1","Assessed Value":"$169,350.00","Default Amt":199339.18,"Address":"1143 E St"},"type":"Feature","geometry":{"type":"Point","coordinates":[-123.20124,44.849322]}},{"properties":{"Status":"OFF","City":"Salem","Final Bid":null,"Default Notice":"8/22/2008","County":"Marion","Zip Code":"97301","Date":{"end_time":"2008/12/31 00:00:00 -0500","original":"12/30/2008","granularity":"day","time":"2008/12/30 00:00:00 -0500"},"id":"a8prsx5bn346","Assessed Value":"NULL","Default Amt":29231.81,"Address":"1147 Garnet St NE"},"type":"Feature","geometry":{"type":"Point","coordinates":[-123.020601,44.948205]}},{"properties":{"Status":"SOLD","City":"Mt. Angel","Final Bid":175400.0,"Default Notice":"7/21/2008","County":"Marion","Zip Code":"97362","Date":{"end_time":"2008/11/25 00:00:00 -0500","original":"11/24/2008","granularity":"day","time":"2008/11/24 00:00:00 -0500"},"id":"a8prsxgh1hu9","Assessed Value":"NULL","Default Amt":117152.24,"Address":"115 N Oak St"},"type":"Feature","geometry":{"type":"Point","coordinates":[-122.795223,45.067625]}},{"properties":{"Status":"STB","City":"Keizer","Final Bid":205459.6,"Default Notice":"7/24/2008","County":"Marion","Zip Code":"97303","Date":{"end_time":"2008/11/27 00:00:00 -0500","original":"11/26/2008","granularity":"day","time":"2008/11/26 00:00:00 -0500"},"id":"a8prsx8ue7o4","Assessed Value":"NULL","Default Amt":185216.47,"Address":"1156 Horizon Ridge Ct NE"},"type":"Feature","geometry":{"type":"Point","coordinates":[-123.016485,45.017513]}},{"properties":{"Status":"STB","City":"Dallas","Final Bid":212500.0,"Default Notice":"8/7/2008","County":"Polk","Zip Code":"97338","Date":{"end_time":"2008/12/11 00:00:00 -0500","original":"12/10/2008","granularity":"day","time":"2008/12/10 00:00:00 -0500"},"id":"a8prsxi6qxdb","Assessed Value":"$240,710.00","Default Amt":222752.95,"Address":"1156 SW Bryson St"},"type":"Feature","geometry":{"type":"Point","coordinates":[-123.33292,44.925386]}},{"properties":{"Status":"STB","City":"Aumsville","Final Bid":198548.97,"Default Notice":"7/28/2008","County":"Marion","Zip Code":"97325","Date":{"end_time":"2008/12/04 00:00:00 -0500","original":"12/3/2008","granularity":"day","time":"2008/12/03 00:00:00 -0500"},"id":"a8prsx2zjjn4","Assessed Value":"NULL","Default Amt":180000.0,"Address":"11612 Tegen Ln SE"},"type":"Feature","geometry":{"type":"Point","coordinates":[-122.865801,44.786191]}},{"properties":{"Status":"STB","City":"Salem","Final Bid":302499.02,"Default Notice":"5/30/2008","County":"Marion","Zip Code":"97317","Date":{"end_time":"2008/10/07 00:00:00 -0400","original":"10/6/2008","granularity":"day","time":"2008/10/06 00:00:00 -0400"},"id":"a8prsxa7la8c","Assessed Value":"$435,590.00","Default Amt":277652.04,"Address":"11665 State St"},"type":"Feature","geometry":{"type":"Point","coordinates":[-122.821832,44.914916]}},{"properties":{"Status":"OFF","City":"Aurora","Final Bid":null,"Default Notice":"8/14/2008","County":"Marion","Zip Code":"97002","Date":{"end_time":"2008/12/19 00:00:00 -0500","original":"12/18/2008","granularity":"day","time":"2008/12/18 00:00:00 -0500"},"id":"a8prsxd8po6v","Assessed Value":"NULL","Default Amt":95508.41,"Address":"11698 Warbler Ln NE"},"type":"Feature","geometry":{"type":"Point","coordinates":[-122.821131,45.263243]}},{"properties":{"Status":"OFF","City":"Turner","Final Bid":null,"Default Notice":"6/26/2008","County":"Marion","Zip Code":"97392","Date":{"end_time":"2008/11/08 00:00:00 -0500","original":"11/7/2008","granularity":"day","time":"2008/11/07 00:00:00 -0500"},"id":"a8prsxi5b42m","Assessed Value":"$255,570.00","Default Amt":113696.06,"Address":"11735 Parrish Gap Rd SE"},"type":"Feature","geometry":{"type":"Point","coordinates":[-122.953354,44.784909]}},{"properties":{"Status":"OFF","City":"Woodburn","Final Bid":null,"Default Notice":"2/25/2008","County":"Marion","Zip Code":"97071","Date":{"end_time":"2008/12/13 00:00:00 -0500","original":"12/12/2008","granularity":"day","time":"2008/12/12 00:00:00 -0500"},"id":"a8prsxb9v9w3","Assessed Value":"NULL","Default Amt":146829.82,"Address":"1175 Eagle Dr"},"type":"Feature","geometry":{"type":"Point","coordinates":[-122.859729,45.160247]}},{"properties":{"Status":"STB","City":"Independence","Final Bid":286585.57,"Default Notice":"6/16/2008","County":"Polk","Zip Code":"97351","Date":{"end_time":"2008/10/21 00:00:00 -0400","original":"10/20/2008","granularity":"day","time":"2008/10/20 00:00:00 -0400"},"id":"a8prsxcduclz","Assessed Value":"$339,640.00","Default Amt":262397.45,"Address":"1175 Kyle Ct"},"type":"Feature","geometry":{"type":"Point","coordinates":[-123.201328,44.855451]}},{"properties":{"Status":"STB","City":"Salem","Final Bid":208785.0,"Default Notice":"7/24/2008","County":"Polk","Zip Code":"97304","Date":{"end_time":"2008/11/27 00:00:00 -0500","original":"11/26/2008","granularity":"day","time":"2008/11/26 00:00:00 -0500"},"id":"a8prsx97eau7","Assessed Value":"$298,100.00","Default Amt":218132.89,"Address":"1175 Little John Lp NW"},"type":"Feature","geometry":{"type":"Point","coordinates":[-123.08647,44.950807]}},{"properties":{"Status":"OFF","City":"Woodburn","Final Bid":null,"Default Notice":"7/15/2008","County":"Marion","Zip Code":"97071","Date":{"end_time":"2008/11/26 00:00:00 -0500","original":"11/25/2008","granularity":"day","time":"2008/11/25 00:00:00 -0500"},"id":"a8prsx79l1a0","Assessed Value":"$246,850.00","Default Amt":195294.55,"Address":"1184 Foxglove St"},"type":"Feature","geometry":{"type":"Point","coordinates":[-122.862923,45.13294]}},{"properties":{"Status":"OFF","City":"Salem","Final Bid":null,"Default Notice":"7/22/2008","County":"Marion","Zip Code":"97301","Date":{"end_time":"2008/11/25 00:00:00 -0500","original":"11/24/2008","granularity":"day","time":"2008/11/24 00:00:00 -0500"},"id":"a8prsxgjebel","Assessed Value":"NULL","Default Amt":170288.84,"Address":"1185 Nebraska Ct NE"},"type":"Feature","geometry":{"type":"Point","coordinates":[-123.007251,44.944992]}},{"properties":{"Status":"STB","City":"Keizer","Final Bid":167343.72,"Default Notice":"7/18/2008","County":"Marion","Zip Code":"97303","Date":{"end_time":"2008/11/26 00:00:00 -0500","original":"11/25/2008","granularity":"day","time":"2008/11/25 00:00:00 -0500"},"id":"a8prsxh38eka","Assessed Value":"NULL","Default Amt":153160.13,"Address":"1188 Shady Ln NE"},"type":"Feature","geometry":{"type":"Point","coordinates":[-123.019079,44.979612]}},{"properties":{"Status":"OFF","City":"Mt. Angel","Final Bid":null,"Default Notice":"6/2/2008","County":"Marion","Zip Code":"97362","Date":{"end_time":"2008/10/11 00:00:00 -0400","original":"10/10/2008","granularity":"day","time":"2008/10/10 00:00:00 -0400"},"id":"a8prsxehum54","Assessed Value":"NULL","Default Amt":387126.66,"Address":"11883 Mt Angel Gervais Rd NE"},"type":"Feature","geometry":{"type":"Point","coordinates":[-122.818859,45.085827]}},{"properties":{"Status":"OFF","City":"Independence","Final Bid":null,"Default Notice":"5/29/2008","County":"Polk","Zip Code":"97351","Date":{"end_time":"2008/10/10 00:00:00 -0400","original":"10/9/2008","granularity":"day","time":"2008/10/09 00:00:00 -0400"},"id":"a8prsx8d9yg3","Assessed Value":"$122,280.00","Default Amt":97766.79,"Address":"1211 D St"},"type":"Feature","geometry":{"type":"Point","coordinates":[-123.20238,44.850232]}},{"properties":{"Status":"STB","City":"Turner","Final Bid":96943.0,"Default Notice":"6/19/2008","County":"Marion","Zip Code":"97392","Date":{"end_time":"2008/11/08 00:00:00 -0500","original":"11/7/2008","granularity":"day","time":"2008/11/07 00:00:00 -0500"},"id":"a8prsx7rkdar","Assessed Value":"$135,290.00","Default Amt":112856.14,"Address":"12194 Brick Rd SE"},"type":"Feature","geometry":{"type":"Point","coordinates":[-122.888899,44.777652]}},{"properties":{"Status":"OFF","City":"Salem","Final Bid":null,"Default Notice":"5/1/2008","County":"Polk","Zip Code":"97304","Date":{"end_time":"2008/09/06 00:00:00 -0400","original":"9/5/2008","granularity":"day","time":"2008/09/05 00:00:00 -0400"},"id":"a8prsxelp6zd","Assessed Value":"$267,260.00","Default Amt":266862.11,"Address":"1224 Silas Ct NW"},"type":"Feature","geometry":{"type":"Point","coordinates":[-123.066923,44.95262]}},{"properties":{"Status":"STB","City":"Silverton","Final Bid":134558.44,"Default Notice":"5/5/2008","County":"Marion","Zip Code":"97381","Date":{"end_time":"2008/09/16 00:00:00 -0400","original":"9/15/2008","granularity":"day","time":"2008/09/15 00:00:00 -0400"},"id":"a8prsx4j19et","Assessed Value":"NULL","Default Amt":125791.39,"Address":"1225 S Water"},"type":"Feature","geometry":{"type":"Point","coordinates":[-122.76775,44.989894]}},{"properties":{"Status":"OFF","City":"Salem","Final Bid":null,"Default Notice":"6/24/2008","County":"Marion","Zip Code":"97306","Date":{"end_time":"2008/11/01 00:00:00 -0400","original":"10/31/2008","granularity":"day","time":"2008/10/31 00:00:00 -0400"},"id":"a8prsxgtyga5","Assessed Value":"NULL","Default Amt":144775.7,"Address":"1245 Jonmart Ave SE"},"type":"Feature","geometry":{"type":"Point","coordinates":[-123.029732,44.867497]}},{"properties":{"Status":"STB","City":"Keizer","Final Bid":92457.97,"Default Notice":"5/28/2008","County":"Marion","Zip Code":"97303","Date":{"end_time":"2008/10/02 00:00:00 -0400","original":"10/1/2008","granularity":"day","time":"2008/10/01 00:00:00 -0400"},"id":"a8prsxakrnaw","Assessed Value":"$871,640.00","Default Amt":79605.25,"Address":"1245/1247 NE Clearview Ave"},"type":"Feature","geometry":{"type":"Point","coordinates":[-123.018818,44.981662]}},{"properties":{"Status":"STB","City":"Woodburn","Final Bid":131647.0,"Default Notice":"7/3/2008","County":"Marion","Zip Code":"97071","Date":{"end_time":"2008/11/11 00:00:00 -0500","original":"11/10/2008","granularity":"day","time":"2008/11/10 00:00:00 -0500"},"id":"a8prsx2dzgat","Assessed Value":"NULL","Default Amt":132205.87,"Address":"1246 Astor Way"},"type":"Feature","geometry":{"type":"Point","coordinates":[-122.863761,45.153953]}},{"properties":{"Status":"OFF","City":"Monmouth","Final Bid":null,"Default Notice":"7/18/2008","County":"Polk","Zip Code":"97361","Date":{"end_time":"2008/12/02 00:00:00 -0500","original":"12/1/2008","granularity":"day","time":"2008/12/01 00:00:00 -0500"},"id":"a8prsx60kygy","Assessed Value":"$126,500.00","Default Amt":149417.38,"Address":"12590 Kings Valley HWY"},"type":"Feature","geometry":{"type":"Point","coordinates":[-123.414406,44.751756]}},{"properties":{"Status":"STB","City":"Monmouth","Final Bid":158634.0,"Default Notice":"7/24/2008","County":"Polk","Zip Code":"97361","Date":{"end_time":"2008/12/03 00:00:00 -0500","original":"12/2/2008","granularity":"day","time":"2008/12/02 00:00:00 -0500"},"id":"a8prsxbetmzo","Assessed Value":"$178,390.00","Default Amt":244507.92,"Address":"12750 S Kings Valley HWY"},"type":"Feature","geometry":{"type":"Point","coordinates":[-123.41832,44.749623]}},{"properties":{"Status":"OFF","City":"Keizer","Final Bid":null,"Default Notice":"6/3/2008","County":"Marion","Zip Code":"97303","Date":{"end_time":"2008/10/09 00:00:00 -0400","original":"10/8/2008","granularity":"day","time":"2008/10/08 00:00:00 -0400"},"id":"a8prsxhes36g","Assessed Value":"NULL","Default Amt":178156.23,"Address":"1277 Horizon Ridge Ct NE"},"type":"Feature","geometry":{"type":"Point","coordinates":[-123.015455,45.017816]}},{"properties":{"Status":"OFF","City":"Woodburn","Final Bid":null,"Default Notice":"6/6/2008","County":"Marion","Zip Code":"97071","Date":{"end_time":"2008/10/11 00:00:00 -0400","original":"10/10/2008","granularity":"day","time":"2008/10/10 00:00:00 -0400"},"id":"a8prsxc8mgvj","Assessed Value":"NULL","Default Amt":254178.77,"Address":"1285 Tierra Lynn Dr"},"type":"Feature","geometry":{"type":"Point","coordinates":[-122.838868,45.147742]}},{"properties":{"Status":"OFF","City":"Salem","Final Bid":null,"Default Notice":"6/18/2008","County":"Polk","Zip Code":"97304","Date":{"end_time":"2008/10/29 00:00:00 -0400","original":"10/28/2008","granularity":"day","time":"2008/10/28 00:00:00 -0400"},"id":"a8prsx5jub49","Assessed Value":"$264,960.00","Default Amt":66474.82,"Address":"1293 31st Ct NW"},"type":"Feature","geometry":{"type":"Point","coordinates":[-123.094869,44.95251]}},{"properties":{"Status":"OFF","City":"Salem","Final Bid":null,"Default Notice":"7/24/2008","County":"Marion","Zip Code":"97301","Date":{"end_time":"2008/12/02 00:00:00 -0500","original":"12/1/2008","granularity":"day","time":"2008/12/01 00:00:00 -0500"},"id":"a8prsx6pwwao","Assessed Value":"NULL","Default Amt":64441.93,"Address":"1295 NE Hoffman Rd"},"type":"Feature","geometry":{"type":"Point","coordinates":[-122.961419,44.945932]}},{"properties":{"Status":"OFF","City":"Salem","Final Bid":null,"Default Notice":"7/3/2008","County":"Marion","Zip Code":"97306","Date":{"end_time":"2008/12/06 00:00:00 -0500","original":"12/5/2008","granularity":"day","time":"2008/12/05 00:00:00 -0500"},"id":"a8prsx6gby6o","Assessed Value":"NULL","Default Amt":163999.99,"Address":"130 Kimeron St SE"},"type":"Feature","geometry":{"type":"Point","coordinates":[-123.05958,44.882611]}},{"properties":{"Status":"STB","City":"Woodburn","Final Bid":176000.0,"Default Notice":"7/16/2008","County":"Marion","Zip Code":"97071","Date":{"end_time":"2008/11/27 00:00:00 -0500","original":"11/26/2008","granularity":"day","time":"2008/11/26 00:00:00 -0500"},"id":"a8prsxdsh041","Assessed Value":"$262,990.00","Default Amt":189976.44,"Address":"1303 Foxglove St"},"type":"Feature","geometry":{"type":"Point","coordinates":[-122.862662,45.132128]}},{"properties":{"Status":"STB","City":"Salem","Final Bid":125999.98,"Default Notice":"6/2/2008","County":"Marion","Zip Code":"97303","Date":{"end_time":"2008/10/07 00:00:00 -0400","original":"10/6/2008","granularity":"day","time":"2008/10/06 00:00:00 -0400"},"id":"a8prsx415oo5","Assessed Value":"NULL","Default Amt":125994.21,"Address":"1310 Alder Dr NE"},"type":"Feature","geometry":{"type":"Point","coordinates":[-123.019337,44.983832]}},{"properties":{"Status":"OFF","City":"Independence","Final Bid":null,"Default Notice":"6/24/2008","County":"Polk","Zip Code":"97351","Date":{"end_time":"2008/10/30 00:00:00 -0400","original":"10/29/2008","granularity":"day","time":"2008/10/29 00:00:00 -0400"},"id":"a8prsx5cpio9","Assessed Value":"$162,270.00","Default Amt":108460.0,"Address":"1323 S 6th St"},"type":"Feature","geometry":{"type":"Point","coordinates":[-123.192581,44.84152]}},{"properties":{"Status":"STB","City":"Turner","Final Bid":410676.33,"Default Notice":"5/1/2008","County":"Marion","Zip Code":"97392","Date":{"end_time":"2008/09/06 00:00:00 -0400","original":"9/5/2008","granularity":"day","time":"2008/09/05 00:00:00 -0400"},"id":"a8prsx30neyz","Assessed Value":"NULL","Default Amt":388986.35,"Address":"13231 Woodland Ln SE"},"type":"Feature","geometry":{"type":"Point","coordinates":[-122.954548,44.762721]}},{"properties":{"Status":"OFF","City":"Keizer","Final Bid":null,"Default Notice":"5/8/2008","County":"Marion","Zip Code":"97303","Date":{"end_time":"2008/09/13 00:00:00 -0400","original":"9/12/2008","granularity":"day","time":"2008/09/12 00:00:00 -0400"},"id":"a8prsxcguesh","Assessed Value":"NULL","Default Amt":229033.49,"Address":"1330 Clearlake Rd NE"},"type":"Feature","geometry":{"type":"Point","coordinates":[-123.01541,45.035202]}},{"properties":{"Status":"OFF","City":"Salem","Final Bid":null,"Default Notice":"6/30/2008","County":"Polk","Zip Code":"97304","Date":{"end_time":"2008/11/06 00:00:00 -0500","original":"11/5/2008","granularity":"day","time":"2008/11/05 00:00:00 -0500"},"id":"a8prsx9naxqj","Assessed Value":"$199,430.00","Default Amt":61440.46,"Address":"1338 Wallace Rd NW"},"type":"Feature","geometry":{"type":"Point","coordinates":[-123.052723,44.954278]}},{"properties":{"Status":"OFF","City":"Salem","Final Bid":null,"Default Notice":"8/6/2008","County":"Marion","Zip Code":"97302","Date":{"end_time":"2008/12/31 00:00:00 -0500","original":"12/30/2008","granularity":"day","time":"2008/12/30 00:00:00 -0500"},"id":"a8prsx5zeufc","Assessed Value":"$209,320.00","Default Amt":169608.11,"Address":"1339 Hillendale Dr SE"},"type":"Feature","geometry":{"type":"Point","coordinates":[-123.02743,44.908017]}},{"properties":{"Status":"SOLD","City":"Stayton","Final Bid":122978.07,"Default Notice":"6/12/2008","County":"Marion","Zip Code":"97383","Date":{"end_time":"2008/10/18 00:00:00 -0400","original":"10/17/2008","granularity":"day","time":"2008/10/17 00:00:00 -0400"},"id":"a8prsxgvg99c","Assessed Value":"$203,600.00","Default Amt":112242.29,"Address":"1339 Wilshire Dr"},"type":"Feature","geometry":{"type":"Point","coordinates":[-122.806719,44.805607]}},{"properties":{"Status":"OFF","City":"Silverton","Final Bid":null,"Default Notice":"6/3/2008","County":"Marion","Zip Code":"97381","Date":{"end_time":"2008/10/11 00:00:00 -0400","original":"10/10/2008","granularity":"day","time":"2008/10/10 00:00:00 -0400"},"id":"a8prsx5wdblr","Assessed Value":"$205,440.00","Default Amt":159999.0,"Address":"13453 Hobart Rd NE"},"type":"Feature","geometry":{"type":"Point","coordinates":[-122.785369,45.021877]}},{"properties":{"Status":"OFF","City":"Salem","Final Bid":null,"Default Notice":"6/17/2008","County":"Polk","Zip Code":"97304","Date":{"end_time":"2008/10/22 00:00:00 -0400","original":"10/21/2008","granularity":"day","time":"2008/10/21 00:00:00 -0400"},"id":"a8prsx6mzrra","Assessed Value":"$269,260.00","Default Amt":299013.1,"Address":"1354 Lee Ann Ct NW"},"type":"Feature","geometry":{"type":"Point","coordinates":[-123.078661,44.953965]}},{"properties":{"Status":"OFF","City":"Monmouth","Final Bid":null,"Default Notice":"6/26/2008","County":"Polk","Zip Code":"97361","Date":{"end_time":"2008/11/01 00:00:00 -0400","original":"10/31/2008","granularity":"day","time":"2008/10/31 00:00:00 -0400"},"id":"a8prsxbha1nb","Assessed Value":"$205,930.00","Default Amt":63360.7,"Address":"1357 Ridgeview St"},"type":"Feature","geometry":{"type":"Point","coordinates":[-123.210121,44.86157]}},{"properties":{"Status":"OFF","City":"Dallas","Final Bid":null,"Default Notice":"6/6/2008","County":"Polk","Zip Code":"97338","Date":{"end_time":"2008/10/15 00:00:00 -0400","original":"10/14/2008","granularity":"day","time":"2008/10/14 00:00:00 -0400"},"id":"a8prsx5t1ga4","Assessed Value":"$416,880.00","Default Amt":488230.78,"Address":"1366 SW Bridlewood Dr"},"type":"Feature","geometry":{"type":"Point","coordinates":[-123.336575,44.907011]}},{"properties":{"Status":"OFF","City":"Independence","Final Bid":null,"Default Notice":"7/23/2008","County":"Polk","Zip Code":"97351","Date":{"end_time":"2008/11/27 00:00:00 -0500","original":"11/26/2008","granularity":"day","time":"2008/11/26 00:00:00 -0500"},"id":"a8prsxi3n2ah","Assessed Value":"$175,860.00","Default Amt":112144.28,"Address":"1380 Picture St"},"type":"Feature","geometry":{"type":"Point","coordinates":[-123.2054,44.859027]}},{"properties":{"Status":"OFF","City":"Woodburn","Final Bid":null,"Default Notice":"6/20/2008","County":"Marion","Zip Code":"97071","Date":{"end_time":"2008/11/08 00:00:00 -0500","original":"11/7/2008","granularity":"day","time":"2008/11/07 00:00:00 -0500"},"id":"a8prsxi24n4b","Assessed Value":"$124,220.00","Default Amt":261863.7,"Address":"14034 Woodburn Monitor Rd NE"},"type":"Feature","geometry":{"type":"Point","coordinates":[-122.773195,45.108892]}},{"properties":{"Status":"STB","City":"Silverton","Final Bid":171910.0,"Default Notice":"8/14/2008","County":"Marion","Zip Code":"97381","Date":{"end_time":"2008/12/19 00:00:00 -0500","original":"12/18/2008","granularity":"day","time":"2008/12/18 00:00:00 -0500"},"id":"a8prsxafhi49","Assessed Value":"NULL","Default Amt":159707.74,"Address":"1405 T J Lane"},"type":"Feature","geometry":{"type":"Point","coordinates":[-122.785348,45.01767]}},{"properties":{"Status":"OFF","City":"Silverton","Final Bid":null,"Default Notice":"8/5/2008","County":"Marion","Zip Code":"97381","Date":{"end_time":"2008/12/10 00:00:00 -0500","original":"12/9/2008","granularity":"day","time":"2008/12/09 00:00:00 -0500"},"id":"a8prsx57mv14","Assessed Value":"NULL","Default Amt":151357.67,"Address":"1407 TJ Lane N"},"type":"Feature","geometry":{"type":"Point","coordinates":[-122.784832,45.017941]}},{"properties":{"Status":"STB","City":"Salem","Final Bid":82790.99,"Default Notice":"6/10/2008","County":"Marion","Zip Code":"97303","Date":{"end_time":"2008/10/18 00:00:00 -0400","original":"10/17/2008","granularity":"day","time":"2008/10/17 00:00:00 -0400"},"id":"a8prsxbih6op","Assessed Value":"NULL","Default Amt":75395.46,"Address":"1410 Commercial St NE"},"type":"Feature","geometry":{"type":"Point","coordinates":[-123.034108,44.953873]}},{"properties":{"Status":"STB","City":"Salem","Final Bid":114650.0,"Default Notice":"6/27/2008","County":"Marion","Zip Code":"97303","Date":{"end_time":"2008/11/01 00:00:00 -0400","original":"10/31/2008","granularity":"day","time":"2008/10/31 00:00:00 -0400"},"id":"a8prsxav5ltp","Assessed Value":"NULL","Default Amt":132883.66,"Address":"1420 16th St NE"},"type":"Feature","geometry":{"type":"Point","coordinates":[-123.014528,44.949383]}},{"properties":{"Status":"OFF","City":"Keizer","Final Bid":null,"Default Notice":"5/16/2008","County":"Marion","Zip Code":"97303","Date":{"end_time":"2008/09/26 00:00:00 -0400","original":"9/25/2008","granularity":"day","time":"2008/09/25 00:00:00 -0400"},"id":"a8prsxals42a","Assessed Value":"$156,730.00","Default Amt":77126.41,"Address":"1425 NE Leo St"},"type":"Feature","geometry":{"type":"Point","coordinates":[-123.019522,44.986829]}},{"properties":{"Status":"OFF","City":"Salem","Final Bid":null,"Default Notice":"6/4/2008","County":"Polk","Zip Code":"97304","Date":{"end_time":"2008/10/10 00:00:00 -0400","original":"10/9/2008","granularity":"day","time":"2008/10/09 00:00:00 -0400"},"id":"a8prsxc8bj6h","Assessed Value":"$484,500.00","Default Amt":342150.0,"Address":"1425 W Meadows Dr NW"},"type":"Feature","geometry":{"type":"Point","coordinates":[-123.087791,44.954873]}},{"properties":{"Status":"OFF","City":"Salem","Final Bid":null,"Default Notice":"5/7/2008","County":"Marion","Zip Code":"97302","Date":{"end_time":"2008/09/10 00:00:00 -0400","original":"9/9/2008","granularity":"day","time":"2008/09/09 00:00:00 -0400"},"id":"a8prsx8s9lav","Assessed Value":"NULL","Default Amt":108412.34,"Address":"1444 Morningside Ct S"},"type":"Feature","geometry":{"type":"Point","coordinates":[-123.02489,44.907132]}},{"properties":{"Status":"OFF","City":"Salem","Final Bid":null,"Default Notice":"7/1/2008","County":"Marion","Zip Code":"97302","Date":{"end_time":"2008/11/04 00:00:00 -0500","original":"11/3/2008","granularity":"day","time":"2008/11/03 00:00:00 -0500"},"id":"a8prsx4xhcpx","Assessed Value":"NULL","Default Amt":61666.69,"Address":"1444 Morningside Ct SE"},"type":"Feature","geometry":{"type":"Point","coordinates":[-123.02489,44.907132]}},{"properties":{"Status":"OFF","City":"Salem","Final Bid":null,"Default Notice":"5/15/2008","County":"Marion","Zip Code":"97303","Date":{"end_time":"2008/09/20 00:00:00 -0400","original":"9/19/2008","granularity":"day","time":"2008/09/19 00:00:00 -0400"},"id":"a8prsxhhwnje","Assessed Value":"NULL","Default Amt":179380.83,"Address":"1455 NE Parkside Ct"},"type":"Feature","geometry":{"type":"Point","coordinates":[-123.012751,45.018175]}},{"properties":{"Status":"OFF","City":"Woodburn","Final Bid":null,"Default Notice":"6/18/2008","County":"Marion","Zip Code":"97071","Date":{"end_time":"2008/10/24 00:00:00 -0400","original":"10/23/2008","granularity":"day","time":"2008/10/23 00:00:00 -0400"},"id":"a8prsx77s388","Assessed Value":"NULL","Default Amt":146721.33,"Address":"1478 Audrey Way"},"type":"Feature","geometry":{"type":"Point","coordinates":[-122.827065,45.149249]}},{"properties":{"Status":"OFF","City":"Salem","Final Bid":null,"Default Notice":"7/31/2008","County":"Marion","Zip Code":"97302","Date":{"end_time":"2008/12/04 00:00:00 -0500","original":"12/3/2008","granularity":"day","time":"2008/12/03 00:00:00 -0500"},"id":"a8prsx3uri60","Assessed Value":"NULL","Default Amt":218800.0,"Address":"1486 Joplin St S"},"type":"Feature","geometry":{"type":"Point","coordinates":[-123.067129,44.888692]}},{"properties":{"Status":"STB","City":"Salem","Final Bid":192886.44,"Default Notice":"6/20/2008","County":"Polk","Zip Code":"97304","Date":{"end_time":"2008/12/04 00:00:00 -0500","original":"12/3/2008","granularity":"day","time":"2008/12/03 00:00:00 -0500"},"id":"a8prsx4h14q6","Assessed Value":"$195,840.00","Default Amt":208013.45,"Address":"1494 Ammon St NW"},"type":"Feature","geometry":{"type":"Point","coordinates":[-123.066635,44.964012]}},{"properties":{"Status":"STB","City":"Salem","Final Bid":109046.91,"Default Notice":"7/21/2008","County":"Marion","Zip Code":"97317","Date":{"end_time":"2008/12/02 00:00:00 -0500","original":"12/1/2008","granularity":"day","time":"2008/12/01 00:00:00 -0500"},"id":"a8prsx6ck8lf","Assessed Value":"$177,150.00","Default Amt":96904.7,"Address":"1499 Polo Ct SE"},"type":"Feature","geometry":{"type":"Point","coordinates":[-122.962307,44.911823]}},{"properties":{"Status":"OFF","City":"Woodburn","Final Bid":null,"Default Notice":"8/11/2008","County":"Marion","Zip Code":"97071","Date":{"end_time":"2008/12/13 00:00:00 -0500","original":"12/12/2008","granularity":"day","time":"2008/12/12 00:00:00 -0500"},"id":"a8prsx7j4sij","Assessed Value":"NULL","Default Amt":17207.35,"Address":"1505 James St"},"type":"Feature","geometry":{"type":"Point","coordinates":[-122.837722,45.147967]}},{"properties":{"Status":"OFF","City":"Aurora","Final Bid":null,"Default Notice":"6/27/2008","County":"Marion","Zip Code":"97002","Date":{"end_time":"2008/11/06 00:00:00 -0500","original":"11/5/2008","granularity":"day","time":"2008/11/05 00:00:00 -0500"},"id":"a8prsxbgeyml","Assessed Value":"NULL","Default Amt":144775.7,"Address":"15063 Ottaway Rd NE"},"type":"Feature","geometry":{"type":"Point","coordinates":[-122.75215,45.223407]}},{"properties":{"Status":"OFF","City":"Silverton","Final Bid":null,"Default Notice":"5/2/2008","County":"Marion","Zip Code":"97381","Date":{"end_time":"2008/09/04 00:00:00 -0400","original":"9/3/2008","granularity":"day","time":"2008/09/03 00:00:00 -0400"},"id":"a8prsxgjayjk","Assessed Value":"NULL","Default Amt":135829.37,"Address":"1512 Pine St"},"type":"Feature","geometry":{"type":"Point","coordinates":[-122.801988,45.011607]}},{"properties":{"Status":"OFF","City":"Jefferson","Final Bid":null,"Default Notice":"8/20/2008","County":"Marion","Zip Code":"97352","Date":{"end_time":"2008/12/30 00:00:00 -0500","original":"12/29/2008","granularity":"day","time":"2008/12/29 00:00:00 -0500"},"id":"a8prsx4q1iqn","Assessed Value":"NULL","Default Amt":153621.91,"Address":"15121 Skelton Rd SE"},"type":"Feature","geometry":{"type":"Point","coordinates":[-123.000218,44.736309]}},{"properties":{"Status":"OFF","City":"Silverton","Final Bid":null,"Default Notice":"5/8/2008","County":"Marion","Zip Code":"97381","Date":{"end_time":"2008/09/20 00:00:00 -0400","original":"9/19/2008","granularity":"day","time":"2008/09/19 00:00:00 -0400"},"id":"a8prsxbk8di3","Assessed Value":"$430,080.00","Default Amt":310000.0,"Address":"1516 Lakeview Dr"},"type":"Feature","geometry":{"type":"Point","coordinates":[-122.760149,44.993193]}},{"properties":{"Status":"STB","City":"Silverton","Final Bid":197245.0,"Default Notice":"6/17/2008","County":"Marion","Zip Code":"97381","Date":{"end_time":"2008/10/22 00:00:00 -0400","original":"10/21/2008","granularity":"day","time":"2008/10/21 00:00:00 -0400"},"id":"a8prsxfcd4jf","Assessed Value":"NULL","Default Amt":360225.86,"Address":"15175 Quall Rd NE"},"type":"Feature","geometry":{"type":"Point","coordinates":[-122.750975,44.992236]}},{"properties":{"Status":"OFF","City":"Salem","Final Bid":null,"Default Notice":"6/6/2008","County":"Marion","Zip Code":"97317","Date":{"end_time":"2008/10/18 00:00:00 -0400","original":"10/17/2008","granularity":"day","time":"2008/10/17 00:00:00 -0400"},"id":"a8prsx49cjvw","Assessed Value":"$340,660.00","Default Amt":278978.3,"Address":"1523 63rd Ave NE"},"type":"Feature","geometry":{"type":"Point","coordinates":[-122.931088,44.94846]}},{"properties":{"Status":"OFF","City":"Stayton","Final Bid":null,"Default Notice":"6/20/2008","County":"Marion","Zip Code":"97383","Date":{"end_time":"2008/11/01 00:00:00 -0400","original":"10/31/2008","granularity":"day","time":"2008/10/31 00:00:00 -0400"},"id":"a8prsxf4kgte","Assessed Value":"NULL","Default Amt":110604.48,"Address":"1534 Westfield Pl"},"type":"Feature","geometry":{"type":"Point","coordinates":[-122.810609,44.807741]}},{"properties":{"Status":"STB","City":"Stayton","Final Bid":130353.0,"Default Notice":"8/7/2008","County":"Marion","Zip Code":"97383","Date":{"end_time":"2008/12/16 00:00:00 -0500","original":"12/15/2008","granularity":"day","time":"2008/12/15 00:00:00 -0500"},"id":"a8prsxakwydi","Assessed Value":"NULL","Default Amt":112005.96,"Address":"1534 Wyatt Ct SE"},"type":"Feature","geometry":{"type":"Point","coordinates":[-122.809809,44.808482]}},{"properties":{"Status":"STB","City":"Salem","Final Bid":213750.0,"Default Notice":"5/14/2008","County":"Marion","Zip Code":"97301","Date":{"end_time":"2008/09/19 00:00:00 -0400","original":"9/18/2008","granularity":"day","time":"2008/09/18 00:00:00 -0400"},"id":"a8prsxgmwu89","Assessed Value":"NULL","Default Amt":273934.14,"Address":"1548 Eagle Cap St SE"},"type":"Feature","geometry":{"type":"Point","coordinates":[-122.97149,44.91155]}},{"properties":{"Status":"STB","City":"Salem","Final Bid":174000.0,"Default Notice":"8/19/2008","County":"Marion","Zip Code":"97301","Date":{"end_time":"2008/12/30 00:00:00 -0500","original":"12/29/2008","granularity":"day","time":"2008/12/29 00:00:00 -0500"},"id":"a8prsx5cw8sk","Assessed Value":"NULL","Default Amt":214800.0,"Address":"1555 Tierra Dr NE"},"type":"Feature","geometry":{"type":"Point","coordinates":[-122.978647,44.948481]}},{"properties":{"Status":"OFF","City":"Salem","Final Bid":null,"Default Notice":"6/25/2008","County":"Marion","Zip Code":"97306","Date":{"end_time":"2008/11/04 00:00:00 -0500","original":"11/3/2008","granularity":"day","time":"2008/11/03 00:00:00 -0500"},"id":"a8prsxi5yzdo","Assessed Value":"$192,050.00","Default Amt":171412.83,"Address":"1556 Cedarcrest Ct S"},"type":"Feature","geometry":{"type":"Point","coordinates":[-123.06684,44.877891]}},{"properties":{"Status":"OFF","City":"Keizer","Final Bid":null,"Default Notice":"5/8/2008","County":"Marion","Zip Code":"97303","Date":{"end_time":"2008/09/11 00:00:00 -0400","original":"9/10/2008","granularity":"day","time":"2008/09/10 00:00:00 -0400"},"id":"a8prsxeum3xu","Assessed Value":"NULL","Default Amt":8561.26,"Address":"1575 4th St NE"},"type":"Feature","geometry":{"type":"Point","coordinates":[-123.024459,45.031704]}},{"properties":{"Status":"STB","City":"Salem","Final Bid":217432.38,"Default Notice":"6/25/2008","County":"Marion","Zip Code":"97306","Date":{"end_time":"2008/11/06 00:00:00 -0500","original":"11/5/2008","granularity":"day","time":"2008/11/05 00:00:00 -0500"},"id":"a8prsxi5btnz","Assessed Value":"$242,660.00","Default Amt":192000.0,"Address":"1575 Fircrest Ct SE"},"type":"Feature","geometry":{"type":"Point","coordinates":[-123.025479,44.866775]}},{"properties":{"Status":"STB","City":"Salem","Final Bid":152410.4,"Default Notice":"5/16/2008","County":"Marion","Zip Code":"97301","Date":{"end_time":"2008/09/23 00:00:00 -0400","original":"9/22/2008","granularity":"day","time":"2008/09/22 00:00:00 -0400"},"id":"a8prsxifyvp2","Assessed Value":"$187,760.00","Default Amt":140825.84,"Address":"1575 NE 18th St"},"type":"Feature","geometry":{"type":"Point","coordinates":[-123.011468,44.949985]}},{"properties":{"Status":"STB","City":"Silverton","Final Bid":586547.15,"Default Notice":"7/23/2008","County":"Marion","Zip Code":"97381","Date":{"end_time":"2008/12/02 00:00:00 -0500","original":"12/1/2008","granularity":"day","time":"2008/12/01 00:00:00 -0500"},"id":"a8prsxa59uks","Assessed Value":"NULL","Default Amt":550000.0,"Address":"15830 Forest Ridge Ln NE"},"type":"Feature","geometry":{"type":"Point","coordinates":[-122.737369,44.993347]}},{"properties":{"Status":"STB","City":"Woodburn","Final Bid":86020.0,"Default Notice":"7/18/2008","County":"Marion","Zip Code":"97071","Date":{"end_time":"2008/11/25 00:00:00 -0500","original":"11/24/2008","granularity":"day","time":"2008/11/24 00:00:00 -0500"},"id":"a8prsxhvugl5","Assessed Value":"$121,960.00","Default Amt":85652.31,"Address":"1585 Rainier Rd"},"type":"Feature","geometry":{"type":"Point","coordinates":[-122.868129,45.151347]}},{"properties":{"Status":"OFF","City":"Silverton","Final Bid":null,"Default Notice":"6/25/2008","County":"Marion","Zip Code":"97381","Date":{"end_time":"2008/11/04 00:00:00 -0500","original":"11/3/2008","granularity":"day","time":"2008/11/03 00:00:00 -0500"},"id":"a8prsx6a2qkk","Assessed Value":"NULL","Default Amt":127141.88,"Address":"15917 NE Fir Ridge Ln"},"type":"Feature","geometry":{"type":"Point","coordinates":[-122.735856,44.991162]}},{"properties":{"Status":"STB","City":"Willamina","Final Bid":110500.0,"Default Notice":"8/25/2008","County":"Polk","Zip Code":"97396","Date":{"end_time":"2008/12/31 00:00:00 -0500","original":"12/30/2008","granularity":"day","time":"2008/12/30 00:00:00 -0500"},"id":"a8prsxepa6du","Assessed Value":"$149,400.00","Default Amt":116284.82,"Address":"160 SW Ivy St"},"type":"Feature","geometry":{"type":"Point","coordinates":[-123.485042,45.072727]}},{"properties":{"Status":"OFF","City":"Salem","Final Bid":null,"Default Notice":"7/2/2008","County":"Marion","Zip Code":"97302","Date":{"end_time":"2008/11/06 00:00:00 -0500","original":"11/5/2008","granularity":"day","time":"2008/11/05 00:00:00 -0500"},"id":"a8prsx8rzyx7","Assessed Value":"$103,570.00","Default Amt":78594.82,"Address":"1610 Lee St SE"},"type":"Feature","geometry":{"type":"Point","coordinates":[-123.024471,44.928282]}},{"properties":{"Status":"STB","City":"Salem","Final Bid":437852.12,"Default Notice":"8/13/2008","County":"Polk","Zip Code":"97304","Date":{"end_time":"2008/12/23 00:00:00 -0500","original":"12/22/2008","granularity":"day","time":"2008/12/22 00:00:00 -0500"},"id":"a8prsxe19foy","Assessed Value":"$403,500.00","Default Amt":401100.0,"Address":"1634 Ptarmigan St NW"},"type":"Feature","geometry":{"type":"Point","coordinates":[-123.06784,44.954102]}},{"properties":{"Status":"OFF","City":"Salem","Final Bid":null,"Default Notice":"8/20/2008","County":"Marion","Zip Code":"97302","Date":{"end_time":"2008/12/30 00:00:00 -0500","original":"12/29/2008","granularity":"day","time":"2008/12/29 00:00:00 -0500"},"id":"a8prsxjayhsq","Assessed Value":"NULL","Default Amt":456897.69,"Address":"1635 Fairmont Ave S"},"type":"Feature","geometry":{"type":"Point","coordinates":[-123.048788,44.925052]}},{"properties":{"Status":"STB","City":"Keizer","Final Bid":249900.0,"Default Notice":"7/7/2008","County":"Marion","Zip Code":"97303","Date":{"end_time":"2008/11/15 00:00:00 -0500","original":"11/14/2008","granularity":"day","time":"2008/11/14 00:00:00 -0500"},"id":"a8prsxtalirk","Assessed Value":"$262,880.00","Default Amt":300000.0,"Address":"1645 Heatherwood Ave NE"},"type":"Feature","geometry":{"type":"Point","coordinates":[-123.01101,45.029447]}},{"properties":{"Status":"OFF","City":"Salem","Final Bid":null,"Default Notice":"5/14/2008","County":"Marion","Zip Code":"97301","Date":{"end_time":"2008/09/23 00:00:00 -0400","original":"9/22/2008","granularity":"day","time":"2008/09/22 00:00:00 -0400"},"id":"a8prsxkgn7vl","Assessed Value":"$196,290.00","Default Amt":144000.0,"Address":"1650 B St NE"},"type":"Feature","geometry":{"type":"Point","coordinates":[-123.017576,44.942302]}},{"properties":{"Status":"STB","City":"Salem","Final Bid":104598.35,"Default Notice":"5/8/2008","County":"Marion","Zip Code":"97302","Date":{"end_time":"2008/09/20 00:00:00 -0400","original":"9/19/2008","granularity":"day","time":"2008/09/19 00:00:00 -0400"},"id":"a8prsxwsbsr9","Assessed Value":"$105,550.00","Default Amt":91999.98,"Address":"1655 Walker St SE"},"type":"Feature","geometry":{"type":"Point","coordinates":[-123.024195,44.92757]}},{"properties":{"Status":"OFF","City":"Salem","Final Bid":null,"Default Notice":"5/20/2008","County":"Marion","Zip Code":"97303","Date":{"end_time":"2008/09/27 00:00:00 -0400","original":"9/26/2008","granularity":"day","time":"2008/09/26 00:00:00 -0400"},"id":"a8prsxt81ny1","Assessed Value":"NULL","Default Amt":130841.81,"Address":"1660 Eugene Ct NE"},"type":"Feature","geometry":{"type":"Point","coordinates":[-123.01063,45.004472]}},{"properties":{"Status":"STB","City":"Salem","Final Bid":154465.0,"Default Notice":"6/25/2008","County":"Marion","Zip Code":"97301","Date":{"end_time":"2008/10/31 00:00:00 -0400","original":"10/30/2008","granularity":"day","time":"2008/10/30 00:00:00 -0400"},"id":"a8prsxubug3v","Assessed Value":"NULL","Default Amt":135443.55,"Address":"1688 Mahogany Ct NE"},"type":"Feature","geometry":{"type":"Point","coordinates":[-122.975921,44.949442]}},{"properties":{"Status":"STB","City":"Salem","Final Bid":263500.0,"Default Notice":"5/21/2008","County":"Polk","Zip Code":"97304","Date":{"end_time":"2008/10/02 00:00:00 -0400","original":"10/1/2008","granularity":"day","time":"2008/10/01 00:00:00 -0400"},"id":"a8prsxncsxou","Assessed Value":"$345,460.00","Default Amt":286400.0,"Address":"1749 Sunburst Ter NW"},"type":"Feature","geometry":{"type":"Point","coordinates":[-123.06809,44.952176]}},{"properties":{"Status":"OFF","City":"Hubbard","Final Bid":null,"Default Notice":"5/27/2008","County":"Marion","Zip Code":"97032","Date":{"end_time":"2008/10/07 00:00:00 -0400","original":"10/6/2008","granularity":"day","time":"2008/10/06 00:00:00 -0400"},"id":"a8prsxnobzp2","Assessed Value":"NULL","Default Amt":199266.74,"Address":"17492 Dunn Rd NE"},"type":"Feature","geometry":{"type":"Point","coordinates":[-122.803154,45.17367]}},{"properties":{"Status":"OFF","City":"Dallas","Final Bid":null,"Default Notice":"6/4/2008","County":"Polk","Zip Code":"97338","Date":{"end_time":"2008/10/07 00:00:00 -0400","original":"10/6/2008","granularity":"day","time":"2008/10/06 00:00:00 -0400"},"id":"a8prsxmsit9k","Assessed Value":"$318,300.00","Default Amt":39444.14,"Address":"17620 Falls City Rd"},"type":"Feature","geometry":{"type":"Point","coordinates":[-123.38729,44.858683]}},{"properties":{"Status":"OFF","City":"Salem","Final Bid":null,"Default Notice":"6/4/2008","County":"Marion","Zip Code":"97302","Date":{"end_time":"2008/10/10 00:00:00 -0400","original":"10/9/2008","granularity":"day","time":"2008/10/09 00:00:00 -0400"},"id":"a8prsxz04ean","Assessed Value":"NULL","Default Amt":143410.64,"Address":"1770 Lee St SE"},"type":"Feature","geometry":{"type":"Point","coordinates":[-123.023081,44.928232]}},{"properties":{"Status":"STB","City":"Salem","Final Bid":181152.94,"Default Notice":"5/8/2008","County":"Marion","Zip Code":"97301","Date":{"end_time":"2008/09/19 00:00:00 -0400","original":"9/18/2008","granularity":"day","time":"2008/09/18 00:00:00 -0400"},"id":"a8prsxo4n68h","Assessed Value":"$228,470.00","Default Amt":165645.53,"Address":"1798 4th St NE"},"type":"Feature","geometry":{"type":"Point","coordinates":[-123.030111,44.956414]}},{"properties":{"Status":"STB","City":"Keizer","Final Bid":165828.17,"Default Notice":"6/27/2008","County":"Marion","Zip Code":"97303","Date":{"end_time":"2008/11/01 00:00:00 -0400","original":"10/31/2008","granularity":"day","time":"2008/10/31 00:00:00 -0400"},"id":"a8prsxstjtkb","Assessed Value":"NULL","Default Amt":152775.08,"Address":"1798 Dearborn Ave NE"},"type":"Feature","geometry":{"type":"Point","coordinates":[-123.01021,44.993562]}},{"properties":{"Status":"STB","City":"Salem","Final Bid":141927.0,"Default Notice":"8/8/2008","County":"Marion","Zip Code":"97301","Date":{"end_time":"2008/12/17 00:00:00 -0500","original":"12/16/2008","granularity":"day","time":"2008/12/16 00:00:00 -0500"},"id":"a8prsxnhcd7t","Assessed Value":"NULL","Default Amt":127696.89,"Address":"1810 Trade St SE"},"type":"Feature","geometry":{"type":"Point","coordinates":[-123.019956,44.932882]}},{"properties":{"Status":"OFF","City":"Independence","Final Bid":null,"Default Notice":"5/27/2008","County":"Polk","Zip Code":"97351","Date":{"end_time":"2008/10/11 00:00:00 -0400","original":"10/10/2008","granularity":"day","time":"2008/10/10 00:00:00 -0400"},"id":"a8prsxjj1fu3","Assessed Value":"$127,650.00","Default Amt":49489.72,"Address":"184 Walnut St"},"type":"Feature","geometry":{"type":"Point","coordinates":[-123.188448,44.855519]}},{"properties":{"Status":"OFF","City":"Salem","Final Bid":null,"Default Notice":"5/9/2008","County":"Marion","Zip Code":"97302","Date":{"end_time":"2008/09/16 00:00:00 -0400","original":"9/15/2008","granularity":"day","time":"2008/09/15 00:00:00 -0400"},"id":"a8prsxypvt2t","Assessed Value":"NULL","Default Amt":140018.18,"Address":"1845 Aerial Way SE"},"type":"Feature","geometry":{"type":"Point","coordinates":[-123.019959,44.903087]}},{"properties":{"Status":"OFF","City":"Salem","Final Bid":null,"Default Notice":"6/27/2008","County":"Marion","Zip Code":"97306","Date":{"end_time":"2008/11/08 00:00:00 -0500","original":"11/7/2008","granularity":"day","time":"2008/11/07 00:00:00 -0500"},"id":"a8prsxvbzj3n","Assessed Value":"$204,270.00","Default Amt":192084.73,"Address":"1846 Summercrest Ct S"},"type":"Feature","geometry":{"type":"Point","coordinates":[-123.069451,44.88067]}},{"properties":{"Status":"STB","City":"Dallas","Final Bid":114662.89,"Default Notice":"5/23/2008","County":"Polk","Zip Code":"97338","Date":{"end_time":"2008/09/30 00:00:00 -0400","original":"9/29/2008","granularity":"day","time":"2008/09/29 00:00:00 -0400"},"id":"a8prsxiy0hns","Assessed Value":"$122,270.00","Default Amt":104804.07,"Address":"1850 SE Gregory Dr"},"type":"Feature","geometry":{"type":"Point","coordinates":[-123.291311,44.911439]}},{"properties":{"Status":"OFF","City":"Silverton","Final Bid":null,"Default Notice":"5/16/2008","County":"Marion","Zip Code":"97381","Date":{"end_time":"2008/09/27 00:00:00 -0400","original":"9/26/2008","granularity":"day","time":"2008/09/26 00:00:00 -0400"},"id":"a8prsxkgk37i","Assessed Value":"$290,700.00","Default Amt":393844.96,"Address":"1874 Hibbard Rd NE"},"type":"Feature","geometry":{"type":"Point","coordinates":[-122.830762,44.953873]}},{"properties":{"Status":"STB","City":"Dallas","Final Bid":127145.14,"Default Notice":"6/4/2008","County":"Polk","Zip Code":"97338","Date":{"end_time":"2008/10/10 00:00:00 -0400","original":"10/9/2008","granularity":"day","time":"2008/10/09 00:00:00 -0400"},"id":"a8prsxs1y9js","Assessed Value":"$207,810.00","Default Amt":146061.95,"Address":"1885 SE Miller Ave"},"type":"Feature","geometry":{"type":"Point","coordinates":[-123.283312,44.918563]}},{"properties":{"Status":"STB","City":"Monmouth","Final Bid":206271.77,"Default Notice":"5/13/2008","County":"Polk","Zip Code":"97361","Date":{"end_time":"2008/09/24 00:00:00 -0400","original":"9/23/2008","granularity":"day","time":"2008/09/23 00:00:00 -0400"},"id":"a8prsxymjdey","Assessed Value":"$235,050.00","Default Amt":239392.58,"Address":"1923 Laurelridge St"},"type":"Feature","geometry":{"type":"Point","coordinates":[-123.211061,44.860834]}},{"properties":{"Status":"STB","City":"Salem","Final Bid":122721.0,"Default Notice":"6/13/2008","County":"Marion","Zip Code":"97301","Date":{"end_time":"2008/10/21 00:00:00 -0400","original":"10/20/2008","granularity":"day","time":"2008/10/20 00:00:00 -0400"},"id":"a8prsxoepr90","Assessed Value":"NULL","Default Amt":114080.69,"Address":"1983 Cottontail Ct"},"type":"Feature","geometry":{"type":"Point","coordinates":[-122.964741,44.953783]}},{"properties":{"Status":"OFF","City":"Salem","Final Bid":null,"Default Notice":"7/16/2008","County":"Marion","Zip Code":"97301","Date":{"end_time":"2008/11/20 00:00:00 -0500","original":"11/19/2008","granularity":"day","time":"2008/11/19 00:00:00 -0500"},"id":"a8prsxu31bqj","Assessed Value":"NULL","Default Amt":124000.0,"Address":"1996 Trade St SE"},"type":"Feature","geometry":{"type":"Point","coordinates":[-123.018356,44.932502]}},{"properties":{"Status":"OFF","City":"Salem","Final Bid":null,"Default Notice":"7/16/2008","County":"Polk","Zip Code":"97304","Date":{"end_time":"2008/11/20 00:00:00 -0500","original":"11/19/2008","granularity":"day","time":"2008/11/19 00:00:00 -0500"},"id":"a8prsxrfiuy1","Assessed Value":"$217,040.00","Default Amt":30644.01,"Address":"2032 Summit Ave NW"},"type":"Feature","geometry":{"type":"Point","coordinates":[-123.074378,44.947661]}},{"properties":{"Status":"OFF","City":"Salem","Final Bid":null,"Default Notice":"8/7/2008","County":"Marion","Zip Code":"97306","Date":{"end_time":"2008/12/11 00:00:00 -0500","original":"12/10/2008","granularity":"day","time":"2008/12/10 00:00:00 -0500"},"id":"a8prsxrriava","Assessed Value":"NULL","Default Amt":145383.69,"Address":"2034 Elmwood Dr S"},"type":"Feature","geometry":{"type":"Point","coordinates":[-123.07237,44.876992]}},{"properties":{"Status":"OFF","City":"Salem","Final Bid":null,"Default Notice":"8/21/2008","County":"Polk","Zip Code":"97304","Date":{"end_time":"2008/12/30 00:00:00 -0500","original":"12/29/2008","granularity":"day","time":"2008/12/29 00:00:00 -0500"},"id":"a8prsxkzdhom","Assessed Value":"$259,790.00","Default Amt":159831.55,"Address":"2043 Tanager Ave NW"},"type":"Feature","geometry":{"type":"Point","coordinates":[-123.069846,44.963457]}},{"properties":{"Status":"OFF","City":"Salem","Final Bid":null,"Default Notice":"7/22/2008","County":"Marion","Zip Code":"97301","Date":{"end_time":"2008/12/06 00:00:00 -0500","original":"12/5/2008","granularity":"day","time":"2008/12/05 00:00:00 -0500"},"id":"a8prsxnbvqd8","Assessed Value":"$106,830.00","Default Amt":61680.55,"Address":"2055 Warner St NE"},"type":"Feature","geometry":{"type":"Point","coordinates":[-123.017421,44.955806]}},{"properties":{"Status":"STB","City":"Aurora","Final Bid":968000.0,"Default Notice":"8/14/2008","County":"Marion","Zip Code":"97002","Date":{"end_time":"2008/12/30 00:00:00 -0500","original":"12/29/2008","granularity":"day","time":"2008/12/29 00:00:00 -0500"},"id":"a8prsxujhac4","Assessed Value":"$570,390.00","Default Amt":918750.0,"Address":"20561 Olmstead Rd NE"},"type":"Feature","geometry":{"type":"Point","coordinates":[-122.862698,45.217942]}},{"properties":{"Status":"OFF","City":"Salem","Final Bid":null,"Default Notice":"6/20/2008","County":"Polk","Zip Code":"97304","Date":{"end_time":"2008/10/28 00:00:00 -0400","original":"10/27/2008","granularity":"day","time":"2008/10/27 00:00:00 -0400"},"id":"a8prsxwpz7m7","Assessed Value":"$255,370.00","Default Amt":192080.07,"Address":"2060 Wallace Rd NW"},"type":"Feature","geometry":{"type":"Point","coordinates":[-123.056679,44.963876]}},{"properties":{"Status":"STB","City":"Keizer","Final Bid":201300.0,"Default Notice":"6/26/2008","County":"Marion","Zip Code":"97303","Date":{"end_time":"2008/11/13 00:00:00 -0500","original":"11/12/2008","granularity":"day","time":"2008/11/12 00:00:00 -0500"},"id":"a8prsxqz07s2","Assessed Value":"$302,120.00","Default Amt":200263.05,"Address":"2074 Rock Ledge Dr NE"},"type":"Feature","geometry":{"type":"Point","coordinates":[-123.006169,45.016712]}},{"properties":{"Status":"STB","City":"Keizer","Final Bid":161651.1,"Default Notice":"6/13/2008","County":"Marion","Zip Code":"97303","Date":{"end_time":"2008/10/17 00:00:00 -0400","original":"10/16/2008","granularity":"day","time":"2008/10/16 00:00:00 -0400"},"id":"a8prsxn0sis7","Assessed Value":"NULL","Default Amt":145712.92,"Address":"208 Dorcas Dr NE"},"type":"Feature","geometry":{"type":"Point","coordinates":[-123.029152,44.977593]}},{"properties":{"Status":"STB","City":"Silverton","Final Bid":147940.0,"Default Notice":"6/24/2008","County":"Marion","Zip Code":"97381","Date":{"end_time":"2008/10/30 00:00:00 -0400","original":"10/29/2008","granularity":"day","time":"2008/10/29 00:00:00 -0400"},"id":"a8prsxlofjgb","Assessed Value":"NULL","Default Amt":136800.0,"Address":"208 Jersey St"},"type":"Feature","geometry":{"type":"Point","coordinates":[-122.781679,45.004263]}},{"properties":{"Status":"OFF","City":"Aurora","Final Bid":null,"Default Notice":"7/8/2008","County":"Marion","Zip Code":"97002","Date":{"end_time":"2008/11/11 00:00:00 -0500","original":"11/10/2008","granularity":"day","time":"2008/11/10 00:00:00 -0500"},"id":"a8prsxwk8zaw","Assessed Value":"NULL","Default Amt":108321.48,"Address":"20948 Highway 99E NE"},"type":"Feature","geometry":{"type":"Point","coordinates":[-122.75883,45.222945]}},{"properties":{"Status":"OFF","City":"Donald","Final Bid":null,"Default Notice":"6/20/2008","County":"Marion","Zip Code":"97020","Date":{"end_time":"2008/10/31 00:00:00 -0400","original":"10/30/2008","granularity":"day","time":"2008/10/30 00:00:00 -0400"},"id":"a8prsxomruz4","Assessed Value":"NULL","Default Amt":118458.82,"Address":"20956 NE Butteville Rd"},"type":"Feature","geometry":{"type":"Point","coordinates":[-122.842888,45.222753]}},{"properties":{"Status":"OFF","City":"Sublimity","Final Bid":null,"Default Notice":"5/16/2008","County":"Marion","Zip Code":"97385","Date":{"end_time":"2008/09/23 00:00:00 -0400","original":"9/22/2008","granularity":"day","time":"2008/09/22 00:00:00 -0400"},"id":"a8prsxusczku","Assessed Value":"$226,150.00","Default Amt":239404.42,"Address":"210 NW Crater St"},"type":"Feature","geometry":{"type":"Point","coordinates":[-122.79742,44.832409]}},{"properties":{"Status":"OFF","City":"Salem","Final Bid":null,"Default Notice":"5/21/2008","County":"Marion","Zip Code":"97301","Date":{"end_time":"2008/10/07 00:00:00 -0400","original":"10/6/2008","granularity":"day","time":"2008/10/06 00:00:00 -0400"},"id":"a8prsxykijrn","Assessed Value":"$197,660.00","Default Amt":93225.55,"Address":"2105 Lansing Ave NE"},"type":"Feature","geometry":{"type":"Point","coordinates":[-122.997698,44.95493]}},{"properties":{"Status":"STB","City":"Salem","Final Bid":310000.0,"Default Notice":"6/25/2008","County":"Marion","Zip Code":"97302","Date":{"end_time":"2008/11/04 00:00:00 -0500","original":"11/3/2008","granularity":"day","time":"2008/11/03 00:00:00 -0500"},"id":"a8prsxr1ry81","Assessed Value":"$397,610.00","Default Amt":404551.27,"Address":"2134 Alex Ave SE"},"type":"Feature","geometry":{"type":"Point","coordinates":[-123.015552,44.883822]}},{"properties":{"Status":"OFF","City":"Salem","Final Bid":null,"Default Notice":"6/6/2008","County":"Polk","Zip Code":"97304","Date":{"end_time":"2008/10/17 00:00:00 -0400","original":"10/16/2008","granularity":"day","time":"2008/10/16 00:00:00 -0400"},"id":"a8prsxk5c61u","Assessed Value":"$300,440.00","Default Amt":205045.18,"Address":"2145 Teakwood Ave NW"},"type":"Feature","geometry":{"type":"Point","coordinates":[-123.077497,44.973747]}},{"properties":{"Status":"OFF","City":"Mt. Angel","Final Bid":null,"Default Notice":"5/5/2008","County":"Marion","Zip Code":"97362","Date":{"end_time":"2008/09/16 00:00:00 -0400","original":"9/15/2008","granularity":"day","time":"2008/09/15 00:00:00 -0400"},"id":"a8prsxrdyfir","Assessed Value":"NULL","Default Amt":119803.37,"Address":"215 Cherry St"},"type":"Feature","geometry":{"type":"Point","coordinates":[-122.78997,45.067197]}},{"properties":{"Status":"STB","City":"Jefferson","Final Bid":44346.0,"Default Notice":"7/7/2008","County":"Marion","Zip Code":"97352","Date":{"end_time":"2008/11/11 00:00:00 -0500","original":"11/10/2008","granularity":"day","time":"2008/11/10 00:00:00 -0500"},"id":"a8prsxpzrynq","Assessed Value":"NULL","Default Amt":39433.34,"Address":"220 High St"},"type":"Feature","geometry":{"type":"Point","coordinates":[-123.009859,44.710542]}},{"properties":{"Status":"STB","City":"Independence","Final Bid":120000.0,"Default Notice":"6/20/2008","County":"Polk","Zip Code":"97351","Date":{"end_time":"2008/10/28 00:00:00 -0400","original":"10/27/2008","granularity":"day","time":"2008/10/27 00:00:00 -0400"},"id":"a8prsxpr3sza","Assessed Value":"$204,500.00","Default Amt":123098.86,"Address":"220 S Gun Club Rd"},"type":"Feature","geometry":{"type":"Point","coordinates":[-123.206156,44.851935]}},{"properties":{"Status":"OFF","City":"Dallas","Final Bid":null,"Default Notice":"5/16/2008","County":"Polk","Zip Code":"97338","Date":{"end_time":"2008/09/23 00:00:00 -0400","original":"9/22/2008","granularity":"day","time":"2008/09/22 00:00:00 -0400"},"id":"a8prsxn787n1","Assessed Value":"$149,670.00","Default Amt":143996.57,"Address":"221 SW Rainbow Ave"},"type":"Feature","geometry":{"type":"Point","coordinates":[-123.316349,44.928202]}},{"properties":{"Status":"OFF","City":"Salem","Final Bid":null,"Default Notice":"7/30/2008","County":"Marion","Zip Code":"97303","Date":{"end_time":"2008/12/06 00:00:00 -0500","original":"12/5/2008","granularity":"day","time":"2008/12/05 00:00:00 -0500"},"id":"a8prsxjr8gsy","Assessed Value":"NULL","Default Amt":104695.87,"Address":"2210 Jelden St NE"},"type":"Feature","geometry":{"type":"Point","coordinates":[-122.996281,44.955818]}},{"properties":{"Status":"OFF","City":"Salem","Final Bid":null,"Default Notice":"6/5/2008","County":"Marion","Zip Code":"97306","Date":{"end_time":"2008/10/09 00:00:00 -0400","original":"10/8/2008","granularity":"day","time":"2008/10/08 00:00:00 -0400"},"id":"a8prsxsh2dgr","Assessed Value":"NULL","Default Amt":64197.88,"Address":"2244 Maplewood Dr S"},"type":"Feature","geometry":{"type":"Point","coordinates":[-123.076122,44.877333]}},{"properties":{"Status":"STB","City":"Stayton","Final Bid":148000.0,"Default Notice":"7/3/2008","County":"Marion","Zip Code":"97383","Date":{"end_time":"2008/11/08 00:00:00 -0500","original":"11/7/2008","granularity":"day","time":"2008/11/07 00:00:00 -0500"},"id":"a8prsxqgruja","Assessed Value":"NULL","Default Amt":150818.37,"Address":"2245 Wildflower Ct"},"type":"Feature","geometry":{"type":"Point","coordinates":[-122.789648,44.812191]}},{"properties":{"Status":"STB","City":"Salem","Final Bid":117000.0,"Default Notice":"6/19/2008","County":"Marion","Zip Code":"97301","Date":{"end_time":"2008/10/30 00:00:00 -0400","original":"10/29/2008","granularity":"day","time":"2008/10/29 00:00:00 -0400"},"id":"a8prsxrx0lyz","Assessed Value":"$110,310.00","Default Amt":121907.16,"Address":"2260 Lee St SE"},"type":"Feature","geometry":{"type":"Point","coordinates":[-123.015429,44.928052]}},{"properties":{"Status":"OFF","City":"Salem","Final Bid":null,"Default Notice":"5/23/2008","County":"Marion","Zip Code":"97305","Date":{"end_time":"2008/10/03 00:00:00 -0400","original":"10/2/2008","granularity":"day","time":"2008/10/02 00:00:00 -0400"},"id":"a8prsxszurky","Assessed Value":"NULL","Default Amt":179999.41,"Address":"2265 Greentree Dr NE"},"type":"Feature","geometry":{"type":"Point","coordinates":[-122.964159,44.956986]}},{"properties":{"Status":"STB","City":"Stayton","Final Bid":72152.82,"Default Notice":"5/8/2008","County":"Marion","Zip Code":"97383","Date":{"end_time":"2008/09/11 00:00:00 -0400","original":"9/10/2008","granularity":"day","time":"2008/09/10 00:00:00 -0400"},"id":"a8prsxrv6orx","Assessed Value":"NULL","Default Amt":98843.33,"Address":"228 W Washington St"},"type":"Feature","geometry":{"type":"Point","coordinates":[-122.796678,44.800712]}},{"properties":{"Status":"OFF","City":"Salem","Final Bid":null,"Default Notice":"7/16/2008","County":"Marion","Zip Code":"97303","Date":{"end_time":"2008/11/18 00:00:00 -0500","original":"11/17/2008","granularity":"day","time":"2008/11/17 00:00:00 -0500"},"id":"a8prsxzcnkj6","Assessed Value":"NULL","Default Amt":23469.58,"Address":"2325 Myrtle Ave NE"},"type":"Feature","geometry":{"type":"Point","coordinates":[-123.021308,44.960399]}},{"properties":{"Status":"STB","City":"Salem","Final Bid":174000.0,"Default Notice":"6/18/2008","County":"Marion","Zip Code":"97301","Date":{"end_time":"2008/10/24 00:00:00 -0400","original":"10/23/2008","granularity":"day","time":"2008/10/23 00:00:00 -0400"},"id":"a8prsxrpck2e","Assessed Value":"NULL","Default Amt":194480.67,"Address":"2345 Market St NE"},"type":"Feature","geometry":{"type":"Point","coordinates":[-123.005323,44.949417]}},{"properties":{"Status":"OFF","City":"Monmouth","Final Bid":null,"Default Notice":"8/18/2008","County":"Polk","Zip Code":"97361","Date":{"end_time":"2008/12/27 00:00:00 -0500","original":"12/26/2008","granularity":"day","time":"2008/12/26 00:00:00 -0500"},"id":"a8prsxoyl7dk","Assessed Value":"$155,170.00","Default Amt":160391.44,"Address":"235 Catron St N"},"type":"Feature","geometry":{"type":"Point","coordinates":[-123.23049,44.85015]}},{"properties":{"Status":"OFF","City":"Keizer","Final Bid":null,"Default Notice":"7/14/2008","County":"Marion","Zip Code":"97303","Date":{"end_time":"2008/11/25 00:00:00 -0500","original":"11/24/2008","granularity":"day","time":"2008/11/24 00:00:00 -0500"},"id":"a8prsxwpwg21","Assessed Value":"$217,410.00","Default Amt":178362.52,"Address":"235 Northridge Ct N"},"type":"Feature","geometry":{"type":"Point","coordinates":[-123.02608,45.022217]}},{"properties":{"Status":"STB","City":"Salem","Final Bid":48297.0,"Default Notice":"5/22/2008","County":"Polk","Zip Code":"97304","Date":{"end_time":"2008/09/26 00:00:00 -0400","original":"9/25/2008","granularity":"day","time":"2008/09/25 00:00:00 -0400"},"id":"a8prsxqicqy7","Assessed Value":"$91,800.00","Default Amt":64060.62,"Address":"2353 Dalke Ridge Dr NW"},"type":"Feature","geometry":{"type":"Point","coordinates":[-123.081527,44.948875]}},{"properties":{"Status":"OFF","City":"Aurora","Final Bid":null,"Default Notice":"5/5/2008","County":"Marion","Zip Code":"97002","Date":{"end_time":"2008/09/16 00:00:00 -0400","original":"9/15/2008","granularity":"day","time":"2008/09/15 00:00:00 -0400"},"id":"a8prsxpe4gek","Assessed Value":"NULL","Default Amt":115929.47,"Address":"23530 Meadow Dr NE"},"type":"Feature","geometry":{"type":"Point","coordinates":[-122.823874,45.260142]}},{"properties":{"Status":"OFF","City":"Scotts Mills","Final Bid":null,"Default Notice":"6/26/2008","County":"Marion","Zip Code":"97375","Date":{"end_time":"2008/11/04 00:00:00 -0500","original":"11/3/2008","granularity":"day","time":"2008/11/03 00:00:00 -0500"},"id":"a8prsxny05ju","Assessed Value":"NULL","Default Amt":76062.6,"Address":"23771 Moss Ln"},"type":"Feature","geometry":{"type":"Point","coordinates":[-122.578312,44.962778]}},{"properties":{"Status":"OFF","City":"Salem","Final Bid":null,"Default Notice":"7/21/2008","County":"Polk","Zip Code":"97304","Date":{"end_time":"2008/11/22 00:00:00 -0500","original":"11/21/2008","granularity":"day","time":"2008/11/21 00:00:00 -0500"},"id":"a8prsxn2fbz6","Assessed Value":"$234,380.00","Default Amt":313253.57,"Address":"2385 Dalke Ridge Dr NW"},"type":"Feature","geometry":{"type":"Point","coordinates":[-123.08201,44.948797]}},{"properties":{"Status":"STB","City":"Detroit","Final Bid":147753.0,"Default Notice":"7/30/2008","County":"Marion","Zip Code":"97342","Date":{"end_time":"2008/12/02 00:00:00 -0500","original":"12/1/2008","granularity":"day","time":"2008/12/01 00:00:00 -0500"},"id":"a8prsxuws3xt","Assessed Value":"NULL","Default Amt":145226.01,"Address":"240 Myer St S"},"type":"Feature","geometry":{"type":"Point","coordinates":[-122.143301,44.730966]}},{"properties":{"Status":"SOLD","City":"Salem","Final Bid":null,"Default Notice":"6/5/2008","County":"Marion","Zip Code":"97301","Date":{"end_time":"2008/10/10 00:00:00 -0400","original":"10/9/2008","granularity":"day","time":"2008/10/09 00:00:00 -0400"},"id":"a8prsxr75v6n","Assessed Value":"NULL","Default Amt":2275000.0,"Address":"2401-2475 Wayside Terrace NE"},"type":"Feature","geometry":{"type":"Point","coordinates":[-123.000141,44.974592]}},{"properties":{"Status":"OFF","City":"Salem","Final Bid":null,"Default Notice":"5/8/2008","County":"Marion","Zip Code":"97301","Date":{"end_time":"2008/09/19 00:00:00 -0400","original":"9/18/2008","granularity":"day","time":"2008/09/18 00:00:00 -0400"},"id":"a8prsxm0ejoy","Assessed Value":"$152,840.00","Default Amt":117718.71,"Address":"2450 Alameda St NE"},"type":"Feature","geometry":{"type":"Point","coordinates":[-122.991801,44.957829]}},{"properties":{"Status":"STB","City":"Salem","Final Bid":138178.41,"Default Notice":"6/27/2008","County":"Marion","Zip Code":"97303","Date":{"end_time":"2008/11/01 00:00:00 -0400","original":"10/31/2008","granularity":"day","time":"2008/10/31 00:00:00 -0400"},"id":"a8prsxnovx20","Assessed Value":"NULL","Default Amt":108120.29,"Address":"2450 Evergreen Ave NE"},"type":"Feature","geometry":{"type":"Point","coordinates":[-123.002121,44.958312]}},{"properties":{"Status":"STB","City":"Salem","Final Bid":64027.8,"Default Notice":"5/20/2008","County":"Marion","Zip Code":"97301","Date":{"end_time":"2008/10/01 00:00:00 -0400","original":"9/30/2008","granularity":"day","time":"2008/09/30 00:00:00 -0400"},"id":"a8prsxv5buv4","Assessed Value":"NULL","Default Amt":43000.0,"Address":"2455 SE Helm St"},"type":"Feature","geometry":{"type":"Point","coordinates":[-123.011543,44.923832]}},{"properties":{"Status":"OFF","City":"Detroit","Final Bid":null,"Default Notice":"6/25/2008","County":"Marion","Zip Code":"97342","Date":{"end_time":"2008/10/28 00:00:00 -0400","original":"10/27/2008","granularity":"day","time":"2008/10/27 00:00:00 -0400"},"id":"a8prsxwnnjns","Assessed Value":"$181,340.00","Default Amt":82899.98,"Address":"250 Myer St S"},"type":"Feature","geometry":{"type":"Point","coordinates":[-122.143281,44.731237]}},{"properties":{"Status":"OFF","City":"Salem","Final Bid":null,"Default Notice":"5/23/2008","County":"Marion","Zip Code":"97303","Date":{"end_time":"2008/10/04 00:00:00 -0400","original":"10/3/2008","granularity":"day","time":"2008/10/03 00:00:00 -0400"},"id":"a8prsxrjl4ba","Assessed Value":"NULL","Default Amt":101519.4,"Address":"2565 5th St NE"},"type":"Feature","geometry":{"type":"Point","coordinates":[-123.027388,44.96386]}},{"properties":{"Status":"OFF","City":"Salem","Final Bid":null,"Default Notice":"6/25/2008","County":"Marion","Zip Code":"97303","Date":{"end_time":"2008/11/04 00:00:00 -0500","original":"11/3/2008","granularity":"day","time":"2008/11/03 00:00:00 -0500"},"id":"a8prsxrh81py","Assessed Value":"NULL","Default Amt":111178.6,"Address":"2570 Wooddale Ave NE"},"type":"Feature","geometry":{"type":"Point","coordinates":[-122.99725,44.973872]}},{"properties":{"Status":"STB","City":"Woodburn","Final Bid":236550.0,"Default Notice":"7/28/2008","County":"Marion","Zip Code":"97071","Date":{"end_time":"2008/12/02 00:00:00 -0500","original":"12/1/2008","granularity":"day","time":"2008/12/01 00:00:00 -0500"},"id":"a8prsxui92o3","Assessed Value":"NULL","Default Amt":249109.83,"Address":"2587 Jamestown St"},"type":"Feature","geometry":{"type":"Point","coordinates":[-122.858668,45.156629]}},{"properties":{"Status":"STB","City":"Dallas","Final Bid":159158.86,"Default Notice":"8/14/2008","County":"Polk","Zip Code":"97338","Date":{"end_time":"2008/12/31 00:00:00 -0500","original":"12/30/2008","granularity":"day","time":"2008/12/30 00:00:00 -0500"},"id":"a8prsxtz0y7k","Assessed Value":"$171,730.00","Default Amt":144300.0,"Address":"261 SW View St"},"type":"Feature","geometry":{"type":"Point","coordinates":[-123.317369,44.92769]}},{"properties":{"Status":"OFF","City":"Independence","Final Bid":null,"Default Notice":"6/27/2008","County":"Polk","Zip Code":"97351","Date":{"end_time":"2008/11/01 00:00:00 -0400","original":"10/31/2008","granularity":"day","time":"2008/10/31 00:00:00 -0400"},"id":"a8prsxiyhtpi","Assessed Value":"$169,340.00","Default Amt":103260.07,"Address":"263 Alder St"},"type":"Feature","geometry":{"type":"Point","coordinates":[-123.186909,44.842282]}},{"properties":{"Status":"OFF","City":"Woodburn","Final Bid":null,"Default Notice":"7/10/2008","County":"Marion","Zip Code":"97071","Date":{"end_time":"2008/11/21 00:00:00 -0500","original":"11/20/2008","granularity":"day","time":"2008/11/20 00:00:00 -0500"},"id":"a8prsxvq2fid","Assessed Value":"NULL","Default Amt":139887.04,"Address":"2633 Duke St"},"type":"Feature","geometry":{"type":"Point","coordinates":[-122.876919,45.143997]}},{"properties":{"Status":"OFF","City":"Dallas","Final Bid":null,"Default Notice":"7/1/2008","County":"Polk","Zip Code":"97338","Date":{"end_time":"2008/11/04 00:00:00 -0500","original":"11/3/2008","granularity":"day","time":"2008/11/03 00:00:00 -0500"},"id":"a8prsxquxnt3","Assessed Value":"$208,700.00","Default Amt":125421.06,"Address":"264 NW Howard Ln"},"type":"Feature","geometry":{"type":"Point","coordinates":[-123.31554,44.936397]}},{"properties":{"Status":"OFF","City":"Mt. Angel","Final Bid":null,"Default Notice":"8/8/2008","County":"Marion","Zip Code":"97362","Date":{"end_time":"2008/12/12 00:00:00 -0500","original":"12/11/2008","granularity":"day","time":"2008/12/11 00:00:00 -0500"},"id":"a8prsxj24bkz","Assessed Value":"NULL","Default Amt":129138.95,"Address":"265 Cherry St"},"type":"Feature","geometry":{"type":"Point","coordinates":[-122.78997,45.067357]}},{"properties":{"Status":"OFF","City":"Salem","Final Bid":null,"Default Notice":"6/10/2008","County":"Polk","Zip Code":"97304","Date":{"end_time":"2008/10/15 00:00:00 -0400","original":"10/14/2008","granularity":"day","time":"2008/10/14 00:00:00 -0400"},"id":"a8prsxm02i0x","Assessed Value":"$212,110.00","Default Amt":173528.89,"Address":"2663 Arroyo Ridge Dr NW"},"type":"Feature","geometry":{"type":"Point","coordinates":[-123.086249,44.941316]}},{"properties":{"Status":"STB","City":"Salem","Final Bid":102300.25,"Default Notice":"7/16/2008","County":"Marion","Zip Code":"97301","Date":{"end_time":"2008/11/27 00:00:00 -0500","original":"11/26/2008","granularity":"day","time":"2008/11/26 00:00:00 -0500"},"id":"a8prsxu24mmv","Assessed Value":"$204,560.00","Default Amt":104933.15,"Address":"2663 Candis Ave NE"},"type":"Feature","geometry":{"type":"Point","coordinates":[-122.994539,44.96005]}},{"properties":{"Status":"OFF","City":"Jefferson","Final Bid":null,"Default Notice":"5/28/2008","County":"Marion","Zip Code":"97352","Date":{"end_time":"2008/10/15 00:00:00 -0400","original":"10/14/2008","granularity":"day","time":"2008/10/14 00:00:00 -0400"},"id":"a8prsxou3gf7","Assessed Value":"NULL","Default Amt":122462.84,"Address":"267 N 5th St"},"type":"Feature","geometry":{"type":"Point","coordinates":[-123.005021,44.719279]}},{"properties":{"Status":"OFF","City":"Salem","Final Bid":null,"Default Notice":"7/14/2008","County":"Polk","Zip Code":"97304","Date":{"end_time":"2008/11/26 00:00:00 -0500","original":"11/25/2008","granularity":"day","time":"2008/11/25 00:00:00 -0500"},"id":"a8prsxkofurc","Assessed Value":"$275,600.00","Default Amt":194600.0,"Address":"2719 Cherry Hill Ct NW"},"type":"Feature","geometry":{"type":"Point","coordinates":[-123.080322,44.973245]}},{"properties":{"Status":"OFF","City":"Salem","Final Bid":null,"Default Notice":"6/27/2008","County":"Polk","Zip Code":"97304","Date":{"end_time":"2008/10/31 00:00:00 -0400","original":"10/30/2008","granularity":"day","time":"2008/10/30 00:00:00 -0400"},"id":"a8prsxkyzlkj","Assessed Value":"$289,340.00","Default Amt":250144.46,"Address":"2762 Cleveland Ave NW"},"type":"Feature","geometry":{"type":"Point","coordinates":[-123.088125,44.944404]}},{"properties":{"Status":"OFF","City":"Salem","Final Bid":null,"Default Notice":"5/1/2008","County":"Marion","Zip Code":"97303","Date":{"end_time":"2008/09/06 00:00:00 -0400","original":"9/5/2008","granularity":"day","time":"2008/09/05 00:00:00 -0400"},"id":"a8prsxnc96yd","Assessed Value":"NULL","Default Amt":114676.39,"Address":"2811 Chester Ave NE"},"type":"Feature","geometry":{"type":"Point","coordinates":[-123.000339,44.960887]}},{"properties":{"Status":"STB","City":"Salem","Final Bid":37471.15,"Default Notice":"6/25/2008","County":"Marion","Zip Code":"97301","Date":{"end_time":"2008/11/08 00:00:00 -0500","original":"11/7/2008","granularity":"day","time":"2008/11/07 00:00:00 -0500"},"id":"a8prsxvguy74","Assessed Value":"NULL","Default Amt":90901.0,"Address":"2831 Lynn St NE"},"type":"Feature","geometry":{"type":"Point","coordinates":[-123.00021,44.956016]}},{"properties":{"Status":"STB","City":"Salem","Final Bid":160197.0,"Default Notice":"5/8/2008","County":"Polk","Zip Code":"97304","Date":{"end_time":"2008/09/19 00:00:00 -0400","original":"9/18/2008","granularity":"day","time":"2008/09/18 00:00:00 -0400"},"id":"a8prsxo5d57z","Assessed Value":"$188,760.00","Default Amt":148000.0,"Address":"2835 Johan Ct NW"},"type":"Feature","geometry":{"type":"Point","coordinates":[-123.088259,44.950446]}},{"properties":{"Status":"STB","City":"Salem","Final Bid":575000.0,"Default Notice":"8/4/2008","County":"Marion","Zip Code":"97302","Date":{"end_time":"2008/12/10 00:00:00 -0500","original":"12/9/2008","granularity":"day","time":"2008/12/09 00:00:00 -0500"},"id":"a8prsxjfy9cl","Assessed Value":"NULL","Default Amt":623900.0,"Address":"2835 Spring Hollow Ln S"},"type":"Feature","geometry":{"type":"Point","coordinates":[-123.088478,44.885454]}},{"properties":{"Status":"OFF","City":"Salem","Final Bid":null,"Default Notice":"5/28/2008","County":"Marion","Zip Code":"97301","Date":{"end_time":"2008/10/07 00:00:00 -0400","original":"10/6/2008","granularity":"day","time":"2008/10/06 00:00:00 -0400"},"id":"a8prsxvgsxh9","Assessed Value":"NULL","Default Amt":142725.24,"Address":"285 22nd St SE"},"type":"Feature","geometry":{"type":"Point","coordinates":[-123.015742,44.932215]}},{"properties":{"Status":"STB","City":"Falls City","Final Bid":82500.0,"Default Notice":"6/12/2008","County":"Polk","Zip Code":"97344","Date":{"end_time":"2008/10/17 00:00:00 -0400","original":"10/16/2008","granularity":"day","time":"2008/10/16 00:00:00 -0400"},"id":"a8prsxyhnh62","Assessed Value":"$108,680.00","Default Amt":110186.22,"Address":"285 Bridge St"},"type":"Feature","geometry":{"type":"Point","coordinates":[-123.438213,44.863851]}},{"properties":{"Status":"STB","City":"Salem","Final Bid":290992.0,"Default Notice":"8/13/2008","County":"Polk","Zip Code":"97304","Date":{"end_time":"2008/12/16 00:00:00 -0500","original":"12/15/2008","granularity":"day","time":"2008/12/15 00:00:00 -0500"},"id":"a8prsxlmz3jl","Assessed Value":"$380,920.00","Default Amt":322251.58,"Address":"2860 Horse Clover Dr NW"},"type":"Feature","geometry":{"type":"Point","coordinates":[-123.089559,44.957394]}},{"properties":{"Status":"STB","City":"Salem","Final Bid":369000.0,"Default Notice":"5/9/2008","County":"Marion","Zip Code":"97306","Date":{"end_time":"2008/09/16 00:00:00 -0400","original":"9/15/2008","granularity":"day","time":"2008/09/15 00:00:00 -0400"},"id":"a8prsxxfb1c9","Assessed Value":"NULL","Default Amt":400000.0,"Address":"287 Integra Ave SE"},"type":"Feature","geometry":{"type":"Point","coordinates":[-123.055396,44.874976]}},{"properties":{"Status":"OFF","City":"Scotts Mills","Final Bid":null,"Default Notice":"5/7/2008","County":"Marion","Zip Code":"97375","Date":{"end_time":"2008/09/13 00:00:00 -0400","original":"9/12/2008","granularity":"day","time":"2008/09/12 00:00:00 -0400"},"id":"a8prsxmyvd9b","Assessed Value":"$190,710.00","Default Amt":105000.0,"Address":"290 C St"},"type":"Feature","geometry":{"type":"Point","coordinates":[-122.669838,45.04354]}},{"properties":{"Status":"OFF","City":"Salem","Final Bid":null,"Default Notice":"7/18/2008","County":"Marion","Zip Code":"97301","Date":{"end_time":"2008/11/28 00:00:00 -0500","original":"11/27/2008","granularity":"day","time":"2008/11/27 00:00:00 -0500"},"id":"a8prsxq3722j","Assessed Value":"NULL","Default Amt":220223.42,"Address":"2901 Lynn St NE"},"type":"Feature","geometry":{"type":"Point","coordinates":[-122.99954,44.956016]}},{"properties":{"Status":"OFF","City":"Salem","Final Bid":null,"Default Notice":"5/19/2008","County":"Marion","Zip Code":"97301","Date":{"end_time":"2008/09/26 00:00:00 -0400","original":"9/25/2008","granularity":"day","time":"2008/09/25 00:00:00 -0400"},"id":"a8prsxjqbh2c","Assessed Value":"$187,340.00","Default Amt":128495.1,"Address":"2910 Fredrick St NE"},"type":"Feature","geometry":{"type":"Point","coordinates":[-122.99954,44.940962]}},{"properties":{"Status":"OFF","City":"Keizer","Final Bid":null,"Default Notice":"6/23/2008","County":"Marion","Zip Code":"97303","Date":{"end_time":"2008/11/01 00:00:00 -0400","original":"10/31/2008","granularity":"day","time":"2008/10/31 00:00:00 -0400"},"id":"a8prsxom2odd","Assessed Value":"$159,140.00","Default Amt":137929.94,"Address":"2980 Dreamerie Ln NE"},"type":"Feature","geometry":{"type":"Point","coordinates":[-123.033541,44.968771]}},{"properties":{"Status":"OFF","City":"Salem","Final Bid":null,"Default Notice":"6/11/2008","County":"Marion","Zip Code":"97302","Date":{"end_time":"2008/10/22 00:00:00 -0400","original":"10/21/2008","granularity":"day","time":"2008/10/21 00:00:00 -0400"},"id":"a8prsxlioyvn","Assessed Value":"$198,280.00","Default Amt":150918.31,"Address":"2990 Argyle Dr S"},"type":"Feature","geometry":{"type":"Point","coordinates":[-123.050208,44.912242]}},{"properties":{"Status":"STB","City":"Salem","Final Bid":147681.48,"Default Notice":"7/30/2008","County":"Marion","Zip Code":"97301","Date":{"end_time":"2008/12/05 00:00:00 -0500","original":"12/4/2008","granularity":"day","time":"2008/12/04 00:00:00 -0500"},"id":"a8prsxqp0xzg","Assessed Value":"NULL","Default Amt":183299.57,"Address":"3011 Wayside Terr NE"},"type":"Feature","geometry":{"type":"Point","coordinates":[-122.99631,44.974597]}},{"properties":{"Status":"OFF","City":"Salem","Final Bid":null,"Default Notice":"8/11/2008","County":"Marion","Zip Code":"97301","Date":{"end_time":"2008/12/13 00:00:00 -0500","original":"12/12/2008","granularity":"day","time":"2008/12/12 00:00:00 -0500"},"id":"a8prsxq0olen","Assessed Value":"$177,480.00","Default Amt":139341.46,"Address":"3023 Park Ave NE"},"type":"Feature","geometry":{"type":"Point","coordinates":[-123.000891,44.963888]}},{"properties":{"Status":"OFF","City":"Silverton","Final Bid":null,"Default Notice":"6/19/2008","County":"Marion","Zip Code":"97381","Date":{"end_time":"2008/11/06 00:00:00 -0500","original":"11/5/2008","granularity":"day","time":"2008/11/05 00:00:00 -0500"},"id":"a8prsxmrp0ts","Assessed Value":"NULL","Default Amt":412547.95,"Address":"303 Eastview Ln NE"},"type":"Feature","geometry":{"type":"Point","coordinates":[-122.768929,45.003751]}},{"properties":{"Status":"STB","City":"Salem","Final Bid":116117.0,"Default Notice":"6/9/2008","County":"Marion","Zip Code":"97301","Date":{"end_time":"2008/10/18 00:00:00 -0400","original":"10/17/2008","granularity":"day","time":"2008/10/17 00:00:00 -0400"},"id":"a8prsxj8cxge","Assessed Value":"$160,220.00","Default Amt":115216.06,"Address":"3030 Evergreen Ave NE"},"type":"Feature","geometry":{"type":"Point","coordinates":[-123.00233,44.963588]}},{"properties":{"Status":"OFF","City":"Salem","Final Bid":null,"Default Notice":"5/21/2008","County":"Marion","Zip Code":"97301","Date":{"end_time":"2008/10/02 00:00:00 -0400","original":"10/1/2008","granularity":"day","time":"2008/10/01 00:00:00 -0400"},"id":"a8prsxjfvtv0","Assessed Value":"NULL","Default Amt":118191.93,"Address":"3053 Sunnyview Rd NE"},"type":"Feature","geometry":{"type":"Point","coordinates":[-122.996889,44.953927]}},{"properties":{"Status":"STB","City":"Gates","Final Bid":102283.25,"Default Notice":"5/15/2008","County":"Marion","Zip Code":"97346","Date":{"end_time":"2008/09/26 00:00:00 -0400","original":"9/25/2008","granularity":"day","time":"2008/09/25 00:00:00 -0400"},"id":"a8prsxkxc9xp","Assessed Value":"NULL","Default Amt":94802.57,"Address":"30840 Central St"},"type":"Feature","geometry":{"type":"Point","coordinates":[-122.43944,44.756229]}},{"properties":{"Status":"STB","City":"Salem","Final Bid":183201.45,"Default Notice":"8/13/2008","County":"Marion","Zip Code":"97301","Date":{"end_time":"2008/12/19 00:00:00 -0500","original":"12/18/2008","granularity":"day","time":"2008/12/18 00:00:00 -0500"},"id":"a8prsxuxtk1f","Assessed Value":"NULL","Default Amt":168315.38,"Address":"3088 Park Ave NE"},"type":"Feature","geometry":{"type":"Point","coordinates":[-122.999614,44.937025]}},{"properties":{"Status":"OFF","City":"Silverton","Final Bid":null,"Default Notice":"6/19/2008","County":"Marion","Zip Code":"97381","Date":{"end_time":"2008/11/06 00:00:00 -0500","original":"11/5/2008","granularity":"day","time":"2008/11/05 00:00:00 -0500"},"id":"a8prsxwo147v","Assessed Value":"NULL","Default Amt":417099.17,"Address":"309 Eastview Ln NE"},"type":"Feature","geometry":{"type":"Point","coordinates":[-122.768929,45.00355]}},{"properties":{"Status":"OFF","City":"Salem","Final Bid":null,"Default Notice":"6/6/2008","County":"Marion","Zip Code":"97301","Date":{"end_time":"2008/10/15 00:00:00 -0400","original":"10/14/2008","granularity":"day","time":"2008/10/14 00:00:00 -0400"},"id":"a8prsxqpuycg","Assessed Value":"NULL","Default Amt":79866.13,"Address":"3105 Kathleen Ave NE"},"type":"Feature","geometry":{"type":"Point","coordinates":[-122.995759,44.961197]}},{"properties":{"Status":"STB","City":"Salem","Final Bid":127000.0,"Default Notice":"6/24/2008","County":"Marion","Zip Code":"97301","Date":{"end_time":"2008/10/29 00:00:00 -0400","original":"10/28/2008","granularity":"day","time":"2008/10/28 00:00:00 -0400"},"id":"a8prsxxopaw0","Assessed Value":"$186,450.00","Default Amt":112737.68,"Address":"3110 Windsor Ave NE"},"type":"Feature","geometry":{"type":"Point","coordinates":[-122.9972,44.948002]}},{"properties":{"Status":"STB","City":"Woodburn","Final Bid":174840.0,"Default Notice":"7/24/2008","County":"Marion","Zip Code":"97071","Date":{"end_time":"2008/11/27 00:00:00 -0500","original":"11/26/2008","granularity":"day","time":"2008/11/26 00:00:00 -0500"},"id":"a8prsxnd46rq","Assessed Value":"NULL","Default Amt":237292.56,"Address":"312 Baylor Dr"},"type":"Feature","geometry":{"type":"Point","coordinates":[-122.876431,45.143389]}},{"properties":{"Status":"STB","City":"Scotts Mills","Final Bid":131662.0,"Default Notice":"7/18/2008","County":"Marion","Zip Code":"97375","Date":{"end_time":"2008/11/27 00:00:00 -0500","original":"11/26/2008","granularity":"day","time":"2008/11/26 00:00:00 -0500"},"id":"a8prsxupxl52","Assessed Value":"NULL","Default Amt":117231.6,"Address":"319 4th St"},"type":"Feature","geometry":{"type":"Point","coordinates":[-122.66869,45.042592]}},{"properties":{"Status":"OFF","City":"Salem","Final Bid":null,"Default Notice":"5/22/2008","County":"Marion","Zip Code":"97303","Date":{"end_time":"2008/09/26 00:00:00 -0400","original":"9/25/2008","granularity":"day","time":"2008/09/25 00:00:00 -0400"},"id":"a8prsxj121mn","Assessed Value":"NULL","Default Amt":68420.06,"Address":"3191 Chester Ave NE"},"type":"Feature","geometry":{"type":"Point","coordinates":[-122.99457,44.960487]}},{"properties":{"Status":"OFF","City":"Salem","Final Bid":null,"Default Notice":"5/30/2008","County":"Marion","Zip Code":"97303","Date":{"end_time":"2008/10/04 00:00:00 -0400","original":"10/3/2008","granularity":"day","time":"2008/10/03 00:00:00 -0400"},"id":"a8prsxos45l7","Assessed Value":"NULL","Default Amt":101569.88,"Address":"3191 Wayside Terrace NE"},"type":"Feature","geometry":{"type":"Point","coordinates":[-122.994429,44.974607]}},{"properties":{"Status":"STB","City":"Salem","Final Bid":157093.0,"Default Notice":"7/11/2008","County":"Marion","Zip Code":"97301","Date":{"end_time":"2008/12/11 00:00:00 -0500","original":"12/10/2008","granularity":"day","time":"2008/12/10 00:00:00 -0500"},"id":"a8prsxpnpbn9","Assessed Value":"NULL","Default Amt":160009.28,"Address":"3213 Center St NE"},"type":"Feature","geometry":{"type":"Point","coordinates":[-122.994469,44.939857]}},{"properties":{"Status":"STB","City":"Salem","Final Bid":146286.73,"Default Notice":"7/24/2008","County":"Marion","Zip Code":"97317","Date":{"end_time":"2008/11/27 00:00:00 -0500","original":"11/26/2008","granularity":"day","time":"2008/11/26 00:00:00 -0500"},"id":"a8prsxk6qhy3","Assessed Value":"NULL","Default Amt":135874.66,"Address":"323 Kyle Ln SE"},"type":"Feature","geometry":{"type":"Point","coordinates":[-122.976018,44.92527]}},{"properties":{"Status":"STB","City":"Salem","Final Bid":113201.6,"Default Notice":"5/9/2008","County":"Marion","Zip Code":"97301","Date":{"end_time":"2008/09/20 00:00:00 -0400","original":"9/19/2008","granularity":"day","time":"2008/09/19 00:00:00 -0400"},"id":"a8prsxp08v4l","Assessed Value":"$131,130.00","Default Amt":100000.0,"Address":"3230 Abrams Ave NE"},"type":"Feature","geometry":{"type":"Point","coordinates":[-123.001081,44.966768]}},{"properties":{"Status":"STB","City":"Salem","Final Bid":232500.0,"Default Notice":"6/17/2008","County":"Marion","Zip Code":"97302","Date":{"end_time":"2008/10/21 00:00:00 -0400","original":"10/20/2008","granularity":"day","time":"2008/10/20 00:00:00 -0400"},"id":"a8prsxlc5cr8","Assessed Value":"NULL","Default Amt":223913.06,"Address":"3245 Croisan Creek Rd S"},"type":"Feature","geometry":{"type":"Point","coordinates":[-123.071778,44.908192]}},{"properties":{"Status":"STB","City":"Salt Creek","Final Bid":197600.0,"Default Notice":"8/26/2008","County":"Polk","Zip Code":"97304","Date":{"end_time":"2009/01/01 00:00:00 -0500","original":"12/31/2008","granularity":"day","time":"2008/12/31 00:00:00 -0500"},"id":"a8prsxogwioz","Assessed Value":"$276,810.00","Default Amt":210799.83,"Address":"3248 Jay Ct NW"},"type":"Feature","geometry":{"type":"Point","coordinates":[-123.09739,44.949412]}},{"properties":{"Status":"OFF","City":"Salem","Final Bid":null,"Default Notice":"6/19/2008","County":"Marion","Zip Code":"97303","Date":{"end_time":"2008/10/31 00:00:00 -0400","original":"10/30/2008","granularity":"day","time":"2008/10/30 00:00:00 -0400"},"id":"a8prsy2m1w6q","Assessed Value":"NULL","Default Amt":191767.77,"Address":"3251 4th Ave N"},"type":"Feature","geometry":{"type":"Point","coordinates":[-123.031679,44.97371]}},{"properties":{"Status":"STB","City":"Salem","Final Bid":136228.13,"Default Notice":"5/7/2008","County":"Marion","Zip Code":"97303","Date":{"end_time":"2008/09/11 00:00:00 -0400","original":"9/10/2008","granularity":"day","time":"2008/09/10 00:00:00 -0400"},"id":"a8prsy9uhyid","Assessed Value":"NULL","Default Amt":141580.0,"Address":"3253 Sunnyview Rd NE"},"type":"Feature","geometry":{"type":"Point","coordinates":[-122.994429,44.953927]}},{"properties":{"Status":"STB","City":"Salem","Final Bid":41315.0,"Default Notice":"7/30/2008","County":"Marion","Zip Code":"97305","Date":{"end_time":"2008/12/02 00:00:00 -0500","original":"12/1/2008","granularity":"day","time":"2008/12/01 00:00:00 -0500"},"id":"a8prsy0ntu3v","Assessed Value":"NULL","Default Amt":36061.23,"Address":"3261 Sandal Cr NE"},"type":"Feature","geometry":{"type":"Point","coordinates":[-122.972828,44.967836]}},{"properties":{"Status":"OFF","City":"Woodburn","Final Bid":null,"Default Notice":"6/20/2008","County":"Marion","Zip Code":"97071","Date":{"end_time":"2008/11/25 00:00:00 -0500","original":"11/24/2008","granularity":"day","time":"2008/11/24 00:00:00 -0500"},"id":"a8prsy8awbd8","Assessed Value":"$224,030.00","Default Amt":215589.15,"Address":"3290 Myrtle St"},"type":"Feature","geometry":{"type":"Point","coordinates":[-122.888589,45.151442]}},{"properties":{"Status":"OFF","City":"Salem","Final Bid":null,"Default Notice":"6/19/2008","County":"Marion","Zip Code":"97305","Date":{"end_time":"2008/11/01 00:00:00 -0400","original":"10/31/2008","granularity":"day","time":"2008/10/31 00:00:00 -0400"},"id":"a8prsy4hh0yg","Assessed Value":"NULL","Default Amt":158577.68,"Address":"3318 Four Seasons Ct NE"},"type":"Feature","geometry":{"type":"Point","coordinates":[-122.963718,44.967633]}},{"properties":{"Status":"STB","City":"Woodburn","Final Bid":97763.5,"Default Notice":"8/13/2008","County":"Marion","Zip Code":"97071","Date":{"end_time":"2008/08/21 00:00:00 -0400","original":"8/20/2008","granularity":"day","time":"2008/08/20 00:00:00 -0400"},"id":"a8prsxzqat45","Assessed Value":"$154,040.00","Default Amt":60041.95,"Address":"3327 Jory St"},"type":"Feature","geometry":{"type":"Point","coordinates":[-122.886343,45.158417]}},{"properties":{"Status":"OFF","City":"Jefferson","Final Bid":null,"Default Notice":"5/13/2008","County":"Marion","Zip Code":"97352","Date":{"end_time":"2008/09/16 00:00:00 -0400","original":"9/15/2008","granularity":"day","time":"2008/09/15 00:00:00 -0400"},"id":"a8prsyfeyrsh","Assessed Value":"$141,930.00","Default Amt":31681.24,"Address":"333 High St"},"type":"Feature","geometry":{"type":"Point","coordinates":[-123.007307,44.710834]}},{"properties":{"Status":"OFF","City":"Salem","Final Bid":null,"Default Notice":"5/8/2008","County":"Marion","Zip Code":"97301","Date":{"end_time":"2008/09/18 00:00:00 -0400","original":"9/17/2008","granularity":"day","time":"2008/09/17 00:00:00 -0400"},"id":"a8prsyfv22j4","Assessed Value":"$225,260.00","Default Amt":200067.14,"Address":"3347 Rockingham Ct NE"},"type":"Feature","geometry":{"type":"Point","coordinates":[-122.992661,44.974503]}},{"properties":{"Status":"OFF","City":"Salem","Final Bid":null,"Default Notice":"5/8/2008","County":"Marion","Zip Code":"97301","Date":{"end_time":"2008/09/20 00:00:00 -0400","original":"9/19/2008","granularity":"day","time":"2008/09/19 00:00:00 -0400"},"id":"a8prsy92i0cd","Assessed Value":"$226,000.00","Default Amt":169364.45,"Address":"3366 Rockingham Ct NE"},"type":"Feature","geometry":{"type":"Point","coordinates":[-122.992543,44.974393]}},{"properties":{"Status":"STB","City":"Salem","Final Bid":96295.77,"Default Notice":"6/3/2008","County":"Marion","Zip Code":"97303","Date":{"end_time":"2008/10/09 00:00:00 -0400","original":"10/8/2008","granularity":"day","time":"2008/10/08 00:00:00 -0400"},"id":"a8prsyeybcu8","Assessed Value":"NULL","Default Amt":90697.37,"Address":"3395 Abrams Ave NE"},"type":"Feature","geometry":{"type":"Point","coordinates":[-123.001108,44.9692]}},{"properties":{"Status":"OFF","City":"Salem","Final Bid":null,"Default Notice":"5/1/2008","County":"Marion","Zip Code":"97301","Date":{"end_time":"2008/09/12 00:00:00 -0400","original":"9/11/2008","granularity":"day","time":"2008/09/11 00:00:00 -0400"},"id":"a8prsy7em7l5","Assessed Value":"NULL","Default Amt":56156.53,"Address":"342 Elma Ave SE"},"type":"Feature","geometry":{"type":"Point","coordinates":[-122.97803,44.925258]}},{"properties":{"Status":"STB","City":"Dallas","Final Bid":113641.55,"Default Notice":"6/20/2008","County":"Polk","Zip Code":"97338","Date":{"end_time":"2008/11/08 00:00:00 -0500","original":"11/7/2008","granularity":"day","time":"2008/11/07 00:00:00 -0500"},"id":"a8prsy031wc6","Assessed Value":"$146,110.00","Default Amt":123986.35,"Address":"343 SE Needham St"},"type":"Feature","geometry":{"type":"Point","coordinates":[-123.312439,44.926426]}},{"properties":{"Status":"STB","City":"Salem","Final Bid":114400.0,"Default Notice":"6/23/2008","County":"Marion","Zip Code":"97305","Date":{"end_time":"2008/10/29 00:00:00 -0400","original":"10/28/2008","granularity":"day","time":"2008/10/28 00:00:00 -0400"},"id":"a8prsy0fa9mw","Assessed Value":"NULL","Default Amt":109264.03,"Address":"3430 NE Trinity St"},"type":"Feature","geometry":{"type":"Point","coordinates":[-122.989943,44.982555]}},{"properties":{"Status":"OFF","City":"Salem","Final Bid":null,"Default Notice":"5/15/2008","County":"Marion","Zip Code":"97302","Date":{"end_time":"2008/09/27 00:00:00 -0400","original":"9/26/2008","granularity":"day","time":"2008/09/26 00:00:00 -0400"},"id":"a8prsy3el5jj","Assessed Value":"$187,480.00","Default Amt":100252.02,"Address":"3437 Peck Ave SE"},"type":"Feature","geometry":{"type":"Point","coordinates":[-123.034198,44.90629]}},{"properties":{"Status":"OFF","City":"Salem","Final Bid":null,"Default Notice":"8/1/2008","County":"Marion","Zip Code":"97305","Date":{"end_time":"2008/11/27 00:00:00 -0500","original":"11/26/2008","granularity":"day","time":"2008/11/26 00:00:00 -0500"},"id":"a8prsy6wzi7h","Assessed Value":"NULL","Default Amt":144375.88,"Address":"3461 Sandringham Dr NE"},"type":"Feature","geometry":{"type":"Point","coordinates":[-122.981588,44.970231]}},{"properties":{"Status":"OFF","City":"Salem","Final Bid":null,"Default Notice":"5/15/2008","County":"Polk","Zip Code":"97304","Date":{"end_time":"2008/09/20 00:00:00 -0400","original":"9/19/2008","granularity":"day","time":"2008/09/19 00:00:00 -0400"},"id":"a8prsyaqt0fx","Assessed Value":"$247,320.00","Default Amt":152652.38,"Address":"3481 Wildwood Ct NW"},"type":"Feature","geometry":{"type":"Point","coordinates":[-123.101339,44.948767]}},{"properties":{"Status":"STB","City":"Salem","Final Bid":317556.39,"Default Notice":"8/13/2008","County":"Marion","Zip Code":"97301","Date":{"end_time":"2008/12/19 00:00:00 -0500","original":"12/18/2008","granularity":"day","time":"2008/12/18 00:00:00 -0500"},"id":"a8prsy5zczo0","Assessed Value":"NULL","Default Amt":293439.04,"Address":"3511 Delaney Rd SE"},"type":"Feature","geometry":{"type":"Point","coordinates":[-122.990507,44.840626]}},{"properties":{"Status":"OFF","City":"Salem","Final Bid":null,"Default Notice":"8/7/2008","County":"Marion","Zip Code":"97301","Date":{"end_time":"2008/12/11 00:00:00 -0500","original":"12/10/2008","granularity":"day","time":"2008/12/10 00:00:00 -0500"},"id":"a8prsycj9rtc","Assessed Value":"NULL","Default Amt":148207.47,"Address":"360 Academy St NE"},"type":"Feature","geometry":{"type":"Point","coordinates":[-123.03099,44.958472]}},{"properties":{"Status":"OFF","City":"Salem","Final Bid":null,"Default Notice":"7/15/2008","County":"Marion","Zip Code":"97305","Date":{"end_time":"2008/11/19 00:00:00 -0500","original":"11/18/2008","granularity":"day","time":"2008/11/18 00:00:00 -0500"},"id":"a8prsy9391fk","Assessed Value":"NULL","Default Amt":106501.22,"Address":"3642 Silverstone Ct NE"},"type":"Feature","geometry":{"type":"Point","coordinates":[-122.963891,44.97144]}},{"properties":{"Status":"STB","City":"Scotts Mills","Final Bid":220367.81,"Default Notice":"7/25/2008","County":"Marion","Zip Code":"97375","Date":{"end_time":"2008/12/06 00:00:00 -0500","original":"12/5/2008","granularity":"day","time":"2008/12/05 00:00:00 -0500"},"id":"a8prsybrdpiz","Assessed Value":"$462,820.00","Default Amt":246167.14,"Address":"3656 Jakes Ln"},"type":"Feature","geometry":{"type":"Point","coordinates":[-122.605661,44.979189]}},{"properties":{"Status":"OFF","City":"Salem","Final Bid":null,"Default Notice":"7/16/2008","County":"Marion","Zip Code":"97301","Date":{"end_time":"2008/11/21 00:00:00 -0500","original":"11/20/2008","granularity":"day","time":"2008/11/20 00:00:00 -0500"},"id":"a8prsy1euzgv","Assessed Value":"NULL","Default Amt":171930.65,"Address":"371 Elma Ct NE"},"type":"Feature","geometry":{"type":"Point","coordinates":[-122.978058,44.932428]}},{"properties":{"Status":"OFF","City":"Salem","Final Bid":null,"Default Notice":"8/12/2008","County":"Marion","Zip Code":"97305","Date":{"end_time":"2008/12/19 00:00:00 -0500","original":"12/18/2008","granularity":"day","time":"2008/12/18 00:00:00 -0500"},"id":"a8prsybu1pj3","Assessed Value":"NULL","Default Amt":93889.92,"Address":"3749 48th Ave NE"},"type":"Feature","geometry":{"type":"Point","coordinates":[-122.965028,44.972989]}},{"properties":{"Status":"STB","City":"Gervais","Final Bid":195468.7,"Default Notice":"7/15/2008","County":"Marion","Zip Code":"97026","Date":{"end_time":"2008/11/20 00:00:00 -0500","original":"11/19/2008","granularity":"day","time":"2008/11/19 00:00:00 -0500"},"id":"a8prsyeg8bqq","Assessed Value":"NULL","Default Amt":173250.0,"Address":"376 East Fir Dr"},"type":"Feature","geometry":{"type":"Point","coordinates":[-122.89161,45.105283]}},{"properties":{"Status":"OFF","City":"Gervais","Final Bid":null,"Default Notice":"6/13/2008","County":"Marion","Zip Code":"97026","Date":{"end_time":"2008/10/18 00:00:00 -0400","original":"10/17/2008","granularity":"day","time":"2008/10/17 00:00:00 -0400"},"id":"a8prsxzg1yqv","Assessed Value":"NULL","Default Amt":118777.8,"Address":"378 E Hemlock Dr"},"type":"Feature","geometry":{"type":"Point","coordinates":[-122.890668,45.105935]}},{"properties":{"Status":"OFF","City":"Salem","Final Bid":null,"Default Notice":"8/19/2008","County":"Marion","Zip Code":"97302","Date":{"end_time":"2008/12/30 00:00:00 -0500","original":"12/29/2008","granularity":"day","time":"2008/12/29 00:00:00 -0500"},"id":"a8prsy338rys","Assessed Value":"NULL","Default Amt":164720.0,"Address":"378 Indian Hills Ct SE"},"type":"Feature","geometry":{"type":"Point","coordinates":[-123.049349,44.899812]}},{"properties":{"Status":"STB","City":"Silverton","Final Bid":170853.86,"Default Notice":"7/29/2008","County":"Marion","Zip Code":"97381","Date":{"end_time":"2008/12/09 00:00:00 -0500","original":"12/8/2008","granularity":"day","time":"2008/12/08 00:00:00 -0500"},"id":"a8prsy6qccky","Assessed Value":"$301,540.00","Default Amt":239943.9,"Address":"38 Sweden Cir"},"type":"Feature","geometry":{"type":"Point","coordinates":[-122.775104,45.008532]}},{"properties":{"Status":"SOLD","City":"Dallas","Final Bid":224850.01,"Default Notice":"7/7/2008","County":"Polk","Zip Code":"97338","Date":{"end_time":"2008/11/08 00:00:00 -0500","original":"11/7/2008","granularity":"day","time":"2008/11/07 00:00:00 -0500"},"id":"a8prsy1z44nf","Assessed Value":"$333,740.00","Default Amt":208145.44,"Address":"380 NW Hillcrest Dr"},"type":"Feature","geometry":{"type":"Point","coordinates":[-123.321697,44.933142]}},{"properties":{"Status":"STB","City":"Salem","Final Bid":145244.55,"Default Notice":"7/23/2008","County":"Marion","Zip Code":"97305","Date":{"end_time":"2008/12/02 00:00:00 -0500","original":"12/1/2008","granularity":"day","time":"2008/12/01 00:00:00 -0500"},"id":"a8prsy8nx8ym","Assessed Value":"NULL","Default Amt":130206.09,"Address":"3877 Witter Ln NE"},"type":"Feature","geometry":{"type":"Point","coordinates":[-122.967569,44.97524]}},{"properties":{"Status":"STB","City":"Salem","Final Bid":157250.0,"Default Notice":"7/14/2008","County":"Marion","Zip Code":"97305","Date":{"end_time":"2008/11/18 00:00:00 -0500","original":"11/17/2008","granularity":"day","time":"2008/11/17 00:00:00 -0500"},"id":"a8prsxzlu9f4","Assessed Value":"NULL","Default Amt":188768.33,"Address":"3925 Stephens St NE"},"type":"Feature","geometry":{"type":"Point","coordinates":[-122.984769,44.988947]}},{"properties":{"Status":"STB","City":"Salem","Final Bid":129397.97,"Default Notice":"7/10/2008","County":"Marion","Zip Code":"97301","Date":{"end_time":"2008/11/15 00:00:00 -0500","original":"11/14/2008","granularity":"day","time":"2008/11/14 00:00:00 -0500"},"id":"a8prsy25212p","Assessed Value":"NULL","Default Amt":145000.0,"Address":"393 Rose St NE"},"type":"Feature","geometry":{"type":"Point","coordinates":[-123.011821,44.936465]}},{"properties":{"Status":"OFF","City":"Salem","Final Bid":null,"Default Notice":"8/6/2008","County":"Marion","Zip Code":"97305","Date":{"end_time":"2008/12/13 00:00:00 -0500","original":"12/12/2008","granularity":"day","time":"2008/12/12 00:00:00 -0500"},"id":"a8prsyeb3j5g","Assessed Value":"NULL","Default Amt":163321.84,"Address":"3977 Middle Grove Dr NE"},"type":"Feature","geometry":{"type":"Point","coordinates":[-122.961428,44.97652]}},{"properties":{"Status":"OFF","City":"Independence","Final Bid":null,"Default Notice":"5/5/2008","County":"Polk","Zip Code":"97351","Date":{"end_time":"2008/09/03 00:00:00 -0400","original":"9/2/2008","granularity":"day","time":"2008/09/02 00:00:00 -0400"},"id":"a8prsy55lg2i","Assessed Value":"$136,020.00","Default Amt":14554.73,"Address":"402 Maple Dr"},"type":"Feature","geometry":{"type":"Point","coordinates":[-123.18932,44.843777]}},{"properties":{"Status":"STB","City":"Salem","Final Bid":165000.0,"Default Notice":"7/16/2008","County":"Marion","Zip Code":"97317","Date":{"end_time":"2008/11/25 00:00:00 -0500","original":"11/24/2008","granularity":"day","time":"2008/11/24 00:00:00 -0500"},"id":"a8prsyefc7i0","Assessed Value":"NULL","Default Amt":161855.99,"Address":"4020 Coolidge Dr SE"},"type":"Feature","geometry":{"type":"Point","coordinates":[-122.976795,44.909162]}},{"properties":{"Status":"OFF","City":"Keizer","Final Bid":null,"Default Notice":"8/7/2008","County":"Marion","Zip Code":"97303","Date":{"end_time":"2008/12/18 00:00:00 -0500","original":"12/17/2008","granularity":"day","time":"2008/12/17 00:00:00 -0500"},"id":"a8prsy8k77gp","Assessed Value":"NULL","Default Amt":99461.67,"Address":"4025 Arnold St NE"},"type":"Feature","geometry":{"type":"Point","coordinates":[-123.014778,44.98476]}},{"properties":{"Status":"OFF","City":"Salem","Final Bid":null,"Default Notice":"6/9/2008","County":"Marion","Zip Code":"97302","Date":{"end_time":"2008/10/21 00:00:00 -0400","original":"10/20/2008","granularity":"day","time":"2008/10/20 00:00:00 -0400"},"id":"a8prsybamo4h","Assessed Value":"NULL","Default Amt":184959.11,"Address":"403 Hrubetz Rd SE"},"type":"Feature","geometry":{"type":"Point","coordinates":[-123.048694,44.888577]}},{"properties":{"Status":"OFF","City":"Keizer","Final Bid":null,"Default Notice":"6/18/2008","County":"Marion","Zip Code":"97303","Date":{"end_time":"2008/12/30 00:00:00 -0500","original":"12/29/2008","granularity":"day","time":"2008/12/29 00:00:00 -0500"},"id":"a8prsybrznx0","Assessed Value":"NULL","Default Amt":182881.19,"Address":"4034 Noon Ave NE"},"type":"Feature","geometry":{"type":"Point","coordinates":[-123.017072,44.984759]}},{"properties":{"Status":"OFF","City":"Aumsville","Final Bid":null,"Default Notice":"5/23/2008","County":"Marion","Zip Code":"97325","Date":{"end_time":"2008/10/04 00:00:00 -0400","original":"10/3/2008","granularity":"day","time":"2008/10/03 00:00:00 -0400"},"id":"a8prsy1izddz","Assessed Value":"$156,720.00","Default Amt":91280.55,"Address":"404 Clover St"},"type":"Feature","geometry":{"type":"Point","coordinates":[-122.86879,44.844402]}},{"properties":{"Status":"OFF","City":"Independence","Final Bid":null,"Default Notice":"7/18/2008","County":"Polk","Zip Code":"97351","Date":{"end_time":"2008/11/26 00:00:00 -0500","original":"11/25/2008","granularity":"day","time":"2008/11/25 00:00:00 -0500"},"id":"a8prsy2o1knf","Assessed Value":"$140,700.00","Default Amt":93461.84,"Address":"404 Spruce Ave S"},"type":"Feature","geometry":{"type":"Point","coordinates":[-123.18988,44.843047]}},{"properties":{"Status":"OFF","City":"Salem","Final Bid":null,"Default Notice":"5/5/2008","County":"Marion","Zip Code":"97302","Date":{"end_time":"2008/09/23 00:00:00 -0400","original":"9/22/2008","granularity":"day","time":"2008/09/22 00:00:00 -0400"},"id":"a8prsy7vmtia","Assessed Value":"$241,060.00","Default Amt":152443.83,"Address":"4048 Lidbeck Ct SE"},"type":"Feature","geometry":{"type":"Point","coordinates":[-123.026677,44.896547]}},{"properties":{"Status":"STB","City":"Keizer","Final Bid":197611.59,"Default Notice":"5/5/2008","County":"Marion","Zip Code":"97303","Date":{"end_time":"2008/09/11 00:00:00 -0400","original":"9/10/2008","granularity":"day","time":"2008/09/10 00:00:00 -0400"},"id":"a8prsy1yha49","Assessed Value":"NULL","Default Amt":183682.97,"Address":"4053 Noon Ave NE"},"type":"Feature","geometry":{"type":"Point","coordinates":[-123.017317,44.984991]}},{"properties":{"Status":"OFF","City":"Keizer","Final Bid":null,"Default Notice":"5/13/2008","County":"Marion","Zip Code":"97303","Date":{"end_time":"2008/09/27 00:00:00 -0400","original":"9/26/2008","granularity":"day","time":"2008/09/26 00:00:00 -0400"},"id":"a8prsy22un2i","Assessed Value":"NULL","Default Amt":122522.0,"Address":"4073 Filbert St NE"},"type":"Feature","geometry":{"type":"Point","coordinates":[-123.021738,44.984607]}},{"properties":{"Status":"OFF","City":"Salem","Final Bid":null,"Default Notice":"5/15/2008","County":"Marion","Zip Code":"97305","Date":{"end_time":"2008/09/23 00:00:00 -0400","original":"9/22/2008","granularity":"day","time":"2008/09/22 00:00:00 -0400"},"id":"a8prsyfpc13a","Assessed Value":"NULL","Default Amt":152396.34,"Address":"4076 47th Ave NE"},"type":"Feature","geometry":{"type":"Point","coordinates":[-122.9667,44.97855]}},{"properties":{"Status":"SOLD","City":"Salem","Final Bid":134001.0,"Default Notice":"6/5/2008","County":"Marion","Zip Code":"97303","Date":{"end_time":"2008/10/11 00:00:00 -0400","original":"10/10/2008","granularity":"day","time":"2008/10/10 00:00:00 -0400"},"id":"a8prsy8vl0nb","Assessed Value":"NULL","Default Amt":199246.75,"Address":"4095 32nd Pl NE"},"type":"Feature","geometry":{"type":"Point","coordinates":[-122.994112,44.977869]}},{"properties":{"Status":"SOLD","City":"Gervais","Final Bid":168301.0,"Default Notice":"5/21/2008","County":"Marion","Zip Code":"97026","Date":{"end_time":"2008/09/30 00:00:00 -0400","original":"9/29/2008","granularity":"day","time":"2008/09/29 00:00:00 -0400"},"id":"a8prsyfp52m4","Assessed Value":"NULL","Default Amt":180791.29,"Address":"411 Black Walnut St"},"type":"Feature","geometry":{"type":"Point","coordinates":[-122.893649,45.104943]}},{"properties":{"Status":"OFF","City":"Salem","Final Bid":null,"Default Notice":"7/17/2008","County":"Marion","Zip Code":"97301","Date":{"end_time":"2008/11/25 00:00:00 -0500","original":"11/24/2008","granularity":"day","time":"2008/11/24 00:00:00 -0500"},"id":"a8prsy4lovbh","Assessed Value":"NULL","Default Amt":99999.74,"Address":"4126 Cranston St SE"},"type":"Feature","geometry":{"type":"Point","coordinates":[-122.974546,44.908772]}},{"properties":{"Status":"STB","City":"Silverton","Final Bid":201251.0,"Default Notice":"6/17/2008","County":"Marion","Zip Code":"97381","Date":{"end_time":"2008/10/21 00:00:00 -0400","original":"10/20/2008","granularity":"day","time":"2008/10/20 00:00:00 -0400"},"id":"a8prsyae3e4k","Assessed Value":"$265,290.00","Default Amt":201061.06,"Address":"413 Ike Mooney Rd NE"},"type":"Feature","geometry":{"type":"Point","coordinates":[-122.761888,44.990596]}},{"properties":{"Status":"OFF","City":"Stayton","Final Bid":null,"Default Notice":"8/13/2008","County":"Marion","Zip Code":"97383","Date":{"end_time":"2008/12/20 00:00:00 -0500","original":"12/19/2008","granularity":"day","time":"2008/12/19 00:00:00 -0500"},"id":"a8prsy7sielp","Assessed Value":"NULL","Default Amt":117655.0,"Address":"415 E Elwood St"},"type":"Feature","geometry":{"type":"Point","coordinates":[-122.79083,44.802927]}},{"properties":{"Status":"OFF","City":"Salem","Final Bid":null,"Default Notice":"7/11/2008","County":"Marion","Zip Code":"97305","Date":{"end_time":"2008/11/14 00:00:00 -0500","original":"11/13/2008","granularity":"day","time":"2008/11/13 00:00:00 -0500"},"id":"a8prsy866o8f","Assessed Value":"NULL","Default Amt":119127.07,"Address":"4150 Kale St NE"},"type":"Feature","geometry":{"type":"Point","coordinates":[-122.976469,44.997101]}},{"properties":{"Status":"OFF","City":"Salem","Final Bid":null,"Default Notice":"6/26/2008","County":"Marion","Zip Code":"97305","Date":{"end_time":"2008/10/30 00:00:00 -0400","original":"10/29/2008","granularity":"day","time":"2008/10/29 00:00:00 -0400"},"id":"a8prsyf9xeg5","Assessed Value":"$200,930.00","Default Amt":165689.57,"Address":"4153 Indigo Ct NE"},"type":"Feature","geometry":{"type":"Point","coordinates":[-122.979329,44.984537]}},{"properties":{"Status":"STB","City":"Salem","Final Bid":136103.35,"Default Notice":"6/11/2008","County":"Marion","Zip Code":"97305","Date":{"end_time":"2008/10/15 00:00:00 -0400","original":"10/14/2008","granularity":"day","time":"2008/10/14 00:00:00 -0400"},"id":"a8prsyazr5ou","Assessed Value":"NULL","Default Amt":124000.0,"Address":"4180 Sunnyview Rd NE"},"type":"Feature","geometry":{"type":"Point","coordinates":[-122.979779,44.953902]}},{"properties":{"Status":"STB","City":"Salem","Final Bid":133450.0,"Default Notice":"7/17/2008","County":"Marion","Zip Code":"97305","Date":{"end_time":"2008/11/22 00:00:00 -0500","original":"11/21/2008","granularity":"day","time":"2008/11/21 00:00:00 -0500"},"id":"a8prsybrl04c","Assessed Value":"NULL","Default Amt":183564.51,"Address":"4186 Sunnyview Rd NE"},"type":"Feature","geometry":{"type":"Point","coordinates":[-122.979639,44.953902]}},{"properties":{"Status":"STB","City":"Keizer","Final Bid":119573.0,"Default Notice":"6/20/2008","County":"Marion","Zip Code":"97303","Date":{"end_time":"2008/10/23 00:00:00 -0400","original":"10/22/2008","granularity":"day","time":"2008/10/22 00:00:00 -0400"},"id":"a8prsy0k8qwk","Assessed Value":"$157,360.00","Default Amt":116357.66,"Address":"4196 Gary St NE"},"type":"Feature","geometry":{"type":"Point","coordinates":[-123.016631,44.985967]}},{"properties":{"Status":"OFF","City":"Gervais","Final Bid":null,"Default Notice":"5/13/2008","County":"Marion","Zip Code":"97026","Date":{"end_time":"2008/09/20 00:00:00 -0400","original":"9/19/2008","granularity":"day","time":"2008/09/19 00:00:00 -0400"},"id":"a8prsy3wvd5x","Assessed Value":"NULL","Default Amt":86938.3,"Address":"4215 NE Egan St"},"type":"Feature","geometry":{"type":"Point","coordinates":[-122.974759,45.075286]}},{"properties":{"Status":"OFF","City":"St. Paul","Final Bid":null,"Default Notice":"5/21/2008","County":"Marion","Zip Code":"97137","Date":{"end_time":"2008/09/23 00:00:00 -0400","original":"9/22/2008","granularity":"day","time":"2008/09/22 00:00:00 -0400"},"id":"a8prsy157vs8","Assessed Value":"NULL","Default Amt":399435.58,"Address":"4245 Lucier Ave NE"},"type":"Feature","geometry":{"type":"Point","coordinates":[-122.97331,45.211886]}},{"properties":{"Status":"OFF","City":"Salem","Final Bid":null,"Default Notice":"8/27/2008","County":"Marion","Zip Code":"97305","Date":{"end_time":"2008/12/31 00:00:00 -0500","original":"12/30/2008","granularity":"day","time":"2008/12/30 00:00:00 -0500"},"id":"a8prsy3rz1x2","Assessed Value":"NULL","Default Amt":173917.77,"Address":"4248 Oriole Ct NE"},"type":"Feature","geometry":{"type":"Point","coordinates":[-122.97689,44.992552]}},{"properties":{"Status":"OFF","City":"Salem","Final Bid":null,"Default Notice":"7/17/2008","County":"Marion","Zip Code":"97305","Date":{"end_time":"2008/12/02 00:00:00 -0500","original":"12/1/2008","granularity":"day","time":"2008/12/01 00:00:00 -0500"},"id":"a8prsy964vfl","Assessed Value":"$212,830.00","Default Amt":163817.66,"Address":"4252 Prairie Star Ct NE"},"type":"Feature","geometry":{"type":"Point","coordinates":[-122.97648,44.994363]}},{"properties":{"Status":"SOLD","City":"Keizer","Final Bid":158500.0,"Default Notice":"5/21/2008","County":"Marion","Zip Code":"97303","Date":{"end_time":"2008/09/30 00:00:00 -0400","original":"9/29/2008","granularity":"day","time":"2008/09/29 00:00:00 -0400"},"id":"a8prsyfd3922","Assessed Value":"NULL","Default Amt":121550.21,"Address":"4260 Gary St NE"},"type":"Feature","geometry":{"type":"Point","coordinates":[-123.017081,44.986639]}},{"properties":{"Status":"OFF","City":"St. Paul","Final Bid":null,"Default Notice":"7/22/2008","County":"Marion","Zip Code":"97137","Date":{"end_time":"2008/11/25 00:00:00 -0500","original":"11/24/2008","granularity":"day","time":"2008/11/24 00:00:00 -0500"},"id":"a8prsy5bxvlu","Assessed Value":"NULL","Default Amt":81048.73,"Address":"4283 Twin Oaks Ave NE"},"type":"Feature","geometry":{"type":"Point","coordinates":[-122.97138,45.214116]}},{"properties":{"Status":"STB","City":"Salem","Final Bid":89250.0,"Default Notice":"5/9/2008","County":"Marion","Zip Code":"97305","Date":{"end_time":"2008/09/19 00:00:00 -0400","original":"9/18/2008","granularity":"day","time":"2008/09/18 00:00:00 -0400"},"id":"a8prsy2otuew","Assessed Value":"NULL","Default Amt":102099.74,"Address":"4306 Scott Ave NE"},"type":"Feature","geometry":{"type":"Point","coordinates":[-122.974389,45.020002]}},{"properties":{"Status":"OFF","City":"Salem","Final Bid":null,"Default Notice":"7/31/2008","County":"Marion","Zip Code":"97305","Date":{"end_time":"2008/12/02 00:00:00 -0500","original":"12/1/2008","granularity":"day","time":"2008/12/01 00:00:00 -0500"},"id":"a8prsy9zf8bb","Assessed Value":"NULL","Default Amt":113407.38,"Address":"4360 Snowberry St NE"},"type":"Feature","geometry":{"type":"Point","coordinates":[-122.974759,44.957902]}},{"properties":{"Status":"STB","City":"Salem","Final Bid":125000.0,"Default Notice":"7/17/2008","County":"Marion","Zip Code":"97302","Date":{"end_time":"2008/11/25 00:00:00 -0500","original":"11/24/2008","granularity":"day","time":"2008/11/24 00:00:00 -0500"},"id":"a8prsxzi8ruf","Assessed Value":"NULL","Default Amt":108348.3,"Address":"4361 McKay Dr S"},"type":"Feature","geometry":{"type":"Point","coordinates":[-123.059318,44.893098]}},{"properties":{"Status":"STB","City":"Salem","Final Bid":51900.0,"Default Notice":"6/24/2008","County":"Marion","Zip Code":"97305","Date":{"end_time":"2008/10/30 00:00:00 -0400","original":"10/29/2008","granularity":"day","time":"2008/10/29 00:00:00 -0400"},"id":"a8prsya901ky","Assessed Value":"NULL","Default Amt":114286.62,"Address":"4374 Leafwood Ave NE"},"type":"Feature","geometry":{"type":"Point","coordinates":[-122.97538,44.967141]}},{"properties":{"Status":"OFF","City":"Salem","Final Bid":null,"Default Notice":"5/21/2008","County":"Marion","Zip Code":"97305","Date":{"end_time":"2008/09/24 00:00:00 -0400","original":"9/23/2008","granularity":"day","time":"2008/09/23 00:00:00 -0400"},"id":"a8prsy4ms2la","Assessed Value":"NULL","Default Amt":133583.4,"Address":"4392 Vernon Lp NE"},"type":"Feature","geometry":{"type":"Point","coordinates":[-122.967628,44.980347]}},{"properties":{"Status":"STB","City":"Salem","Final Bid":161115.0,"Default Notice":"6/27/2008","County":"Marion","Zip Code":"97301","Date":{"end_time":"2008/11/01 00:00:00 -0400","original":"10/31/2008","granularity":"day","time":"2008/10/31 00:00:00 -0400"},"id":"a8prsxzk59vp","Assessed Value":"NULL","Default Amt":185797.75,"Address":"440 Brink Ave SE"},"type":"Feature","geometry":{"type":"Point","coordinates":[-122.972891,44.924037]}},{"properties":{"Status":"OFF","City":"Salem","Final Bid":null,"Default Notice":"7/31/2008","County":"Marion","Zip Code":"97305","Date":{"end_time":"2008/12/06 00:00:00 -0500","original":"12/5/2008","granularity":"day","time":"2008/12/05 00:00:00 -0500"},"id":"a8prsydg2xzi","Assessed Value":"NULL","Default Amt":467816.19,"Address":"4425 60th Ave NE"},"type":"Feature","geometry":{"type":"Point","coordinates":[-122.936778,44.98789]}},{"properties":{"Status":"OFF","City":"Woodburn","Final Bid":null,"Default Notice":"8/7/2008","County":"Marion","Zip Code":"97071","Date":{"end_time":"2008/12/16 00:00:00 -0500","original":"12/15/2008","granularity":"day","time":"2008/12/15 00:00:00 -0500"},"id":"a8prsybf2z1v","Assessed Value":"NULL","Default Amt":40558.84,"Address":"443 Inglewood Ln"},"type":"Feature","geometry":{"type":"Point","coordinates":[-122.846278,45.155937]}},{"properties":{"Status":"OFF","City":"Silverton","Final Bid":null,"Default Notice":"8/12/2008","County":"Marion","Zip Code":"97381","Date":{"end_time":"2008/12/16 00:00:00 -0500","original":"12/15/2008","granularity":"day","time":"2008/12/15 00:00:00 -0500"},"id":"a8prsydqa5x3","Assessed Value":"NULL","Default Amt":99712.01,"Address":"443 N James St"},"type":"Feature","geometry":{"type":"Point","coordinates":[-122.790058,45.014599]}},{"properties":{"Status":"OFF","City":"Salem","Final Bid":null,"Default Notice":"8/26/2008","County":"Polk","Zip Code":"97304","Date":{"end_time":"2009/01/01 00:00:00 -0500","original":"12/31/2008","granularity":"day","time":"2008/12/31 00:00:00 -0500"},"id":"a8prsy624o4x","Assessed Value":"$245,890.00","Default Amt":243048.4,"Address":"443 Sunwood Dr NW"},"type":"Feature","geometry":{"type":"Point","coordinates":[-123.083415,44.939893]}},{"properties":{"Status":"STB","City":"Salem","Final Bid":80069.0,"Default Notice":"7/11/2008","County":"Marion","Zip Code":"97305","Date":{"end_time":"2008/11/27 00:00:00 -0500","original":"11/26/2008","granularity":"day","time":"2008/11/26 00:00:00 -0500"},"id":"a8prsy45h0xr","Assessed Value":"NULL","Default Amt":108401.59,"Address":"4441 Webb Ave NE"},"type":"Feature","geometry":{"type":"Point","coordinates":[-122.971399,45.017647]}},{"properties":{"Status":"OFF","City":"Salem","Final Bid":null,"Default Notice":"5/29/2008","County":"Marion","Zip Code":"97302","Date":{"end_time":"2008/10/10 00:00:00 -0400","original":"10/9/2008","granularity":"day","time":"2008/10/09 00:00:00 -0400"},"id":"a8prsy0ub7gv","Assessed Value":"NULL","Default Amt":143002.69,"Address":"4455 Redinger Ct S"},"type":"Feature","geometry":{"type":"Point","coordinates":[-123.065919,44.892149]}},{"properties":{"Status":"SOLD","City":"Salem","Final Bid":182200.86,"Default Notice":"7/31/2008","County":"Marion","Zip Code":"97306","Date":{"end_time":"2008/12/04 00:00:00 -0500","original":"12/3/2008","granularity":"day","time":"2008/12/03 00:00:00 -0500"},"id":"a8prsxzjghmd","Assessed Value":"NULL","Default Amt":159762.3,"Address":"4468 Fox Lane S"},"type":"Feature","geometry":{"type":"Point","coordinates":[-123.121857,44.827648]}},{"properties":{"Status":"OFF","City":"Salem","Final Bid":null,"Default Notice":"6/4/2008","County":"Marion","Zip Code":"97302","Date":{"end_time":"2008/10/07 00:00:00 -0400","original":"10/6/2008","granularity":"day","time":"2008/10/06 00:00:00 -0400"},"id":"a8prsy2pi1on","Assessed Value":"$234,150.00","Default Amt":190000.0,"Address":"4472 Kurth St S"},"type":"Feature","geometry":{"type":"Point","coordinates":[-123.067831,44.89181]}},{"properties":{"Status":"SOLD","City":"Salem","Final Bid":125000.0,"Default Notice":"6/6/2008","County":"Marion","Zip Code":"97301","Date":{"end_time":"2008/10/11 00:00:00 -0400","original":"10/10/2008","granularity":"day","time":"2008/10/10 00:00:00 -0400"},"id":"a8prsyb7tic4","Assessed Value":"NULL","Default Amt":109644.89,"Address":"4513 Barker St N"},"type":"Feature","geometry":{"type":"Point","coordinates":[-122.973109,44.935246]}},{"properties":{"Status":"STB","City":"Salem","Final Bid":152335.06,"Default Notice":"7/28/2008","County":"Marion","Zip Code":"97301","Date":{"end_time":"2008/11/21 00:00:00 -0500","original":"11/20/2008","granularity":"day","time":"2008/11/20 00:00:00 -0500"},"id":"a8prsybcyl5e","Assessed Value":"NULL","Default Amt":126972.44,"Address":"4523 Swegle Rd NE"},"type":"Feature","geometry":{"type":"Point","coordinates":[-122.972899,44.949087]}},{"properties":{"Status":"OFF","City":"Salem","Final Bid":null,"Default Notice":"8/25/2008","County":"Marion","Zip Code":"97302","Date":{"end_time":"2008/12/30 00:00:00 -0500","original":"12/29/2008","granularity":"day","time":"2008/12/29 00:00:00 -0500"},"id":"a8prsycpvh0y","Assessed Value":"NULL","Default Amt":264894.65,"Address":"4524 Colony Ct SE"},"type":"Feature","geometry":{"type":"Point","coordinates":[-123.021491,44.888991]}},{"properties":{"Status":"OFF","City":"Salem","Final Bid":null,"Default Notice":"6/12/2008","County":"Marion","Zip Code":"97305","Date":{"end_time":"2008/10/24 00:00:00 -0400","original":"10/23/2008","granularity":"day","time":"2008/10/23 00:00:00 -0400"},"id":"a8prsy6mmt3e","Assessed Value":"$230,180.00","Default Amt":188627.16,"Address":"4549 47th Ave NE"},"type":"Feature","geometry":{"type":"Point","coordinates":[-122.965966,44.986457]}},{"properties":{"Status":"STB","City":"Salem","Final Bid":234472.5,"Default Notice":"8/8/2008","County":"Marion","Zip Code":"97305","Date":{"end_time":"2008/12/17 00:00:00 -0500","original":"12/16/2008","granularity":"day","time":"2008/12/16 00:00:00 -0500"},"id":"a8prsy2aedyq","Assessed Value":"NULL","Default Amt":242968.94,"Address":"4555-4565 Comfort Valley Way NE"},"type":"Feature","geometry":{"type":"Point","coordinates":[-122.970699,44.98179]}},{"properties":{"Status":"OFF","City":"Salem","Final Bid":null,"Default Notice":"6/9/2008","County":"Polk","Zip Code":"97304","Date":{"end_time":"2008/10/15 00:00:00 -0400","original":"10/14/2008","granularity":"day","time":"2008/10/14 00:00:00 -0400"},"id":"a8prsycacag6","Assessed Value":"$239,040.00","Default Amt":228819.48,"Address":"456 Sunwood Dr NW"},"type":"Feature","geometry":{"type":"Point","coordinates":[-123.083524,44.939977]}},{"properties":{"Status":"OFF","City":"Salem","Final Bid":null,"Default Notice":"5/15/2008","County":"Marion","Zip Code":"97301","Date":{"end_time":"2008/09/26 00:00:00 -0400","original":"9/25/2008","granularity":"day","time":"2008/09/25 00:00:00 -0400"},"id":"a8prsya2a98w","Assessed Value":"NULL","Default Amt":111692.92,"Address":"4565 Drake Ct NE"},"type":"Feature","geometry":{"type":"Point","coordinates":[-122.971419,44.945587]}},{"properties":{"Status":"OFF","City":"Grand Ronde","Final Bid":null,"Default Notice":"8/12/2008","County":"Polk","Zip Code":"97347","Date":{"end_time":"2008/12/25 00:00:00 -0500","original":"12/24/2008","granularity":"day","time":"2008/12/24 00:00:00 -0500"},"id":"a8prsy9hbcvf","Assessed Value":"$369,610.00","Default Amt":109762.97,"Address":"45695 SW Hebo Rd"},"type":"Feature","geometry":{"type":"Point","coordinates":[-123.58289,45.076322]}},{"properties":{"Status":"STB","City":"Dallas","Final Bid":129107.07,"Default Notice":"7/22/2008","County":"Polk","Zip Code":"97338","Date":{"end_time":"2008/12/06 00:00:00 -0500","original":"12/5/2008","granularity":"day","time":"2008/12/05 00:00:00 -0500"},"id":"a8prsy4n2xho","Assessed Value":"$166,420.00","Default Amt":117932.59,"Address":"460 NE Dallas Dr"},"type":"Feature","geometry":{"type":"Point","coordinates":[-123.308391,44.934067]}},{"properties":{"Status":"OFF","City":"Keizer","Final Bid":null,"Default Notice":"7/18/2008","County":"Marion","Zip Code":"97303","Date":{"end_time":"2008/11/26 00:00:00 -0500","original":"11/25/2008","granularity":"day","time":"2008/11/25 00:00:00 -0500"},"id":"a8prsy3wapb1","Assessed Value":"NULL","Default Amt":138986.51,"Address":"4606 Delight St NE"},"type":"Feature","geometry":{"type":"Point","coordinates":[-123.03383,44.990779]}},{"properties":{"Status":"OFF","City":"Salem","Final Bid":null,"Default Notice":"5/19/2008","County":"Marion","Zip Code":"97305","Date":{"end_time":"2008/09/26 00:00:00 -0400","original":"9/25/2008","granularity":"day","time":"2008/09/25 00:00:00 -0400"},"id":"a8prsy3pwvob","Assessed Value":"$206,560.00","Default Amt":133580.6,"Address":"4618 Manning Dr NE"},"type":"Feature","geometry":{"type":"Point","coordinates":[-122.966617,44.996065]}},{"properties":{"Status":"OFF","City":"Salem","Final Bid":null,"Default Notice":"6/18/2008","County":"Marion","Zip Code":"97317","Date":{"end_time":"2008/10/23 00:00:00 -0400","original":"10/22/2008","granularity":"day","time":"2008/10/22 00:00:00 -0400"},"id":"a8prsy5dtps8","Assessed Value":"NULL","Default Amt":25000.0,"Address":"4626 Bannock Ct SE"},"type":"Feature","geometry":{"type":"Point","coordinates":[-122.967039,44.920513]}},{"properties":{"Status":"OFF","City":"Woodburn","Final Bid":null,"Default Notice":"6/9/2008","County":"Marion","Zip Code":"97071","Date":{"end_time":"2008/10/15 00:00:00 -0400","original":"10/14/2008","granularity":"day","time":"2008/10/14 00:00:00 -0400"},"id":"a8prsydk5g5s","Assessed Value":"NULL","Default Amt":203823.12,"Address":"467 Ben Brown Ln"},"type":"Feature","geometry":{"type":"Point","coordinates":[-122.866262,45.137957]}},{"properties":{"Status":"STB","City":"Salem","Final Bid":156710.11,"Default Notice":"6/23/2008","County":"Marion","Zip Code":"97305","Date":{"end_time":"2008/10/29 00:00:00 -0400","original":"10/28/2008","granularity":"day","time":"2008/10/28 00:00:00 -0400"},"id":"a8prsyfk0k9e","Assessed Value":"NULL","Default Amt":140185.58,"Address":"4701 Rawhide Ct NE"},"type":"Feature","geometry":{"type":"Point","coordinates":[-122.965759,44.993336]}},{"properties":{"Status":"STB","City":"Salem","Final Bid":229073.91,"Default Notice":"8/19/2008","County":"Marion","Zip Code":"97302","Date":{"end_time":"2008/12/23 00:00:00 -0500","original":"12/22/2008","granularity":"day","time":"2008/12/22 00:00:00 -0500"},"id":"a8prsycvi7hi","Assessed Value":"NULL","Default Amt":202250.44,"Address":"4703 Dakota Rd SE"},"type":"Feature","geometry":{"type":"Point","coordinates":[-123.048194,44.888243]}},{"properties":{"Status":"OFF","City":"Salem","Final Bid":null,"Default Notice":"5/5/2008","County":"Marion","Zip Code":"97305","Date":{"end_time":"2008/09/09 00:00:00 -0400","original":"9/8/2008","granularity":"day","time":"2008/09/08 00:00:00 -0400"},"id":"a8prsy240gm2","Assessed Value":"NULL","Default Amt":133358.77,"Address":"4718 Lariat Ct NE"},"type":"Feature","geometry":{"type":"Point","coordinates":[-122.965499,44.992592]}},{"properties":{"Status":"OFF","City":"Salem","Final Bid":null,"Default Notice":"5/6/2008","County":"Marion","Zip Code":"97317","Date":{"end_time":"2008/09/11 00:00:00 -0400","original":"9/10/2008","granularity":"day","time":"2008/09/10 00:00:00 -0400"},"id":"a8prsy9vw3sm","Assessed Value":"NULL","Default Amt":148444.4,"Address":"4725 Appaloosa Ct SE"},"type":"Feature","geometry":{"type":"Point","coordinates":[-122.96603,44.923457]}},{"properties":{"Status":"OFF","City":"Salem","Final Bid":null,"Default Notice":"6/12/2008","County":"Marion","Zip Code":"97317","Date":{"end_time":"2008/10/17 00:00:00 -0400","original":"10/16/2008","granularity":"day","time":"2008/10/16 00:00:00 -0400"},"id":"a8prsydv881a","Assessed Value":"$193,710.00","Default Amt":75881.2,"Address":"4732 Raffon Dr SE"},"type":"Feature","geometry":{"type":"Point","coordinates":[-122.96523,44.916357]}},{"properties":{"Status":"STB","City":"Keizer","Final Bid":156750.0,"Default Notice":"6/5/2008","County":"Marion","Zip Code":"97303","Date":{"end_time":"2008/10/09 00:00:00 -0400","original":"10/8/2008","granularity":"day","time":"2008/10/08 00:00:00 -0400"},"id":"a8prsy06t2sy","Assessed Value":"NULL","Default Amt":211919.59,"Address":"4734 Riverwood Dr N"},"type":"Feature","geometry":{"type":"Point","coordinates":[-123.048249,44.993736]}},{"properties":{"Status":"OFF","City":"Salem","Final Bid":null,"Default Notice":"6/17/2008","County":"Marion","Zip Code":"97301","Date":{"end_time":"2008/10/23 00:00:00 -0400","original":"10/22/2008","granularity":"day","time":"2008/10/22 00:00:00 -0400"},"id":"a8prsyc8nczo","Assessed Value":"$153,460.00","Default Amt":142973.96,"Address":"4749 Castle Dr NE"},"type":"Feature","geometry":{"type":"Point","coordinates":[-122.966009,44.945277]}},{"properties":{"Status":"OFF","City":"Mt. Angel","Final Bid":null,"Default Notice":"7/30/2008","County":"Marion","Zip Code":"97362","Date":{"end_time":"2008/12/02 00:00:00 -0500","original":"12/1/2008","granularity":"day","time":"2008/12/01 00:00:00 -0500"},"id":"a8prsy19sc7k","Assessed Value":"NULL","Default Amt":36260.78,"Address":"475 Leo St"},"type":"Feature","geometry":{"type":"Point","coordinates":[-122.793379,45.065199]}},{"properties":{"Status":"OFF","City":"Salem","Final Bid":null,"Default Notice":"7/30/2008","County":"Marion","Zip Code":"97305","Date":{"end_time":"2008/12/05 00:00:00 -0500","original":"12/4/2008","granularity":"day","time":"2008/12/04 00:00:00 -0500"},"id":"a8prsyepadug","Assessed Value":"NULL","Default Amt":105762.09,"Address":"4779 Bonanza Dr NE"},"type":"Feature","geometry":{"type":"Point","coordinates":[-122.966948,44.9932]}},{"properties":{"Status":"STB","City":"Keizer","Final Bid":185041.59,"Default Notice":"7/9/2008","County":"Marion","Zip Code":"97303","Date":{"end_time":"2008/11/22 00:00:00 -0500","original":"11/21/2008","granularity":"day","time":"2008/11/21 00:00:00 -0500"},"id":"a8prsyb6m9tm","Assessed Value":"NULL","Default Amt":165310.73,"Address":"4780 Verda Ln NE"},"type":"Feature","geometry":{"type":"Point","coordinates":[-123.011781,44.992323]}},{"properties":{"Status":"OFF","City":"Salem","Final Bid":null,"Default Notice":"8/5/2008","County":"Marion","Zip Code":"97317","Date":{"end_time":"2008/12/23 00:00:00 -0500","original":"12/22/2008","granularity":"day","time":"2008/12/22 00:00:00 -0500"},"id":"a8prsy7y645c","Assessed Value":"$199,960.00","Default Amt":170731.59,"Address":"4807-4813 Chinook Ct SE"},"type":"Feature","geometry":{"type":"Point","coordinates":[-122.96375,44.919423]}},{"properties":{"Status":"OFF","City":"Salem","Final Bid":null,"Default Notice":"7/31/2008","County":"Marion","Zip Code":"97302","Date":{"end_time":"2008/12/04 00:00:00 -0500","original":"12/3/2008","granularity":"day","time":"2008/12/03 00:00:00 -0500"},"id":"a8prsycu41e6","Assessed Value":"NULL","Default Amt":146867.13,"Address":"4812 Dakota Rd SE"},"type":"Feature","geometry":{"type":"Point","coordinates":[-123.048776,44.886496]}},{"properties":{"Status":"OFF","City":"Salem","Final Bid":null,"Default Notice":"7/14/2008","County":"Marion","Zip Code":"97305","Date":{"end_time":"2008/11/18 00:00:00 -0500","original":"11/17/2008","granularity":"day","time":"2008/11/17 00:00:00 -0500"},"id":"a8prsy8x5eal","Assessed Value":"$226,520.00","Default Amt":175822.96,"Address":"4835 Ankrum Ln NE"},"type":"Feature","geometry":{"type":"Point","coordinates":[-122.964448,44.973877]}},{"properties":{"Status":"OFF","City":"Mt. Angel","Final Bid":null,"Default Notice":"7/29/2008","County":"Marion","Zip Code":"97362","Date":{"end_time":"2008/12/09 00:00:00 -0500","original":"12/8/2008","granularity":"day","time":"2008/12/08 00:00:00 -0500"},"id":"a8prsy1wr7b4","Assessed Value":"$165,220.00","Default Amt":111206.31,"Address":"485 Alder St"},"type":"Feature","geometry":{"type":"Point","coordinates":[-122.78805,45.068388]}},{"properties":{"Status":"OFF","City":"Salem","Final Bid":null,"Default Notice":"5/13/2008","County":"Marion","Zip Code":"97301","Date":{"end_time":"2008/09/23 00:00:00 -0400","original":"9/22/2008","granularity":"day","time":"2008/09/22 00:00:00 -0400"},"id":"a8prsyazz7bv","Assessed Value":"NULL","Default Amt":120400.0,"Address":"4864 Burntwood Ct SE"},"type":"Feature","geometry":{"type":"Point","coordinates":[-122.962459,44.925962]}},{"properties":{"Status":"OFF","City":"Salem","Final Bid":null,"Default Notice":"5/2/2008","County":"Marion","Zip Code":"97305","Date":{"end_time":"2008/09/10 00:00:00 -0400","original":"9/9/2008","granularity":"day","time":"2008/09/09 00:00:00 -0400"},"id":"a8prsyc8l0e7","Assessed Value":"NULL","Default Amt":161482.71,"Address":"4871 Siesta Ct NE"},"type":"Feature","geometry":{"type":"Point","coordinates":[-122.963606,44.99233]}},{"properties":{"Status":"STB","City":"Salem","Final Bid":204413.81,"Default Notice":"5/9/2008","County":"Marion","Zip Code":"97305","Date":{"end_time":"2008/09/17 00:00:00 -0400","original":"9/16/2008","granularity":"day","time":"2008/09/16 00:00:00 -0400"},"id":"a8prsydub8ka","Assessed Value":"NULL","Default Amt":184400.0,"Address":"4880 Happy Dr NE"},"type":"Feature","geometry":{"type":"Point","coordinates":[-122.97549,44.995069]}},{"properties":{"Status":"OFF","City":"Salem","Final Bid":null,"Default Notice":"6/12/2008","County":"Marion","Zip Code":"97305","Date":{"end_time":"2008/10/24 00:00:00 -0400","original":"10/23/2008","granularity":"day","time":"2008/10/23 00:00:00 -0400"},"id":"a8prsy54h4l5","Assessed Value":"$163,840.00","Default Amt":148526.19,"Address":"4887 38th Pl NE"},"type":"Feature","geometry":{"type":"Point","coordinates":[-122.985718,44.99483]}},{"properties":{"Status":"OFF","City":"Salem","Final Bid":null,"Default Notice":"8/7/2008","County":"Marion","Zip Code":"97317","Date":{"end_time":"2008/12/16 00:00:00 -0500","original":"12/15/2008","granularity":"day","time":"2008/12/15 00:00:00 -0500"},"id":"a8prsy6c1xcp","Assessed Value":"NULL","Default Amt":178778.08,"Address":"4910 Honestus Dr SE"},"type":"Feature","geometry":{"type":"Point","coordinates":[-122.961077,44.916983]}},{"properties":{"Status":"STB","City":"Salem","Final Bid":147023.48,"Default Notice":"6/4/2008","County":"Marion","Zip Code":"97305","Date":{"end_time":"2008/10/07 00:00:00 -0400","original":"10/6/2008","granularity":"day","time":"2008/10/06 00:00:00 -0400"},"id":"a8prsy7x8qs2","Assessed Value":"NULL","Default Amt":132000.0,"Address":"4920 Stroll Ct NE"},"type":"Feature","geometry":{"type":"Point","coordinates":[-122.96165,44.962502]}},{"properties":{"Status":"OFF","City":"Salem","Final Bid":null,"Default Notice":"7/7/2008","County":"Marion","Zip Code":"97305","Date":{"end_time":"2008/11/15 00:00:00 -0500","original":"11/14/2008","granularity":"day","time":"2008/11/14 00:00:00 -0500"},"id":"a8prsy7hedvq","Assessed Value":"NULL","Default Amt":132576.63,"Address":"4946 Evie Jean St NE"},"type":"Feature","geometry":{"type":"Point","coordinates":[-122.95859,44.995989]}},{"properties":{"Status":"STB","City":"Salem","Final Bid":166530.0,"Default Notice":"6/18/2008","County":"Marion","Zip Code":"97302","Date":{"end_time":"2008/10/23 00:00:00 -0400","original":"10/22/2008","granularity":"day","time":"2008/10/22 00:00:00 -0400"},"id":"a8prsy8iwcky","Assessed Value":"NULL","Default Amt":208852.03,"Address":"4970 21st Ave S"},"type":"Feature","geometry":{"type":"Point","coordinates":[-123.071289,44.884166]}},{"properties":{"Status":"OFF","City":"Salem","Final Bid":null,"Default Notice":"6/19/2008","County":"Marion","Zip Code":"97305","Date":{"end_time":"2008/11/04 00:00:00 -0500","original":"11/3/2008","granularity":"day","time":"2008/11/03 00:00:00 -0500"},"id":"a8prsxzniyrw","Assessed Value":"NULL","Default Amt":145151.16,"Address":"4973 49th Ave E"},"type":"Feature","geometry":{"type":"Point","coordinates":[-122.961618,44.996539]}},{"properties":{"Status":"STB","City":"Idanha","Final Bid":114569.0,"Default Notice":"7/1/2008","County":"Marion","Zip Code":"97350","Date":{"end_time":"2008/11/11 00:00:00 -0500","original":"11/10/2008","granularity":"day","time":"2008/11/10 00:00:00 -0500"},"id":"a8prsydtssrf","Assessed Value":"NULL","Default Amt":131177.58,"Address":"49795 N Santiam HWY SE"},"type":"Feature","geometry":{"type":"Point","coordinates":[-122.053858,44.694986]}},{"properties":{"Status":"SOLD","City":"Salem","Final Bid":126212.01,"Default Notice":"7/18/2008","County":"Marion","Zip Code":"97301","Date":{"end_time":"2008/11/25 00:00:00 -0500","original":"11/24/2008","granularity":"day","time":"2008/11/24 00:00:00 -0500"},"id":"a8prsy1u3iy1","Assessed Value":"NULL","Default Amt":115067.16,"Address":"499 36th Ave NE"},"type":"Feature","geometry":{"type":"Point","coordinates":[-122.988948,44.936181]}},{"properties":{"Status":"STB","City":"Salem","Final Bid":157250.0,"Default Notice":"5/15/2008","County":"Marion","Zip Code":"97305","Date":{"end_time":"2008/09/19 00:00:00 -0400","original":"9/18/2008","granularity":"day","time":"2008/09/18 00:00:00 -0400"},"id":"a8prsy4tmocu","Assessed Value":"NULL","Default Amt":171847.18,"Address":"4993 Manning Ct NE"},"type":"Feature","geometry":{"type":"Point","coordinates":[-122.966093,44.996567]}},{"properties":{"Status":"OFF","City":"Salem","Final Bid":null,"Default Notice":"5/22/2008","County":"Marion","Zip Code":"97317","Date":{"end_time":"2008/09/26 00:00:00 -0400","original":"9/25/2008","granularity":"day","time":"2008/09/25 00:00:00 -0400"},"id":"a8prsy4ehqbf","Assessed Value":"NULL","Default Amt":171461.33,"Address":"4994 Wagon Trail Ct SE"},"type":"Feature","geometry":{"type":"Point","coordinates":[-122.958229,44.922333]}},{"properties":{"Status":"OFF","City":"Salem","Final Bid":null,"Default Notice":"5/20/2008","County":"Polk","Zip Code":"97304","Date":{"end_time":"2008/09/23 00:00:00 -0400","original":"9/22/2008","granularity":"day","time":"2008/09/22 00:00:00 -0400"},"id":"a8prsy2o3vf5","Assessed Value":"$322,600.00","Default Amt":57061.12,"Address":"502 Kingwood Dr NW"},"type":"Feature","geometry":{"type":"Point","coordinates":[-123.071239,44.940253]}},{"properties":{"Status":"STB","City":"Keizer","Final Bid":131352.0,"Default Notice":"6/3/2008","County":"Marion","Zip Code":"97303","Date":{"end_time":"2008/10/11 00:00:00 -0400","original":"10/10/2008","granularity":"day","time":"2008/10/10 00:00:00 -0400"},"id":"a8prsydmqit5","Assessed Value":"NULL","Default Amt":120214.23,"Address":"5030 Windsor Island Rd N"},"type":"Feature","geometry":{"type":"Point","coordinates":[-123.041271,44.997958]}},{"properties":{"Status":"SOLD","City":"Keizer","Final Bid":112501.0,"Default Notice":"5/2/2008","County":"Marion","Zip Code":"97303","Date":{"end_time":"2008/09/09 00:00:00 -0400","original":"9/8/2008","granularity":"day","time":"2008/09/08 00:00:00 -0400"},"id":"a8prsy59w294","Assessed Value":"NULL","Default Amt":156963.23,"Address":"5051 7th Ave NE"},"type":"Feature","geometry":{"type":"Point","coordinates":[-123.023499,44.997699]}},{"properties":{"Status":"OFF","City":"Monmouth","Final Bid":null,"Default Notice":"5/9/2008","County":"Polk","Zip Code":"97361","Date":{"end_time":"2008/09/19 00:00:00 -0400","original":"9/18/2008","granularity":"day","time":"2008/09/18 00:00:00 -0400"},"id":"a8prsy4ybfre","Assessed Value":"$151,450.00","Default Amt":107306.16,"Address":"507 Ecols St N"},"type":"Feature","geometry":{"type":"Point","coordinates":[-123.231541,44.85308]}},{"properties":{"Status":"STB","City":"Keizer","Final Bid":109594.98,"Default Notice":"8/1/2008","County":"Marion","Zip Code":"97303","Date":{"end_time":"2008/12/20 00:00:00 -0500","original":"12/19/2008","granularity":"day","time":"2008/12/19 00:00:00 -0500"},"id":"a8prsy0792og","Assessed Value":"$167,400.00","Default Amt":99858.39,"Address":"5095 Chehalis Dr N"},"type":"Feature","geometry":{"type":"Point","coordinates":[-123.037328,44.99869]}},{"properties":{"Status":"OFF","City":"Keizer","Final Bid":null,"Default Notice":"5/21/2008","County":"Marion","Zip Code":"97303","Date":{"end_time":"2008/09/30 00:00:00 -0400","original":"9/29/2008","granularity":"day","time":"2008/09/29 00:00:00 -0400"},"id":"a8prsy40edgo","Assessed Value":"NULL","Default Amt":134232.86,"Address":"5110 Joan Dr N"},"type":"Feature","geometry":{"type":"Point","coordinates":[-123.039201,44.999559]}},{"properties":{"Status":"OFF","City":"Keizer","Final Bid":null,"Default Notice":"5/15/2008","County":"Marion","Zip Code":"97303","Date":{"end_time":"2008/09/20 00:00:00 -0400","original":"9/19/2008","granularity":"day","time":"2008/09/19 00:00:00 -0400"},"id":"a8prsy5tlkt6","Assessed Value":"NULL","Default Amt":118400.0,"Address":"5115 7th Ave NE"},"type":"Feature","geometry":{"type":"Point","coordinates":[-123.023488,44.998889]}},{"properties":{"Status":"STB","City":"Stayton","Final Bid":84479.7,"Default Notice":"6/12/2008","County":"Marion","Zip Code":"97383","Date":{"end_time":"2008/10/24 00:00:00 -0400","original":"10/23/2008","granularity":"day","time":"2008/10/23 00:00:00 -0400"},"id":"a8prsy9assna","Assessed Value":"NULL","Default Amt":77964.63,"Address":"515 E Jefferson St"},"type":"Feature","geometry":{"type":"Point","coordinates":[-122.78942,44.801517]}},{"properties":{"Status":"OFF","City":"Salem","Final Bid":null,"Default Notice":"6/3/2008","County":"Marion","Zip Code":"97306","Date":{"end_time":"2008/10/18 00:00:00 -0400","original":"10/17/2008","granularity":"day","time":"2008/10/17 00:00:00 -0400"},"id":"a8prsy5xgu33","Assessed Value":"$226,130.00","Default Amt":180976.77,"Address":"5157 Nightcap St SE"},"type":"Feature","geometry":{"type":"Point","coordinates":[-123.019339,44.88067]}},{"properties":{"Status":"STB","City":"Salem","Final Bid":141825.0,"Default Notice":"8/27/2008","County":"Marion","Zip Code":"97306","Date":{"end_time":"2008/12/31 00:00:00 -0500","original":"12/30/2008","granularity":"day","time":"2008/12/30 00:00:00 -0500"},"id":"a8prsy14xzqv","Assessed Value":"NULL","Default Amt":139610.38,"Address":"5162 Lone Oak Rd SE"},"type":"Feature","geometry":{"type":"Point","coordinates":[-123.05105,44.880599]}},{"properties":{"Status":"STB","City":"Salem","Final Bid":201560.94,"Default Notice":"6/27/2008","County":"Marion","Zip Code":"97306","Date":{"end_time":"2008/11/01 00:00:00 -0400","original":"10/31/2008","granularity":"day","time":"2008/10/31 00:00:00 -0400"},"id":"a8prsya33raz","Assessed Value":"NULL","Default Amt":177727.6,"Address":"5187 Jones Rd SE"},"type":"Feature","geometry":{"type":"Point","coordinates":[-123.046024,44.880412]}},{"properties":{"Status":"STB","City":"Salem","Final Bid":1000.0,"Default Notice":"7/22/2008","County":"Marion","Zip Code":"97303","Date":{"end_time":"2008/11/27 00:00:00 -0500","original":"11/26/2008","granularity":"day","time":"2008/11/26 00:00:00 -0500"},"id":"a8prsy4inlno","Assessed Value":"NULL","Default Amt":32442.77,"Address":"520 Tryon Ave NE"},"type":"Feature","geometry":{"type":"Point","coordinates":[-123.027909,44.966372]}},{"properties":{"Status":"OFF","City":"Salem","Final Bid":null,"Default Notice":"7/21/2008","County":"Marion","Zip Code":"97306","Date":{"end_time":"2008/12/02 00:00:00 -0500","original":"12/1/2008","granularity":"day","time":"2008/12/01 00:00:00 -0500"},"id":"a8prsy6b1490","Assessed Value":"$252,700.00","Default Amt":295126.44,"Address":"5268 Landon St SE"},"type":"Feature","geometry":{"type":"Point","coordinates":[-123.000621,44.87897]}},{"properties":{"Status":"OFF","City":"Keizer","Final Bid":null,"Default Notice":"5/13/2008","County":"Marion","Zip Code":"97303","Date":{"end_time":"2008/09/18 00:00:00 -0400","original":"9/17/2008","granularity":"day","time":"2008/09/17 00:00:00 -0400"},"id":"a8prsyfrcjtk","Assessed Value":"NULL","Default Amt":98540.46,"Address":"5270 Pleasant Ct NE"},"type":"Feature","geometry":{"type":"Point","coordinates":[-123.007329,44.999662]}},{"properties":{"Status":"OFF","City":"Salem","Final Bid":null,"Default Notice":"6/19/2008","County":"Marion","Zip Code":"97302","Date":{"end_time":"2008/11/06 00:00:00 -0500","original":"11/5/2008","granularity":"day","time":"2008/11/05 00:00:00 -0500"},"id":"a8prsyeydfe5","Assessed Value":"NULL","Default Amt":564563.45,"Address":"5295 Pleasant Hill Ln S"},"type":"Feature","geometry":{"type":"Point","coordinates":[-123.091132,44.880124]}},{"properties":{"Status":"STB","City":"Salem","Final Bid":296250.0,"Default Notice":"7/7/2008","County":"Polk","Zip Code":"97304","Date":{"end_time":"2008/11/13 00:00:00 -0500","original":"11/12/2008","granularity":"day","time":"2008/11/12 00:00:00 -0500"},"id":"a8prsybnnxzt","Assessed Value":"$351,590.00","Default Amt":358653.73,"Address":"531 Towers Dr NW"},"type":"Feature","geometry":{"type":"Point","coordinates":[-123.072658,44.940917]}},{"properties":{"Status":"OFF","City":"Keizer","Final Bid":null,"Default Notice":"6/26/2008","County":"Marion","Zip Code":"97303","Date":{"end_time":"2008/10/31 00:00:00 -0400","original":"10/30/2008","granularity":"day","time":"2008/10/30 00:00:00 -0400"},"id":"a8prsya01gp4","Assessed Value":"NULL","Default Amt":171624.18,"Address":"5354 Melrose Ct N"},"type":"Feature","geometry":{"type":"Point","coordinates":[-123.04695,45.00263]}},{"properties":{"Status":"OFF","City":"Salem","Final Bid":null,"Default Notice":"5/19/2008","County":"Marion","Zip Code":"97317","Date":{"end_time":"2008/09/27 00:00:00 -0400","original":"9/26/2008","granularity":"day","time":"2008/09/26 00:00:00 -0400"},"id":"a8prsyamxvf4","Assessed Value":"$400,540.00","Default Amt":92468.18,"Address":"536 63rd Ave NE"},"type":"Feature","geometry":{"type":"Point","coordinates":[-122.930644,44.937259]}},{"properties":{"Status":"OFF","City":"Salem","Final Bid":null,"Default Notice":"6/12/2008","County":"Marion","Zip Code":"97306","Date":{"end_time":"2008/10/18 00:00:00 -0400","original":"10/17/2008","granularity":"day","time":"2008/10/17 00:00:00 -0400"},"id":"a8prsy1z6msh","Assessed Value":"$274,850.00","Default Amt":260471.31,"Address":"5416 Summerlake St SE"},"type":"Feature","geometry":{"type":"Point","coordinates":[-123.004642,44.876995]}},{"properties":{"Status":"STB","City":"Salem","Final Bid":125580.0,"Default Notice":"6/23/2008","County":"Marion","Zip Code":"97317","Date":{"end_time":"2008/10/28 00:00:00 -0400","original":"10/27/2008","granularity":"day","time":"2008/10/27 00:00:00 -0400"},"id":"a8prsy18tfn1","Assessed Value":"NULL","Default Amt":173135.64,"Address":"542 Wagon Rd Dr SE"},"type":"Feature","geometry":{"type":"Point","coordinates":[-122.958459,44.923026]}},{"properties":{"Status":"STB","City":"Salem","Final Bid":252668.83,"Default Notice":"6/19/2008","County":"Marion","Zip Code":"97306","Date":{"end_time":"2008/11/06 00:00:00 -0500","original":"11/5/2008","granularity":"day","time":"2008/11/05 00:00:00 -0500"},"id":"a8prsy6wmlwn","Assessed Value":"$285,240.00","Default Amt":233422.66,"Address":"5436 Summerlake St SE"},"type":"Feature","geometry":{"type":"Point","coordinates":[-123.004602,44.876675]}},{"properties":{"Status":"STB","City":"Salem","Final Bid":157250.0,"Default Notice":"6/20/2008","County":"Marion","Zip Code":"97301","Date":{"end_time":"2008/10/25 00:00:00 -0400","original":"10/24/2008","granularity":"day","time":"2008/10/24 00:00:00 -0400"},"id":"a8prsy3p75da","Assessed Value":"NULL","Default Amt":198644.8,"Address":"547 Citation Dr NE"},"type":"Feature","geometry":{"type":"Point","coordinates":[-122.976088,44.937201]}},{"properties":{"Status":"OFF","City":"Salem","Final Bid":null,"Default Notice":"6/20/2008","County":"Marion","Zip Code":"97306","Date":{"end_time":"2008/10/28 00:00:00 -0400","original":"10/27/2008","granularity":"day","time":"2008/10/27 00:00:00 -0400"},"id":"a8prsy4dhe10","Assessed Value":"NULL","Default Amt":195037.28,"Address":"5484 Red Leaf Dr S"},"type":"Feature","geometry":{"type":"Point","coordinates":[-123.070441,44.876019]}},{"properties":{"Status":"OFF","City":"Salem","Final Bid":null,"Default Notice":"9/19/2008","County":"Marion","Zip Code":"97301","Date":{"end_time":"2008/11/20 00:00:00 -0500","original":"11/19/2008","granularity":"day","time":"2008/11/19 00:00:00 -0500"},"id":"a8prsyasayc3","Assessed Value":"NULL","Default Amt":101378.85,"Address":"550 18th St SE"},"type":"Feature","geometry":{"type":"Point","coordinates":[-123.021408,44.930474]}},{"properties":{"Status":"STB","City":"Salem","Final Bid":212825.0,"Default Notice":"5/14/2008","County":"Polk","Zip Code":"97304","Date":{"end_time":"2008/09/18 00:00:00 -0400","original":"9/17/2008","granularity":"day","time":"2008/09/17 00:00:00 -0400"},"id":"a8prsy4vpjmk","Assessed Value":"$300,390.00","Default Amt":197120.0,"Address":"554 Stellars Eagle St NW"},"type":"Feature","geometry":{"type":"Point","coordinates":[-123.089901,44.941559]}},{"properties":{"Status":"OFF","City":"Salem","Final Bid":null,"Default Notice":"7/17/2008","County":"Marion","Zip Code":"97306","Date":{"end_time":"2008/11/20 00:00:00 -0500","original":"11/19/2008","granularity":"day","time":"2008/11/19 00:00:00 -0500"},"id":"a8prsy29l637","Assessed Value":"NULL","Default Amt":134104.66,"Address":"5635 Lompoc Ct S"},"type":"Feature","geometry":{"type":"Point","coordinates":[-123.066068,44.874028]}},{"properties":{"Status":"STB","City":"Jefferson","Final Bid":122764.26,"Default Notice":"7/25/2008","County":"Marion","Zip Code":"97352","Date":{"end_time":"2008/12/02 00:00:00 -0500","original":"12/1/2008","granularity":"day","time":"2008/12/01 00:00:00 -0500"},"id":"a8prsy6luo11","Assessed Value":"NULL","Default Amt":139822.44,"Address":"564 Columbia St"},"type":"Feature","geometry":{"type":"Point","coordinates":[-123.003838,44.715082]}},{"properties":{"Status":"STB","City":"Keizer","Final Bid":188712.52,"Default Notice":"6/19/2008","County":"Marion","Zip Code":"97303","Date":{"end_time":"2008/10/25 00:00:00 -0400","original":"10/24/2008","granularity":"day","time":"2008/10/24 00:00:00 -0400"},"id":"a8prsyc332ke","Assessed Value":"$220,950.00","Default Amt":176000.0,"Address":"5646 Takelma Ct NE"},"type":"Feature","geometry":{"type":"Point","coordinates":[-123.008421,45.004853]}},{"properties":{"Status":"STB","City":"Woodburn","Final Bid":339150.0,"Default Notice":"5/27/2008","County":"Marion","Zip Code":"97071","Date":{"end_time":"2008/10/07 00:00:00 -0400","original":"10/6/2008","granularity":"day","time":"2008/10/06 00:00:00 -0400"},"id":"a8prsy6b0342","Assessed Value":"NULL","Default Amt":406759.17,"Address":"567 Fairwood Cresent"},"type":"Feature","geometry":{"type":"Point","coordinates":[-122.84894,45.15802]}},{"properties":{"Status":"OFF","City":"Salem","Final Bid":null,"Default Notice":"6/3/2008","County":"Polk","Zip Code":"97304","Date":{"end_time":"2008/10/21 00:00:00 -0400","original":"10/20/2008","granularity":"day","time":"2008/10/20 00:00:00 -0400"},"id":"a8prsyfot8sm","Assessed Value":"$452,600.00","Default Amt":484740.44,"Address":"5739 Orchard Heights Rd NW"},"type":"Feature","geometry":{"type":"Point","coordinates":[-123.145164,44.968126]}},{"properties":{"Status":"SOLD","City":"Salem","Final Bid":140626.0,"Default Notice":"6/3/2008","County":"Marion","Zip Code":"97306","Date":{"end_time":"2008/10/09 00:00:00 -0400","original":"10/8/2008","granularity":"day","time":"2008/10/08 00:00:00 -0400"},"id":"a8prsy6tzeyw","Assessed Value":"NULL","Default Amt":188545.82,"Address":"5749 Moonstone Lp SE"},"type":"Feature","geometry":{"type":"Point","coordinates":[-123.032128,44.872999]}},{"properties":{"Status":"OFF","City":"Salem","Final Bid":null,"Default Notice":"8/7/2008","County":"Marion","Zip Code":"97303","Date":{"end_time":"2008/12/12 00:00:00 -0500","original":"12/11/2008","granularity":"day","time":"2008/12/11 00:00:00 -0500"},"id":"a8prsy1a66fx","Assessed Value":"NULL","Default Amt":98948.55,"Address":"580 Johnson St NE"},"type":"Feature","geometry":{"type":"Point","coordinates":[-123.026451,44.965242]}},{"properties":{"Status":"STB","City":"Aumsville","Final Bid":154382.0,"Default Notice":"8/11/2008","County":"Marion","Zip Code":"97325","Date":{"end_time":"2008/12/16 00:00:00 -0500","original":"12/15/2008","granularity":"day","time":"2008/12/15 00:00:00 -0500"},"id":"a8prsy0f77b9","Assessed Value":"NULL","Default Amt":110307.4,"Address":"580 N 9th St"},"type":"Feature","geometry":{"type":"Point","coordinates":[-122.873581,44.845796]}},{"properties":{"Status":"OFF","City":"Salem","Final Bid":null,"Default Notice":"6/23/2008","County":"Marion","Zip Code":"97317","Date":{"end_time":"2008/10/28 00:00:00 -0400","original":"10/27/2008","granularity":"day","time":"2008/10/27 00:00:00 -0400"},"id":"a8prsy2jajcd","Assessed Value":"$159,760.00","Default Amt":81308.37,"Address":"582 Connecticut Ave SE"},"type":"Feature","geometry":{"type":"Point","coordinates":[-122.970651,44.92222]}},{"properties":{"Status":"SOLD","City":"Salem","Final Bid":142500.0,"Default Notice":"5/15/2008","County":"Marion","Zip Code":"97306","Date":{"end_time":"2008/09/23 00:00:00 -0400","original":"9/22/2008","granularity":"day","time":"2008/09/22 00:00:00 -0400"},"id":"a8prsyealsxx","Assessed Value":"NULL","Default Amt":147059.05,"Address":"585 Wormwood St SE"},"type":"Feature","geometry":{"type":"Point","coordinates":[-123.04503,44.878877]}},{"properties":{"Status":"OFF","City":"Salem","Final Bid":null,"Default Notice":"6/13/2008","County":"Marion","Zip Code":"97306","Date":{"end_time":"2008/10/17 00:00:00 -0400","original":"10/16/2008","granularity":"day","time":"2008/10/16 00:00:00 -0400"},"id":"a8prsya6mzfu","Assessed Value":"NULL","Default Amt":146436.47,"Address":"5863 Cobalt Lp SE"},"type":"Feature","geometry":{"type":"Point","coordinates":[-123.032938,44.870173]}},{"properties":{"Status":"OFF","City":"Marion","Final Bid":null,"Default Notice":"8/21/2008","County":"Marion","Zip Code":"97392","Date":{"end_time":"2008/12/31 00:00:00 -0500","original":"12/30/2008","granularity":"day","time":"2008/12/30 00:00:00 -0500"},"id":"a8prsy90onmn","Assessed Value":"NULL","Default Amt":171131.48,"Address":"5891 A Street SE"},"type":"Feature","geometry":{"type":"Point","coordinates":[-122.939666,44.749587]}},{"properties":{"Status":"STB","City":"Salem","Final Bid":187202.2,"Default Notice":"6/17/2008","County":"Marion","Zip Code":"97306","Date":{"end_time":"2008/12/05 00:00:00 -0500","original":"12/4/2008","granularity":"day","time":"2008/12/04 00:00:00 -0500"},"id":"a8prsy48aw2n","Assessed Value":"NULL","Default Amt":185497.9,"Address":"5904 Mooseberry St SE"},"type":"Feature","geometry":{"type":"Point","coordinates":[-123.028531,44.870339]}},{"properties":{"Status":"SOLD","City":"Salem","Final Bid":345001.0,"Default Notice":"5/12/2008","County":"Marion","Zip Code":"97306","Date":{"end_time":"2008/09/16 00:00:00 -0400","original":"9/15/2008","granularity":"day","time":"2008/09/15 00:00:00 -0400"},"id":"a8prsydxcczs","Assessed Value":"NULL","Default Amt":383730.18,"Address":"5980 Port Stewart Ct SE"},"type":"Feature","geometry":{"type":"Point","coordinates":[-123.050252,44.868264]}},{"properties":{"Status":"OFF","City":"Salem","Final Bid":null,"Default Notice":"7/31/2008","County":"Marion","Zip Code":"97301","Date":{"end_time":"2008/12/05 00:00:00 -0500","original":"12/4/2008","granularity":"day","time":"2008/12/04 00:00:00 -0500"},"id":"a8prsxzjx1ki","Assessed Value":"NULL","Default Amt":105656.77,"Address":"603 Page St NE"},"type":"Feature","geometry":{"type":"Point","coordinates":[-122.973998,44.93818]}},{"properties":{"Status":"OFF","City":"Salem","Final Bid":null,"Default Notice":"8/12/2008","County":"Marion","Zip Code":"97317","Date":{"end_time":"2008/12/16 00:00:00 -0500","original":"12/15/2008","granularity":"day","time":"2008/12/15 00:00:00 -0500"},"id":"a8prsy9vu31d","Assessed Value":"NULL","Default Amt":107906.28,"Address":"6087 78th Ave SE"},"type":"Feature","geometry":{"type":"Point","coordinates":[-122.901133,44.866242]}},{"properties":{"Status":"STB","City":"Salem","Final Bid":134850.0,"Default Notice":"5/19/2008","County":"Marion","Zip Code":"97306","Date":{"end_time":"2008/09/25 00:00:00 -0400","original":"9/24/2008","granularity":"day","time":"2008/09/24 00:00:00 -0400"},"id":"a8prsyciwa17","Assessed Value":"NULL","Default Amt":183711.18,"Address":"6090-6094 Fircrest St SE"},"type":"Feature","geometry":{"type":"Point","coordinates":[-123.025213,44.866995]}},{"properties":{"Status":"OFF","City":"Gervais","Final Bid":null,"Default Notice":"6/23/2008","County":"Marion","Zip Code":"97026","Date":{"end_time":"2008/11/04 00:00:00 -0500","original":"11/3/2008","granularity":"day","time":"2008/11/03 00:00:00 -0500"},"id":"a8prsyesx2v1","Assessed Value":"$178,260.00","Default Amt":144020.01,"Address":"6265 Saint Louis Rd NE"},"type":"Feature","geometry":{"type":"Point","coordinates":[-122.933736,45.121477]}},{"properties":{"Status":"STB","City":"Silverton","Final Bid":154190.27,"Default Notice":"5/5/2008","County":"Marion","Zip Code":"97381","Date":{"end_time":"2008/09/23 00:00:00 -0400","original":"9/22/2008","granularity":"day","time":"2008/09/22 00:00:00 -0400"},"id":"a8prsy2ev2qs","Assessed Value":"$176,380.00","Default Amt":132699.18,"Address":"628 W Main St"},"type":"Feature","geometry":{"type":"Point","coordinates":[-122.790482,45.001022]}},{"properties":{"Status":"OFF","City":"Salem","Final Bid":null,"Default Notice":"8/4/2008","County":"Marion","Zip Code":"97306","Date":{"end_time":"2008/12/10 00:00:00 -0500","original":"12/9/2008","granularity":"day","time":"2008/12/09 00:00:00 -0500"},"id":"a8prsy8li0n1","Assessed Value":"NULL","Default Amt":176706.03,"Address":"644 Valleywood Dr SE"},"type":"Feature","geometry":{"type":"Point","coordinates":[-123.043497,44.876263]}},{"properties":{"Status":"STB","City":"Salem","Final Bid":156809.76,"Default Notice":"5/8/2008","County":"Marion","Zip Code":"97301","Date":{"end_time":"2008/09/13 00:00:00 -0400","original":"9/12/2008","granularity":"day","time":"2008/09/12 00:00:00 -0400"},"id":"a8prsy76a2uz","Assessed Value":"NULL","Default Amt":142474.36,"Address":"656 20th St NE"},"type":"Feature","geometry":{"type":"Point","coordinates":[-123.014,44.94078]}},{"properties":{"Status":"STB","City":"Salem","Final Bid":121620.15,"Default Notice":"7/31/2008","County":"Polk","Zip Code":"97304","Date":{"end_time":"2008/12/17 00:00:00 -0500","original":"12/16/2008","granularity":"day","time":"2008/12/16 00:00:00 -0500"},"id":"a8prsyd19gth","Assessed Value":"$85,460.00","Default Amt":107473.96,"Address":"656 McNary Ave NW"},"type":"Feature","geometry":{"type":"Point","coordinates":[-123.059,44.945967]}},{"properties":{"Status":"OFF","City":"Salem","Final Bid":null,"Default Notice":"5/5/2008","County":"Marion","Zip Code":"97301","Date":{"end_time":"2008/09/06 00:00:00 -0400","original":"9/5/2008","granularity":"day","time":"2008/09/05 00:00:00 -0400"},"id":"a8prsyfrgjfr","Assessed Value":"NULL","Default Amt":220574.3,"Address":"6587 Cottonwood St NE"},"type":"Feature","geometry":{"type":"Point","coordinates":[-122.925919,44.946847]}},{"properties":{"Status":"OFF","City":"Keizer","Final Bid":null,"Default Notice":"6/3/2008","County":"Marion","Zip Code":"97303","Date":{"end_time":"2008/10/09 00:00:00 -0400","original":"10/8/2008","granularity":"day","time":"2008/10/08 00:00:00 -0400"},"id":"a8prsyc11ipg","Assessed Value":"NULL","Default Amt":149257.58,"Address":"6621 Veranda Ct N"},"type":"Feature","geometry":{"type":"Point","coordinates":[-123.023803,45.014895]}},{"properties":{"Status":"OFF","City":"Salem","Final Bid":null,"Default Notice":"6/25/2008","County":"Marion","Zip Code":"97305","Date":{"end_time":"2008/11/04 00:00:00 -0500","original":"11/3/2008","granularity":"day","time":"2008/11/03 00:00:00 -0500"},"id":"a8prsy97si24","Assessed Value":"NULL","Default Amt":236817.96,"Address":"6652 75th Ave NE"},"type":"Feature","geometry":{"type":"Point","coordinates":[-122.906541,45.01503]}},{"properties":{"Status":"STB","City":"Jefferson","Final Bid":85945.16,"Default Notice":"7/3/2008","County":"Marion","Zip Code":"97352","Date":{"end_time":"2008/11/08 00:00:00 -0500","original":"11/7/2008","granularity":"day","time":"2008/11/07 00:00:00 -0500"},"id":"a8prsydp7gi8","Assessed Value":"NULL","Default Amt":77888.94,"Address":"674 N Sunrise Dr"},"type":"Feature","geometry":{"type":"Point","coordinates":[-123.002169,44.713613]}},{"properties":{"Status":"OFF","City":"Aumsville","Final Bid":null,"Default Notice":"8/26/2008","County":"Marion","Zip Code":"97325","Date":{"end_time":"2008/12/31 00:00:00 -0500","original":"12/30/2008","granularity":"day","time":"2008/12/30 00:00:00 -0500"},"id":"a8prsy5k42dx","Assessed Value":"$332,120.00","Default Amt":253488.14,"Address":"6745 Hays Ln SE"},"type":"Feature","geometry":{"type":"Point","coordinates":[-122.859528,44.856657]}},{"properties":{"Status":"OFF","City":"Aumsville","Final Bid":null,"Default Notice":"7/9/2008","County":"Marion","Zip Code":"97325","Date":{"end_time":"2008/11/26 00:00:00 -0500","original":"11/25/2008","granularity":"day","time":"2008/11/25 00:00:00 -0500"},"id":"a8prsy4ephqv","Assessed Value":"$280,480.00","Default Amt":110000.0,"Address":"6772 Peter Rd SE"},"type":"Feature","geometry":{"type":"Point","coordinates":[-122.85281,44.85638]}},{"properties":{"Status":"OFF","City":"Keizer","Final Bid":null,"Default Notice":"6/23/2008","County":"Marion","Zip Code":"97303","Date":{"end_time":"2008/11/08 00:00:00 -0500","original":"11/7/2008","granularity":"day","time":"2008/11/07 00:00:00 -0500"},"id":"a8prsy97mdrs","Assessed Value":"$253,340.00","Default Amt":132085.88,"Address":"6844 Arborwood Ct NE"},"type":"Feature","geometry":{"type":"Point","coordinates":[-123.01442,45.01761]}},{"properties":{"Status":"OFF","City":"Keizer","Final Bid":null,"Default Notice":"8/6/2008","County":"Marion","Zip Code":"97303","Date":{"end_time":"2008/12/24 00:00:00 -0500","original":"12/23/2008","granularity":"day","time":"2008/12/23 00:00:00 -0500"},"id":"a8prsy167vs4","Assessed Value":"$240,220.00","Default Amt":192723.49,"Address":"6875 Jakewood Ct NE"},"type":"Feature","geometry":{"type":"Point","coordinates":[-123.013538,45.0178]}},{"properties":{"Status":"OFF","City":"Salem","Final Bid":null,"Default Notice":"6/19/2008","County":"Marion","Zip Code":"97302","Date":{"end_time":"2008/10/23 00:00:00 -0400","original":"10/22/2008","granularity":"day","time":"2008/10/22 00:00:00 -0400"},"id":"a8prsyc728du","Assessed Value":"NULL","Default Amt":149942.52,"Address":"690 Fairview Ave SE"},"type":"Feature","geometry":{"type":"Point","coordinates":[-123.040439,44.913142]}},{"properties":{"Status":"STB","City":"Turner","Final Bid":280000.0,"Default Notice":"5/2/2008","County":"Marion","Zip Code":"97392","Date":{"end_time":"2008/09/13 00:00:00 -0400","original":"9/12/2008","granularity":"day","time":"2008/09/12 00:00:00 -0400"},"id":"a8prsyecavw9","Assessed Value":"NULL","Default Amt":282149.41,"Address":"6902 Solarian Dr SE"},"type":"Feature","geometry":{"type":"Point","coordinates":[-122.948575,44.854962]}},{"properties":{"Status":"STB","City":"Keizer","Final Bid":132000.0,"Default Notice":"8/21/2008","County":"Marion","Zip Code":"97303","Date":{"end_time":"2008/12/27 00:00:00 -0500","original":"12/26/2008","granularity":"day","time":"2008/12/26 00:00:00 -0500"},"id":"a8prsy461blq","Assessed Value":"NULL","Default Amt":143200.0,"Address":"691 Chemawa Rd N"},"type":"Feature","geometry":{"type":"Point","coordinates":[-123.035059,44.997027]}},{"properties":{"Status":"STB","City":"Salem","Final Bid":324000.0,"Default Notice":"8/4/2008","County":"Marion","Zip Code":"97306","Date":{"end_time":"2008/12/10 00:00:00 -0500","original":"12/9/2008","granularity":"day","time":"2008/12/09 00:00:00 -0500"},"id":"a8prsy7mxo3p","Assessed Value":"NULL","Default Amt":332948.31,"Address":"6971 Rainbow Dr SE"},"type":"Feature","geometry":{"type":"Point","coordinates":[-123.034569,44.854649]}},{"properties":{"Status":"OFF","City":"Turner","Final Bid":null,"Default Notice":"6/27/2008","County":"Marion","Zip Code":"97392","Date":{"end_time":"2008/11/08 00:00:00 -0500","original":"11/7/2008","granularity":"day","time":"2008/11/07 00:00:00 -0500"},"id":"a8prsy3c85vb","Assessed Value":"$182,280.00","Default Amt":134211.38,"Address":"7015 2nd St SE"},"type":"Feature","geometry":{"type":"Point","coordinates":[-122.956476,44.853029]}},{"properties":{"Status":"STB","City":"Salem","Final Bid":180398.44,"Default Notice":"5/8/2008","County":"Marion","Zip Code":"97317","Date":{"end_time":"2008/09/16 00:00:00 -0400","original":"9/15/2008","granularity":"day","time":"2008/09/15 00:00:00 -0400"},"id":"a8prsyeizyvz","Assessed Value":"NULL","Default Amt":166500.0,"Address":"703 45th Pl SE"},"type":"Feature","geometry":{"type":"Point","coordinates":[-122.969585,44.920489]}},{"properties":{"Status":"OFF","City":"Keizer","Final Bid":null,"Default Notice":"8/1/2008","County":"Marion","Zip Code":"97303","Date":{"end_time":"2008/12/19 00:00:00 -0500","original":"12/18/2008","granularity":"day","time":"2008/12/18 00:00:00 -0500"},"id":"a8prsxzpsxz8","Assessed Value":"$260,750.00","Default Amt":85660.04,"Address":"703 Faymar Dr NE"},"type":"Feature","geometry":{"type":"Point","coordinates":[-123.02343,45.002426]}},{"properties":{"Status":"OFF","City":"Turner","Final Bid":null,"Default Notice":"5/8/2008","County":"Marion","Zip Code":"97392","Date":{"end_time":"2008/09/20 00:00:00 -0400","original":"9/19/2008","granularity":"day","time":"2008/09/19 00:00:00 -0400"},"id":"a8prsy35hmvz","Assessed Value":"$335,000.00","Default Amt":280959.03,"Address":"7044 Oakwood Dr SE"},"type":"Feature","geometry":{"type":"Point","coordinates":[-122.95001,44.853032]}},{"properties":{"Status":"STB","City":"Woodburn","Final Bid":197100.0,"Default Notice":"8/8/2008","County":"Marion","Zip Code":"97071","Date":{"end_time":"2008/12/19 00:00:00 -0500","original":"12/18/2008","granularity":"day","time":"2008/12/18 00:00:00 -0500"},"id":"a8prsy5k7w9r","Assessed Value":"NULL","Default Amt":260438.57,"Address":"713 N 1st St"},"type":"Feature","geometry":{"type":"Point","coordinates":[-122.854719,45.145113]}},{"properties":{"Status":"STB","City":"Salem","Final Bid":221381.14,"Default Notice":"5/27/2008","County":"Polk","Zip Code":"97304","Date":{"end_time":"2008/09/30 00:00:00 -0400","original":"9/29/2008","granularity":"day","time":"2008/09/29 00:00:00 -0400"},"id":"a8prsy3byqgm","Assessed Value":"$291,640.00","Default Amt":186814.77,"Address":"713 Sitka Deer Ct NW"},"type":"Feature","geometry":{"type":"Point","coordinates":[-123.079945,44.94393]}},{"properties":{"Status":"STB","City":"Silverton","Final Bid":61419.43,"Default Notice":"6/17/2008","County":"Marion","Zip Code":"97381","Date":{"end_time":"2008/10/21 00:00:00 -0400","original":"10/20/2008","granularity":"day","time":"2008/10/20 00:00:00 -0400"},"id":"a8prsy08ihj0","Assessed Value":"NULL","Default Amt":70527.2,"Address":"717 Schlador St"},"type":"Feature","geometry":{"type":"Point","coordinates":[-122.788769,45.011972]}},{"properties":{"Status":"OFF","City":"Salem","Final Bid":null,"Default Notice":"5/6/2008","County":"Marion","Zip Code":"97301","Date":{"end_time":"2008/09/09 00:00:00 -0400","original":"9/8/2008","granularity":"day","time":"2008/09/08 00:00:00 -0400"},"id":"a8prsy9f9qgj","Assessed Value":"NULL","Default Amt":127900.95,"Address":"735 Springdale Ct SE"},"type":"Feature","geometry":{"type":"Point","coordinates":[-122.962896,44.920431]}},{"properties":{"Status":"STB","City":"Woodburn","Final Bid":145250.91,"Default Notice":"7/16/2008","County":"Marion","Zip Code":"97071","Date":{"end_time":"2008/11/27 00:00:00 -0500","original":"11/26/2008","granularity":"day","time":"2008/11/26 00:00:00 -0500"},"id":"a8prsy068u8y","Assessed Value":"$244,240.00","Default Amt":145600.0,"Address":"737 North Ct"},"type":"Feature","geometry":{"type":"Point","coordinates":[-122.866628,45.148463]}},{"properties":{"Status":"OFF","City":"Keizer","Final Bid":null,"Default Notice":"7/11/2008","County":"Marion","Zip Code":"97303","Date":{"end_time":"2008/11/19 00:00:00 -0500","original":"11/18/2008","granularity":"day","time":"2008/11/18 00:00:00 -0500"},"id":"a8prsy90qzbf","Assessed Value":"NULL","Default Amt":312925.58,"Address":"7551 Duckhorn Ln NE"},"type":"Feature","geometry":{"type":"Point","coordinates":[-123.024588,45.028682]}},{"properties":{"Status":"STB","City":"Turner","Final Bid":106490.91,"Default Notice":"6/4/2008","County":"Marion","Zip Code":"97392","Date":{"end_time":"2008/10/10 00:00:00 -0400","original":"10/9/2008","granularity":"day","time":"2008/10/09 00:00:00 -0400"},"id":"a8prsxzyj0vl","Assessed Value":"NULL","Default Amt":93195.64,"Address":"7615 2nd St"},"type":"Feature","geometry":{"type":"Point","coordinates":[-122.951986,44.84532]}},{"properties":{"Status":"OFF","City":"Dallas","Final Bid":null,"Default Notice":"6/19/2008","County":"Polk","Zip Code":"97338","Date":{"end_time":"2008/10/25 00:00:00 -0400","original":"10/24/2008","granularity":"day","time":"2008/10/24 00:00:00 -0400"},"id":"a8prsy12ahsd","Assessed Value":"$221,450.00","Default Amt":119466.48,"Address":"766 W Ellendale Ave"},"type":"Feature","geometry":{"type":"Point","coordinates":[-123.327197,44.929207]}},{"properties":{"Status":"OFF","City":"Salem","Final Bid":null,"Default Notice":"6/6/2008","County":"Marion","Zip Code":"97302","Date":{"end_time":"2008/10/11 00:00:00 -0400","original":"10/10/2008","granularity":"day","time":"2008/10/10 00:00:00 -0400"},"id":"a8prsy3c968b","Assessed Value":"$188,220.00","Default Amt":135802.8,"Address":"770 Madrona Ave S"},"type":"Feature","geometry":{"type":"Point","coordinates":[-123.05776,44.904712]}},{"properties":{"Status":"OFF","City":"Keizer","Final Bid":null,"Default Notice":"8/12/2008","County":"Marion","Zip Code":"97303","Date":{"end_time":"2008/12/18 00:00:00 -0500","original":"12/17/2008","granularity":"day","time":"2008/12/17 00:00:00 -0500"},"id":"a8prsyaqlk96","Assessed Value":"NULL","Default Amt":118636.64,"Address":"7815 O Neil Rd NE"},"type":"Feature","geometry":{"type":"Point","coordinates":[-123.012509,45.032379]}},{"properties":{"Status":"OFF","City":"Keizer","Final Bid":null,"Default Notice":"6/4/2008","County":"Marion","Zip Code":"97303","Date":{"end_time":"2008/10/15 00:00:00 -0400","original":"10/14/2008","granularity":"day","time":"2008/10/14 00:00:00 -0400"},"id":"a8prsyr1j9j9","Assessed Value":"$226,740.00","Default Amt":197570.77,"Address":"7820 River Rd NE"},"type":"Feature","geometry":{"type":"Point","coordinates":[-123.003046,45.032577]}},{"properties":{"Status":"STB","City":"Salem","Final Bid":186213.0,"Default Notice":"8/14/2008","County":"Marion","Zip Code":"97302","Date":{"end_time":"2008/12/19 00:00:00 -0500","original":"12/18/2008","granularity":"day","time":"2008/12/18 00:00:00 -0500"},"id":"a8prsyhyuqco","Assessed Value":"NULL","Default Amt":184980.94,"Address":"795 Lower Ben Lomond Dr SE"},"type":"Feature","geometry":{"type":"Point","coordinates":[-123.037856,44.916262]}},{"properties":{"Status":"STB","City":"Mill City","Final Bid":117694.94,"Default Notice":"5/5/2008","County":"Marion","Zip Code":"97360","Date":{"end_time":"2008/09/09 00:00:00 -0400","original":"9/8/2008","granularity":"day","time":"2008/09/08 00:00:00 -0400"},"id":"a8prsywa9gdj","Assessed Value":"NULL","Default Amt":99424.76,"Address":"796 NW Alder St"},"type":"Feature","geometry":{"type":"Point","coordinates":[-122.486071,44.756633]}},{"properties":{"Status":"OFF","City":"Keizer","Final Bid":null,"Default Notice":"8/4/2008","County":"Marion","Zip Code":"97303","Date":{"end_time":"2008/12/16 00:00:00 -0500","original":"12/15/2008","granularity":"day","time":"2008/12/15 00:00:00 -0500"},"id":"a8prsygbvj2l","Assessed Value":"NULL","Default Amt":168902.28,"Address":"7985 June Reid Pl NE"},"type":"Feature","geometry":{"type":"Point","coordinates":[-123.018839,45.034889]}},{"properties":{"Status":"OFF","City":"Salem","Final Bid":null,"Default Notice":"7/2/2008","County":"Marion","Zip Code":"97305","Date":{"end_time":"2008/11/08 00:00:00 -0500","original":"11/7/2008","granularity":"day","time":"2008/11/07 00:00:00 -0500"},"id":"a8prsyun82ne","Assessed Value":"NULL","Default Amt":216000.0,"Address":"8050 Heron St NE"},"type":"Feature","geometry":{"type":"Point","coordinates":[-122.894842,44.974422]}},{"properties":{"Status":"OFF","City":"Aumsville","Final Bid":null,"Default Notice":"6/12/2008","County":"Marion","Zip Code":"97325","Date":{"end_time":"2008/10/24 00:00:00 -0400","original":"10/23/2008","granularity":"day","time":"2008/10/23 00:00:00 -0400"},"id":"a8prsywhep8g","Assessed Value":"$299,410.00","Default Amt":189370.84,"Address":"8053 Mill Creek Rd SE"},"type":"Feature","geometry":{"type":"Point","coordinates":[-122.895169,44.838697]}},{"properties":{"Status":"OFF","City":"Silverton","Final Bid":null,"Default Notice":"6/3/2008","County":"Marion","Zip Code":"97381","Date":{"end_time":"2008/10/14 00:00:00 -0400","original":"10/13/2008","granularity":"day","time":"2008/10/13 00:00:00 -0400"},"id":"a8prsytu5152","Assessed Value":"NULL","Default Amt":141042.6,"Address":"808 Madison St"},"type":"Feature","geometry":{"type":"Point","coordinates":[-122.778824,44.998557]}},{"properties":{"Status":"STB","City":"Salem","Final Bid":191165.0,"Default Notice":"7/25/2008","County":"Polk","Zip Code":"97304","Date":{"end_time":"2008/12/02 00:00:00 -0500","original":"12/1/2008","granularity":"day","time":"2008/12/01 00:00:00 -0500"},"id":"a8prsyi5ar7g","Assessed Value":"$261,580.00","Default Amt":260999.68,"Address":"810 Mule Deer St NW"},"type":"Feature","geometry":{"type":"Point","coordinates":[-123.080961,44.945358]}},{"properties":{"Status":"STB","City":"Monmouth","Final Bid":245000.0,"Default Notice":"6/9/2008","County":"Polk","Zip Code":"97361","Date":{"end_time":"2008/10/15 00:00:00 -0400","original":"10/14/2008","granularity":"day","time":"2008/10/14 00:00:00 -0400"},"id":"a8prsyjvb099","Assessed Value":"$228,960.00","Default Amt":261000.0,"Address":"814 Ashley Ct N"},"type":"Feature","geometry":{"type":"Point","coordinates":[-123.234078,44.856739]}},{"properties":{"Status":"OFF","City":"Salem","Final Bid":null,"Default Notice":"7/9/2008","County":"Marion","Zip Code":"97305","Date":{"end_time":"2008/11/26 00:00:00 -0500","original":"11/25/2008","granularity":"day","time":"2008/11/25 00:00:00 -0500"},"id":"a8prsyttwld5","Assessed Value":"$219,370.00","Default Amt":110000.0,"Address":"8198 67th Ave NE"},"type":"Feature","geometry":{"type":"Point","coordinates":[-122.922524,45.037885]}},{"properties":{"Status":"STB","City":"Salem","Final Bid":93837.78,"Default Notice":"7/7/2008","County":"Marion","Zip Code":"97303","Date":{"end_time":"2008/11/11 00:00:00 -0500","original":"11/10/2008","granularity":"day","time":"2008/11/10 00:00:00 -0500"},"id":"a8prsyj60i6o","Assessed Value":"NULL","Default Amt":82436.35,"Address":"820 S St NE"},"type":"Feature","geometry":{"type":"Point","coordinates":[-123.022881,44.955696]}},{"properties":{"Status":"STB","City":"Salem","Final Bid":586234.5,"Default Notice":"5/2/2008","County":"Marion","Zip Code":"97305","Date":{"end_time":"2008/09/05 00:00:00 -0400","original":"9/4/2008","granularity":"day","time":"2008/09/04 00:00:00 -0400"},"id":"a8prsyt1a0w2","Assessed Value":"NULL","Default Amt":540264.67,"Address":"8286 65th Ave NE"},"type":"Feature","geometry":{"type":"Point","coordinates":[-122.92781,45.03793]}},{"properties":{"Status":"OFF","City":"Dallas","Final Bid":null,"Default Notice":"5/15/2008","County":"Polk","Zip Code":"97338","Date":{"end_time":"2008/09/16 00:00:00 -0400","original":"9/15/2008","granularity":"day","time":"2008/09/15 00:00:00 -0400"},"id":"a8prsyvqy2ad","Assessed Value":"$83,360.00","Default Amt":115688.28,"Address":"831 Main St"},"type":"Feature","geometry":{"type":"Point","coordinates":[-123.316783,44.921183]}},{"properties":{"Status":"OFF","City":"Keizer","Final Bid":null,"Default Notice":"5/21/2008","County":"Marion","Zip Code":"97303","Date":{"end_time":"2008/09/30 00:00:00 -0400","original":"9/29/2008","granularity":"day","time":"2008/09/29 00:00:00 -0400"},"id":"a8prsykialw6","Assessed Value":"NULL","Default Amt":175746.8,"Address":"845 Fir Cone Dr NE"},"type":"Feature","geometry":{"type":"Point","coordinates":[-123.022053,45.015805]}},{"properties":{"Status":"OFF","City":"Salem","Final Bid":null,"Default Notice":"6/18/2008","County":"Polk","Zip Code":"97304","Date":{"end_time":"2008/11/04 00:00:00 -0500","original":"11/3/2008","granularity":"day","time":"2008/11/03 00:00:00 -0500"},"id":"a8prsypliafz","Assessed Value":"$138,920.00","Default Amt":187600.0,"Address":"849 Feather Cloud St NW"},"type":"Feature","geometry":{"type":"Point","coordinates":[-123.081978,44.945791]}},{"properties":{"Status":"OFF","City":"Monmouth","Final Bid":null,"Default Notice":"7/15/2008","County":"Polk","Zip Code":"97361","Date":{"end_time":"2008/11/21 00:00:00 -0500","original":"11/20/2008","granularity":"day","time":"2008/11/20 00:00:00 -0500"},"id":"a8prsyvpt2h9","Assessed Value":"$196,930.00","Default Amt":85166.72,"Address":"854 East Olive Way"},"type":"Feature","geometry":{"type":"Point","coordinates":[-123.226091,44.855574]}},{"properties":{"Status":"STB","City":"Salem","Final Bid":265600.0,"Default Notice":"5/15/2008","County":"Marion","Zip Code":"97317","Date":{"end_time":"2008/09/26 00:00:00 -0400","original":"9/25/2008","granularity":"day","time":"2008/09/25 00:00:00 -0400"},"id":"a8prsyoy50m1","Assessed Value":"$396,670.00","Default Amt":280000.0,"Address":"8694 Warner Dr SE"},"type":"Feature","geometry":{"type":"Point","coordinates":[-122.882499,44.915779]}},{"properties":{"Status":"OFF","City":"Mt. Angel","Final Bid":null,"Default Notice":"5/15/2008","County":"Marion","Zip Code":"97362","Date":{"end_time":"2008/09/26 00:00:00 -0400","original":"9/25/2008","granularity":"day","time":"2008/09/25 00:00:00 -0400"},"id":"a8prsyjujpyq","Assessed Value":"$173,820.00","Default Amt":147845.14,"Address":"875 N Pershing St"},"type":"Feature","geometry":{"type":"Point","coordinates":[-122.802411,45.07371]}},{"properties":{"Status":"OFF","City":"Stayton","Final Bid":null,"Default Notice":"8/7/2008","County":"Marion","Zip Code":"97383","Date":{"end_time":"2008/12/18 00:00:00 -0500","original":"12/17/2008","granularity":"day","time":"2008/12/17 00:00:00 -0500"},"id":"a8prsypgnpv0","Assessed Value":"NULL","Default Amt":88156.89,"Address":"881 N 6th Ave"},"type":"Feature","geometry":{"type":"Point","coordinates":[-122.789108,44.801318]}},{"properties":{"Status":"STB","City":"Independence","Final Bid":69406.61,"Default Notice":"6/17/2008","County":"Polk","Zip Code":"97351","Date":{"end_time":"2008/11/06 00:00:00 -0500","original":"11/5/2008","granularity":"day","time":"2008/11/05 00:00:00 -0500"},"id":"a8prsyi7eeto","Assessed Value":"$113,320.00","Default Amt":61724.5,"Address":"885 S 4th St"},"type":"Feature","geometry":{"type":"Point","coordinates":[-123.188931,44.845919]}},{"properties":{"Status":"OFF","City":"Salem","Final Bid":null,"Default Notice":"6/25/2008","County":"Marion","Zip Code":"97306","Date":{"end_time":"2008/11/01 00:00:00 -0400","original":"10/31/2008","granularity":"day","time":"2008/10/31 00:00:00 -0400"},"id":"a8prsylb5hhu","Assessed Value":"NULL","Default Amt":539143.9,"Address":"8861 S Liberty Rd"},"type":"Feature","geometry":{"type":"Point","coordinates":[-123.059247,44.826827]}},{"properties":{"Status":"OFF","City":"Keizer","Final Bid":null,"Default Notice":"7/22/2008","County":"Marion","Zip Code":"97303","Date":{"end_time":"2008/12/02 00:00:00 -0500","original":"12/1/2008","granularity":"day","time":"2008/12/01 00:00:00 -0500"},"id":"a8prsym5jdf9","Assessed Value":"NULL","Default Amt":149167.05,"Address":"889 Plymouth Dr NE"},"type":"Feature","geometry":{"type":"Point","coordinates":[-123.023209,44.974817]}},{"properties":{"Status":"STB","City":"Woodburn","Final Bid":164250.0,"Default Notice":"6/13/2008","County":"Marion","Zip Code":"97071","Date":{"end_time":"2008/10/21 00:00:00 -0400","original":"10/20/2008","granularity":"day","time":"2008/10/20 00:00:00 -0400"},"id":"a8prsypn3eho","Assessed Value":"NULL","Default Amt":225841.31,"Address":"890 Meadowvale Ln"},"type":"Feature","geometry":{"type":"Point","coordinates":[-122.855665,45.133871]}},{"properties":{"Status":"OFF","City":"Gervais","Final Bid":null,"Default Notice":"8/22/2008","County":"Marion","Zip Code":"97026","Date":{"end_time":"2008/12/27 00:00:00 -0500","original":"12/26/2008","granularity":"day","time":"2008/12/26 00:00:00 -0500"},"id":"a8prsyqr70r8","Assessed Value":"NULL","Default Amt":98946.06,"Address":"892 Lantana Ln"},"type":"Feature","geometry":{"type":"Point","coordinates":[-122.900012,45.113972]}},{"properties":{"Status":"OFF","City":"Salem","Final Bid":null,"Default Notice":"7/11/2008","County":"Marion","Zip Code":"97317","Date":{"end_time":"2008/11/18 00:00:00 -0500","original":"11/17/2008","granularity":"day","time":"2008/11/17 00:00:00 -0500"},"id":"a8prsykojhhv","Assessed Value":"$172,210.00","Default Amt":166351.42,"Address":"895 Mahaya Ct SE"},"type":"Feature","geometry":{"type":"Point","coordinates":[-122.968043,44.919393]}},{"properties":{"Status":"OFF","City":"Amity","Final Bid":null,"Default Notice":"6/26/2008","County":"Polk","Zip Code":"97101","Date":{"end_time":"2008/11/08 00:00:00 -0500","original":"11/7/2008","granularity":"day","time":"2008/11/07 00:00:00 -0500"},"id":"a8prsykwm1pr","Assessed Value":"$146,220.00","Default Amt":79414.99,"Address":"8970 De Jong Rd"},"type":"Feature","geometry":{"type":"Point","coordinates":[-123.321651,45.064039]}},{"properties":{"Status":"OFF","City":"Salem","Final Bid":null,"Default Notice":"5/16/2008","County":"Marion","Zip Code":"97301","Date":{"end_time":"2008/09/25 00:00:00 -0400","original":"9/24/2008","granularity":"day","time":"2008/09/24 00:00:00 -0400"},"id":"a8prsyoya9tp","Assessed Value":"$219,340.00","Default Amt":106185.41,"Address":"899 &amp; 895 45th Ave NE"},"type":"Feature","geometry":{"type":"Point","coordinates":[-123.005332,44.94914]}},{"properties":{"Status":"OFF","City":"Aumsville","Final Bid":null,"Default Notice":"6/6/2008","County":"Marion","Zip Code":"97325","Date":{"end_time":"2008/10/11 00:00:00 -0400","original":"10/10/2008","granularity":"day","time":"2008/10/10 00:00:00 -0400"},"id":"a8prsyghb76u","Assessed Value":"NULL","Default Amt":122454.31,"Address":"920 N 9th St"},"type":"Feature","geometry":{"type":"Point","coordinates":[-122.87377,44.84968]}},{"properties":{"Status":"STB","City":"Salem","Final Bid":180400.0,"Default Notice":"7/1/2008","County":"Polk","Zip Code":"97304","Date":{"end_time":"2008/11/11 00:00:00 -0500","original":"11/10/2008","granularity":"day","time":"2008/11/10 00:00:00 -0500"},"id":"a8prsysa5fdj","Assessed Value":"$227,540.00","Default Amt":185977.46,"Address":"926 Clarmount St NW"},"type":"Feature","geometry":{"type":"Point","coordinates":[-123.075381,44.947356]}},{"properties":{"Status":"STB","City":"Salem","Final Bid":102000.0,"Default Notice":"7/15/2008","County":"Marion","Zip Code":"97302","Date":{"end_time":"2008/12/30 00:00:00 -0500","original":"12/29/2008","granularity":"day","time":"2008/12/29 00:00:00 -0500"},"id":"a8prsyl9q98r","Assessed Value":"$171,420.00","Default Amt":170180.45,"Address":"940 Morningside Dr SE"},"type":"Feature","geometry":{"type":"Point","coordinates":[-123.03521,44.907412]}},{"properties":{"Status":"OFF","City":"Salem","Final Bid":null,"Default Notice":"6/12/2008","County":"Marion","Zip Code":"97301","Date":{"end_time":"2008/10/25 00:00:00 -0400","original":"10/24/2008","granularity":"day","time":"2008/10/24 00:00:00 -0400"},"id":"a8prsynsv1ft","Assessed Value":"$202,040.00","Default Amt":155546.18,"Address":"945 E St NE"},"type":"Feature","geometry":{"type":"Point","coordinates":[-123.025102,44.947486]}},{"properties":{"Status":"STB","City":"Gervais","Final Bid":186629.0,"Default Notice":"6/24/2008","County":"Marion","Zip Code":"97026","Date":{"end_time":"2008/10/30 00:00:00 -0400","original":"10/29/2008","granularity":"day","time":"2008/10/29 00:00:00 -0400"},"id":"a8prsyuor58g","Assessed Value":"NULL","Default Amt":163844.21,"Address":"947 Mahan Lp"},"type":"Feature","geometry":{"type":"Point","coordinates":[-122.889376,45.107757]}},{"properties":{"Status":"STB","City":"Independence","Final Bid":180507.53,"Default Notice":"6/2/2008","County":"Polk","Zip Code":"97351","Date":{"end_time":"2008/10/11 00:00:00 -0400","original":"10/10/2008","granularity":"day","time":"2008/10/10 00:00:00 -0400"},"id":"a8prsyguk9gg","Assessed Value":"$213,700.00","Default Amt":150831.91,"Address":"9475 Wells Landing Rd"},"type":"Feature","geometry":{"type":"Point","coordinates":[-123.133038,44.79602]}},{"properties":{"Status":"STB","City":"Salem","Final Bid":41159.0,"Default Notice":"8/21/2008","County":"Polk","Zip Code":"97304","Date":{"end_time":"2008/12/30 00:00:00 -0500","original":"12/29/2008","granularity":"day","time":"2008/12/29 00:00:00 -0500"},"id":"a8prsyq3h1fm","Assessed Value":"$341,800.00","Default Amt":88959.87,"Address":"958 Eisenhower Dr NW"},"type":"Feature","geometry":{"type":"Point","coordinates":[-123.086301,44.94758]}},{"properties":{"Status":"OFF","City":"Keizer","Final Bid":null,"Default Notice":"8/11/2008","County":"Marion","Zip Code":"97303","Date":{"end_time":"2008/12/20 00:00:00 -0500","original":"12/19/2008","granularity":"day","time":"2008/12/19 00:00:00 -0500"},"id":"a8prsyhdamhk","Assessed Value":"NULL","Default Amt":96363.58,"Address":"959 Greenwood Dr NE"},"type":"Feature","geometry":{"type":"Point","coordinates":[-123.020489,44.988586]}},{"properties":{"Status":"STB","City":"Salem","Final Bid":146940.0,"Default Notice":"6/20/2008","County":"Marion","Zip Code":"97301","Date":{"end_time":"2008/10/24 00:00:00 -0400","original":"10/23/2008","granularity":"day","time":"2008/10/23 00:00:00 -0400"},"id":"a8prsypwwui8","Assessed Value":"NULL","Default Amt":171796.27,"Address":"963 Dove Ave NE"},"type":"Feature","geometry":{"type":"Point","coordinates":[-122.966065,44.942269]}},{"properties":{"Status":"STB","City":"Aumsville","Final Bid":253806.43,"Default Notice":"7/11/2008","County":"Marion","Zip Code":"97325","Date":{"end_time":"2008/12/18 00:00:00 -0500","original":"12/17/2008","granularity":"day","time":"2008/12/17 00:00:00 -0500"},"id":"a8prsywco2lv","Assessed Value":"NULL","Default Amt":267633.15,"Address":"9805 Deer St"},"type":"Feature","geometry":{"type":"Point","coordinates":[-122.859098,44.843397]}},{"properties":{"Status":"STB","City":"Salem","Final Bid":306900.0,"Default Notice":"8/27/2008","County":"Polk","Zip Code":"97304","Date":{"end_time":"2008/12/31 00:00:00 -0500","original":"12/30/2008","granularity":"day","time":"2008/12/30 00:00:00 -0500"},"id":"a8prsyr6jcbr","Assessed Value":"$347,380.00","Default Amt":310932.41,"Address":"993 Westfarthing Way NW"},"type":"Feature","geometry":{"type":"Point","coordinates":[-123.084936,44.948804]}},{"properties":{"Status":"SOLD","City":"Keizer","Final Bid":145189.69,"Default Notice":"8/22/2008","County":"Marion","Zip Code":"97303","Date":{"end_time":"2008/12/27 00:00:00 -0500","original":"12/26/2008","granularity":"day","time":"2008/12/26 00:00:00 -0500"},"id":"a8prsyrqqumi","Assessed Value":"NULL","Default Amt":127720.92,"Address":"995 Sagrada Circle N"},"type":"Feature","geometry":{"type":"Point","coordinates":[-123.03887,45.007458]}}],"is_temporal":true,"author":{"url":"","metadata":"","contact_name":"","contact_address":"","source":"","contact_phone":""},"source":"","pagination":{"sort":null,"start":0,"total":438,"limit":1000000},"state":"complete","tags":"","published":"2014-08-14T22:25:28-04:00","id":275538}