{"type":"FeatureCollection","data_type":"Dataset","url_type":null,"permissions":[{"permissions":{"download":true,"view":true},"group_id":"everyone"}],"classification":null,"title":"LOAD","count":254,"stream_id":275860,"contributor":{"url":"http://geocommons.com/users/52047","name":"komarev"},"data_attributes":null,"calculation_params":null,"icon_link":null,"link":"http://geocommons.com/overlays/275860.json","extent":[0.0,0.0,0.0,0.0],"geometry_types":null,"unique_name":null,"name":"LOAD","feature_count":254,"description":"","next_feature":null,"is_raster":false,"short_classification":"Y","features":[{"properties":{"county":"Anderson County","territory":"Wright","id":"a8qngjj5vbmr","state":"TX"},"type":"Feature","geometry":null},{"properties":{"county":"Andrews County","territory":"Illston","id":"a8qngja9zysb","state":"TX"},"type":"Feature","geometry":null},{"properties":{"county":"Angelina County","territory":"Wright","id":"a8qngjhypahs","state":"TX"},"type":"Feature","geometry":null},{"properties":{"county":"Aransas County","territory":"Balentine","id":"a8qngjcp7ye3","state":"TX"},"type":"Feature","geometry":null},{"properties":{"county":"Archer County","territory":"Bofinger","id":"a8qngjhk09ls","state":"TX"},"type":"Feature","geometry":null},{"properties":{"county":"Armstrong County","territory":"Illston","id":"a8qngjaq8yj2","state":"TX"},"type":"Feature","geometry":null},{"properties":{"county":"Atascosa County","territory":"Balentine","id":"a8qngj8yw4zx","state":"TX"},"type":"Feature","geometry":null},{"properties":{"county":"Austin County","territory":"Morris","id":"a8qngj8rdnej","state":"TX"},"type":"Feature","geometry":null},{"properties":{"county":"Bailey County","territory":"Illston","id":"a8qngjnv7895","state":"TX"},"type":"Feature","geometry":null},{"properties":{"county":"Bandera County","territory":"Morris","id":"a8qngjnuuvh2","state":"TX"},"type":"Feature","geometry":null},{"properties":{"county":"Bastrop County","territory":"Morris","id":"a8qngjnh3xt6","state":"TX"},"type":"Feature","geometry":null},{"properties":{"county":"Baylor County","territory":"Bofinger","id":"a8qngjdjewo8","state":"TX"},"type":"Feature","geometry":null},{"properties":{"county":"Bee County","territory":"Balentine","id":"a8qngjb36u7q","state":"TX"},"type":"Feature","geometry":null},{"properties":{"county":"Bell County","territory":"Wright","id":"a8qngjafiiqm","state":"TX"},"type":"Feature","geometry":null},{"properties":{"county":"Bexar County","territory":"Balentine","id":"a8qngjiyx066","state":"TX"},"type":"Feature","geometry":null},{"properties":{"county":"Blanco County","territory":"Morris","id":"a8qngjb8ikze","state":"TX"},"type":"Feature","geometry":null},{"properties":{"county":"Borden County","territory":"Illston","id":"a8qngj8psze8","state":"TX"},"type":"Feature","geometry":null},{"properties":{"county":"Bosque County","territory":"Wright","id":"a8qngjh83av1","state":"TX"},"type":"Feature","geometry":null},{"properties":{"county":"Bowie County","territory":"Stephens","id":"a8qngjf8vwki","state":"TX"},"type":"Feature","geometry":null},{"properties":{"county":"Brazoria County","territory":"Moss","id":"a8qngjasn9yt","state":"TX"},"type":"Feature","geometry":null},{"properties":{"county":"Brazos County","territory":"Wright","id":"a8qngjmuhxs7","state":"TX"},"type":"Feature","geometry":null},{"properties":{"county":"Brewster County","territory":"Illston","id":"a8qngjf86mcp","state":"TX"},"type":"Feature","geometry":null},{"properties":{"county":"Briscoe County","territory":"Illston","id":"a8qngjia4mf9","state":"TX"},"type":"Feature","geometry":null},{"properties":{"county":"Brooks County","territory":"Balentine","id":"a8qngjnadfoh","state":"TX"},"type":"Feature","geometry":null},{"properties":{"county":"Brown County","territory":"Wright","id":"a8qngjo5t0i7","state":"TX"},"type":"Feature","geometry":null},{"properties":{"county":"Burleson County","territory":"Morris","id":"a8qngjj81kwy","state":"TX"},"type":"Feature","geometry":null},{"properties":{"county":"Burnet County","territory":"Wright","id":"a8qngjdatizx","state":"TX"},"type":"Feature","geometry":null},{"properties":{"county":"Caldwell County","territory":"Morris","id":"a8qngjad6nn7","state":"TX"},"type":"Feature","geometry":null},{"properties":{"county":"Calhoun County","territory":"Moss","id":"a8qngjmo9ynw","state":"TX"},"type":"Feature","geometry":null},{"properties":{"county":"Callahan County","territory":"Illston","id":"a8qngjmjx33g","state":"TX"},"type":"Feature","geometry":null},{"properties":{"county":"Cameron County","territory":"Balentine","id":"a8qngjkc0vp7","state":"TX"},"type":"Feature","geometry":null},{"properties":{"county":"Camp County","territory":"Stephens","id":"a8qngjca54i4","state":"TX"},"type":"Feature","geometry":null},{"properties":{"county":"Carson County","territory":"Illston","id":"a8qngjlw564c","state":"TX"},"type":"Feature","geometry":null},{"properties":{"county":"Cass County","territory":"Stephens","id":"a8qngje65ubq","state":"TX"},"type":"Feature","geometry":null},{"properties":{"county":"Castro County","territory":"Illston","id":"a8qngj8redv7","state":"TX"},"type":"Feature","geometry":null},{"properties":{"county":"Chambers County","territory":"Moss","id":"a8qngjdyggg3","state":"TX"},"type":"Feature","geometry":null},{"properties":{"county":"Cherokee County","territory":"Stephens","id":"a8qngjala6x1","state":"TX"},"type":"Feature","geometry":null},{"properties":{"county":"Childress County","territory":"Illston","id":"a8qngje0scyx","state":"TX"},"type":"Feature","geometry":null},{"properties":{"county":"Clay County","territory":"Bofinger","id":"a8qngjnuqel4","state":"TX"},"type":"Feature","geometry":null},{"properties":{"county":"Cochran County","territory":"Illston","id":"a8qngjngxz98","state":"TX"},"type":"Feature","geometry":null},{"properties":{"county":"Coke County","territory":"Illston","id":"a8qngjifh3da","state":"TX"},"type":"Feature","geometry":null},{"properties":{"county":"Coleman County","territory":"Illston","id":"a8qngjf0y4vf","state":"TX"},"type":"Feature","geometry":null},{"properties":{"county":"Collin County","territory":"Denman","id":"a8qngjed6qcz","state":"TX"},"type":"Feature","geometry":null},{"properties":{"county":"Collingsworth County","territory":"Illston","id":"a8qngj7yosum","state":"TX"},"type":"Feature","geometry":null},{"properties":{"county":"Colorado County","territory":"Morris","id":"a8qngjeyhwcf","state":"TX"},"type":"Feature","geometry":null},{"properties":{"county":"Comal County","territory":"Balentine","id":"a8qngjf2hhim","state":"TX"},"type":"Feature","geometry":null},{"properties":{"county":"Comanche County","territory":"Wright","id":"a8qngjfp3vwh","state":"TX"},"type":"Feature","geometry":null},{"properties":{"county":"Concho County","territory":"Illston","id":"a8qngjjci1k1","state":"TX"},"type":"Feature","geometry":null},{"properties":{"county":"Cooke County","territory":"Bofinger","id":"a8qngjkdens1","state":"TX"},"type":"Feature","geometry":null},{"properties":{"county":"Coryell County","territory":"Wright","id":"a8qngja8zotk","state":"TX"},"type":"Feature","geometry":null},{"properties":{"county":"Cottle County","territory":"Illston","id":"a8qngjcqt9g1","state":"TX"},"type":"Feature","geometry":null},{"properties":{"county":"Crane County","territory":"Illston","id":"a8qngjbmhu2m","state":"TX"},"type":"Feature","geometry":null},{"properties":{"county":"Crockett County","territory":"Illston","id":"a8qngjjjz8u0","state":"TX"},"type":"Feature","geometry":null},{"properties":{"county":"Crosby County","territory":"Illston","id":"a8qngjjkc0hi","state":"TX"},"type":"Feature","geometry":null},{"properties":{"county":"Culberson County","territory":"Illston","id":"a8qngjchjwf6","state":"TX"},"type":"Feature","geometry":null},{"properties":{"county":"Dallam County","territory":"Illston","id":"a8qngjezknwx","state":"TX"},"type":"Feature","geometry":null},{"properties":{"county":"Dallas County","territory":"Spangler","id":"a8qngjn5snqy","state":"TX"},"type":"Feature","geometry":null},{"properties":{"county":"Dawson County","territory":"Illston","id":"a8qngjg2eek2","state":"TX"},"type":"Feature","geometry":null},{"properties":{"county":"Deaf Smith County","territory":"Illston","id":"a8qngjjlj2if","state":"TX"},"type":"Feature","geometry":null},{"properties":{"county":"Delta County","territory":"Denman","id":"a8qngj972m42","state":"TX"},"type":"Feature","geometry":null},{"properties":{"county":"Denton County","territory":"Bofinger","id":"a8qngjbxdnay","state":"TX"},"type":"Feature","geometry":null},{"properties":{"county":"DeWitt County","territory":"Morris","id":"a8qngjm8nhk0","state":"TX"},"type":"Feature","geometry":null},{"properties":{"county":"Dickens County","territory":"Illston","id":"a8qngjidhjv4","state":"TX"},"type":"Feature","geometry":null},{"properties":{"county":"Dimmit County","territory":"Balentine","id":"a8qngjjkjguk","state":"TX"},"type":"Feature","geometry":null},{"properties":{"county":"Donley County","territory":"Illston","id":"a8qngjc3rek7","state":"TX"},"type":"Feature","geometry":null},{"properties":{"county":"Duval County","territory":"Balentine","id":"a8qngjmlngvm","state":"TX"},"type":"Feature","geometry":null},{"properties":{"county":"Eastland County","territory":"Illston","id":"a8qngjety803","state":"TX"},"type":"Feature","geometry":null},{"properties":{"county":"Ector County","territory":"Illston","id":"a8qngjl3aegh","state":"TX"},"type":"Feature","geometry":null},{"properties":{"county":"Edwards County","territory":"Balentine","id":"a8qngjh3im9z","state":"TX"},"type":"Feature","geometry":null},{"properties":{"county":"El Paso County","territory":"Illston","id":"a8qngjmscr85","state":"TX"},"type":"Feature","geometry":null},{"properties":{"county":"Ellis County","territory":"Stephens","id":"a8qngjhxgzrr","state":"TX"},"type":"Feature","geometry":null},{"properties":{"county":"Erath County","territory":"Wright","id":"a8qngjmbile9","state":"TX"},"type":"Feature","geometry":null},{"properties":{"county":"Falls County","territory":"Wright","id":"a8qngjj9ee9n","state":"TX"},"type":"Feature","geometry":null},{"properties":{"county":"Fannin County","territory":"Denman","id":"a8qngjk9twtl","state":"TX"},"type":"Feature","geometry":null},{"properties":{"county":"Fayette County","territory":"Morris","id":"a8qngjmgzce2","state":"TX"},"type":"Feature","geometry":null},{"properties":{"county":"Fisher County","territory":"Illston","id":"a8qngjmzm3z4","state":"TX"},"type":"Feature","geometry":null},{"properties":{"county":"Floyd County","territory":"Illston","id":"a8qngjlkla4t","state":"TX"},"type":"Feature","geometry":null},{"properties":{"county":"Foard County","territory":"Illston","id":"a8qngj9yrjjz","state":"TX"},"type":"Feature","geometry":null},{"properties":{"county":"Fort Bend County","territory":"Moss","id":"a8qngja7gyz1","state":"TX"},"type":"Feature","geometry":null},{"properties":{"county":"Franklin County","territory":"Stephens","id":"a8qngjccj969","state":"TX"},"type":"Feature","geometry":null},{"properties":{"county":"Freestone County","territory":"Wright","id":"a8qngjbsja8o","state":"TX"},"type":"Feature","geometry":null},{"properties":{"county":"Frio County","territory":"Balentine","id":"a8qngjls4ji0","state":"TX"},"type":"Feature","geometry":null},{"properties":{"county":"Gaines County","territory":"Illston","id":"a8qngjnf3esu","state":"TX"},"type":"Feature","geometry":null},{"properties":{"county":"Galveston County","territory":"Moss","id":"a8qngjhle3jq","state":"TX"},"type":"Feature","geometry":null},{"properties":{"county":"Garza County","territory":"Illston","id":"a8qngj923oxp","state":"TX"},"type":"Feature","geometry":null},{"properties":{"county":"Gillespie County","territory":"Morris","id":"a8qngjhk81rx","state":"TX"},"type":"Feature","geometry":null},{"properties":{"county":"Glasscock County","territory":"Illston","id":"a8qngjdttn0f","state":"TX"},"type":"Feature","geometry":null},{"properties":{"county":"Goliad County","territory":"Balentine","id":"a8qngjmocmof","state":"TX"},"type":"Feature","geometry":null},{"properties":{"county":"Gonzales County","territory":"Morris","id":"a8qngjn51em8","state":"TX"},"type":"Feature","geometry":null},{"properties":{"county":"Gray County","territory":"Illston","id":"a8qngjiidjr9","state":"TX"},"type":"Feature","geometry":null},{"properties":{"county":"Grayson County","territory":"Denman","id":"a8qngjlazywv","state":"TX"},"type":"Feature","geometry":null},{"properties":{"county":"Gregg County","territory":"Stephens","id":"a8qngjob59ig","state":"TX"},"type":"Feature","geometry":null},{"properties":{"county":"Grimes County","territory":"Gomez","id":"a8qngjeri6c0","state":"TX"},"type":"Feature","geometry":null},{"properties":{"county":"Guadalupe County","territory":"Morris","id":"a8qngjdjmuua","state":"TX"},"type":"Feature","geometry":null},{"properties":{"county":"Hale County","territory":"Illston","id":"a8qngjlbnhoc","state":"TX"},"type":"Feature","geometry":null},{"properties":{"county":"Hall County","territory":"Illston","id":"a8qngjapv43w","state":"TX"},"type":"Feature","geometry":null},{"properties":{"county":"Hamilton County","territory":"Wright","id":"a8qngj87ul60","state":"TX"},"type":"Feature","geometry":null},{"properties":{"county":"Hansford County","territory":"Illston","id":"a8qngjoaxqrn","state":"TX"},"type":"Feature","geometry":null},{"properties":{"county":"Hardeman County","territory":"Illston","id":"a8qngj9wrq7y","state":"TX"},"type":"Feature","geometry":null},{"properties":{"county":"Hardin County","territory":"Gomez","id":"a8qngjhltdqd","state":"TX"},"type":"Feature","geometry":null},{"properties":{"county":"Harris County","territory":"Moss","id":"a8qngjfst5rh","state":"TX"},"type":"Feature","geometry":null},{"properties":{"county":"Harrison County","territory":"Stephens","id":"a8qngjne6f36","state":"TX"},"type":"Feature","geometry":null},{"properties":{"county":"Hartley County","territory":"Illston","id":"a8qngjefrcti","state":"TX"},"type":"Feature","geometry":null},{"properties":{"county":"Haskell County","territory":"Illston","id":"a8qngjdzoyvz","state":"TX"},"type":"Feature","geometry":null},{"properties":{"county":"Hays County","territory":"Morris","id":"a8qngjehis38","state":"TX"},"type":"Feature","geometry":null},{"properties":{"county":"Hemphill County","territory":"Illston","id":"a8qngjllji46","state":"TX"},"type":"Feature","geometry":null},{"properties":{"county":"Henderson County","territory":"Stephens","id":"a8qngjidzpl4","state":"TX"},"type":"Feature","geometry":null},{"properties":{"county":"Hidalgo County","territory":"Balentine","id":"a8qngjhf97ps","state":"TX"},"type":"Feature","geometry":null},{"properties":{"county":"Hill County","territory":"Wright","id":"a8qngjdd3hoe","state":"TX"},"type":"Feature","geometry":null},{"properties":{"county":"Hockley County","territory":"Illston","id":"a8qngjl5yyhk","state":"TX"},"type":"Feature","geometry":null},{"properties":{"county":"Hood County","territory":"Bofinger","id":"a8qngjhbx541","state":"TX"},"type":"Feature","geometry":null},{"properties":{"county":"Hopkins County","territory":"Denman","id":"a8qngjihqf87","state":"TX"},"type":"Feature","geometry":null},{"properties":{"county":"Houston County","territory":"Wright","id":"a8qngjlb4sbo","state":"TX"},"type":"Feature","geometry":null},{"properties":{"county":"Howard County","territory":"Illston","id":"a8qngjjdn7dq","state":"TX"},"type":"Feature","geometry":null},{"properties":{"county":"Hudspeth County","territory":"Illston","id":"a8qngjdjota8","state":"TX"},"type":"Feature","geometry":null},{"properties":{"county":"Hunt County","territory":"Denman","id":"a8qngjkjnbj3","state":"TX"},"type":"Feature","geometry":null},{"properties":{"county":"Hutchinson County","territory":"Illston","id":"a8qngjk32xyh","state":"TX"},"type":"Feature","geometry":null},{"properties":{"county":"Irion County","territory":"Illston","id":"a8qngjj77npf","state":"TX"},"type":"Feature","geometry":null},{"properties":{"county":"Jack County","territory":"Bofinger","id":"a8qngjdonkl9","state":"TX"},"type":"Feature","geometry":null},{"properties":{"county":"Jackson County","territory":"Moss","id":"a8qngjev7p3b","state":"TX"},"type":"Feature","geometry":null},{"properties":{"county":"Jasper County","territory":"Gomez","id":"a8qngjeoufip","state":"TX"},"type":"Feature","geometry":null},{"properties":{"county":"Jeff Davis County","territory":"Illston","id":"a8qngjeke34z","state":"TX"},"type":"Feature","geometry":null},{"properties":{"county":"Jefferson County","territory":"Moss","id":"a8qngjkpa6k1","state":"TX"},"type":"Feature","geometry":null},{"properties":{"county":"Jim Hogg County","territory":"Balentine","id":"a8qngjalysel","state":"TX"},"type":"Feature","geometry":null},{"properties":{"county":"Jim Wells County","territory":"Balentine","id":"a8qngj8en21f","state":"TX"},"type":"Feature","geometry":null},{"properties":{"county":"Johnson County","territory":"Bofinger","id":"a8qngjer2eki","state":"TX"},"type":"Feature","geometry":null},{"properties":{"county":"Jones County","territory":"Illston","id":"a8qngjm9pb53","state":"TX"},"type":"Feature","geometry":null},{"properties":{"county":"Karnes County","territory":"Balentine","id":"a8qngjbhhid6","state":"TX"},"type":"Feature","geometry":null},{"properties":{"county":"Kaufman County","territory":"Stephens","id":"a8qngjak06r9","state":"TX"},"type":"Feature","geometry":null},{"properties":{"county":"Kendall County","territory":"Morris","id":"a8qngjg1uuxu","state":"TX"},"type":"Feature","geometry":null},{"properties":{"county":"Kenedy County","territory":"Balentine","id":"a8qngjd7535c","state":"TX"},"type":"Feature","geometry":null},{"properties":{"county":"Kent County","territory":"Illston","id":"a8qngjf2fkjt","state":"TX"},"type":"Feature","geometry":null},{"properties":{"county":"Kerr County","territory":"Morris","id":"a8qngjh0s3fl","state":"TX"},"type":"Feature","geometry":null},{"properties":{"county":"Kimble County","territory":"Illston","id":"a8qngjnn57cj","state":"TX"},"type":"Feature","geometry":null},{"properties":{"county":"King County","territory":"Illston","id":"a8qngjgd7y17","state":"TX"},"type":"Feature","geometry":null},{"properties":{"county":"Kinney County","territory":"Balentine","id":"a8qngjd9tblq","state":"TX"},"type":"Feature","geometry":null},{"properties":{"county":"Kleberg County","territory":"Balentine","id":"a8qngj91njd0","state":"TX"},"type":"Feature","geometry":null},{"properties":{"county":"Knox County","territory":"Illston","id":"a8qngj8unrcv","state":"TX"},"type":"Feature","geometry":null},{"properties":{"county":"La Salle County","territory":"Balentine","id":"a8qngja8xe4f","state":"TX"},"type":"Feature","geometry":null},{"properties":{"county":"Lamar County","territory":"Denman","id":"a8qngjxxv4g2","state":"TX"},"type":"Feature","geometry":null},{"properties":{"county":"Lamb County","territory":"Illston","id":"a8qngjyaet6f","state":"TX"},"type":"Feature","geometry":null},{"properties":{"county":"Lampasas County","territory":"Wright","id":"a8qngjy2jlim","state":"TX"},"type":"Feature","geometry":null},{"properties":{"county":"Lavaca County","territory":"Morris","id":"a8qngjyul93s","state":"TX"},"type":"Feature","geometry":null},{"properties":{"county":"Lee County","territory":"Morris","id":"a8qngjqsiukn","state":"TX"},"type":"Feature","geometry":null},{"properties":{"county":"Leon County","territory":"Wright","id":"a8qngjxyqnrm","state":"TX"},"type":"Feature","geometry":null},{"properties":{"county":"Liberty County","territory":"Gomez","id":"a8qngk1bwip6","state":"TX"},"type":"Feature","geometry":null},{"properties":{"county":"Limestone County","territory":"Wright","id":"a8qngjzs2cyr","state":"TX"},"type":"Feature","geometry":null},{"properties":{"county":"Lipscomb County","territory":"Illston","id":"a8qngk47o0s6","state":"TX"},"type":"Feature","geometry":null},{"properties":{"county":"Live Oak County","territory":"Balentine","id":"a8qngk3s5rcn","state":"TX"},"type":"Feature","geometry":null},{"properties":{"county":"Llano County","territory":"Morris","id":"a8qngjphjm24","state":"TX"},"type":"Feature","geometry":null},{"properties":{"county":"Loving County","territory":"Illston","id":"a8qngjqtomkc","state":"TX"},"type":"Feature","geometry":null},{"properties":{"county":"Lubbock County","territory":"Illston","id":"a8qngjtqi5tv","state":"TX"},"type":"Feature","geometry":null},{"properties":{"county":"Lynn County","territory":"Illston","id":"a8qngjy6lj3u","state":"TX"},"type":"Feature","geometry":null},{"properties":{"county":"Madison County","territory":"Wright","id":"a8qngjvw4xas","state":"TX"},"type":"Feature","geometry":null},{"properties":{"county":"Marion County","territory":"Stephens","id":"a8qngjtceka0","state":"TX"},"type":"Feature","geometry":null},{"properties":{"county":"Martin County","territory":"Illston","id":"a8qngk238ycp","state":"TX"},"type":"Feature","geometry":null},{"properties":{"county":"Mason County","territory":"Illston","id":"a8qngjt1ocr8","state":"TX"},"type":"Feature","geometry":null},{"properties":{"county":"Matagorda County","territory":"Moss","id":"a8qngjutb1as","state":"TX"},"type":"Feature","geometry":null},{"properties":{"county":"Maverick County","territory":"Balentine","id":"a8qngjxleuoe","state":"TX"},"type":"Feature","geometry":null},{"properties":{"county":"McCulloch County","territory":"Illston","id":"a8qngjzanmf3","state":"TX"},"type":"Feature","geometry":null},{"properties":{"county":"McLennan County","territory":"Wright","id":"a8qngjqlq2pg","state":"TX"},"type":"Feature","geometry":null},{"properties":{"county":"McMullen County","territory":"Balentine","id":"a8qngjtaafb3","state":"TX"},"type":"Feature","geometry":null},{"properties":{"county":"Medina County","territory":"Balentine","id":"a8qngjxt4u8q","state":"TX"},"type":"Feature","geometry":null},{"properties":{"county":"Menard County","territory":"Illston","id":"a8qngjtj32xz","state":"TX"},"type":"Feature","geometry":null},{"properties":{"county":"Midland County","territory":"Illston","id":"a8qngjz1ujsp","state":"TX"},"type":"Feature","geometry":null},{"properties":{"county":"Milam County","territory":"Wright","id":"a8qngk0r4dtj","state":"TX"},"type":"Feature","geometry":null},{"properties":{"county":"Mills County","territory":"Wright","id":"a8qngjxekcwr","state":"TX"},"type":"Feature","geometry":null},{"properties":{"county":"Mitchell County","territory":"Illston","id":"a8qngjvwji5i","state":"TX"},"type":"Feature","geometry":null},{"properties":{"county":"Montague County","territory":"Bofinger","id":"a8qngjskm716","state":"TX"},"type":"Feature","geometry":null},{"properties":{"county":"Montgomery County","territory":"Gomez","id":"a8qngk3ay6uk","state":"TX"},"type":"Feature","geometry":null},{"properties":{"county":"Moore County","territory":"Illston","id":"a8qngk0inxrg","state":"TX"},"type":"Feature","geometry":null},{"properties":{"county":"Morris County","territory":"Stephens","id":"a8qngjt7uauv","state":"TX"},"type":"Feature","geometry":null},{"properties":{"county":"Motley County","territory":"Illston","id":"a8qngjsg14j4","state":"TX"},"type":"Feature","geometry":null},{"properties":{"county":"Nacogdoches County","territory":"Stephens","id":"a8qngjoo35qg","state":"TX"},"type":"Feature","geometry":null},{"properties":{"county":"Navarro County","territory":"Wright","id":"a8qngjrwf6x6","state":"TX"},"type":"Feature","geometry":null},{"properties":{"county":"Newton County","territory":"Gomez","id":"a8qngjxshzx5","state":"TX"},"type":"Feature","geometry":null},{"properties":{"county":"Nolan County","territory":"Illston","id":"a8qngjwtxtnc","state":"TX"},"type":"Feature","geometry":null},{"properties":{"county":"Nueces County","territory":"Balentine","id":"a8qngjzim6vu","state":"TX"},"type":"Feature","geometry":null},{"properties":{"county":"Ochiltree County","territory":"Illston","id":"a8qngk1i21o4","state":"TX"},"type":"Feature","geometry":null},{"properties":{"county":"Oldham County","territory":"Illston","id":"a8qngk1w9h19","state":"TX"},"type":"Feature","geometry":null},{"properties":{"county":"Orange County","territory":"Moss","id":"a8qngjrr3md9","state":"TX"},"type":"Feature","geometry":null},{"properties":{"county":"Palo Pinto County","territory":"Wright","id":"a8qngjth9j13","state":"TX"},"type":"Feature","geometry":null},{"properties":{"county":"Panola County","territory":"Stephens","id":"a8qngjuujdxv","state":"TX"},"type":"Feature","geometry":null},{"properties":{"county":"Parker County","territory":"Bofinger","id":"a8qngjy132uh","state":"TX"},"type":"Feature","geometry":null},{"properties":{"county":"Parmer County","territory":"Illston","id":"a8qngk2zwyfj","state":"TX"},"type":"Feature","geometry":null},{"properties":{"county":"Pecos County","territory":"Illston","id":"a8qngk0lnf1m","state":"TX"},"type":"Feature","geometry":null},{"properties":{"county":"Polk County","territory":"Gomez","id":"a8qngjvfo5gj","state":"TX"},"type":"Feature","geometry":null},{"properties":{"county":"Potter County","territory":"Illston","id":"a8qngjyz9ck8","state":"TX"},"type":"Feature","geometry":null},{"properties":{"county":"Presidio County","territory":"Illston","id":"a8qngjozdwr2","state":"TX"},"type":"Feature","geometry":null},{"properties":{"county":"Rains County","territory":"Stephens","id":"a8qngjw535em","state":"TX"},"type":"Feature","geometry":null},{"properties":{"county":"Randall County","territory":"Illston","id":"a8qngjvf19sa","state":"TX"},"type":"Feature","geometry":null},{"properties":{"county":"Reagan County","territory":"Illston","id":"a8qngjsrqkvu","state":"TX"},"type":"Feature","geometry":null},{"properties":{"county":"Real County","territory":"Balentine","id":"a8qngjwyaiqt","state":"TX"},"type":"Feature","geometry":null},{"properties":{"county":"Red River County","territory":"Stephens","id":"a8qngjs7u8fj","state":"TX"},"type":"Feature","geometry":null},{"properties":{"county":"Reeves County","territory":"Illston","id":"a8qngk27hcqa","state":"TX"},"type":"Feature","geometry":null},{"properties":{"county":"Refugio County","territory":"Balentine","id":"a8qngjqn8hof","state":"TX"},"type":"Feature","geometry":null},{"properties":{"county":"Roberts County","territory":"Illston","id":"a8qngk18fxcl","state":"TX"},"type":"Feature","geometry":null},{"properties":{"county":"Robertson County","territory":"Wright","id":"a8qngk35fy0x","state":"TX"},"type":"Feature","geometry":null},{"properties":{"county":"Rockwall County","territory":"Stephens","id":"a8qngk2of4zo","state":"TX"},"type":"Feature","geometry":null},{"properties":{"county":"Runnels County","territory":"Illston","id":"a8qngjyg0fgs","state":"TX"},"type":"Feature","geometry":null},{"properties":{"county":"Rusk County","territory":"Stephens","id":"a8qngk2v9i8t","state":"TX"},"type":"Feature","geometry":null},{"properties":{"county":"Sabine County","territory":"Stephens","id":"a8qngk2r3z5l","state":"TX"},"type":"Feature","geometry":null},{"properties":{"county":"San Augustine County","territory":"Stephens","id":"a8qngjydfh30","state":"TX"},"type":"Feature","geometry":null},{"properties":{"county":"San Jacinto County","territory":"Gomez","id":"a8qngk0va6av","state":"TX"},"type":"Feature","geometry":null},{"properties":{"county":"San Patricio County","territory":"Balentine","id":"a8qngjslyl75","state":"TX"},"type":"Feature","geometry":null},{"properties":{"county":"San Saba County","territory":"Illston","id":"a8qngk0s91bz","state":"TX"},"type":"Feature","geometry":null},{"properties":{"county":"Schleicher County","territory":"Illston","id":"a8qngjz49nry","state":"TX"},"type":"Feature","geometry":null},{"properties":{"county":"Scurry County","territory":"Illston","id":"a8qngk030tcg","state":"TX"},"type":"Feature","geometry":null},{"properties":{"county":"Shackelford County","territory":"Illston","id":"a8qngjoxy40d","state":"TX"},"type":"Feature","geometry":null},{"properties":{"county":"Shelby County","territory":"Stephens","id":"a8qngk4n1oh1","state":"TX"},"type":"Feature","geometry":null},{"properties":{"county":"Sherman County","territory":"Illston","id":"a8qngjr05nky","state":"TX"},"type":"Feature","geometry":null},{"properties":{"county":"Smith County","territory":"Stephens","id":"a8qngjrjfjn4","state":"TX"},"type":"Feature","geometry":null},{"properties":{"county":"Somervell County","territory":"Wright","id":"a8qngjvx0rm3","state":"TX"},"type":"Feature","geometry":null},{"properties":{"county":"Starr County","territory":"Balentine","id":"a8qngjwwl8c1","state":"TX"},"type":"Feature","geometry":null},{"properties":{"county":"Stephens County","territory":"Illston","id":"a8qngjxs14tn","state":"TX"},"type":"Feature","geometry":null},{"properties":{"county":"Sterling County","territory":"Illston","id":"a8qngjr7awzm","state":"TX"},"type":"Feature","geometry":null},{"properties":{"county":"Stonewall County","territory":"Illston","id":"a8qngk4n6pu1","state":"TX"},"type":"Feature","geometry":null},{"properties":{"county":"Sutton County","territory":"Illston","id":"a8qngjswl6v4","state":"TX"},"type":"Feature","geometry":null},{"properties":{"county":"Swisher County","territory":"Illston","id":"a8qngk1mvk6m","state":"TX"},"type":"Feature","geometry":null},{"properties":{"county":"Tarrant County","territory":"Bofinger","id":"a8qngjtx99v8","state":"TX"},"type":"Feature","geometry":null},{"properties":{"county":"Taylor County","territory":"Illston","id":"a8qngjrrgmer","state":"TX"},"type":"Feature","geometry":null},{"properties":{"county":"Terrell County","territory":"Illston","id":"a8qngjw9hg2x","state":"TX"},"type":"Feature","geometry":null},{"properties":{"county":"Terry County","territory":"Illston","id":"a8qngjz7ljlc","state":"TX"},"type":"Feature","geometry":null},{"properties":{"county":"Throckmorton County","territory":"Illston","id":"a8qngjq6q7s4","state":"TX"},"type":"Feature","geometry":null},{"properties":{"county":"Titus County","territory":"Stephens","id":"a8qngjvk6v9y","state":"TX"},"type":"Feature","geometry":null},{"properties":{"county":"Tom Green County","territory":"Illston","id":"a8qngjsed0py","state":"TX"},"type":"Feature","geometry":null},{"properties":{"county":"Travis County","territory":"Morris","id":"a8qngjuco49c","state":"TX"},"type":"Feature","geometry":null},{"properties":{"county":"Trinity County","territory":"Wright","id":"a8qngjwvda9a","state":"TX"},"type":"Feature","geometry":null},{"properties":{"county":"Tyler County","territory":"Gomez","id":"a8qngk0pl1mz","state":"TX"},"type":"Feature","geometry":null},{"properties":{"county":"Upshur County","territory":"Stephens","id":"a8qngjv9l5bn","state":"TX"},"type":"Feature","geometry":null},{"properties":{"county":"Upton County","territory":"Illston","id":"a8qngjrxc5ia","state":"TX"},"type":"Feature","geometry":null},{"properties":{"county":"Uvalde County","territory":"Balentine","id":"a8qngjtfqtrp","state":"TX"},"type":"Feature","geometry":null},{"properties":{"county":"Val Verde County","territory":"Balentine","id":"a8qngjvuwyfb","state":"TX"},"type":"Feature","geometry":null},{"properties":{"county":"Van Zandt County","territory":"Stephens","id":"a8qngjst2teg","state":"TX"},"type":"Feature","geometry":null},{"properties":{"county":"Victoria County","territory":"Balentine","id":"a8qngjrh7cij","state":"TX"},"type":"Feature","geometry":null},{"properties":{"county":"Walker County","territory":"Gomez","id":"a8qngjxt0lqd","state":"TX"},"type":"Feature","geometry":null},{"properties":{"county":"Waller County","territory":"Gomez","id":"a8qngjqayjlq","state":"TX"},"type":"Feature","geometry":null},{"properties":{"county":"Ward County","territory":"Illston","id":"a8qngk1lvrd4","state":"TX"},"type":"Feature","geometry":null},{"properties":{"county":"Washington County","territory":"Morris","id":"a8qngjwdxhh8","state":"TX"},"type":"Feature","geometry":null},{"properties":{"county":"Webb County","territory":"Balentine","id":"a8qngju3sdlo","state":"TX"},"type":"Feature","geometry":null},{"properties":{"county":"Wharton County","territory":"Moss","id":"a8qngjwmsoug","state":"TX"},"type":"Feature","geometry":null},{"properties":{"county":"Wheeler County","territory":"Illston","id":"a8qngjwdo35j","state":"TX"},"type":"Feature","geometry":null},{"properties":{"county":"Wichita County","territory":"Bofinger","id":"a8qngk3keadj","state":"TX"},"type":"Feature","geometry":null},{"properties":{"county":"Wilbarger County","territory":"Bofinger","id":"a8qngk02qbai","state":"TX"},"type":"Feature","geometry":null},{"properties":{"county":"Willacy County","territory":"Balentine","id":"a8qngju1d1n1","state":"TX"},"type":"Feature","geometry":null},{"properties":{"county":"Williamson County","territory":"Wright","id":"a8qngjrco5gh","state":"TX"},"type":"Feature","geometry":null},{"properties":{"county":"Wilson County","territory":"Balentine","id":"a8qngjov1fmh","state":"TX"},"type":"Feature","geometry":null},{"properties":{"county":"Winkler County","territory":"Illston","id":"a8qngjzshbgf","state":"TX"},"type":"Feature","geometry":null},{"properties":{"county":"Wise County","territory":"Bofinger","id":"a8qngjp4qgol","state":"TX"},"type":"Feature","geometry":null},{"properties":{"county":"Wood County","territory":"Stephens","id":"a8qngjy73xwa","state":"TX"},"type":"Feature","geometry":null},{"properties":{"county":"Yoakum County","territory":"Illston","id":"a8qngjvjxr2b","state":"TX"},"type":"Feature","geometry":null},{"properties":{"county":"Young County","territory":"Illston","id":"a8qngjs0cpk4","state":"TX"},"type":"Feature","geometry":null},{"properties":{"county":"Zapata County","territory":"Balentine","id":"a8qngk0o237t","state":"TX"},"type":"Feature","geometry":null},{"properties":{"county":"Zavala County","territory":"Balentine","id":"a8qngjz7bjjc","state":"TX"},"type":"Feature","geometry":null}],"is_temporal":false,"author":{"url":"","metadata":null,"contact_name":null,"contact_address":null,"source":null,"contact_phone":null},"source":"","pagination":{"sort":null,"start":0,"total":254,"limit":1000000},"state":"parsed","tags":"","published":"2014-08-14T22:47:32-04:00","id":275860}