{"type":"FeatureCollection","data_type":"Dataset","url_type":null,"permissions":[{"permissions":{"download":true,"edit":true,"view":true},"group_id":52305},{"permissions":{"download":true,"view":true},"group_id":"everyone"}],"classification":null,"title":"Summer Food Service Program Sites","count":24,"stream_id":276670,"contributor":{"url":"http://geocommons.com/users/50841","name":"nyhoffb"},"data_attributes":null,"calculation_params":null,"icon_link":null,"link":"http://geocommons.com/overlays/276670.json","extent":[-108.905,37.2676,-103.239,39.0926],"geometry_types":["point"],"unique_name":null,"name":"Summer Food Service Program Sites","feature_count":24,"description":"","next_feature":null,"is_raster":false,"short_classification":"Y","stats":{},"features":[{"properties":{"city":"Colorado Springs","county":"El Paso","geo_score":1.0,"zip code":"80906","site":"Stratmoor Hills Community Center","id":"a8u1rkyy7a87","address":"2027 B Street","geo_precision":"range","state":"CO"},"type":"Feature","geometry":{"type":"Point","coordinates":[-104.790443,38.775257]}},{"properties":{"city":"Colorado Springs","county":"El Paso","geo_score":1.0,"zip code":"80916","site":"Deerfield Hills Community Center","id":"a8u1rla0umg3","address":"4290 Deerfield Hills Road","geo_precision":"range","state":"CO"},"type":"Feature","geometry":{"type":"Point","coordinates":[-104.748276,38.781739]}},{"properties":{"city":"Colorado Springs","county":"El Paso","geo_score":1.0,"zip code":"80903","site":"Downtown YMCA","id":"a8u1rlb6zm9p","address":"207 North Nevada Avenue","geo_precision":"range","state":"CO"},"type":"Feature","geometry":{"type":"Point","coordinates":[-104.821299,38.837941]}},{"properties":{"city":"Fountain","county":"El Paso","geo_score":0.614,"zip code":"80817","site":"Fountain YMCA","id":"a8u1rlaejacy","address":"301 E. Iowa Avenue","geo_precision":"street","state":"CO"},"type":"Feature","geometry":{"type":"Point","coordinates":[-104.699359,38.683907]}},{"properties":{"city":"Colorado Springs","county":"El Paso","geo_score":1.0,"zip code":"80911","site":"Israelite Church-Security","id":"a8u1rlahfwwx","address":"123 Security Blvd","geo_precision":"range","state":"CO"},"type":"Feature","geometry":{"type":"Point","coordinates":[-104.733247,38.741875]}},{"properties":{"city":"Colorado Springs","county":"El Paso","geo_score":0.805,"zip code":"80905","site":"Meadows Park Community Center","id":"a8u1rl1nzjyx","address":"1943 South El Paso Avenue","geo_precision":"range","state":"CO"},"type":"Feature","geometry":{"type":"Point","coordinates":[-104.811268,38.804328]}},{"properties":{"city":"Colorado Springs","county":"El Paso","geo_score":1.0,"zip code":"80916","site":"SE YMCA","id":"a8u1rl4y3pin","address":"2190 Jet Wing Drive","geo_precision":"range","state":"CO"},"type":"Feature","geometry":{"type":"Point","coordinates":[-104.751476,38.801202]}},{"properties":{"city":"Monument","county":"El Paso","geo_score":1.0,"zip code":"80132","site":"Tri Lakes Cares","id":"a8u1rl4ve3ks","address":"235 Jefferson Street","geo_precision":"range","state":"CO"},"type":"Feature","geometry":{"type":"Point","coordinates":[-104.872035,39.092582]}},{"properties":{"city":"Colorado Springs","county":"El Paso","geo_score":1.0,"zip code":"80909","site":"Yuma Salvation Army","id":"a8u1rl2koam3","address":"908 Yuma Street","geo_precision":"range","state":"CO"},"type":"Feature","geometry":{"type":"Point","coordinates":[-104.77815,38.846129]}},{"properties":{"city":"Avondale","county":"Pueblo","geo_score":0.71,"zip code":"81022","site":"Avondale Boys and Girls Club","id":"a8u1rl97i3tx","address":"405 Second Street","geo_precision":"street","state":"CO"},"type":"Feature","geometry":{"type":"Point","coordinates":[-104.349525,38.239155]}},{"properties":{"city":"Pueblo","county":"Pueblo","geo_score":1.0,"zip code":"81004","site":"Sprague Boys and Girls Club","id":"a8u1rl08lxbl","address":"2601 Sprague Ave","geo_precision":"range","state":"CO"},"type":"Feature","geometry":{"type":"Point","coordinates":[-104.640533,38.240504]}},{"properties":{"city":"Pueblo","county":"Pueblo","geo_score":0.316,"zip code":"81004","site":"Eastside Boys and Girls Club","id":"a8u1rl6t08um","address":"625 N. Monument Ave","geo_precision":"street","state":"CO"},"type":"Feature","geometry":{"type":"Point","coordinates":[-104.586393,38.268415]}},{"properties":{"city":"Pueblo","county":"Pueblo","geo_score":0.614,"zip code":"81001","site":"Fire for the Nations","id":"a8u1rlbf3ug0","address":"1114 N. Erie Avenue","geo_precision":"street","state":"CO"},"type":"Feature","geometry":{"type":"Point","coordinates":[-104.599741,38.270843]}},{"properties":{"city":"Pueblo","county":"Pueblo","geo_score":0.935,"zip code":"81003","site":"Caesar Chavez","id":"a8u1rl7v48hq","address":"2500 West 18th Street","geo_precision":"range","state":"CO"},"type":"Feature","geometry":{"type":"Point","coordinates":[-104.648157,38.283453]}},{"properties":{"city":"Pueblo","county":"Pueblo","geo_score":0.857,"zip code":"81001","site":"Mobile Home Park-Oakwood Estates","id":"a8u1rl2m2daa","address":null,"geo_precision":"zip","state":"CO"},"type":"Feature","geometry":{"type":"Point","coordinates":[-104.427776,38.344117]}},{"properties":{"city":"Las Animas","county":"Bent","geo_score":1.0,"zip code":"81054","site":"Bent County/Las Animas Community Center","id":"a8u1rl4nwk0k","address":"1724 Ambassador Thompson Blvd","geo_precision":"range","state":"CO"},"type":"Feature","geometry":{"type":"Point","coordinates":[-103.239088,38.065678]}},{"properties":{"city":"Salida","county":"Chaffee","geo_score":0.625,"zip code":"81201","site":"Chaffee County Boys &amp; Girls Club","id":"a8u1rkvwb1ty","address":"340 E. 5th Street","geo_precision":"street","state":"CO"},"type":"Feature","geometry":{"type":"Point","coordinates":[-105.993499,38.531955]}},{"properties":{"city":"Canon City","county":"Fremont","geo_score":0.927,"zip code":"81212","site":"Fremont Boys and Girls Club","id":"a8u1rlaj2ybo","address":"129 North 4th Street","geo_precision":"range","state":"CO"},"type":"Feature","geometry":{"type":"Point","coordinates":[-105.242265,38.440076]}},{"properties":{"city":"Cripple Creek","county":"Teller","geo_score":0.819,"zip code":"80813","site":"Kids Rock University","id":"a8u1rkwdjpv6","address":"128 E Bennett Ave","geo_precision":"street","state":"CO"},"type":"Feature","geometry":{"type":"Point","coordinates":[-105.178324,38.746628]}},{"properties":{"city":"Pagosa Springs","county":"Archuleta","geo_score":0.902,"zip code":"81147","site":"Pagosa Springs Nurturing Center","id":"a8u1rkxpb69u","address":"802 Rosita St","geo_precision":"range","state":null},"type":"Feature","geometry":{"type":"Point","coordinates":[-107.019624,37.26755]}},{"properties":{"city":"Dove Creek","county":"Dolores","geo_score":0.935,"zip code":"81324","site":"Dove Creek School","id":"a8u1rkzpgvy2","address":"525 N Main St","geo_precision":"range","state":"CO"},"type":"Feature","geometry":{"type":"Point","coordinates":[-108.903914,37.766061]}},{"properties":{"city":"Dove Creek","county":"Dolores","geo_score":0.733,"zip code":"81324","site":"Dove Creek Community Center","id":"a8u1rl2i7jw2","address":"403 W 7th Street","geo_precision":"street","state":"CO"},"type":"Feature","geometry":{"type":"Point","coordinates":[-108.905213,37.768701]}},{"properties":{"city":"Cortez","county":"Montezuma","geo_score":0.585,"zip code":"81321","site":"Cortez Recreation Center","id":"a8u1rl7ej9qe","address":"425 Roger Smith Avenue","geo_precision":"zip","state":"CO"},"type":"Feature","geometry":{"type":"Point","coordinates":[-108.662826,37.373594]}},{"properties":{"city":"Cortez","county":"Montezuma","geo_score":0.645,"zip code":"81321","site":"Kemper Elementary","id":"a8u1rl32wmqi","address":"620 E Montezuma","geo_precision":"street","state":"CO"},"type":"Feature","geometry":{"type":"Point","coordinates":[-108.2824,37.344106]}}],"is_temporal":false,"author":{"url":"","metadata":"","contact_name":"","contact_address":"","source":"","contact_phone":""},"source":"","pagination":{"sort":null,"start":0,"total":24,"limit":1000000},"state":"complete","tags":"","published":"2014-08-14T23:55:24-04:00","id":276670}