{"type":"FeatureCollection","data_type":"Dataset","url_type":null,"permissions":[{"permissions":{"download":true,"edit":true,"view":true},"group_id":52305},{"permissions":{"download":true,"view":true},"group_id":"everyone"}],"classification":null,"title":"Potential After School Sites","count":13,"stream_id":276629,"contributor":{"url":"http://geocommons.com/users/50841","name":"nyhoffb"},"data_attributes":null,"calculation_params":null,"icon_link":null,"link":"http://geocommons.com/overlays/276629.json","extent":[-107.866,37.271,-104.604,38.9261],"geometry_types":["point"],"unique_name":null,"name":"Potential After School Sites","feature_count":13,"description":"","next_feature":null,"is_raster":false,"short_classification":"Y","stats":{},"features":[{"properties":{"name":"Boys and Girls Club of La Plata County","city":"Durango","geo_score":0.805,"zip code":"81301","site":"Durango","id":"a8ty6xtj5xma","address":"2750 Main Ave.","geo_precision":"street","state":"CO"},"type":"Feature","geometry":{"type":"Point","coordinates":[-107.866477,37.305642]}},{"properties":{"name":"Boys and Girls Clubs of the San Luis Valley","city":"Alamosa","geo_score":0.916,"zip code":"81101","site":"Alamosa","id":"a8ty6xv9w0d0","address":"1115 10th St.","geo_precision":"range","state":"CO"},"type":"Feature","geometry":{"type":"Point","coordinates":[-105.87481,37.462409]}},{"properties":{"name":"Boys and Girls Clubs of the Southern Ute Indian Tribe","city":"Ignacio","geo_score":0.451,"zip code":"81137","site":"Ignacio","id":"a8ty6xsl4g97","address":"290 Mouache Circle","geo_precision":"street","state":"CO"},"type":"Feature","geometry":{"type":"Point","coordinates":[-107.073533,37.270959]}},{"properties":{"name":"Boys and Girls Clubs of Chaffee County`","city":"Buena Vista","geo_score":1.0,"zip code":"81211","site":"Buena Vista","id":"a8ty6y5mjvlt","address":"East Main St","geo_precision":"street","state":"CO"},"type":"Feature","geometry":{"type":"Point","coordinates":[-106.130829,38.842293]}},{"properties":{"name":"Boys and Girls Club of the Pikes Peak Region","city":"Colorado Springs","geo_score":0.807,"zip code":"80916","site":"Soaring Eagles Elementary","id":"a8ty6y0hvcl5","address":"4710 Harrier Ridge Dr","geo_precision":"street","state":"CO"},"type":"Feature","geometry":{"type":"Point","coordinates":[-104.738115,38.784363]}},{"properties":{"name":"Boys and Girls Club of the Pikes Peak Region","city":"Colorado Springs","geo_score":1.0,"zip code":"80906","site":"Otero Elementary","id":"a8ty6y5xt9xu","address":"1650 Charmwood Dr","geo_precision":"range","state":"CO"},"type":"Feature","geometry":{"type":"Point","coordinates":[-104.805292,38.770713]}},{"properties":{"name":"Boys and Girls Club of the Pikes Peak Region","city":"Colorado Springs","geo_score":1.0,"zip code":"80916","site":"James Irwin Charter School","id":"a8ty6y065mps","address":"5525 Astrozon Blvd","geo_precision":"range","state":"CO"},"type":"Feature","geometry":{"type":"Point","coordinates":[-104.7239,38.798769]}},{"properties":{"name":"Boys and Girls Club of the Pikes Peak Region","city":"Colorado Springs","geo_score":1.0,"zip code":"80906","site":"Oak Creek Elementary","id":"a8ty6xtgs0ku","address":"3333 Oak Creek Dr West","geo_precision":"range","state":"CO"},"type":"Feature","geometry":{"type":"Point","coordinates":[-104.818187,38.783168]}},{"properties":{"name":"Boys and Girls Club of the Pikes Peak Region","city":"Falcon","geo_score":0.986,"zip code":"80831","site":"Falcon Elementary","id":"a8ty6y48z2mf","address":"12050 Falcon Hwy","geo_precision":"range","state":"CO"},"type":"Feature","geometry":{"type":"Point","coordinates":[-104.60402,38.926083]}},{"properties":{"name":"Boys and Girls Club of the Pikes Peak Region","city":"Fountain","geo_score":0.973,"zip code":"80817","site":"Mesa Elementary","id":"a8ty6xsj8tob","address":"400 Camino Del Ray","geo_precision":"range","state":"CO"},"type":"Feature","geometry":{"type":"Point","coordinates":[-104.696809,38.704367]}},{"properties":{"name":"Boys and Girls Club of the Pikes Peak Region","city":"Fountain","geo_score":0.857,"zip code":"80817","site":"Eagleside Elementary","id":"a8ty6xvjehed","address":null,"geo_precision":"zip","state":"CO"},"type":"Feature","geometry":{"type":"Point","coordinates":[-104.652221,38.663856]}},{"properties":{"name":"Boys and Girls Club of the Pikes Peak Region","city":"Colorado Springs","geo_score":1.0,"zip code":"80910","site":"E.A Tutt Club","id":"a8ty6y122rwh","address":"1455 South Chelton Rd","geo_precision":"range","state":"CO"},"type":"Feature","geometry":{"type":"Point","coordinates":[-104.766185,38.810066]}},{"properties":{"name":"Boys and Girls Club of the Pikes Peak Region","city":"Colorado Springs","geo_score":0.805,"zip code":"80904","site":"El Pomar Club","id":"a8ty6y2cfcqn","address":"805 Praderia Ave","geo_precision":"street","state":"CO"},"type":"Feature","geometry":{"type":"Point","coordinates":[-104.840553,38.841915]}}],"is_temporal":false,"author":{"url":"","metadata":"","contact_name":"","contact_address":"","source":"","contact_phone":""},"source":"","pagination":{"sort":null,"start":0,"total":13,"limit":1000000},"state":"complete","tags":"","published":"2014-08-14T23:52:47-04:00","id":276629}