{"type":"FeatureCollection","data_type":"Dataset","url_type":null,"permissions":[{"permissions":{"download":true,"view":true},"group_id":"everyone"}],"classification":null,"title":"test data - 200 - working","count":196,"stream_id":277080,"contributor":{"url":"http://geocommons.com/users/47387","name":"boboallen"},"data_attributes":null,"calculation_params":null,"icon_link":null,"link":"http://geocommons.com/overlays/277080.json","extent":[-73.6687,41.0215,-71.8124,42.027],"geometry_types":["point"],"unique_name":null,"name":"test data - 200 - working","feature_count":196,"description":"","next_feature":null,"is_raster":false,"short_classification":"Y","stats":{"int sq ft":{"max":22949,"variance":13647328.1788331,"mean":2995.47448979592,"stdev":3694.22903713793,"min":0,"median":1848},"annual rent / sq ft":{"max":53,"variance":68.8264521193093,"mean":14.4030612244898,"stdev":8.29617093117719,"min":0,"median":14},"lo years":{"max":30,"variance":37.5567616463139,"mean":9.50746268656716,"stdev":6.12835717352651,"min":2,"median":6},"annual rent":{"max":430000,"variance":3431020995.20657,"mean":49497.637755102,"stdev":58574.9177994008,"min":1,"median":30000},"site sq ft":{"max":293848,"variance":1415241913.032,"mean":22976.8010204082,"stdev":37619.7011289563,"min":30,"median":9369},"lo nbr":{"max":5,"variance":1.21398124467178,"mean":1.85507246376812,"stdev":1.1018081705414,"min":1,"median":1},"next rent / sq ft":{"max":40,"variance":73.138356881214,"mean":5.01020408163265,"stdev":8.55209663656895,"min":0,"median":0},"next rent":{"max":352000,"variance":2544654266.88477,"mean":21786.612244898,"stdev":50444.5662771004,"min":0,"median":0},"property id":{"max":86868001,"variance":3675698132032.68,"mean":83268113.1326531,"stdev":1917211.02960333,"min":80068001,"median":83366005}},"features":[{"properties":{"city":"NORTH STONINGTON","geo_precision0":"street","zip":"06359-9998","bldg own":"X","geo_score0":0.727,"int sq ft":0,"district":"Connecticut Valley","lo years":20,"annual rent / sq ft":0,"annual rent":1,"geo_score":0.727,"po name":"NORTH STONINGTON","lo nbr":4,"site sq ft":72365,"exp date":"5/31/2017","land own":"Z","unit name":"MPO GROUND LEASE","tax clause":"None Specified","lessor name":null,"id":"a8uq3ruivhwo","address":"ROUTE 2","maint":"USPS","eff date":"06/01/1987","purchase option":"N","next rent / sq ft":0,"geo_precision":"street","property id":85236002,"state":"CT","next rent":1},"type":"Feature","geometry":{"type":"Point","coordinates":[-71.855905,41.413149]}},{"properties":{"city":"CHESHIRE","geo_precision0":"range","zip":"06410-9998","bldg own":"X","geo_score0":1.0,"int sq ft":0,"district":"Connecticut Valley","lo years":null,"annual rent / sq ft":0,"annual rent":1500,"geo_score":1.0,"po name":"CHESHIRE","lo nbr":null,"site sq ft":10400,"exp date":null,"land own":"E","unit name":"ADDITIONAL PARKING","tax clause":"None Specified","lessor name":"ST BRIDGET'S CHURCH","id":"a8uq3rrk7601","address":"175 MAIN STREET","maint":"Landlord","eff date":"03/01/1988","purchase option":"N","next rent / sq ft":0,"geo_precision":"range","property id":81156002,"state":"CT","next rent":0},"type":"Feature","geometry":{"type":"Point","coordinates":[-72.903967,41.503431]}},{"properties":{"city":"NEWTOWN","geo_precision0":"range","zip":"06470-9998","bldg own":"Q","geo_score0":1.0,"int sq ft":0,"district":"Connecticut Valley","lo years":null,"annual rent / sq ft":0,"annual rent":50000,"geo_score":1.0,"po name":"NEWTOWN","lo nbr":null,"site sq ft":272998,"exp date":"10/24/2090","land own":"P","unit name":"MAIN OFFICE GROUND LEASE","tax clause":"Reimbursable","lessor name":"MARTIN BENNETT","id":"a8uq3runt2w0","address":"5 COMMERCE ROAD","maint":"USPS","eff date":"10/25/1991","purchase option":"N","next rent / sq ft":0,"geo_precision":"range","property id":84862002,"state":"CT","next rent":0},"type":"Feature","geometry":{"type":"Point","coordinates":[-73.289139,41.413973]}},{"properties":{"city":"CHESHIRE","geo_precision0":"zip","zip":"06410-9998","bldg own":"X","geo_score0":0.585,"int sq ft":0,"district":"Connecticut Valley","lo years":15,"annual rent / sq ft":0,"annual rent":40000,"geo_score":0.585,"po name":"CHESHIRE","lo nbr":3,"site sq ft":104544,"exp date":"2/28/2031","land own":"Z","unit name":"RETAIL - GROUND LEASE","tax clause":"Reimbursable","lessor name":"MARSHALL ENTRPS LLC","id":"a8uq3s38xxim","address":"1227 HIGHLAND AVENUE","maint":"USPS","eff date":"03/01/2006","purchase option":"Y","next rent / sq ft":0,"geo_precision":"zip","property id":81156004,"state":"CT","next rent":44000},"type":"Feature","geometry":{"type":"Point","coordinates":[-72.935659,41.522319]}},{"properties":{"city":"NORWALK","geo_precision0":"street","zip":"06856-9998","bldg own":"X","geo_score0":0.54,"int sq ft":0,"district":"Connecticut Valley","lo years":null,"annual rent / sq ft":0,"annual rent":1200,"geo_score":0.54,"po name":"NORWALK","lo nbr":null,"site sq ft":3000,"exp date":null,"land own":"Z","unit name":"MAIN OFFICE PARKING #4","tax clause":"None Specified","lessor name":"NORWALK ECONOMIC","id":"a8uq3s41ar37","address":"165 FLAX HILL RD","maint":"Landlord","eff date":"07/01/2000","purchase option":null,"next rent / sq ft":0,"geo_precision":"street","property id":85406007,"state":"CT","next rent":0},"type":"Feature","geometry":{"type":"Point","coordinates":[-73.375708,41.155591]}},{"properties":{"city":"NORTH GROSVENORSDALE","geo_precision0":"street","zip":"06255-9998","bldg own":"X","geo_score0":0.993,"int sq ft":0,"district":"Connecticut Valley","lo years":null,"annual rent / sq ft":0,"annual rent":1200,"geo_score":0.993,"po name":"NORTH GROSVENORDALE","lo nbr":null,"site sq ft":2700,"exp date":null,"land own":"Z","unit name":"MPO PARKING","tax clause":"None Specified","lessor name":"TOWN OF THOMPSON","id":"a8uq3s0frvl5","address":"RIVERSIDE DRIVE","maint":"Landlord","eff date":"06/01/2005","purchase option":null,"next rent / sq ft":0,"geo_precision":"street","property id":85168001,"state":"CT","next rent":0},"type":"Feature","geometry":{"type":"Point","coordinates":[-71.887549,41.948945]}},{"properties":{"city":"ANSONIA","geo_precision0":"street","zip":"06401-9998","bldg own":"X","geo_score0":1.0,"int sq ft":0,"district":"Connecticut Valley","lo years":null,"annual rent / sq ft":1,"annual rent":3594,"geo_score":1.0,"po name":"ANSONIA","lo nbr":null,"site sq ft":6600,"exp date":null,"land own":"E","unit name":"EMPLOYEE PARKING","tax clause":"None Specified","lessor name":"CITY OF ANSONIA","id":"a8uq3s3jmw83","address":"West Main Street","maint":"Landlord","eff date":"02/01/1996","purchase option":"N","next rent / sq ft":0,"geo_precision":"street","property id":80136001,"state":"CT","next rent":0},"type":"Feature","geometry":{"type":"Point","coordinates":[-73.079442,41.342409]}},{"properties":{"city":"NORTH STONINGTON","geo_precision0":"street","zip":"06359-9998","bldg own":"X","geo_score0":0.863,"int sq ft":0,"district":"Connecticut Valley","lo years":null,"annual rent / sq ft":1,"annual rent":4200,"geo_score":0.863,"po name":"NORTH STONINGTON","lo nbr":null,"site sq ft":6000,"exp date":null,"land own":"Z","unit name":"MPO PARKING","tax clause":"None Specified","lessor name":"FRANK A LIMPERT &amp;","id":"a8uq3s4qhdc6","address":"387 NORWICH WESTERLY ROAD","maint":"Landlord","eff date":"07/01/2000","purchase option":null,"next rent / sq ft":0,"geo_precision":"street","property id":85236004,"state":"CT","next rent":0},"type":"Feature","geometry":{"type":"Point","coordinates":[-71.897455,41.448653]}},{"properties":{"city":"DANIELSON","geo_precision0":"street","zip":"06239-9998","bldg own":"X","geo_score0":1.0,"int sq ft":0,"district":"Connecticut Valley","lo years":null,"annual rent / sq ft":1,"annual rent":4800,"geo_score":1.0,"po name":"DANIELSON","lo nbr":null,"site sq ft":6000,"exp date":null,"land own":"Z","unit name":"PARKING","tax clause":"None Specified","lessor name":"GREEK ORTHODOX COMMUNITY","id":"a8uq3rw18jph","address":"WATER ST","maint":"USPS","eff date":"01/01/2000","purchase option":null,"next rent / sq ft":0,"geo_precision":"street","property id":81700002,"state":"CT","next rent":0},"type":"Feature","geometry":{"type":"Point","coordinates":[-71.885936,41.803233]}},{"properties":{"city":"HARTFORD","geo_precision0":"zip","zip":"06096-9998","bldg own":"Q","geo_score0":0.857,"int sq ft":0,"district":"Connecticut Valley","lo years":20,"annual rent / sq ft":1,"annual rent":273572,"geo_score":0.857,"po name":"HARTFORD","lo nbr":4,"site sq ft":293848,"exp date":"9/30/2014","land own":"Z","unit name":"BRADLEY AIRPORT GRD LSE","tax clause":"None Specified","lessor name":"STATE OF CONNECTICUT","id":"a8uq3s7enqm2","address":"SCHOEPHOESTER RD","maint":"USPS","eff date":"10/01/2009","purchase option":"N","next rent / sq ft":1,"geo_precision":"zip","property id":80520041,"state":"CT","next rent":348504},"type":"Feature","geometry":{"type":"Point","coordinates":[-72.660245,41.933846]}},{"properties":{"city":"NEW HAVEN","geo_precision0":"street","zip":"06516-9998","bldg own":"X","geo_score0":0.957,"int sq ft":0,"district":"Connecticut Valley","lo years":null,"annual rent / sq ft":1,"annual rent":26160,"geo_score":0.957,"po name":"NEW HAVEN","lo nbr":null,"site sq ft":26400,"exp date":"6/30/2015","land own":"A","unit name":"ALLINGTOWN PARKING #2","tax clause":"Percentage","lessor name":"HEALEY PROPERTIES","id":"a8uq3s4z74in","address":"FRESH MEADOW ROAD","maint":"Landlord","eff date":"07/01/2005","purchase option":null,"next rent / sq ft":0,"geo_precision":"street","property id":84726057,"state":"CT","next rent":0},"type":"Feature","geometry":{"type":"Point","coordinates":[-72.9789,41.289469]}},{"properties":{"city":"HARTFORD","geo_precision0":"range","zip":"06101-9332","bldg own":"B","geo_score0":0.805,"int sq ft":20794,"district":"Connecticut Valley","lo years":null,"annual rent / sq ft":1,"annual rent":21408,"geo_score":0.805,"po name":"HARTFORD","lo nbr":null,"site sq ft":129920,"exp date":"11/30/2014","land own":"B","unit name":"VMF","tax clause":"None Specified","lessor name":"POSTAL FACILITIES","id":"a8uq3rsga3xx","address":"85 WESTON ST","maint":"USPS","eff date":"12/01/2009","purchase option":"Y","next rent / sq ft":0,"geo_precision":"range","property id":83368001,"state":"CT","next rent":0},"type":"Feature","geometry":{"type":"Point","coordinates":[-72.663589,41.787057]}},{"properties":{"city":"RIDGEFIELD","geo_precision0":"street","zip":"06877-9998","bldg own":"Q","geo_score0":0.961,"int sq ft":0,"district":"Connecticut Valley","lo years":30,"annual rent / sq ft":1,"annual rent":28056,"geo_score":0.961,"po name":"RIDGEFIELD","lo nbr":3,"site sq ft":27256,"exp date":"9/30/2018","land own":"Z","unit name":"MPO GROUND LEASE","tax clause":"Reimbursable","lessor name":"POSTAL HOLDINGS LC","id":"a8uq3s2a1b5q","address":"CATOONAH STREET","maint":"USPS","eff date":"10/01/2008","purchase option":"Y","next rent / sq ft":1,"geo_precision":"street","property id":86392002,"state":"CT","next rent":30744},"type":"Feature","geometry":{"type":"Point","coordinates":[-73.501835,41.281307]}},{"properties":{"city":"NORWALK","geo_precision0":"range","zip":"06856-9998","bldg own":"X","geo_score0":0.762,"int sq ft":0,"district":"Connecticut Valley","lo years":null,"annual rent / sq ft":1,"annual rent":30000,"geo_score":0.762,"po name":"NORWALK","lo nbr":null,"site sq ft":26400,"exp date":null,"land own":"D","unit name":"MAIN OFFICE PARKING #1","tax clause":"None Specified","lessor name":"PRIME LOCATIONS INC","id":"a8uq3s41pr28","address":"1 DR MARTIN LUTHER KING BLVD","maint":"USPS","eff date":"04/01/2000","purchase option":null,"next rent / sq ft":0,"geo_precision":"range","property id":85406004,"state":"CT","next rent":0},"type":"Feature","geometry":{"type":"Point","coordinates":[-73.420289,41.10161]}},{"properties":{"city":"BRISTOL","geo_precision0":"street","zip":"06010-9998","bldg own":"X","geo_score0":1.0,"int sq ft":0,"district":"Connecticut Valley","lo years":null,"annual rent / sq ft":1,"annual rent":12720,"geo_score":1.0,"po name":"BRISTOL","lo nbr":null,"site sq ft":9000,"exp date":null,"land own":"D","unit name":"MAIN OFFICE EMP PKG","tax clause":"None Specified","lessor name":"CITY OF BRISTOL","id":"a8uq3rtzh1va","address":"NORTH MAIN ST","maint":"USPS","eff date":"02/01/1989","purchase option":"N","next rent / sq ft":0,"geo_precision":"street","property id":80646006,"state":"CT","next rent":0},"type":"Feature","geometry":{"type":"Point","coordinates":[-72.94565,41.671417]}},{"properties":{"city":"HARTFORD","geo_precision0":"street","zip":"06114-9998","bldg own":"X","geo_score0":1.0,"int sq ft":0,"district":"Connecticut Valley","lo years":null,"annual rent / sq ft":1,"annual rent":30800,"geo_score":1.0,"po name":"HARTFORD","lo nbr":null,"site sq ft":21000,"exp date":"10/31/2012","land own":"A","unit name":"MURPHY ROAD PARKING","tax clause":"None Specified","lessor name":"STATE OF CONNECTICUT","id":"a8uq3s4zn4us","address":"MURPHY ROAD","maint":"Landlord","eff date":"11/01/2002","purchase option":"N","next rent / sq ft":0,"geo_precision":"street","property id":83366051,"state":"CT","next rent":0},"type":"Feature","geometry":{"type":"Point","coordinates":[-72.653652,41.742795]}},{"properties":{"city":"STRATFORD","geo_precision0":"range","zip":"06614-9998","bldg own":"X","geo_score0":1.0,"int sq ft":0,"district":"Connecticut Valley","lo years":null,"annual rent / sq ft":2,"annual rent":26320,"geo_score":1.0,"po name":"BRIDGEPORT","lo nbr":null,"site sq ft":16400,"exp date":"5/31/2016","land own":"A","unit name":"STRATFORD BRANCH PKG","tax clause":"None Specified","lessor name":"THE 89 WRS","id":"a8uq3rz6dqyc","address":"3272 MAIN ST","maint":"Landlord","eff date":"06/01/2006","purchase option":"N","next rent / sq ft":0,"geo_precision":"range","property id":80578033,"state":"CT","next rent":0},"type":"Feature","geometry":{"type":"Point","coordinates":[-73.131637,41.204308]}},{"properties":{"city":"BLOOMFIELD","geo_precision0":"range","zip":"06002-9998","bldg own":"X","geo_score0":1.0,"int sq ft":0,"district":"Connecticut Valley","lo years":null,"annual rent / sq ft":2,"annual rent":16716,"geo_score":1.0,"po name":"BLOOMFIELD","lo nbr":null,"site sq ft":10203,"exp date":"10/31/2014","land own":"P","unit name":"EMPLOYEE PARKING","tax clause":"None Specified","lessor name":"BLOOMFIELD PROF CTR LLC","id":"a8uq3rsujrd8","address":"34 JEROME AVENUE","maint":"Landlord","eff date":"11/01/2009","purchase option":null,"next rent / sq ft":0,"geo_precision":"range","property id":80476003,"state":"CT","next rent":0},"type":"Feature","geometry":{"type":"Point","coordinates":[-72.736097,41.826214]}},{"properties":{"city":"GUILFORD","geo_precision0":"range","zip":"06437-9994","bldg own":"B","geo_score0":1.0,"int sq ft":5341,"district":"Connecticut Valley","lo years":null,"annual rent / sq ft":2,"annual rent":8800,"geo_score":1.0,"po name":"GUILFORD","lo nbr":null,"site sq ft":30000,"exp date":"1/31/2014","land own":"B","unit name":"MAIN OFFICE","tax clause":"None Specified","lessor name":"NATIONWIDE POSTAL MANAGEMENT","id":"a8uq3rr8zhlq","address":"42 WATER ST","maint":"Landlord","eff date":"02/01/2009","purchase option":null,"next rent / sq ft":0,"geo_precision":"range","property id":83162001,"state":"CT","next rent":0},"type":"Feature","geometry":{"type":"Point","coordinates":[-72.681877,41.281086]}},{"properties":{"city":"DERBY","geo_precision0":"street","zip":"06418-9998","bldg own":"P","geo_score0":1.0,"int sq ft":0,"district":"Connecticut Valley","lo years":null,"annual rent / sq ft":2,"annual rent":14520,"geo_score":1.0,"po name":"DERBY","lo nbr":null,"site sq ft":7500,"exp date":"8/31/2015","land own":"P","unit name":"EMPLOYEE IN-DOOR PKG.","tax clause":"None Specified","lessor name":"DERBY MUNICIPAL PARKING","id":"a8uq3rr1yo0r","address":"THOMPSON PLACE","maint":"Landlord","eff date":"09/01/2010","purchase option":null,"next rent / sq ft":0,"geo_precision":"street","property id":81836003,"state":"CT","next rent":0},"type":"Feature","geometry":{"type":"Point","coordinates":[-73.089253,41.320565]}},{"properties":{"city":"NEW MILFORD","geo_precision0":"range","zip":"06776-9998","bldg own":"B","geo_score0":1.0,"int sq ft":10825,"district":"Connecticut Valley","lo years":5,"annual rent / sq ft":3,"annual rent":27875,"geo_score":1.0,"po name":"NEW MILFORD","lo nbr":1,"site sq ft":48365,"exp date":"10/31/2014","land own":"B","unit name":"MAIN OFFICE","tax clause":"None Specified","lessor name":"CAMILLO M SANTOMERO III","id":"a8uq3rsgc32i","address":"37 MAIN ST","maint":"USPS (Not Roof)","eff date":"11/01/2009","purchase option":null,"next rent / sq ft":3,"geo_precision":"range","property id":84794001,"state":"CT","next rent":27875},"type":"Feature","geometry":{"type":"Point","coordinates":[-73.411124,41.577701]}},{"properties":{"city":"GROTON","geo_precision0":"range","zip":"06340-9998","bldg own":"B","geo_score0":0.927,"int sq ft":16895,"district":"Connecticut Valley","lo years":10,"annual rent / sq ft":3,"annual rent":46847,"geo_score":0.927,"po name":"GROTON","lo nbr":2,"site sq ft":35700,"exp date":"12/31/2014","land own":"B","unit name":"MAIN OFFICE","tax clause":"None Specified","lessor name":"MALL INC","id":"a8uq3ryuvy88","address":"100 PLAZA CT","maint":"Landlord","eff date":"01/01/2010","purchase option":null,"next rent / sq ft":3,"geo_precision":"range","property id":83110004,"state":"CT","next rent":46847},"type":"Feature","geometry":{"type":"Point","coordinates":[-72.049335,41.346091]}},{"properties":{"city":"GREENWICH","geo_precision0":"range","zip":"06831-9998","bldg own":"Q","geo_score0":1.0,"int sq ft":0,"district":"Connecticut Valley","lo years":25,"annual rent / sq ft":3,"annual rent":342197,"geo_score":1.0,"po name":"GREENWICH","lo nbr":5,"site sq ft":122821,"exp date":"5/25/2033","land own":"Z","unit name":"MPO Valley Dr. Grd Lse","tax clause":"None Specified","lessor name":"29 VALLEY LLP","id":"a8uq3rwfkx10","address":"29 VALLEY DR","maint":"USPS","eff date":"5/26/1993","purchase option":"N","next rent / sq ft":2,"geo_precision":"range","property id":83060003,"state":"CT","next rent":225000},"type":"Feature","geometry":{"type":"Point","coordinates":[-73.645504,41.021501]}},{"properties":{"city":"MIDDLEFIELD","geo_precision0":"range","zip":"06455-9998","bldg own":"B","geo_score0":1.0,"int sq ft":0,"district":"Connecticut Valley","lo years":5,"annual rent / sq ft":3,"annual rent":30000,"geo_score":1.0,"po name":"MIDDLEFIELD","lo nbr":1,"site sq ft":10392,"exp date":"5/31/2014","land own":"B","unit name":"MAIN OFFICE","tax clause":"Reimbursable","lessor name":"KREPO LLC","id":"a8uq3rwbq59j","address":"456 MAIN ST","maint":"USPS","eff date":"06/01/2009","purchase option":null,"next rent / sq ft":3,"geo_precision":"range","property id":84250001,"state":"CT","next rent":34500},"type":"Feature","geometry":{"type":"Point","coordinates":[-72.71247,41.512832]}},{"properties":{"city":"GLASTONBURY","geo_precision0":"range","zip":"06033-9998","bldg own":"B","geo_score0":1.0,"int sq ft":8717,"district":"Connecticut Valley","lo years":5,"annual rent / sq ft":3,"annual rent":25287,"geo_score":1.0,"po name":"GLASTONBURY","lo nbr":1,"site sq ft":63200,"exp date":"4/30/2015","land own":"B","unit name":"MAIN OFFICE","tax clause":"None Specified","lessor name":"BARBEE REALTY CO INC","id":"a8uq3rt8q68r","address":"145 NEW LONDON TPKE","maint":"Landlord","eff date":"05/01/2010","purchase option":null,"next rent / sq ft":3,"geo_precision":"range","property id":82856001,"state":"CT","next rent":25287},"type":"Feature","geometry":{"type":"Point","coordinates":[-72.605499,41.711352]}},{"properties":{"city":"NEW HAVEN","geo_precision0":"range","zip":"06511-9992","bldg own":"A","geo_score0":0.902,"int sq ft":10016,"district":"Connecticut Valley","lo years":null,"annual rent / sq ft":3,"annual rent":33900,"geo_score":0.902,"po name":"NEW HAVEN","lo nbr":null,"site sq ft":10800,"exp date":"11/14/2013","land own":"A","unit name":"YALE STATION","tax clause":"Percentage","lessor name":"YALE UNIVERSITY","id":"a8uq3rztowhz","address":"206 ELM ST","maint":"Landlord","eff date":"11/15/2003","purchase option":"N","next rent / sq ft":0,"geo_precision":"range","property id":84726058,"state":"CT","next rent":0},"type":"Feature","geometry":{"type":"Point","coordinates":[-72.92838,41.309894]}},{"properties":{"city":"BRIDGEPORT","geo_precision0":"street","zip":"06604-9998","bldg own":"P","geo_score0":1.0,"int sq ft":0,"district":"Connecticut Valley","lo years":null,"annual rent / sq ft":3,"annual rent":115884,"geo_score":1.0,"po name":"BRIDGEPORT","lo nbr":null,"site sq ft":33300,"exp date":null,"land own":"P","unit name":"ALTERNATE PARKING","tax clause":"None Specified","lessor name":"IMPERIAL PARKING CO","id":"a8uq3rvxsza4","address":"MIDDLE ST","maint":"Landlord","eff date":"06/01/2010","purchase option":null,"next rent / sq ft":0,"geo_precision":"street","property id":80578017,"state":"CT","next rent":0},"type":"Feature","geometry":{"type":"Point","coordinates":[-73.188611,41.179387]}},{"properties":{"city":"DARIEN","geo_precision0":"street","zip":"06820-9998","bldg own":"X","geo_score0":1.0,"int sq ft":0,"district":"Connecticut Valley","lo years":null,"annual rent / sq ft":5,"annual rent":88000,"geo_score":1.0,"po name":"DARIEN","lo nbr":null,"site sq ft":16592,"exp date":"7/31/2011","land own":"P","unit name":"PARKING","tax clause":"Reimbursable","lessor name":"BAYWATER 30 CORBIN LLC","id":"a8uq3rswu3ob","address":"CORBIN DRIVE","maint":"Landlord","eff date":"08/01/2006","purchase option":null,"next rent / sq ft":0,"geo_precision":"street","property id":81734004,"state":"CT","next rent":0},"type":"Feature","geometry":{"type":"Point","coordinates":[-73.472495,41.074944]}},{"properties":{"city":"NEW HAVEN","geo_precision0":"range","zip":"06520-9998","bldg own":"D","geo_score0":0.805,"int sq ft":0,"district":"Connecticut Valley","lo years":null,"annual rent / sq ft":6,"annual rent":24900,"geo_score":0.805,"po name":"NEW HAVEN","lo nbr":null,"site sq ft":4500,"exp date":null,"land own":"D","unit name":"YALE STATION PARKING","tax clause":"None Specified","lessor name":"DAVINCI ASSOCIATES LLC","id":"a8uq3s5n22jl","address":"280 CROWN STREET","maint":"Landlord","eff date":"01/01/2001","purchase option":"N","next rent / sq ft":0,"geo_precision":"range","property id":84726033,"state":"CT","next rent":0},"type":"Feature","geometry":{"type":"Point","coordinates":[-72.929865,41.305978]}},{"properties":{"city":"EAST KILLINGLY","geo_precision0":"range","zip":"06243-9998","bldg own":"P","geo_score0":0.902,"int sq ft":1218,"district":"Connecticut Valley","lo years":null,"annual rent / sq ft":6,"annual rent":7548,"geo_score":0.902,"po name":"EAST KILLINGLY","lo nbr":null,"site sq ft":7878,"exp date":"11/30/2015","land own":"P","unit name":"MAIN OFFICE","tax clause":"Reimbursable","lessor name":"LMB REALTY LLC","id":"a8uq3s18vuen","address":"1289 HARTFORD PIKE","maint":"Landlord","eff date":"12/01/2010","purchase option":"N","next rent / sq ft":0,"geo_precision":"range","property id":82210001,"state":"CT","next rent":0},"type":"Feature","geometry":{"type":"Point","coordinates":[-71.822864,41.848026]}},{"properties":{"city":"EAST LYME","geo_precision0":"range","zip":"06333-9992","bldg own":"B","geo_score0":1.0,"int sq ft":2960,"district":"Connecticut Valley","lo years":null,"annual rent / sq ft":7,"annual rent":21000,"geo_score":1.0,"po name":"EAST LYME","lo nbr":null,"site sq ft":14084,"exp date":"1/31/2014","land own":"B","unit name":"MAIN OFFICE","tax clause":"Reimbursable","lessor name":"PETER L FILOSI","id":"a8uq3s1cfqru","address":"225 BOSTON POST RD","maint":"USPS (Not Roof)","eff date":"02/01/2009","purchase option":"N","next rent / sq ft":0,"geo_precision":"range","property id":82244001,"state":"CT","next rent":0},"type":"Feature","geometry":{"type":"Point","coordinates":[-72.220036,41.368023]}},{"properties":{"city":"ONECO","geo_precision0":"range","zip":"06373-9992","bldg own":"B","geo_score0":1.0,"int sq ft":912,"district":"Connecticut Valley","lo years":null,"annual rent / sq ft":7,"annual rent":6624,"geo_score":1.0,"po name":"ONECO","lo nbr":null,"site sq ft":7567,"exp date":"10/31/2015","land own":"B","unit name":"MAIN OFFICE","tax clause":"Reimbursable","lessor name":"LMB REALTY LLC","id":"a8uq3rwbzvts","address":"1104 PLAINFIELD PIKE","maint":"Landlord","eff date":"11/01/2010","purchase option":"N","next rent / sq ft":0,"geo_precision":"range","property id":85678001,"state":"CT","next rent":0},"type":"Feature","geometry":{"type":"Point","coordinates":[-71.812407,41.692825]}},{"properties":{"city":"NEW MILFORD","geo_precision0":"range","zip":"06776-9998","bldg own":"P","geo_score0":1.0,"int sq ft":10795,"district":"Connecticut Valley","lo years":5,"annual rent / sq ft":8,"annual rent":90000,"geo_score":1.0,"po name":"NEW MILFORD","lo nbr":1,"site sq ft":11075,"exp date":"5/31/2015","land own":"P","unit name":"MAIN OFFICE ADD'L SPACE","tax clause":"Percentage","lessor name":"CAMILLO M SANTOMERO III","id":"a8uq3rzltdno","address":"37 MAIN ST","maint":"USPS (Not Roof)","eff date":"06/01/2010","purchase option":"N","next rent / sq ft":9,"geo_precision":"range","property id":84794003,"state":"CT","next rent":98000},"type":"Feature","geometry":{"type":"Point","coordinates":[-73.411124,41.577701]}},{"properties":{"city":"DURHAM","geo_precision0":"range","zip":"06422-9998","bldg own":"B","geo_score0":1.0,"int sq ft":2831,"district":"Connecticut Valley","lo years":null,"annual rent / sq ft":9,"annual rent":24227,"geo_score":1.0,"po name":"DURHAM","lo nbr":null,"site sq ft":20000,"exp date":"12/31/2015","land own":"B","unit name":"MAIN OFFICE","tax clause":"Reimbursable","lessor name":"CHEPOVSKY REALTY CORP","id":"a8uq3s1uzgrn","address":"103 MAIN ST","maint":"USPS (Not Roof)","eff date":"01/01/2011","purchase option":"N","next rent / sq ft":0,"geo_precision":"range","property id":81870001,"state":"CT","next rent":0},"type":"Feature","geometry":{"type":"Point","coordinates":[-72.680336,41.471325]}},{"properties":{"city":"FARMINGTON","geo_precision0":"range","zip":"06032-9998","bldg own":"P","geo_score0":1.0,"int sq ft":11307,"district":"Connecticut Valley","lo years":10,"annual rent / sq ft":9,"annual rent":97785,"geo_score":1.0,"po name":"FARMINGTON","lo nbr":2,"site sq ft":39633,"exp date":"6/30/2011","land own":"P","unit name":"MAIN OFFICE","tax clause":"Percentage","lessor name":"LEVY PROPERTIES LLC","id":"a8uq3s161gaa","address":"210 MAIN ST","maint":"Landlord","eff date":"07/01/1996","purchase option":null,"next rent / sq ft":10,"geo_precision":"range","property id":82618001,"state":"CT","next rent":110000},"type":"Feature","geometry":{"type":"Point","coordinates":[-72.837932,41.712814]}},{"properties":{"city":"EAST GLASTONBURY","geo_precision0":"range","zip":"06025-9992","bldg own":"B","geo_score0":0.805,"int sq ft":1165,"district":"Connecticut Valley","lo years":5,"annual rent / sq ft":9,"annual rent":10200,"geo_score":0.805,"po name":"EAST GLASTONBURY","lo nbr":1,"site sq ft":2103,"exp date":"7/31/2011","land own":"B","unit name":"MAIN OFFICE","tax clause":"None Specified","lessor name":"DALE A WEIR","id":"a8uq3rrtlmmm","address":"538 MANCHESTER RD","maint":"Landlord","eff date":"08/01/2006","purchase option":"N","next rent / sq ft":10,"geo_precision":"range","property id":82040001,"state":"CT","next rent":11400},"type":"Feature","geometry":{"type":"Point","coordinates":[-72.535304,41.691415]}},{"properties":{"city":"AMSTON","geo_precision0":"range","zip":"06231-9998","bldg own":"P","geo_score0":1.0,"int sq ft":1421,"district":"Connecticut Valley","lo years":5,"annual rent / sq ft":9,"annual rent":12487,"geo_score":1.0,"po name":"AMSTON","lo nbr":1,"site sq ft":7746,"exp date":"5/31/2015","land own":"P","unit name":"MAIN OFFICE","tax clause":"Reimbursable","lessor name":"BRG INTERESTS","id":"a8uq3s2lr2nk","address":"540 CHURCH ST","maint":"Landlord","eff date":"06/01/2010","purchase option":null,"next rent / sq ft":10,"geo_precision":"range","property id":80068001,"state":"CT","next rent":13500},"type":"Feature","geometry":{"type":"Point","coordinates":[-72.343706,41.630421]}},{"properties":{"city":"PLAINFIELD","geo_precision0":"range","zip":"06374-9998","bldg own":"A","geo_score0":0.854,"int sq ft":3200,"district":"Connecticut Valley","lo years":null,"annual rent / sq ft":9,"annual rent":28600,"geo_score":0.854,"po name":"PLAINFIELD","lo nbr":null,"site sq ft":9131,"exp date":"6/30/2011","land own":"A","unit name":"MAIN OFFICE","tax clause":"None Specified","lessor name":"38 RAILROAD AVE LLC","id":"a8uq3rsgjuxx","address":"42 RAILROAD AVE","maint":"Landlord","eff date":"07/01/2008","purchase option":"N","next rent / sq ft":0,"geo_precision":"range","property id":85916001,"state":"CT","next rent":0},"type":"Feature","geometry":{"type":"Point","coordinates":[-71.919182,41.680042]}},{"properties":{"city":"GROSVENOR DALE","geo_precision0":"range","zip":"06246-9997","bldg own":"P","geo_score0":0.805,"int sq ft":1028,"district":"Connecticut Valley","lo years":null,"annual rent / sq ft":9,"annual rent":9240,"geo_score":0.805,"po name":"GROSVENORDALE","lo nbr":null,"site sq ft":7548,"exp date":"6/30/2015","land own":"P","unit name":"MAIN OFFICE","tax clause":"None Specified","lessor name":"PAUL J LAROCHE","id":"a8uq3rwijqw8","address":"655 RIVERSIDE DR","maint":"Landlord","eff date":"07/01/2010","purchase option":null,"next rent / sq ft":0,"geo_precision":"range","property id":83094001,"state":"CT","next rent":0},"type":"Feature","geometry":{"type":"Point","coordinates":[-71.893564,41.969494]}},{"properties":{"city":"COLEBROOK","geo_precision0":"range","zip":"06021-9998","bldg own":"A","geo_score0":0.878,"int sq ft":670,"district":"Connecticut Valley","lo years":null,"annual rent / sq ft":9,"annual rent":6030,"geo_score":0.878,"po name":"COLEBROOK","lo nbr":null,"site sq ft":1930,"exp date":"11/16/2014","land own":"A","unit name":"MAIN POST OFFICE","tax clause":"None Specified","lessor name":"TOWN OF COLEBROOK","id":"a8uq3rsndxn2","address":"560 COLEBROOK RD","maint":"Landlord","eff date":"11/17/1994","purchase option":"N","next rent / sq ft":0,"geo_precision":"range","property id":81394002,"state":"CT","next rent":0},"type":"Feature","geometry":{"type":"Point","coordinates":[-73.096161,41.989775]}},{"properties":{"city":"WETHERSFIELD","geo_precision0":"range","zip":"06109-9998","bldg own":"B","geo_score0":1.0,"int sq ft":8496,"district":"Connecticut Valley","lo years":10,"annual rent / sq ft":9,"annual rent":78800,"geo_score":1.0,"po name":"HARTFORD","lo nbr":2,"site sq ft":26490,"exp date":"2/28/2015","land own":"B","unit name":"WETHERSFIELD BRANCH","tax clause":"Reimbursable","lessor name":"MADDOX INVESTMENTS LLC","id":"a8uq3s02np2c","address":"67 BEAVER RD","maint":"Landlord","eff date":"03/01/2010","purchase option":"N","next rent / sq ft":11,"geo_precision":"range","property id":83366005,"state":"CT","next rent":90000},"type":"Feature","geometry":{"type":"Point","coordinates":[-72.661711,41.710728]}},{"properties":{"city":"MARLBOROUGH","geo_precision0":"range","zip":"06447-9992","bldg own":"P","geo_score0":1.0,"int sq ft":3360,"district":"Connecticut Valley","lo years":5,"annual rent / sq ft":10,"annual rent":31920,"geo_score":1.0,"po name":"EAST HAMPTON","lo nbr":1,"site sq ft":23076,"exp date":"11/30/2011","land own":"P","unit name":"MARLBOROUGH BRANCH","tax clause":"Reimbursable","lessor name":"BRG INTERESTS","id":"a8uq3s0wsxqw","address":"16 E HAMPTON RD","maint":"Landlord","eff date":"12/01/2006","purchase option":"N","next rent / sq ft":11,"geo_precision":"range","property id":82142001,"state":"CT","next rent":35431},"type":"Feature","geometry":{"type":"Point","coordinates":[-72.460484,41.630182]}},{"properties":{"city":"GILMAN","geo_precision0":"range","zip":"06336-9992","bldg own":"P","geo_score0":1.0,"int sq ft":944,"district":"Connecticut Valley","lo years":null,"annual rent / sq ft":10,"annual rent":9200,"geo_score":1.0,"po name":"GILMAN","lo nbr":null,"site sq ft":5000,"exp date":"9/30/2011","land own":"P","unit name":"MAIN OFFICE","tax clause":"None Specified","lessor name":"THE GILMAN BROTHERS CO","id":"a8uq3rw3by2i","address":"26 GILMAN RD","maint":"Landlord","eff date":"10/01/2006","purchase option":"N","next rent / sq ft":0,"geo_precision":"range","property id":82790001,"state":"CT","next rent":0},"type":"Feature","geometry":{"type":"Point","coordinates":[-72.194527,41.577025]}},{"properties":{"city":"NEW HARTFORD","geo_precision0":"range","zip":"06057-9998","bldg own":"P","geo_score0":1.0,"int sq ft":2079,"district":"Connecticut Valley","lo years":null,"annual rent / sq ft":10,"annual rent":20500,"geo_score":1.0,"po name":"NEW HARTFORD","lo nbr":null,"site sq ft":18472,"exp date":"9/30/2011","land own":"P","unit name":"MAIN OFFICE","tax clause":"Reimbursable","lessor name":"FISCHER PROP GROUP LLC","id":"a8uq3s66ysra","address":"545 MAIN ST","maint":"Landlord","eff date":"10/01/2006","purchase option":"N","next rent / sq ft":0,"geo_precision":"range","property id":84692001,"state":"CT","next rent":0},"type":"Feature","geometry":{"type":"Point","coordinates":[-72.984647,41.88945]}},{"properties":{"city":"OAKDALE","geo_precision0":"street","zip":"06370-9998","bldg own":"B","geo_score0":0.821,"int sq ft":1848,"district":"Connecticut Valley","lo years":10,"annual rent / sq ft":10,"annual rent":18600,"geo_score":0.821,"po name":"OAKDALE","lo nbr":2,"site sq ft":14866,"exp date":"2/28/2014","land own":"B","unit name":"MAIN OFFICE","tax clause":"None Specified","lessor name":"MAY REALTY LLC","id":"a8uq3s02463i","address":"711 ROUTE 163","maint":"USPS","eff date":"03/01/2009","purchase option":null,"next rent / sq ft":11,"geo_precision":"street","property id":85474001,"state":"CT","next rent":19800},"type":"Feature","geometry":{"type":"Point","coordinates":[-72.15231,41.461551]}},{"properties":{"city":"BALTIC","geo_precision0":"range","zip":"06330-9998","bldg own":"B","geo_score0":1.0,"int sq ft":2035,"district":"Connecticut Valley","lo years":10,"annual rent / sq ft":10,"annual rent":20588,"geo_score":1.0,"po name":"BALTIC","lo nbr":2,"site sq ft":31360,"exp date":"8/31/2014","land own":"B","unit name":"MAIN OFFICE","tax clause":"None Specified","lessor name":"WILLIAM T ESPOSITO","id":"a8uq3rxljx4n","address":"2 MAIN ST","maint":"Landlord","eff date":"09/01/2009","purchase option":null,"next rent / sq ft":11,"geo_precision":"range","property id":80238001,"state":"CT","next rent":23161},"type":"Feature","geometry":{"type":"Point","coordinates":[-72.085049,41.617243]}},{"properties":{"city":"BERLIN","geo_precision0":"range","zip":"06037-9998","bldg own":"B","geo_score0":1.0,"int sq ft":7495,"district":"Connecticut Valley","lo years":5,"annual rent / sq ft":10,"annual rent":76240,"geo_score":1.0,"po name":"KENSINGTON","lo nbr":1,"site sq ft":51026,"exp date":"4/30/2014","land own":"B","unit name":"MAIN OFFICE","tax clause":"Reimbursable","lessor name":"MARELD CO INC","id":"a8uq3s47g93r","address":"62 KENSINGTON RD","maint":"Landlord","eff date":"05/01/2009","purchase option":null,"next rent / sq ft":11,"geo_precision":"range","property id":83604001,"state":"CT","next rent":83102},"type":"Feature","geometry":{"type":"Point","coordinates":[-72.768654,41.633753]}},{"properties":{"city":"ELLINGTON","geo_precision0":"range","zip":"06029-9992","bldg own":"B","geo_score0":1.0,"int sq ft":5842,"district":"Connecticut Valley","lo years":null,"annual rent / sq ft":10,"annual rent":60000,"geo_score":1.0,"po name":"ELLINGTON","lo nbr":null,"site sq ft":6310,"exp date":"03/06/2015","land own":"B","unit name":"MAIN OFFICE","tax clause":"None Specified","lessor name":"RICHARD M SOUZA","id":"a8uq3rty34ft","address":"2 CHURCH ST","maint":"USPS (Not Roof)","eff date":"03/07/2010","purchase option":"N","next rent / sq ft":0,"geo_precision":"range","property id":82414001,"state":"CT","next rent":0},"type":"Feature","geometry":{"type":"Point","coordinates":[-72.469126,41.9047]}},{"properties":{"city":"CORNWALL","geo_precision0":"street","zip":"06753-9800","bldg own":"P","geo_score0":0.817,"int sq ft":946,"district":"Connecticut Valley","lo years":null,"annual rent / sq ft":10,"annual rent":9787,"geo_score":0.817,"po name":"CORNWALL","lo nbr":null,"site sq ft":26538,"exp date":"11/30/2011","land own":"P","unit name":"MAIN OFFICE","tax clause":"Reimbursable","lessor name":"RALPH W SANDMEYER JR","id":"a8uq3s04kjdk","address":"36 BOLTON HILL RD","maint":"Landlord","eff date":"12/01/2006","purchase option":null,"next rent / sq ft":0,"geo_precision":"street","property id":81496001,"state":"CT","next rent":0},"type":"Feature","geometry":{"type":"Point","coordinates":[-73.329781,41.843848]}},{"properties":{"city":"ORANGE","geo_precision0":"range","zip":"06477-9994","bldg own":"B","geo_score0":1.0,"int sq ft":8076,"district":"Connecticut Valley","lo years":15,"annual rent / sq ft":11,"annual rent":85000,"geo_score":1.0,"po name":"ORANGE","lo nbr":3,"site sq ft":31110,"exp date":"2/28/2011","land own":"B","unit name":"MAIN OFFICE","tax clause":"Reimbursable","lessor name":"G MICHAEL GIORDANO","id":"a8uq3s14w9gm","address":"36 OLD TAVERN RD","maint":"Shared","eff date":"03/01/2006","purchase option":"N","next rent / sq ft":11,"geo_precision":"range","property id":85712001,"state":"CT","next rent":88000},"type":"Feature","geometry":{"type":"Point","coordinates":[-73.000656,41.26794]}},{"properties":{"city":"CENTERBROOK","geo_precision0":"range","zip":"06409-9998","bldg own":"B","geo_score0":1.0,"int sq ft":1331,"district":"Connecticut Valley","lo years":null,"annual rent / sq ft":11,"annual rent":14040,"geo_score":1.0,"po name":"CENTERBROOK","lo nbr":null,"site sq ft":4155,"exp date":"3/31/2015","land own":"B","unit name":"MAIN OFFICE","tax clause":null,"lessor name":"ISOBEL C ALLEN","id":"a8uq3s5z123x","address":"4 WESTBROOK RD","maint":"Landlord","eff date":"04/01/2010","purchase option":null,"next rent / sq ft":0,"geo_precision":"range","property id":81054001,"state":"CT","next rent":0},"type":"Feature","geometry":{"type":"Point","coordinates":[-72.415587,41.347367]}},{"properties":{"city":"EAST WINDSOR","geo_precision0":"range","zip":"06088-9998","bldg own":"P","geo_score0":0.902,"int sq ft":3000,"district":"Connecticut Valley","lo years":10,"annual rent / sq ft":11,"annual rent":31800,"geo_score":0.902,"po name":"EAST WINDSOR","lo nbr":2,"site sq ft":3000,"exp date":"5/31/2012","land own":"P","unit name":"MAIN OFFICE","tax clause":"None Specified","lessor name":"NNRC LLC","id":"a8uq3s18d7o7","address":"78 BRIDGE ST","maint":"Landlord","eff date":"06/01/2007","purchase option":null,"next rent / sq ft":12,"geo_precision":"range","property id":82312001,"state":"CT","next rent":36000},"type":"Feature","geometry":{"type":"Point","coordinates":[-72.61553,41.929647]}},{"properties":{"city":"BRIDGEPORT","geo_precision0":"range","zip":"06608-9998","bldg own":"P","geo_score0":1.0,"int sq ft":5222,"district":"Connecticut Valley","lo years":5,"annual rent / sq ft":11,"annual rent":55600,"geo_score":1.0,"po name":"BRIDGEPORT","lo nbr":1,"site sq ft":5187,"exp date":"7/31/2012","land own":"P","unit name":"NOBLE STATION","tax clause":"Percentage","lessor name":"EDWARD PELOSO","id":"a8uq3s7ekg07","address":"934 E MAIN ST","maint":"Landlord","eff date":"08/01/2007","purchase option":"N","next rent / sq ft":0,"geo_precision":"range","property id":80578006,"state":"CT","next rent":1},"type":"Feature","geometry":{"type":"Point","coordinates":[-73.180647,41.187974]}},{"properties":{"city":"BEACON FALLS","geo_precision0":"range","zip":"06403-9998","bldg own":"B","geo_score0":1.0,"int sq ft":2044,"district":"Connecticut Valley","lo years":5,"annual rent / sq ft":11,"annual rent":21800,"geo_score":1.0,"po name":"BEACON FALLS","lo nbr":1,"site sq ft":9279,"exp date":"5/31/2012","land own":"B","unit name":"MAIN OFFICE","tax clause":"Reimbursable","lessor name":"WILLIAM T ESPOSITO","id":"a8uq3rwzx9ad","address":"101 N MAIN ST","maint":"Landlord","eff date":"06/01/2007","purchase option":"N","next rent / sq ft":12,"geo_precision":"range","property id":80306001,"state":"CT","next rent":25000},"type":"Feature","geometry":{"type":"Point","coordinates":[-73.06522,41.445307]}},{"properties":{"city":"NAUGATUCK","geo_precision0":"street","zip":"06770-9994","bldg own":"P","geo_score0":0.809,"int sq ft":1410,"district":"Connecticut Valley","lo years":null,"annual rent / sq ft":11,"annual rent":15153,"geo_score":0.809,"po name":"NAUGATUCK","lo nbr":null,"site sq ft":5000,"exp date":"10/31/2014","land own":"P","unit name":"UNION CITY STATION","tax clause":"Reimbursable","lessor name":"STEPHANIE PARZIALE","id":"a8uq3ru66a69","address":"505 N MAIN ST","maint":"Landlord","eff date":"11/01/2009","purchase option":null,"next rent / sq ft":0,"geo_precision":"street","property id":84590001,"state":"CT","next rent":0},"type":"Feature","geometry":{"type":"Point","coordinates":[-73.047252,41.501395]}},{"properties":{"city":"NORTH HAVEN","geo_precision0":"range","zip":"06473-9997","bldg own":"B","geo_score0":1.0,"int sq ft":22921,"district":"Connecticut Valley","lo years":null,"annual rent / sq ft":11,"annual rent":247500,"geo_score":1.0,"po name":"NEW HAVEN","lo nbr":1,"site sq ft":110224,"exp date":"9/30/2011","land own":"B","unit name":"CARRIER ANNEX","tax clause":"None Specified","lessor name":"CHARLES D ROYE TRUST","id":"a8uq3s02loxd","address":"10 MIDDLETOWN AVE","maint":"Shared","eff date":"10/01/2010","purchase option":null,"next rent / sq ft":0,"geo_precision":"range","property id":84726054,"state":"CT","next rent":0},"type":"Feature","geometry":{"type":"Point","coordinates":[-72.863758,41.339927]}},{"properties":{"city":"EASTFORD","geo_precision0":"range","zip":"06242-9998","bldg own":"B","geo_score0":1.0,"int sq ft":800,"district":"Connecticut Valley","lo years":5,"annual rent / sq ft":11,"annual rent":8800,"geo_score":1.0,"po name":"EASTFORD","lo nbr":1,"site sq ft":1660,"exp date":"7/31/2011","land own":"B","unit name":"MAIN OFFICE","tax clause":"None Specified","lessor name":"CHARLES S BOWEN SR","id":"a8uq3rxeomjk","address":"6 COUNTY RD","maint":"USPS (Not Roof)","eff date":"08/01/2006","purchase option":"N","next rent / sq ft":12,"geo_precision":"range","property id":82006001,"state":"CT","next rent":9600},"type":"Feature","geometry":{"type":"Point","coordinates":[-72.079917,41.902212]}},{"properties":{"city":"MONTVILLE","geo_precision0":"range","zip":"06353-9998","bldg own":"B","geo_score0":0.842,"int sq ft":697,"district":"Connecticut Valley","lo years":null,"annual rent / sq ft":11,"annual rent":7671,"geo_score":0.842,"po name":"MONTVILLE","lo nbr":null,"site sq ft":1184,"exp date":"1/31/2016","land own":"B","unit name":"MAIN OFFICE","tax clause":"None Specified","lessor name":"JAMES S RADGOWSKI","id":"a8uq3s5n9zl9","address":"293 ROUTE 163","maint":"Shared","eff date":"02/01/2011","purchase option":"N","next rent / sq ft":0,"geo_precision":"range","property id":84420001,"state":"CT","next rent":0},"type":"Feature","geometry":{"type":"Point","coordinates":[-72.122385,41.445359]}},{"properties":{"city":"HAMPTON","geo_precision0":"range","zip":"06247-9998","bldg own":"P","geo_score0":1.0,"int sq ft":1115,"district":"Connecticut Valley","lo years":null,"annual rent / sq ft":11,"annual rent":12350,"geo_score":1.0,"po name":"HAMPTON","lo nbr":null,"site sq ft":2151,"exp date":"8/31/2013","land own":"P","unit name":"MAIN OFFICE","tax clause":"None Specified","lessor name":"ANGELIKA HANSEN","id":"a8uq3s2rvjb8","address":"222 MAIN ST","maint":"Landlord","eff date":"09/01/2008","purchase option":"N","next rent / sq ft":0,"geo_precision":"range","property id":83298001,"state":"CT","next rent":0},"type":"Feature","geometry":{"type":"Point","coordinates":[-72.054907,41.782021]}},{"properties":{"city":"PLANTSVILLE","geo_precision0":"range","zip":"06479-9998","bldg own":"B","geo_score0":1.0,"int sq ft":3312,"district":"Connecticut Valley","lo years":null,"annual rent / sq ft":11,"annual rent":37375,"geo_score":1.0,"po name":"PLANTSVILLE","lo nbr":null,"site sq ft":17028,"exp date":"12/31/2015","land own":"B","unit name":"MAIN OFFICE","tax clause":"Reimbursable","lessor name":"CROMWELL LEASING CO INC","id":"a8uq3s6uqsvi","address":"847 S MAIN ST","maint":"Landlord","eff date":"01/01/2011","purchase option":null,"next rent / sq ft":0,"geo_precision":"range","property id":85984001,"state":"CT","next rent":0},"type":"Feature","geometry":{"type":"Point","coordinates":[-72.891337,41.586035]}},{"properties":{"city":"LITCHFIELD","geo_precision0":"range","zip":"06759-9998","bldg own":"B","geo_score0":0.854,"int sq ft":5145,"district":"Connecticut Valley","lo years":null,"annual rent / sq ft":11,"annual rent":58805,"geo_score":0.854,"po name":"LITCHFIELD","lo nbr":null,"site sq ft":15659,"exp date":"10/31/2012","land own":"B","unit name":"MAIN OFFICE","tax clause":"None Specified","lessor name":"LITCHFIELD PRESERVATION","id":"a8uq3s5ogksk","address":"16 SOUTH ST","maint":"USPS (Not Roof)","eff date":"11/01/2007","purchase option":"N","next rent / sq ft":0,"geo_precision":"range","property id":83808001,"state":"CT","next rent":0},"type":"Feature","geometry":{"type":"Point","coordinates":[-73.189309,41.746808]}},{"properties":{"city":"PLYMOUTH","geo_precision0":"range","zip":"06782-9998","bldg own":"P","geo_score0":1.0,"int sq ft":1188,"district":"Connecticut Valley","lo years":null,"annual rent / sq ft":12,"annual rent":13721,"geo_score":1.0,"po name":"PLYMOUTH","lo nbr":null,"site sq ft":1188,"exp date":"10/31/2015","land own":"P","unit name":"MAIN OFFICE","tax clause":"None Specified","lessor name":"JAMES F CALCIANO","id":"a8uq3s7946f8","address":"696 MAIN ST","maint":"USPS (Not Roof)","eff date":"11/01/2010","purchase option":"N","next rent / sq ft":0,"geo_precision":"range","property id":86052001,"state":"CT","next rent":0},"type":"Feature","geometry":{"type":"Point","coordinates":[-73.052796,41.67205]}},{"properties":{"city":"MILLDALE","geo_precision0":"range","zip":"06467-9992","bldg own":"P","geo_score0":0.902,"int sq ft":850,"district":"Connecticut Valley","lo years":null,"annual rent / sq ft":12,"annual rent":9900,"geo_score":0.902,"po name":"MILLDALE","lo nbr":null,"site sq ft":975,"exp date":"10/31/2011","land own":"P","unit name":"MAIN OFFICE","tax clause":"None Specified","lessor name":"GAIL M DUFFY","id":"a8uq3s31v5ie","address":"223 CLARK ST","maint":"Landlord","eff date":"11/01/2006","purchase option":null,"next rent / sq ft":0,"geo_precision":"range","property id":84386001,"state":"CT","next rent":0},"type":"Feature","geometry":{"type":"Point","coordinates":[-72.900597,41.564649]}},{"properties":{"city":"WEST HAVEN","geo_precision0":"range","zip":"06516-9991","bldg own":"P","geo_score0":1.0,"int sq ft":2047,"district":"Connecticut Valley","lo years":10,"annual rent / sq ft":12,"annual rent":24000,"geo_score":1.0,"po name":"NEW HAVEN","lo nbr":2,"site sq ft":2296,"exp date":"2/28/2014","land own":"P","unit name":"BAYBROOK STATION","tax clause":"Percentage","lessor name":"C &amp; G ASSOCIATES","id":"a8uq3s0zrf3w","address":"14 OCEAN AVE","maint":"USPS (Not Roof)","eff date":"03/01/2009","purchase option":"N","next rent / sq ft":13,"geo_precision":"range","property id":84726042,"state":"CT","next rent":26500},"type":"Feature","geometry":{"type":"Point","coordinates":[-72.986402,41.236103]}},{"properties":{"city":"NORTH GRANBY","geo_precision0":"range","zip":"06060-9998","bldg own":"P","geo_score0":1.0,"int sq ft":912,"district":"Connecticut Valley","lo years":null,"annual rent / sq ft":12,"annual rent":10752,"geo_score":1.0,"po name":"NORTH GRANBY","lo nbr":null,"site sq ft":11542,"exp date":"10/31/2014","land own":"P","unit name":"MAIN OFFICE","tax clause":"Reimbursable","lessor name":"LOIS A LONGLEY","id":"a8uq3rt5gisc","address":"389 N GRANBY RD","maint":"Landlord","eff date":"11/01/2009","purchase option":"N","next rent / sq ft":0,"geo_precision":"range","property id":85134001,"state":"CT","next rent":0},"type":"Feature","geometry":{"type":"Point","coordinates":[-72.830003,41.994639]}},{"properties":{"city":"NEW HAVEN","geo_precision0":"range","zip":"06513-9998","bldg own":"P","geo_score0":1.0,"int sq ft":1908,"district":"Connecticut Valley","lo years":null,"annual rent / sq ft":12,"annual rent":22895,"geo_score":1.0,"po name":"NEW HAVEN","lo nbr":null,"site sq ft":3171,"exp date":null,"land own":"P","unit name":"FAIR HAVEN STATION","tax clause":"Percentage","lessor name":"GRAND REAL ESTATE LLC","id":"a8uq3rsej49i","address":"230 GRAND AVE","maint":"Landlord","eff date":"12/01/2007","purchase option":"N","next rent / sq ft":0,"geo_precision":"range","property id":84726037,"state":"CT","next rent":0},"type":"Feature","geometry":{"type":"Point","coordinates":[-72.896373,41.308851]}},{"properties":{"city":"OLD SAYBROOK","geo_precision0":"range","zip":"06475-9998","bldg own":"B","geo_score0":1.0,"int sq ft":7704,"district":"Connecticut Valley","lo years":20,"annual rent / sq ft":12,"annual rent":92448,"geo_score":1.0,"po name":"OLD SAYBROOK","lo nbr":4,"site sq ft":45571,"exp date":"6/30/2012","land own":"B","unit name":"MAIN OFFICE","tax clause":"Reimbursable","lessor name":"THE GEORGE C FIELD CO","id":"a8uq3rxr3zy9","address":"36 MAIN ST","maint":"USPS","eff date":"07/01/2002","purchase option":"N","next rent / sq ft":14,"geo_precision":"range","property id":85644001,"state":"CT","next rent":111000},"type":"Feature","geometry":{"type":"Point","coordinates":[-72.376726,41.295872]}},{"properties":{"city":"CHESHIRE","geo_precision0":"range","zip":"06410-9998","bldg own":"C","geo_score0":1.0,"int sq ft":11917,"district":"Connecticut Valley","lo years":null,"annual rent / sq ft":12,"annual rent":145000,"geo_score":1.0,"po name":"CHESHIRE","lo nbr":null,"site sq ft":44838,"exp date":"12/31/2014","land own":"C","unit name":"MAIN OFFICE","tax clause":"Reimbursable","lessor name":"NATIONWIDE POSTAL MANAGEMENT","id":"a8uq3s6xr3w1","address":"210 MAPLE AVE","maint":"USPS","eff date":"01/01/2010","purchase option":"N","next rent / sq ft":0,"geo_precision":"range","property id":81156001,"state":"CT","next rent":0},"type":"Feature","geometry":{"type":"Point","coordinates":[-72.903792,41.504597]}},{"properties":{"city":"NORTH WINDHAM","geo_precision0":"range","zip":"06256-1115","bldg own":"P","geo_score0":1.0,"int sq ft":787,"district":"Connecticut Valley","lo years":null,"annual rent / sq ft":12,"annual rent":9600,"geo_score":1.0,"po name":"NORTH WINDHAM","lo nbr":null,"site sq ft":2952,"exp date":"10/31/2014","land own":"P","unit name":"MAIN OFFICE","tax clause":null,"lessor name":"POTTERS OIL SERVICE INC","id":"a8uq3rus4zkz","address":"690 BOSTON POST RD","maint":"Landlord","eff date":"11/01/2009","purchase option":null,"next rent / sq ft":0,"geo_precision":"range","property id":85304001,"state":"CT","next rent":0},"type":"Feature","geometry":{"type":"Point","coordinates":[-72.152699,41.749967]}},{"properties":{"city":"MILFORD","geo_precision0":"street","zip":"06460-9991","bldg own":"B","geo_score0":0.59,"int sq ft":866,"district":"Connecticut Valley","lo years":5,"annual rent / sq ft":12,"annual rent":10670,"geo_score":0.59,"po name":"MILFORD","lo nbr":1,"site sq ft":4766,"exp date":"4/30/2011","land own":"B","unit name":"DEVON STATION","tax clause":null,"lessor name":"NAUGATUCK JUNCTION LLC","id":"a8uq3rrreh74","address":"548 NAUGATUCK AVE STE 1","maint":"USPS","eff date":"05/01/2006","purchase option":null,"next rent / sq ft":14,"geo_precision":"street","property id":84352007,"state":"CT","next rent":11737},"type":"Feature","geometry":{"type":"Point","coordinates":[-73.097315,41.181971]}},{"properties":{"city":"EAST WOODSTOCK","geo_precision0":"range","zip":"06244-9997","bldg own":"P","geo_score0":0.805,"int sq ft":923,"district":"Connecticut Valley","lo years":null,"annual rent / sq ft":12,"annual rent":11500,"geo_score":0.805,"po name":"EAST WOODSTOCK","lo nbr":null,"site sq ft":1395,"exp date":"3/31/2014","land own":"P","unit name":"MAIN OFFICE","tax clause":"Reimbursable","lessor name":"DOUGLAS E MAY","id":"a8uq3s02t1mm","address":"217 WOODSTOCK RD","maint":"Landlord","eff date":"04/01/2009","purchase option":null,"next rent / sq ft":0,"geo_precision":"range","property id":82380001,"state":"CT","next rent":0},"type":"Feature","geometry":{"type":"Point","coordinates":[-71.980393,41.983868]}},{"properties":{"city":"BETHLEHEM","geo_precision0":"range","zip":"06751-9998","bldg own":"B","geo_score0":0.875,"int sq ft":2784,"district":"Connecticut Valley","lo years":null,"annual rent / sq ft":13,"annual rent":35000,"geo_score":0.875,"po name":"BETHLEHEM","lo nbr":null,"site sq ft":39988,"exp date":"2/28/2015","land own":"B","unit name":"MAIN OFFICE","tax clause":"Reimbursable","lessor name":"ELEANOR C MAYER","id":"a8uq3rsgd5kz","address":"34 EAST ST","maint":"Landlord","eff date":"03/01/2010","purchase option":"N","next rent / sq ft":0,"geo_precision":"range","property id":80408002,"state":"CT","next rent":0},"type":"Feature","geometry":{"type":"Point","coordinates":[-73.202591,41.639647]}},{"properties":{"city":"COLLINSVILLE","geo_precision0":"range","zip":"06022-9992","bldg own":"P","geo_score0":0.902,"int sq ft":2580,"district":"Connecticut Valley","lo years":5,"annual rent / sq ft":13,"annual rent":32632,"geo_score":0.902,"po name":"COLLINSVILLE","lo nbr":1,"site sq ft":7437,"exp date":"08/09/2013","land own":"P","unit name":"MAIN OFFICE","tax clause":"Reimbursable","lessor name":"NATALE CUOMO CHILDRENS","id":"a8uq3s4oimgb","address":"34 BRIDGE ST","maint":"USPS (Not Roof)","eff date":"08/10/2008","purchase option":"N","next rent / sq ft":15,"geo_precision":"range","property id":81428001,"state":"CT","next rent":37532},"type":"Feature","geometry":{"type":"Point","coordinates":[-72.921924,41.812244]}},{"properties":{"city":"BOLTON","geo_precision0":"range","zip":"06043-9993","bldg own":"P","geo_score0":1.0,"int sq ft":632,"district":"Connecticut Valley","lo years":null,"annual rent / sq ft":13,"annual rent":8000,"geo_score":1.0,"po name":"MANCHESTER","lo nbr":null,"site sq ft":632,"exp date":"10/31/2014","land own":"P","unit name":"BOLTON BRANCH","tax clause":"None Specified","lessor name":"WAYNE ENGLAND","id":"a8uq3s70dqbw","address":"681 BOSTON TPKE","maint":"Landlord","eff date":"11/01/2009","purchase option":"N","next rent / sq ft":0,"geo_precision":"range","property id":83876002,"state":"CT","next rent":0},"type":"Feature","geometry":{"type":"Point","coordinates":[-72.440155,41.792149]}},{"properties":{"city":"BOZRAH","geo_precision0":"range","zip":"06334-9998","bldg own":"P","geo_score0":1.0,"int sq ft":1240,"district":"Connecticut Valley","lo years":null,"annual rent / sq ft":13,"annual rent":15870,"geo_score":1.0,"po name":"BOZRAH","lo nbr":null,"site sq ft":7476,"exp date":"9/30/2015","land own":"P","unit name":"MAIN OFFICE","tax clause":"Reimbursable","lessor name":"BRG INTERESTS","id":"a8uq3rxfmwhl","address":"181 FITCHVILLE RD","maint":"USPS (Not Roof)","eff date":"10/01/2010","purchase option":"N","next rent / sq ft":0,"geo_precision":"range","property id":82652001,"state":"CT","next rent":0},"type":"Feature","geometry":{"type":"Point","coordinates":[-72.15203,41.566352]}},{"properties":{"city":"MARION","geo_precision0":"range","zip":"06444-9992","bldg own":"B","geo_score0":0.792,"int sq ft":1546,"district":"Connecticut Valley","lo years":null,"annual rent / sq ft":13,"annual rent":20000,"geo_score":0.792,"po name":"MARION","lo nbr":null,"site sq ft":8545,"exp date":"9/30/2015","land own":"B","unit name":"MAIN OFFICE","tax clause":"None Specified","lessor name":"2321 P &amp; S ASSOC LLC","id":"a8uq3s4ithzb","address":"2321 MERIDEN WATERBURY TPKE","maint":"USPS","eff date":"10/01/2010","purchase option":"N","next rent / sq ft":0,"geo_precision":"range","property id":84046001,"state":"CT","next rent":0},"type":"Feature","geometry":{"type":"Point","coordinates":[-72.924489,41.563841]}},{"properties":{"city":"CANAAN","geo_precision0":"street","zip":"06018-2466","bldg own":"P","geo_score0":0.902,"int sq ft":3146,"district":"Connecticut Valley","lo years":5,"annual rent / sq ft":13,"annual rent":40741,"geo_score":0.902,"po name":"CANAAN","lo nbr":1,"site sq ft":15400,"exp date":"1/31/2013","land own":"P","unit name":"MAIN OFFICE","tax clause":"Reimbursable","lessor name":"RUSSELL J RIVA JR","id":"a8uq3rvj6bxy","address":"9 CHURCH ST","maint":"USPS (Not Roof)","eff date":"02/01/2008","purchase option":null,"next rent / sq ft":15,"geo_precision":"street","property id":80850001,"state":"CT","next rent":47190},"type":"Feature","geometry":{"type":"Point","coordinates":[-73.332733,42.026984]}},{"properties":{"city":"NORTHFORD","geo_precision0":"range","zip":"06472-9998","bldg own":"P","geo_score0":1.0,"int sq ft":3940,"district":"Connecticut Valley","lo years":5,"annual rent / sq ft":13,"annual rent":51077,"geo_score":1.0,"po name":"NORTHFORD","lo nbr":1,"site sq ft":23721,"exp date":"7/31/2011","land own":"P","unit name":"MAIN OFFICE","tax clause":"Reimbursable","lessor name":"VIVIAN CUOMO","id":"a8uq3s0ep5kv","address":"1447 MIDDLETOWN AVE","maint":"Landlord","eff date":"08/01/2006","purchase option":null,"next rent / sq ft":14,"geo_precision":"range","property id":85066002,"state":"CT","next rent":56185},"type":"Feature","geometry":{"type":"Point","coordinates":[-72.790628,41.393831]}},{"properties":{"city":"BLOOMFIELD","geo_precision0":"range","zip":"06002-9998","bldg own":"B","geo_score0":1.0,"int sq ft":8920,"district":"Connecticut Valley","lo years":null,"annual rent / sq ft":13,"annual rent":115960,"geo_score":1.0,"po name":"BLOOMFIELD","lo nbr":null,"site sq ft":34528,"exp date":"4/30/2012","land own":"B","unit name":"MAIN OFFICE","tax clause":"Reimbursable","lessor name":"BARWICK POELSTRA LLC","id":"a8uq3rurhrhz","address":"40 JEROME AVE","maint":"USPS","eff date":"05/01/2002","purchase option":"N","next rent / sq ft":0,"geo_precision":"range","property id":80476002,"state":"CT","next rent":0},"type":"Feature","geometry":{"type":"Point","coordinates":[-72.73669,41.82554]}},{"properties":{"city":"DAYVILLE","geo_precision0":"range","zip":"06241-9998","bldg own":"A","geo_score0":1.0,"int sq ft":4275,"district":"Connecticut Valley","lo years":15,"annual rent / sq ft":13,"annual rent":55650,"geo_score":1.0,"po name":"DAYVILLE","lo nbr":3,"site sq ft":87120,"exp date":"1/31/2012","land own":"A","unit name":"MAIN OFFICE","tax clause":"None Specified","lessor name":"RICHARD R JOLY","id":"a8uq3s42o70h","address":"988 N MAIN ST","maint":"Landlord","eff date":"02/01/1997","purchase option":"N","next rent / sq ft":14,"geo_precision":"range","property id":81768002,"state":"CT","next rent":58433},"type":"Feature","geometry":{"type":"Point","coordinates":[-71.877201,41.833859]}},{"properties":{"city":"EAST WINDSOR HILL","geo_precision0":"street","zip":"06028-9992","bldg own":"B","geo_score0":0.707,"int sq ft":804,"district":"Connecticut Valley","lo years":null,"annual rent / sq ft":13,"annual rent":10600,"geo_score":0.707,"po name":"EAST WINDSOR HILL","lo nbr":null,"site sq ft":804,"exp date":"2/28/2013","land own":"B","unit name":"MAIN OFFICE","tax clause":"None Specified","lessor name":"CAROL F SHEPARD","id":"a8uq3ryafzmc","address":"1865 MAIN ST","maint":"USPS (Not Roof)","eff date":"03/01/2008","purchase option":null,"next rent / sq ft":0,"geo_precision":"street","property id":82346001,"state":"CT","next rent":0},"type":"Feature","geometry":{"type":"Point","coordinates":[-72.607794,41.69591]}},{"properties":{"city":"STRATFORD","geo_precision0":"street","zip":"06614-9991","bldg own":"B","geo_score0":0.684,"int sq ft":6089,"district":"Connecticut Valley","lo years":10,"annual rent / sq ft":13,"annual rent":80828,"geo_score":0.684,"po name":"BRIDGEPORT","lo nbr":2,"site sq ft":6950,"exp date":"01/12/2015","land own":"B","unit name":"STRATFORD RETAIL BR","tax clause":"Percentage","lessor name":"KRT PROPERTY HLDNG INC","id":"a8uq3s25bu0v","address":"411 BARNUM AVENUE CUTOFF STE 14","maint":"USPS","eff date":"1/13/2010","purchase option":"N","next rent / sq ft":15,"geo_precision":"street","property id":80578032,"state":"CT","next rent":91455},"type":"Feature","geometry":{"type":"Point","coordinates":[-73.129089,41.198919]}},{"properties":{"city":"ANDOVER","geo_precision0":"street","zip":"06232-9998","bldg own":"P","geo_score0":0.605,"int sq ft":1443,"district":"Connecticut Valley","lo years":null,"annual rent / sq ft":13,"annual rent":19195,"geo_score":0.605,"po name":"ANDOVER","lo nbr":null,"site sq ft":7292,"exp date":"6/30/2014","land own":"P","unit name":"MAIN OFFICE","tax clause":"Reimbursable","lessor name":"RICHARD P HAYES","id":"a8uq3s3c8dj6","address":"335 ROUTE 6","maint":"USPS (Not Roof)","eff date":"07/01/2004","purchase option":"N","next rent / sq ft":0,"geo_precision":"street","property id":80102001,"state":"CT","next rent":0},"type":"Feature","geometry":{"type":"Point","coordinates":[-72.374507,41.739163]}},{"properties":{"city":"GROTON","geo_precision0":"range","zip":"06340-3649","bldg own":"P","geo_score0":1.0,"int sq ft":1560,"district":"Connecticut Valley","lo years":null,"annual rent / sq ft":13,"annual rent":20773,"geo_score":1.0,"po name":"GROTON","lo nbr":null,"site sq ft":2160,"exp date":"12/31/2014","land own":"P","unit name":"BOROUGH STATION","tax clause":null,"lessor name":"213 THAMES STREET INC","id":"a8uq3ru5o06w","address":"202 THAMES ST","maint":"Landlord","eff date":"01/01/2010","purchase option":null,"next rent / sq ft":0,"geo_precision":"range","property id":83110001,"state":"CT","next rent":0},"type":"Feature","geometry":{"type":"Point","coordinates":[-72.084082,41.359715]}},{"properties":{"city":"ASHFORD","geo_precision0":"range","zip":"06278-9998","bldg own":"B","geo_score0":0.875,"int sq ft":1595,"district":"Connecticut Valley","lo years":5,"annual rent / sq ft":13,"annual rent":21283,"geo_score":0.875,"po name":"ASHFORD","lo nbr":1,"site sq ft":1835,"exp date":"2/29/2012","land own":"B","unit name":"MAIN OFFICE","tax clause":"None Specified","lessor name":"THOMAS V SAMPERI","id":"a8uq3s3hnh8p","address":"141 NOTT HWY STE 5","maint":"Landlord","eff date":"03/01/2007","purchase option":"N","next rent / sq ft":15,"geo_precision":"range","property id":80150003,"state":"CT","next rent":23411},"type":"Feature","geometry":{"type":"Point","coordinates":[-72.187732,41.862499]}},{"properties":{"city":"ROGERS","geo_precision0":"street","zip":"06263-9997","bldg own":"P","geo_score0":0.807,"int sq ft":674,"district":"Connecticut Valley","lo years":null,"annual rent / sq ft":13,"annual rent":9000,"geo_score":0.807,"po name":"ROGERS","lo nbr":null,"site sq ft":1056,"exp date":"7/31/2012","land own":"P","unit name":"MAIN OFFICE","tax clause":null,"lessor name":"JAMES D GAUDREAU","id":"a8uq3rxigr5r","address":"29A WILLIAMSVILLE RD","maint":"Landlord","eff date":"08/01/2007","purchase option":null,"next rent / sq ft":0,"geo_precision":"street","property id":86578001,"state":"CT","next rent":0},"type":"Feature","geometry":{"type":"Point","coordinates":[-71.90382,41.847342]}},{"properties":{"city":"CROMWELL","geo_precision0":"range","zip":"06416-9998","bldg own":"P","geo_score0":1.0,"int sq ft":3493,"district":"Connecticut Valley","lo years":null,"annual rent / sq ft":13,"annual rent":46800,"geo_score":1.0,"po name":"CROMWELL","lo nbr":null,"site sq ft":52500,"exp date":"10/31/2012","land own":"P","unit name":"MAIN OFFICE","tax clause":"Reimbursable","lessor name":"ADINOLFI &amp; DRUDI","id":"a8uq3s6ao2k1","address":"528 MAIN ST","maint":"Landlord","eff date":"11/01/2007","purchase option":"N","next rent / sq ft":0,"geo_precision":"range","property id":81632001,"state":"CT","next rent":0},"type":"Feature","geometry":{"type":"Point","coordinates":[-72.653879,41.618414]}},{"properties":{"city":"HAMDEN","geo_precision0":"range","zip":"06517-9998","bldg own":"P","geo_score0":1.0,"int sq ft":2942,"district":"Connecticut Valley","lo years":null,"annual rent / sq ft":13,"annual rent":39420,"geo_score":1.0,"po name":"NEW HAVEN","lo nbr":null,"site sq ft":5500,"exp date":"12/31/2026","land own":"P","unit name":"WHITNEYVILLE BRANCH","tax clause":"Reimbursable","lessor name":"PUTNAM AVENUE LLC","id":"a8uq3s5rlbs4","address":"40 PUTNAM AVE","maint":"USPS (Not Roof)","eff date":"01/01/2007","purchase option":null,"next rent / sq ft":0,"geo_precision":"range","property id":84726009,"state":"CT","next rent":0},"type":"Feature","geometry":{"type":"Point","coordinates":[-72.913834,41.345752]}},{"properties":{"city":"OLD MYSTIC","geo_precision0":"street","zip":"06372-9992","bldg own":"B","geo_score0":0.748,"int sq ft":700,"district":"Connecticut Valley","lo years":null,"annual rent / sq ft":13,"annual rent":9400,"geo_score":0.748,"po name":"OLD MYSTIC","lo nbr":null,"site sq ft":1224,"exp date":"9/30/2011","land own":"B","unit name":"MAIN OFFICE","tax clause":"None Specified","lessor name":"47 MAIN ST OLD MYSTIC LLC","id":"a8uq3rxukhx2","address":"47 MAIN ST","maint":"Landlord","eff date":"10/01/2006","purchase option":"N","next rent / sq ft":0,"geo_precision":"street","property id":85610001,"state":"CT","next rent":0},"type":"Feature","geometry":{"type":"Point","coordinates":[-71.959676,41.392189]}},{"properties":{"city":"HAMDEN","geo_precision0":"range","zip":"06518-9992","bldg own":"P","geo_score0":1.0,"int sq ft":7412,"district":"Connecticut Valley","lo years":10,"annual rent / sq ft":13,"annual rent":100000,"geo_score":1.0,"po name":"NEW HAVEN","lo nbr":1,"site sq ft":39400,"exp date":"4/30/2012","land own":"P","unit name":"MT CARMEL C/A","tax clause":"Reimbursable","lessor name":"WHITNEY ANNEX LLC","id":"a8uq3s3qt8vo","address":"2305 WHITNEY AVE","maint":"USPS","eff date":"05/01/2002","purchase option":"N","next rent / sq ft":16,"geo_precision":"range","property id":84726062,"state":"CT","next rent":117702},"type":"Feature","geometry":{"type":"Point","coordinates":[-72.901995,41.3828]}},{"properties":{"city":"JEWETT CITY","geo_precision0":"range","zip":"06351-9998","bldg own":"B","geo_score0":1.0,"int sq ft":3390,"district":"Connecticut Valley","lo years":null,"annual rent / sq ft":14,"annual rent":46000,"geo_score":1.0,"po name":"JEWETT CITY","lo nbr":null,"site sq ft":20380,"exp date":"12/31/2015","land own":"B","unit name":"MAIN OFFICE","tax clause":"Reimbursable","lessor name":"PHILIP E ANTHONY JR","id":"a8uq3rz44rw8","address":"54 MAIN ST","maint":"USPS","eff date":"01/01/2011","purchase option":null,"next rent / sq ft":0,"geo_precision":"range","property id":83570001,"state":"CT","next rent":0},"type":"Feature","geometry":{"type":"Point","coordinates":[-71.982651,41.605763]}},{"properties":{"city":"MOODUS","geo_precision0":"range","zip":"06469-9998","bldg own":"P","geo_score0":1.0,"int sq ft":2320,"district":"Connecticut Valley","lo years":5,"annual rent / sq ft":14,"annual rent":32000,"geo_score":1.0,"po name":"MOODUS","lo nbr":1,"site sq ft":25000,"exp date":"10/31/2013","land own":"P","unit name":"MAIN OFFICE","tax clause":"Reimbursable","lessor name":"FISCHER PROP GROUP LLC","id":"a8uq3s65h7ch","address":"34 FALLS RD","maint":"Landlord","eff date":"11/01/2008","purchase option":null,"next rent / sq ft":16,"geo_precision":"range","property id":84454001,"state":"CT","next rent":36540},"type":"Feature","geometry":{"type":"Point","coordinates":[-72.444731,41.505729]}},{"properties":{"city":"QUAKER HILL","geo_precision0":"range","zip":"06375-9998","bldg own":"B","geo_score0":1.0,"int sq ft":1870,"district":"Connecticut Valley","lo years":3,"annual rent / sq ft":14,"annual rent":26000,"geo_score":1.0,"po name":"QUAKER HILL","lo nbr":1,"site sq ft":9420,"exp date":"10/31/2012","land own":"B","unit name":"MAIN OFFICE","tax clause":"Reimbursable","lessor name":"ANGELA CUTUGNO","id":"a8uq3s5xxang","address":"132 OLD NORWICH RD","maint":"USPS","eff date":"11/01/2009","purchase option":"N","next rent / sq ft":16,"geo_precision":"range","property id":86256001,"state":"CT","next rent":30000},"type":"Feature","geometry":{"type":"Point","coordinates":[-72.112201,41.403712]}},{"properties":{"city":"PINE MEADOW","geo_precision0":"range","zip":"06061-9992","bldg own":"P","geo_score0":1.0,"int sq ft":762,"district":"Connecticut Valley","lo years":null,"annual rent / sq ft":14,"annual rent":10600,"geo_score":1.0,"po name":"PINE MEADOW","lo nbr":null,"site sq ft":2662,"exp date":"1/31/2014","land own":"P","unit name":"MAIN OFFICE","tax clause":"None Specified","lessor name":"LORRAINE LI","id":"a8uq3s6jt4ja","address":"377 MAIN ST","maint":"Landlord","eff date":"02/01/2009","purchase option":"N","next rent / sq ft":0,"geo_precision":"range","property id":85848001,"state":"CT","next rent":0},"type":"Feature","geometry":{"type":"Point","coordinates":[-72.965311,41.872372]}},{"properties":{"city":"BARKHAMSTED","geo_precision0":"range","zip":"06063-9998","bldg own":"P","geo_score0":0.927,"int sq ft":962,"district":"Connecticut Valley","lo years":5,"annual rent / sq ft":14,"annual rent":13468,"geo_score":0.927,"po name":"PLEASANT VALLEY","lo nbr":1,"site sq ft":4730,"exp date":"2/28/2013","land own":"P","unit name":"MAIN OFFICE","tax clause":"Reimbursable","lessor name":"KERIN MOTORS INC","id":"a8uq3rtywnfk","address":"105 RIVER RD","maint":"USPS (Not Roof)","eff date":"03/01/2008","purchase option":null,"next rent / sq ft":16,"geo_precision":"range","property id":86018001,"state":"CT","next rent":15151},"type":"Feature","geometry":{"type":"Point","coordinates":[-72.98839,41.912313]}},{"properties":{"city":"BRISTOL","geo_precision0":"range","zip":"06010-9991","bldg own":"P","geo_score0":1.0,"int sq ft":1185,"district":"Connecticut Valley","lo years":null,"annual rent / sq ft":14,"annual rent":16770,"geo_score":1.0,"po name":"BRISTOL","lo nbr":null,"site sq ft":1378,"exp date":"5/31/2015","land own":"P","unit name":"FORESTVILLE STATION","tax clause":"None Specified","lessor name":"GARY M RITTER","id":"a8uq3s6pa6ik","address":"18 E MAIN ST","maint":"Landlord","eff date":"06/01/2010","purchase option":"N","next rent / sq ft":0,"geo_precision":"range","property id":80646002,"state":"CT","next rent":0},"type":"Feature","geometry":{"type":"Point","coordinates":[-72.896295,41.672541]}},{"properties":{"city":"NORTH FRANKLIN","geo_precision0":"street","zip":"06254-9998","bldg own":"P","geo_score0":0.688,"int sq ft":754,"district":"Connecticut Valley","lo years":5,"annual rent / sq ft":14,"annual rent":10800,"geo_score":0.688,"po name":"NORTH FRANKLIN","lo nbr":1,"site sq ft":5844,"exp date":"12/31/2011","land own":"P","unit name":"MAIN OFFICE","tax clause":"Reimbursable","lessor name":"THOMAS J HALEY","id":"a8uq3s5d79yl","address":"683 ROUTE 32","maint":"Landlord","eff date":"01/01/2006","purchase option":null,"next rent / sq ft":14,"geo_precision":"street","property id":85100001,"state":"CT","next rent":10800},"type":"Feature","geometry":{"type":"Point","coordinates":[-72.125582,41.564068]}},{"properties":{"city":"IVORYTON","geo_precision0":"street","zip":"06442-9998","bldg own":"P","geo_score0":0.902,"int sq ft":2908,"district":"Connecticut Valley","lo years":null,"annual rent / sq ft":14,"annual rent":41734,"geo_score":0.902,"po name":"IVORYTON","lo nbr":null,"site sq ft":15300,"exp date":"8/31/2015","land own":"P","unit name":"MAIN OFFICE","tax clause":"Reimbursable","lessor name":"PROSPECT SHOPPING CTR","id":"a8uq3s2je3mc","address":"98 MAIN ST","maint":"Landlord","eff date":"09/01/2010","purchase option":null,"next rent / sq ft":0,"geo_precision":"street","property id":83536001,"state":"CT","next rent":0},"type":"Feature","geometry":{"type":"Point","coordinates":[-72.440517,41.348282]}},{"properties":{"city":"BRIDGEWATER","geo_precision0":"street","zip":"06752-9998","bldg own":"P","geo_score0":0.815,"int sq ft":1386,"district":"Connecticut Valley","lo years":null,"annual rent / sq ft":14,"annual rent":19920,"geo_score":0.815,"po name":"BRIDGEWATER","lo nbr":null,"site sq ft":2004,"exp date":"1/31/2012","land own":"P","unit name":"MAIN OFFICE","tax clause":"None Specified","lessor name":"133 BRIDGEWATER ASSOC INC","id":"a8uq3rwdfb4i","address":"19 MAIN ST S","maint":"Landlord","eff date":"02/01/2010","purchase option":"N","next rent / sq ft":0,"geo_precision":"street","property id":80612001,"state":"CT","next rent":0},"type":"Feature","geometry":{"type":"Point","coordinates":[-73.365977,41.534074]}},{"properties":{"city":"SALISBURY","geo_precision0":"range","zip":"06068-9998","bldg own":"B","geo_score0":1.0,"int sq ft":1914,"district":"Connecticut Valley","lo years":5,"annual rent / sq ft":14,"annual rent":27500,"geo_score":1.0,"po name":"SALISBURY","lo nbr":1,"site sq ft":5894,"exp date":"10/31/2011","land own":"B","unit name":"MAIN OFFICE","tax clause":"Reimbursable","lessor name":"LAND TRUST AGREEMENT NO 1003","id":"a8uq3s72e7qe","address":"22 MAIN ST","maint":"USPS (Not Roof)","eff date":"11/01/2006","purchase option":"N","next rent / sq ft":17,"geo_precision":"range","property id":86698001,"state":"CT","next rent":32000},"type":"Feature","geometry":{"type":"Point","coordinates":[-73.42226,41.98343]}},{"properties":{"city":"EAST HADDAM","geo_precision0":"range","zip":"06423-9998","bldg own":"B","geo_score0":1.0,"int sq ft":2266,"district":"Connecticut Valley","lo years":null,"annual rent / sq ft":14,"annual rent":32640,"geo_score":1.0,"po name":"EAST HADDAM","lo nbr":null,"site sq ft":24485,"exp date":"5/31/2013","land own":"B","unit name":"MAIN OFFICE","tax clause":"Reimbursable","lessor name":"ADINOLFI &amp; DRUDI","id":"a8uq3rwo38us","address":"34 MAIN ST","maint":"Landlord","eff date":"06/01/2008","purchase option":"N","next rent / sq ft":0,"geo_precision":"range","property id":82108001,"state":"CT","next rent":0},"type":"Feature","geometry":{"type":"Point","coordinates":[-72.462509,41.456186]}},{"properties":{"city":"BROOKLYN","geo_precision0":"range","zip":"06234-9998","bldg own":"B","geo_score0":1.0,"int sq ft":3471,"district":"Connecticut Valley","lo years":5,"annual rent / sq ft":14,"annual rent":50000,"geo_score":1.0,"po name":"BROOKLYN","lo nbr":1,"site sq ft":28745,"exp date":"2/28/2014","land own":"B","unit name":"MAIN OFFICE","tax clause":"Reimbursable","lessor name":"29 REALTY LLC","id":"a8uq3rt9kt7e","address":"29 CANTERBURY RD","maint":"Landlord","eff date":"03/01/2009","purchase option":null,"next rent / sq ft":18,"geo_precision":"range","property id":80782001,"state":"CT","next rent":63519},"type":"Feature","geometry":{"type":"Point","coordinates":[-71.949728,41.787107]}},{"properties":{"city":"HANOVER","geo_precision0":"range","zip":"06350-9992","bldg own":"P","geo_score0":0.805,"int sq ft":510,"district":"Connecticut Valley","lo years":null,"annual rent / sq ft":14,"annual rent":7353,"geo_score":0.805,"po name":"HANOVER","lo nbr":null,"site sq ft":2906,"exp date":"8/31/2014","land own":"P","unit name":"MAIN OFFICE","tax clause":"None Specified","lessor name":"EVELYN B CIPRIANI","id":"a8uq3s70r28u","address":"290 MAIN ST","maint":"Landlord","eff date":"09/01/2009","purchase option":null,"next rent / sq ft":0,"geo_precision":"range","property id":83332001,"state":"CT","next rent":0},"type":"Feature","geometry":{"type":"Point","coordinates":[-71.867749,41.572925]}},{"properties":{"city":"CENTRAL VILLAGE","geo_precision0":"range","zip":"06332-9992","bldg own":"B","geo_score0":0.6,"int sq ft":1585,"district":"Connecticut Valley","lo years":null,"annual rent / sq ft":15,"annual rent":22990,"geo_score":0.6,"po name":"CENTRAL VILLAGE","lo nbr":null,"site sq ft":30044,"exp date":"5/31/2014","land own":"B","unit name":"MAIN OFFICE","tax clause":"None Specified","lessor name":"ALEXANDER P KUELLER TRUST","id":"a8uq3rt18elf","address":"29 SCHOOL ST","maint":"USPS (Not Roof)","eff date":"06/01/2009","purchase option":"N","next rent / sq ft":0,"geo_precision":"range","property id":81088001,"state":"CT","next rent":0},"type":"Feature","geometry":{"type":"Point","coordinates":[-72.064592,41.381208]}},{"properties":{"city":"SCOTLAND","geo_precision0":"range","zip":"06264-9998","bldg own":"P","geo_score0":1.0,"int sq ft":662,"district":"Connecticut Valley","lo years":null,"annual rent / sq ft":15,"annual rent":9600,"geo_score":1.0,"po name":"SCOTLAND","lo nbr":null,"site sq ft":797,"exp date":"6/30/2011","land own":"P","unit name":"MAIN OFFICE","tax clause":"None Specified","lessor name":"CINDY L SECKLA OR","id":"a8uq3ry30qj1","address":"10 PALMER RD","maint":"Landlord","eff date":"07/01/2006","purchase option":"N","next rent / sq ft":0,"geo_precision":"range","property id":86800002,"state":"CT","next rent":0},"type":"Feature","geometry":{"type":"Point","coordinates":[-72.081828,41.698457]}},{"properties":{"city":"ROCKFALL","geo_precision0":"range","zip":"06481-9998","bldg own":"B","geo_score0":1.0,"int sq ft":681,"district":"Connecticut Valley","lo years":5,"annual rent / sq ft":15,"annual rent":9900,"geo_score":1.0,"po name":"ROCKFALL","lo nbr":1,"site sq ft":2950,"exp date":"6/30/2011","land own":"B","unit name":"MAIN OFFICE","tax clause":"None Specified","lessor name":"THOMAS YANTOSH","id":"a8uq3s3z7g6m","address":"110 MAIN ST","maint":"Landlord","eff date":"07/01/2006","purchase option":"N","next rent / sq ft":16,"geo_precision":"range","property id":86494001,"state":"CT","next rent":10900},"type":"Feature","geometry":{"type":"Point","coordinates":[-72.69102,41.530713]}},{"properties":{"city":"PEQUABUCK","geo_precision0":"range","zip":"06781-9995","bldg own":"P","geo_score0":0.805,"int sq ft":637,"district":"Connecticut Valley","lo years":null,"annual rent / sq ft":15,"annual rent":9276,"geo_score":0.805,"po name":"PEQUABUCK","lo nbr":null,"site sq ft":637,"exp date":"6/30/2012","land own":"P","unit name":"MAIN OFFICE","tax clause":"None Specified","lessor name":"DGB ASSOCIATES LLC","id":"a8uq3s65cf6f","address":"153 S RIVERSIDE AVE","maint":"Landlord","eff date":"05/01/2007","purchase option":null,"next rent / sq ft":0,"geo_precision":"range","property id":85814001,"state":"CT","next rent":0},"type":"Feature","geometry":{"type":"Point","coordinates":[-72.992806,41.672371]}},{"properties":{"city":"LEBANON","geo_precision0":"zip","zip":"06249-9998","bldg own":"P","geo_score0":0.585,"int sq ft":1365,"district":"Connecticut Valley","lo years":null,"annual rent / sq ft":15,"annual rent":20000,"geo_score":0.585,"po name":"LEBANON","lo nbr":null,"site sq ft":9558,"exp date":"6/30/2013","land own":"P","unit name":"MAIN OFFICE","tax clause":"Reimbursable","lessor name":"THE MARIE C ZANIEWSKI","id":"a8uq3rshkc4n","address":"562 EXETER RD","maint":"USPS (Not Roof)","eff date":"07/01/2008","purchase option":null,"next rent / sq ft":0,"geo_precision":"zip","property id":83740001,"state":"CT","next rent":0},"type":"Feature","geometry":{"type":"Point","coordinates":[-72.245422,41.628008]}},{"properties":{"city":"LEDYARD","geo_precision0":"range","zip":"06339-9998","bldg own":"P","geo_score0":1.0,"int sq ft":5538,"district":"Connecticut Valley","lo years":null,"annual rent / sq ft":15,"annual rent":81200,"geo_score":1.0,"po name":"GALES FERRY","lo nbr":null,"site sq ft":30722,"exp date":"4/30/2015","land own":"P","unit name":"LEDYARD STATION","tax clause":"Reimbursable","lessor name":"DAVID A HOLDRIDGE","id":"a8uq3s0auv6l","address":"764 COLONEL LEDYARD HWY","maint":"Shared","eff date":"05/01/2010","purchase option":null,"next rent / sq ft":0,"geo_precision":"range","property id":82686003,"state":"CT","next rent":0},"type":"Feature","geometry":{"type":"Point","coordinates":[-72.015112,41.439197]}},{"properties":{"city":"NORTH BRANFORD","geo_precision0":"range","zip":"06471-9998","bldg own":"P","geo_score0":1.0,"int sq ft":3355,"district":"Connecticut Valley","lo years":null,"annual rent / sq ft":15,"annual rent":50000,"geo_score":1.0,"po name":"NORTH BRANFORD","lo nbr":null,"site sq ft":3655,"exp date":"9/30/2011","land own":"P","unit name":"MAIN OFFICE","tax clause":"None Specified","lessor name":"JSMN PROPERTIES LLC","id":"a8uq3ry4v7t4","address":"280 BRANFORD RD","maint":"USPS (Not Roof)","eff date":"10/01/2006","purchase option":"N","next rent / sq ft":0,"geo_precision":"range","property id":84982001,"state":"CT","next rent":0},"type":"Feature","geometry":{"type":"Point","coordinates":[-72.770558,41.323299]}},{"properties":{"city":"FALLS VILLAGE","geo_precision0":"range","zip":"06031-9998","bldg own":"A","geo_score0":1.0,"int sq ft":2003,"district":"Connecticut Valley","lo years":null,"annual rent / sq ft":15,"annual rent":30000,"geo_score":1.0,"po name":"FALLS VILLAGE","lo nbr":null,"site sq ft":7323,"exp date":"10/31/2014","land own":"A","unit name":"MAIN OFFICE","tax clause":"Reimbursable","lessor name":"MARGARET K MATHESON","id":"a8uq3ry9bttj","address":"5 MINER ST","maint":"USPS (Not Roof)","eff date":"11/01/2004","purchase option":"N","next rent / sq ft":0,"geo_precision":"range","property id":82584001,"state":"CT","next rent":0},"type":"Feature","geometry":{"type":"Point","coordinates":[-73.362695,41.954551]}},{"properties":{"city":"GAYLORDSVILLE","geo_precision0":"range","zip":"06755-9998","bldg own":"P","geo_score0":0.854,"int sq ft":2000,"district":"Connecticut Valley","lo years":null,"annual rent / sq ft":15,"annual rent":30000,"geo_score":0.854,"po name":"GAYLORDSVILLE","lo nbr":null,"site sq ft":2840,"exp date":"8/31/2025","land own":"P","unit name":"MAIN OFFICE","tax clause":"Percentage","lessor name":"GT ENTERPRISES LLC","id":"a8uq3ry2xgdb","address":"3 GEORGE WASHINGTON PLZ UNIT 8","maint":"USPS (Not Roof)","eff date":"09/01/2005","purchase option":null,"next rent / sq ft":0,"geo_precision":"range","property id":82720002,"state":"CT","next rent":0},"type":"Feature","geometry":{"type":"Point","coordinates":[-73.482695,41.639817]}},{"properties":{"city":"HARTFORD","geo_precision0":"range","zip":"06120-9998","bldg own":"B","geo_score0":1.0,"int sq ft":2450,"district":"Connecticut Valley","lo years":null,"annual rent / sq ft":15,"annual rent":36750,"geo_score":1.0,"po name":"HARTFORD","lo nbr":null,"site sq ft":2570,"exp date":"9/30/2014","land own":"B","unit name":"N.E. STA (UNITY STA.)","tax clause":"None Specified","lessor name":"ALBEMARLE BARBOUR","id":"a8uq3s7agg7t","address":"271 BARBOUR ST","maint":"Landlord","eff date":"10/01/2009","purchase option":null,"next rent / sq ft":0,"geo_precision":"range","property id":83366021,"state":"CT","next rent":0},"type":"Feature","geometry":{"type":"Point","coordinates":[-72.677365,41.793228]}},{"properties":{"city":"NORTH CANTON","geo_precision0":"range","zip":"06059-9991","bldg own":"P","geo_score0":0.902,"int sq ft":480,"district":"Connecticut Valley","lo years":null,"annual rent / sq ft":15,"annual rent":7200,"geo_score":0.902,"po name":"NORTH CANTON","lo nbr":null,"site sq ft":1004,"exp date":"9/30/2014","land own":"P","unit name":"MAIN OFFICE","tax clause":"None Specified","lessor name":"SANDRA L PERNAL","id":"a8uq3rvkhn0w","address":"531 CHERRY BROOK RD","maint":"Landlord","eff date":"10/01/2009","purchase option":null,"next rent / sq ft":0,"geo_precision":"range","property id":84998001,"state":"CT","next rent":0},"type":"Feature","geometry":{"type":"Point","coordinates":[-72.893228,41.88975]}},{"properties":{"city":"POMFRET CENTER","geo_precision0":"zip","zip":"06259-9998","bldg own":"P","geo_score0":0.585,"int sq ft":1760,"district":"Connecticut Valley","lo years":null,"annual rent / sq ft":15,"annual rent":26400,"geo_score":0.585,"po name":"POMFRET CENTER","lo nbr":null,"site sq ft":13380,"exp date":"8/31/2012","land own":"P","unit name":"MAIN OFFICE","tax clause":"Reimbursable","lessor name":"ATHOS B CATTARUZZA","id":"a8uq3ru0exzo","address":"144 MURDOCK RD","maint":"USPS (Not Roof)","eff date":"09/01/2007","purchase option":null,"next rent / sq ft":0,"geo_precision":"zip","property id":86120001,"state":"CT","next rent":0},"type":"Feature","geometry":{"type":"Point","coordinates":[-71.935906,41.849543]}},{"properties":{"city":"AVON","geo_precision0":"range","zip":"06001-9998","bldg own":"P","geo_score0":1.0,"int sq ft":7076,"district":"Connecticut Valley","lo years":null,"annual rent / sq ft":15,"annual rent":108000,"geo_score":1.0,"po name":"AVON","lo nbr":null,"site sq ft":55513,"exp date":"4/30/2012","land own":"U","unit name":"MAIN OFFICE","tax clause":"Reimbursable","lessor name":"KATHLEEN C ONEILL","id":"a8uq3rzedbbh","address":"15 ENFORD ST","maint":"Landlord","eff date":"05/01/2002","purchase option":"N","next rent / sq ft":0,"geo_precision":"range","property id":80170001,"state":"CT","next rent":0},"type":"Feature","geometry":{"type":"Point","coordinates":[-72.82986,41.809318]}},{"properties":{"city":"CANTON","geo_precision0":"range","zip":"06019-9998","bldg own":"B","geo_score0":1.0,"int sq ft":5397,"district":"Connecticut Valley","lo years":10,"annual rent / sq ft":15,"annual rent":82666,"geo_score":1.0,"po name":"CANTON","lo nbr":2,"site sq ft":18837,"exp date":"3/31/2011","land own":"B","unit name":"MAIN OFFICE","tax clause":"Reimbursable","lessor name":"HENRY J BAHRE","id":"a8uq3rut4c6t","address":"220 ALBANY TPKE","maint":"Landlord","eff date":"04/01/2006","purchase option":"N","next rent / sq ft":20,"geo_precision":"range","property id":80986002,"state":"CT","next rent":105505},"type":"Feature","geometry":{"type":"Point","coordinates":[-72.896537,41.825779]}},{"properties":{"city":"CORNWALL BRIDGE","geo_precision0":"range","zip":"06754-9800","bldg own":"P","geo_score0":1.0,"int sq ft":828,"district":"Connecticut Valley","lo years":null,"annual rent / sq ft":15,"annual rent":12768,"geo_score":1.0,"po name":"CORNWALL BRIDGE","lo nbr":null,"site sq ft":5936,"exp date":"11/30/2013","land own":"P","unit name":"MAIN OFFICE","tax clause":"None Specified","lessor name":"GUNTHER C HEPPRICH","id":"a8uq3s70hpuh","address":"18A KENT RD","maint":"Landlord","eff date":"12/01/2008","purchase option":null,"next rent / sq ft":0,"geo_precision":"range","property id":81530001,"state":"CT","next rent":0},"type":"Feature","geometry":{"type":"Point","coordinates":[-73.352079,41.744095]}},{"properties":{"city":"MOOSUP","geo_precision0":"range","zip":"06354-9998","bldg own":"B","geo_score0":1.0,"int sq ft":2769,"district":"Connecticut Valley","lo years":null,"annual rent / sq ft":16,"annual rent":43000,"geo_score":1.0,"po name":"MOOSUP","lo nbr":null,"site sq ft":26000,"exp date":"9/30/2013","land own":"B","unit name":"MAIN OFFICE","tax clause":"Reimbursable","lessor name":"JFT HOLDINGS LLC","id":"a8uq3s6hz1kn","address":"21 S MAIN ST","maint":"Landlord","eff date":"10/01/2008","purchase option":"N","next rent / sq ft":0,"geo_precision":"range","property id":84488001,"state":"CT","next rent":0},"type":"Feature","geometry":{"type":"Point","coordinates":[-71.881232,41.712427]}},{"properties":{"city":"NIANTIC","geo_precision0":"range","zip":"06357-9991","bldg own":"B","geo_score0":0.92,"int sq ft":4200,"district":"Connecticut Valley","lo years":20,"annual rent / sq ft":16,"annual rent":65205,"geo_score":0.92,"po name":"NIANTIC","lo nbr":4,"site sq ft":115700,"exp date":"7/26/2020","land own":"B","unit name":"RETAIL UNIT","tax clause":"Percentage","lessor name":"THE ALY LTD PARTNERSHIP","id":"a8uq3rricg55","address":"58 PENNSYLVANIA AVE STE 2","maint":"USPS","eff date":"7/27/2000","purchase option":"N","next rent / sq ft":24,"geo_precision":"range","property id":84896002,"state":"CT","next rent":99232},"type":"Feature","geometry":{"type":"Point","coordinates":[-72.193595,41.326637]}},{"properties":{"city":"NEWINGTON","geo_precision0":"range","zip":"06111-9998","bldg own":"B","geo_score0":1.0,"int sq ft":9332,"district":"Connecticut Valley","lo years":null,"annual rent / sq ft":16,"annual rent":147819,"geo_score":1.0,"po name":"HARTFORD","lo nbr":null,"site sq ft":74806,"exp date":"7/31/2013","land own":"B","unit name":"NEWINGTON BR","tax clause":"Reimbursable","lessor name":"NEWINGTON CENTER LLC","id":"a8uq3rzcwe5s","address":"75 LOWREY PL","maint":"Landlord","eff date":"08/01/2008","purchase option":"N","next rent / sq ft":0,"geo_precision":"range","property id":83366003,"state":"CT","next rent":0},"type":"Feature","geometry":{"type":"Point","coordinates":[-72.721683,41.695227]}},{"properties":{"city":"CHESTER","geo_precision0":"range","zip":"06412-9998","bldg own":"B","geo_score0":1.0,"int sq ft":2780,"district":"Connecticut Valley","lo years":null,"annual rent / sq ft":16,"annual rent":44400,"geo_score":1.0,"po name":"CHESTER","lo nbr":null,"site sq ft":29900,"exp date":"2/28/2014","land own":"B","unit name":"MAIN OFFICE","tax clause":"Reimbursable","lessor name":"ADINOLFI &amp; DRUDI","id":"a8uq3rxzlp8m","address":"100 MAIN ST","maint":"Landlord","eff date":"03/01/2009","purchase option":"N","next rent / sq ft":0,"geo_precision":"range","property id":81190001,"state":"CT","next rent":0},"type":"Feature","geometry":{"type":"Point","coordinates":[-72.446721,41.401931]}},{"properties":{"city":"BROAD BROOK","geo_precision0":"range","zip":"06016-9998","bldg own":"P","geo_score0":1.0,"int sq ft":1600,"district":"Connecticut Valley","lo years":5,"annual rent / sq ft":16,"annual rent":25600,"geo_score":1.0,"po name":"BROAD BROOK","lo nbr":1,"site sq ft":12870,"exp date":"4/30/2014","land own":"P","unit name":"MAIN OFFICE","tax clause":"Reimbursable","lessor name":"MAGDOVITZ AGENCY INC","id":"a8uq3s41o7ke","address":"113 MAIN ST","maint":"USPS","eff date":"4/25/2009","purchase option":null,"next rent / sq ft":18,"geo_precision":"range","property id":80680001,"state":"CT","next rent":29440},"type":"Feature","geometry":{"type":"Point","coordinates":[-72.54568,41.915725]}},{"properties":{"city":"MIDDLEBURY","geo_precision0":"range","zip":"06762-2564","bldg own":"P","geo_score0":0.908,"int sq ft":3528,"district":"Connecticut Valley","lo years":15,"annual rent / sq ft":16,"annual rent":56448,"geo_score":0.908,"po name":"MIDDLEBURY","lo nbr":3,"site sq ft":81968,"exp date":"3/23/2020","land own":"P","unit name":"MAIN OFFICE","tax clause":"Percentage","lessor name":"J &amp; L PROPERTIES LLC","id":"a8uq3s1qv2r7","address":"590 MIDDLEBURY RD STE F","maint":"Landlord","eff date":"3/24/2000","purchase option":null,"next rent / sq ft":18,"geo_precision":"range","property id":84216003,"state":"CT","next rent":61740},"type":"Feature","geometry":{"type":"Point","coordinates":[-73.108114,41.537802]}},{"properties":{"city":"NEW MILFORD","geo_precision0":"range","zip":"06776-2099","bldg own":"E","geo_score0":0.908,"int sq ft":30,"district":"Connecticut Valley","lo years":null,"annual rent / sq ft":16,"annual rent":480,"geo_score":0.908,"po name":"NEW MILFORD","lo nbr":null,"site sq ft":30,"exp date":null,"land own":"E","unit name":"DETACHED LOCKBOX UNIT","tax clause":"None Specified","lessor name":"JOEL BRENNER &amp;","id":"a8uq3rzxkw6r","address":"301 LITCHFIELD RD STE 2","maint":"Landlord","eff date":"05/01/1986","purchase option":"N","next rent / sq ft":0,"geo_precision":"range","property id":84794002,"state":"CT","next rent":0},"type":"Feature","geometry":{"type":"Point","coordinates":[-73.392887,41.631116]}},{"properties":{"city":"ENFIELD","geo_precision0":"range","zip":"06082-9992","bldg own":"P","geo_score0":1.0,"int sq ft":962,"district":"Connecticut Valley","lo years":null,"annual rent / sq ft":16,"annual rent":15600,"geo_score":1.0,"po name":"ENFIELD","lo nbr":null,"site sq ft":3737,"exp date":"1/31/2015","land own":"P","unit name":"ENFIELD STREET STA.","tax clause":"None Specified","lessor name":"MILFORD L CARSON","id":"a8uq3rz2kbve","address":"1430 ENFIELD ST","maint":"Landlord","eff date":"02/01/2010","purchase option":null,"next rent / sq ft":0,"geo_precision":"range","property id":82448001,"state":"CT","next rent":0},"type":"Feature","geometry":{"type":"Point","coordinates":[-72.592892,41.968689]}},{"properties":{"city":"EAST HARTLAND","geo_precision0":"range","zip":"06027-9998","bldg own":"P","geo_score0":0.854,"int sq ft":925,"district":"Connecticut Valley","lo years":null,"annual rent / sq ft":16,"annual rent":15250,"geo_score":0.854,"po name":"EAST HARTLAND","lo nbr":null,"site sq ft":3791,"exp date":"10/31/2012","land own":"P","unit name":"MAIN OFFICE","tax clause":"Reimbursable","lessor name":"JANET E GENTILE","id":"a8uq3rwdkbge","address":"23 SOUTH RD","maint":"Landlord","eff date":"11/01/2007","purchase option":null,"next rent / sq ft":0,"geo_precision":"range","property id":82176001,"state":"CT","next rent":0},"type":"Feature","geometry":{"type":"Point","coordinates":[-72.906623,41.998811]}},{"properties":{"city":"CHAPLIN","geo_precision0":"range","zip":"06235-9998","bldg own":"P","geo_score0":0.902,"int sq ft":4572,"district":"Connecticut Valley","lo years":20,"annual rent / sq ft":17,"annual rent":76000,"geo_score":0.902,"po name":"CHAPLIN","lo nbr":4,"site sq ft":70132,"exp date":"9/27/2020","land own":"P","unit name":"MAIN OFFICE","tax clause":"Reimbursable","lessor name":"KENNETH J BAER","id":"a8uq3s1pse1z","address":"181 WILLIMANTIC RD","maint":"USPS (Not Roof)","eff date":"9/28/2000","purchase option":"Y","next rent / sq ft":18,"geo_precision":"range","property id":81122002,"state":"CT","next rent":81950},"type":"Feature","geometry":{"type":"Point","coordinates":[-72.143161,41.760109]}},{"properties":{"city":"CANTON CENTER","geo_precision0":"range","zip":"06020-9997","bldg own":"P","geo_score0":1.0,"int sq ft":576,"district":"Connecticut Valley","lo years":10,"annual rent / sq ft":17,"annual rent":9600,"geo_score":1.0,"po name":"CANTON CENTER","lo nbr":2,"site sq ft":616,"exp date":"12/31/2011","land own":"P","unit name":"MAIN OFFICE","tax clause":"None Specified","lessor name":"CHERRY BROOK DEV LLC","id":"a8uq3s73zjmg","address":"178 CHERRY BROOK RD","maint":"Landlord","eff date":"01/01/2007","purchase option":"N","next rent / sq ft":16,"geo_precision":"range","property id":81020001,"state":"CT","next rent":9000},"type":"Feature","geometry":{"type":"Point","coordinates":[-72.916704,41.85426]}},{"properties":{"city":"HADDAM","geo_precision0":"range","zip":"06438-9998","bldg own":"B","geo_score0":1.0,"int sq ft":2777,"district":"Connecticut Valley","lo years":null,"annual rent / sq ft":17,"annual rent":46309,"geo_score":1.0,"po name":"HADDAM","lo nbr":null,"site sq ft":60702,"exp date":"3/31/2013","land own":"B","unit name":"MAIN OFFICE","tax clause":"None Specified","lessor name":"V &amp; M ASSOCIATES","id":"a8uq3s2nkntt","address":"1050 SAYBROOK RD","maint":"USPS (Not Roof)","eff date":"04/01/2008","purchase option":null,"next rent / sq ft":0,"geo_precision":"range","property id":83196002,"state":"CT","next rent":0},"type":"Feature","geometry":{"type":"Point","coordinates":[-72.504153,41.474153]}},{"properties":{"city":"EAST CANAAN","geo_precision0":"range","zip":"06024-9998","bldg own":"P","geo_score0":1.0,"int sq ft":501,"district":"Connecticut Valley","lo years":10,"annual rent / sq ft":17,"annual rent":8400,"geo_score":1.0,"po name":"EAST CANAAN","lo nbr":2,"site sq ft":5700,"exp date":"2/29/2012","land own":"P","unit name":"MAIN OFFICE","tax clause":"None Specified","lessor name":"SALLY J CURTISS","id":"a8uq3rxfwbmh","address":"270 E CANAAN RD","maint":"USPS (Not Roof)","eff date":"03/01/2007","purchase option":"N","next rent / sq ft":17,"geo_precision":"range","property id":81972001,"state":"CT","next rent":8400},"type":"Feature","geometry":{"type":"Point","coordinates":[-73.278521,42.011211]}},{"properties":{"city":"QUINEBAUG","geo_precision0":"range","zip":"06262-9998","bldg own":"B","geo_score0":1.0,"int sq ft":1020,"district":"Connecticut Valley","lo years":null,"annual rent / sq ft":17,"annual rent":17112,"geo_score":1.0,"po name":"QUINEBAUG","lo nbr":null,"site sq ft":3250,"exp date":"1/31/2013","land own":"B","unit name":"MAIN OFFICE","tax clause":"None Specified","lessor name":"ROBERT MARK WILLETT","id":"a8uq3s4kjjtc","address":"734 QUINEBAUG RD","maint":"Shared","eff date":"02/01/2008","purchase option":"N","next rent / sq ft":0,"geo_precision":"range","property id":86290001,"state":"CT","next rent":0},"type":"Feature","geometry":{"type":"Point","coordinates":[-71.946649,42.022245]}},{"properties":{"city":"HIGGANUM","geo_precision0":"street","zip":"06441-9998","bldg own":"P","geo_score0":0.902,"int sq ft":2531,"district":"Connecticut Valley","lo years":null,"annual rent / sq ft":17,"annual rent":42600,"geo_score":0.902,"po name":"HIGGANUM","lo nbr":null,"site sq ft":2587,"exp date":"11/30/2015","land own":"P","unit name":"MAIN OFFICE","tax clause":"None Specified","lessor name":"VILLAGE PLAZA LLC","id":"a8uq3s1g229o","address":"26 KILLINGWORTH RD","maint":"USPS","eff date":"12/01/2010","purchase option":null,"next rent / sq ft":0,"geo_precision":"street","property id":83502002,"state":"CT","next rent":0},"type":"Feature","geometry":{"type":"Point","coordinates":[-72.558378,41.494728]}},{"properties":{"city":"NORTH STONINGTON","geo_precision0":"range","zip":"06359-9998","bldg own":"B","geo_score0":0.863,"int sq ft":1350,"district":"Connecticut Valley","lo years":null,"annual rent / sq ft":17,"annual rent":22730,"geo_score":0.863,"po name":"NORTH STONINGTON","lo nbr":null,"site sq ft":9246,"exp date":"12/31/2015","land own":"B","unit name":"MAIN OFFICE - UNIT 1A","tax clause":"None Specified","lessor name":"BERNARD GLASS TRUST","id":"a8uq3s5xkyuk","address":"391 NORWICH WESTERLY RD","maint":"USPS (Not Roof)","eff date":"01/01/2011","purchase option":"N","next rent / sq ft":0,"geo_precision":"range","property id":85236003,"state":"CT","next rent":0},"type":"Feature","geometry":{"type":"Point","coordinates":[-71.903736,41.452601]}},{"properties":{"city":"NORTH STONINGTON","geo_precision0":"range","zip":"06359-9998","bldg own":"P","geo_score0":0.863,"int sq ft":1250,"district":"Connecticut Valley","lo years":5,"annual rent / sq ft":17,"annual rent":21046,"geo_score":0.863,"po name":"NORTH STONINGTON","lo nbr":1,"site sq ft":8229,"exp date":"2/28/2011","land own":"P","unit name":"MPO EXPANSION UNIT 1B","tax clause":"None Specified","lessor name":"KATHIE L KALLEN","id":"a8uq3rzf397d","address":"391 NORWICH WESTERLY RD","maint":"USPS (Not Roof)","eff date":"03/01/2006","purchase option":"N","next rent / sq ft":19,"geo_precision":"range","property id":85236005,"state":"CT","next rent":23235},"type":"Feature","geometry":{"type":"Point","coordinates":[-71.903736,41.452601]}},{"properties":{"city":"HEBRON","geo_precision0":"range","zip":"06248-9998","bldg own":"P","geo_score0":1.0,"int sq ft":5543,"district":"Connecticut Valley","lo years":20,"annual rent / sq ft":17,"annual rent":93410,"geo_score":1.0,"po name":"HEBRON","lo nbr":4,"site sq ft":60950,"exp date":"4/14/2020","land own":"P","unit name":"MAIN OFFICE","tax clause":"Reimbursable","lessor name":"BRG INTERESTS","id":"a8uq3s01d83j","address":"93 MAIN ST","maint":"USPS (Not Roof)","eff date":"4/15/2000","purchase option":"N","next rent / sq ft":19,"geo_precision":"range","property id":83468002,"state":"CT","next rent":105086},"type":"Feature","geometry":{"type":"Point","coordinates":[-72.364126,41.658611]}},{"properties":{"city":"NEW HAVEN","geo_precision0":"range","zip":"06510-9992","bldg own":"D","geo_score0":1.0,"int sq ft":4453,"district":"Connecticut Valley","lo years":null,"annual rent / sq ft":17,"annual rent":75600,"geo_score":1.0,"po name":"NEW HAVEN","lo nbr":null,"site sq ft":8900,"exp date":null,"land own":"D","unit name":"FEDERAL STA EMERGENCY","tax clause":"None Specified","lessor name":"BASSETT BLDG LLC","id":"a8uq3rrhwhqz","address":"754 CHAPEL ST","maint":"USPS (Not Roof)","eff date":"04/01/2006","purchase option":"N","next rent / sq ft":0,"geo_precision":"range","property id":84726063,"state":"CT","next rent":0},"type":"Feature","geometry":{"type":"Point","coordinates":[-72.92413,41.305222]}},{"properties":{"city":"COVENTRY","geo_precision0":"range","zip":"06238-9998","bldg own":"P","geo_score0":1.0,"int sq ft":2825,"district":"Connecticut Valley","lo years":5,"annual rent / sq ft":17,"annual rent":48025,"geo_score":1.0,"po name":"COVENTRY","lo nbr":1,"site sq ft":38581,"exp date":"10/31/2012","land own":"P","unit name":"MAIN OFFICE","tax clause":"None Specified","lessor name":"COVENTRY CORNERS LLC","id":"a8uq3s3fc5ob","address":"1376 MAIN ST","maint":"Landlord","eff date":"11/01/2007","purchase option":"N","next rent / sq ft":19,"geo_precision":"range","property id":81578001,"state":"CT","next rent":53675},"type":"Feature","geometry":{"type":"Point","coordinates":[-72.303623,41.768883]}},{"properties":{"city":"POQUONOCK","geo_precision0":"zip","zip":"06064-9992","bldg own":"B","geo_score0":0.585,"int sq ft":893,"district":"Connecticut Valley","lo years":5,"annual rent / sq ft":17,"annual rent":15181,"geo_score":0.585,"po name":"POQUONOCK","lo nbr":1,"site sq ft":893,"exp date":"10/31/2014","land own":"B","unit name":"MAIN OFFICE","tax clause":"None Specified","lessor name":"SPONZO &amp; ASSOCIATES LLC","id":"a8uq3s11dou2","address":"1771 POQUONOCK AVE","maint":"Landlord","eff date":"11/01/2009","purchase option":null,"next rent / sq ft":19,"geo_precision":"zip","property id":86154001,"state":"CT","next rent":17000},"type":"Feature","geometry":{"type":"Point","coordinates":[-72.718832,41.791776]}},{"properties":{"city":"GRANBY","geo_precision0":"range","zip":"06035-9998","bldg own":"B","geo_score0":1.0,"int sq ft":3283,"district":"Connecticut Valley","lo years":null,"annual rent / sq ft":17,"annual rent":55975,"geo_score":1.0,"po name":"GRANBY","lo nbr":null,"site sq ft":27000,"exp date":"5/31/2013","land own":"B","unit name":"MAIN OFFICE","tax clause":"Reimbursable","lessor name":"KAREN A ROMANO","id":"a8uq3ryfswsz","address":"10 BANK ST","maint":"USPS (Not Roof)","eff date":"06/01/2008","purchase option":"N","next rent / sq ft":0,"geo_precision":"range","property id":82992001,"state":"CT","next rent":0},"type":"Feature","geometry":{"type":"Point","coordinates":[-72.786019,41.951348]}},{"properties":{"city":"DEEP RIVER","geo_precision0":"range","zip":"06417-9998","bldg own":"B","geo_score0":1.0,"int sq ft":4300,"district":"Connecticut Valley","lo years":null,"annual rent / sq ft":17,"annual rent":74071,"geo_score":1.0,"po name":"DEEP RIVER","lo nbr":null,"site sq ft":16562,"exp date":"6/30/2015","land own":"B","unit name":"MAIN OFFICE","tax clause":"None Specified","lessor name":"DEEP RIVER REALTY LLC","id":"a8uq3rsx90zy","address":"225 MAIN ST","maint":"Landlord","eff date":"07/01/2010","purchase option":"N","next rent / sq ft":0,"geo_precision":"range","property id":81802001,"state":"CT","next rent":0},"type":"Feature","geometry":{"type":"Point","coordinates":[-72.434518,41.381652]}},{"properties":{"city":"WEST HARTFORD","geo_precision0":"range","zip":"06117-9998","bldg own":"P","geo_score0":0.962,"int sq ft":4987,"district":"Connecticut Valley","lo years":null,"annual rent / sq ft":18,"annual rent":88273,"geo_score":0.962,"po name":"HARTFORD","lo nbr":null,"site sq ft":10028,"exp date":"12/31/2016","land own":"P","unit name":"BISHOPS CORNER STA","tax clause":"Percentage","lessor name":"10 CROSSROADS PLAZA LLC","id":"a8uq3s3we7tl","address":"12 CROSSROADS PLZ","maint":"USPS (Not Roof)","eff date":"01/01/2007","purchase option":null,"next rent / sq ft":0,"geo_precision":"range","property id":83366012,"state":"CT","next rent":0},"type":"Feature","geometry":{"type":"Point","coordinates":[-72.746193,41.787716]}},{"properties":{"city":"POMFRET","geo_precision0":"range","zip":"06258-9997","bldg own":"B","geo_score0":1.0,"int sq ft":960,"district":"Connecticut Valley","lo years":6,"annual rent / sq ft":18,"annual rent":17000,"geo_score":1.0,"po name":"POMFRET","lo nbr":2,"site sq ft":4402,"exp date":"6/30/2012","land own":"B","unit name":"MAIN OFFICE","tax clause":"Reimbursable","lessor name":"LANYARD REAL ESTATE","id":"a8uq3rt43phx","address":"32 PUTNAM RD","maint":"Landlord","eff date":"07/01/2009","purchase option":"N","next rent / sq ft":19,"geo_precision":"range","property id":86086001,"state":"CT","next rent":18000},"type":"Feature","geometry":{"type":"Point","coordinates":[-71.959098,41.897688]}},{"properties":{"city":"SHARON","geo_precision0":"range","zip":"06069-9998","bldg own":"P","geo_score0":0.878,"int sq ft":2784,"district":"Connecticut Valley","lo years":10,"annual rent / sq ft":18,"annual rent":49500,"geo_score":0.878,"po name":"SHARON","lo nbr":2,"site sq ft":4710,"exp date":"10/31/2013","land own":"P","unit name":"MAIN OFFICE","tax clause":"None Specified","lessor name":"RAYMOND C DONOVAN","id":"a8uq3s6wdiff","address":"2 LOW RD","maint":"Landlord","eff date":"11/01/2008","purchase option":"N","next rent / sq ft":20,"geo_precision":"range","property id":86868001,"state":"CT","next rent":54500},"type":"Feature","geometry":{"type":"Point","coordinates":[-73.470557,41.883943]}},{"properties":{"city":"NEW CANAAN","geo_precision0":"range","zip":"06840-9998","bldg own":"B","geo_score0":1.0,"int sq ft":6260,"district":"Connecticut Valley","lo years":null,"annual rent / sq ft":18,"annual rent":112085,"geo_score":1.0,"po name":"NEW CANAAN","lo nbr":null,"site sq ft":27533,"exp date":"1/31/2014","land own":"B","unit name":"MAIN OFFICE","tax clause":"Percentage","lessor name":"ESP WEXFORD II LLC","id":"a8uq3s5v9jfw","address":"2 PINE ST","maint":"USPS (Not Roof)","eff date":"02/01/2009","purchase option":"N","next rent / sq ft":0,"geo_precision":"range","property id":84658001,"state":"CT","next rent":0},"type":"Feature","geometry":{"type":"Point","coordinates":[-73.498266,41.143879]}},{"properties":{"city":"MANSFIELD CENTER","geo_precision0":"range","zip":"06250-9998","bldg own":"P","geo_score0":1.0,"int sq ft":1627,"district":"Connecticut Valley","lo years":null,"annual rent / sq ft":18,"annual rent":29147,"geo_score":1.0,"po name":"MANSFIELD CENTER","lo nbr":null,"site sq ft":9107,"exp date":"7/31/2015","land own":"P","unit name":"MAIN OFFICE","tax clause":"Percentage","lessor name":"DEBOER FAMILY LP","id":"a8uq3rtik7tm","address":"522 STORRS RD","maint":"Landlord","eff date":"08/01/2010","purchase option":null,"next rent / sq ft":0,"geo_precision":"range","property id":83944001,"state":"CT","next rent":0},"type":"Feature","geometry":{"type":"Point","coordinates":[-72.196922,41.763343]}},{"properties":{"city":"BERLIN","geo_precision0":"range","zip":"06037-9991","bldg own":"P","geo_score0":0.966,"int sq ft":857,"district":"Connecticut Valley","lo years":null,"annual rent / sq ft":18,"annual rent":15500,"geo_score":0.966,"po name":"KENSINGTON","lo nbr":null,"site sq ft":5450,"exp date":"9/30/2012","land own":"P","unit name":"BERLIN BRANCH","tax clause":"None Specified","lessor name":"JOHN F KALEY","id":"a8uq3s4ru8zj","address":"780 WORTHINGTON RDG","maint":"USPS (Not Roof)","eff date":"10/01/2007","purchase option":null,"next rent / sq ft":0,"geo_precision":"range","property id":83604002,"state":"CT","next rent":0},"type":"Feature","geometry":{"type":"Point","coordinates":[-72.745685,41.621669]}},{"properties":{"city":"MANCHESTER","geo_precision0":"street","zip":"06042-1608","bldg own":"P","geo_score0":0.807,"int sq ft":1585,"district":"Connecticut Valley","lo years":10,"annual rent / sq ft":18,"annual rent":29028,"geo_score":0.807,"po name":"MANCHESTER","lo nbr":2,"site sq ft":1665,"exp date":"9/30/2013","land own":"P","unit name":"BUCKLAND STATION","tax clause":"Percentage","lessor name":"HAYES KAUFMAN TOLLAND LLC","id":"a8uq3rz6wupd","address":"1020 TOLLAND TPKE","maint":"USPS (Not Roof)","eff date":"10/01/1993","purchase option":"N","next rent / sq ft":0,"geo_precision":"street","property id":83876004,"state":"CT","next rent":1},"type":"Feature","geometry":{"type":"Point","coordinates":[-72.556441,41.796554]}},{"properties":{"city":"CANTERBURY","geo_precision0":"range","zip":"06331-9992","bldg own":"A","geo_score0":1.0,"int sq ft":4497,"district":"Connecticut Valley","lo years":5,"annual rent / sq ft":18,"annual rent":82800,"geo_score":1.0,"po name":"CANTERBURY","lo nbr":1,"site sq ft":23757,"exp date":"12/31/2015","land own":"A","unit name":"MAIN POST OFFICE","tax clause":"None Specified","lessor name":"345 FOLSOM ST JOINT","id":"a8uq3s33iolc","address":"168 WESTMINSTER RD","maint":"USPS (Not Roof)","eff date":"01/01/2011","purchase option":"N","next rent / sq ft":24,"geo_precision":"range","property id":80952002,"state":"CT","next rent":109697},"type":"Feature","geometry":{"type":"Point","coordinates":[-71.991203,41.697696]}},{"properties":{"city":"WEST MYSTIC","geo_precision0":"range","zip":"06388-9992","bldg own":"P","geo_score0":0.805,"int sq ft":1322,"district":"Connecticut Valley","lo years":null,"annual rent / sq ft":19,"annual rent":24457,"geo_score":0.805,"po name":"MYSTIC","lo nbr":null,"site sq ft":17000,"exp date":"9/30/2012","land own":"P","unit name":"WEST MYSTIC BRANCH","tax clause":"Reimbursable","lessor name":"FISCHER PROP GROUP LLC","id":"a8uq3rzy2j7q","address":"55 W MYSTIC AVE","maint":"Landlord","eff date":"10/01/2007","purchase option":null,"next rent / sq ft":0,"geo_precision":"range","property id":84556001,"state":"CT","next rent":0},"type":"Feature","geometry":{"type":"Point","coordinates":[-71.977125,41.345077]}},{"properties":{"city":"BRIDGEPORT","geo_precision0":"range","zip":"06610-9998","bldg own":"B","geo_score0":1.0,"int sq ft":22949,"district":"Connecticut Valley","lo years":5,"annual rent / sq ft":19,"annual rent":430000,"geo_score":1.0,"po name":"BRIDGEPORT","lo nbr":1,"site sq ft":123806,"exp date":"4/30/2016","land own":"B","unit name":"BAYVIEW STATION","tax clause":"None Specified","lessor name":"BAYVIEW SHPG CTR ASSOC","id":"a8uq3s65xxka","address":"115 BOSTON AVE","maint":"USPS","eff date":"05/01/2006","purchase option":"N","next rent / sq ft":0,"geo_precision":"range","property id":80578025,"state":"CT","next rent":0},"type":"Feature","geometry":{"type":"Point","coordinates":[-73.185693,41.201595]}},{"properties":{"city":"GOSHEN","geo_precision0":"range","zip":"06756-9998","bldg own":"B","geo_score0":0.878,"int sq ft":3112,"district":"Connecticut Valley","lo years":10,"annual rent / sq ft":19,"annual rent":58330,"geo_score":0.878,"po name":"GOSHEN","lo nbr":2,"site sq ft":29000,"exp date":"8/31/2015","land own":"B","unit name":"MAIN POST OFFICE","tax clause":"None Specified","lessor name":"TYWOOD ASSOCIATES LLC","id":"a8uq3ry3dae5","address":"9 SUNSET DR","maint":"Shared","eff date":"09/01/2005","purchase option":"N","next rent / sq ft":21,"geo_precision":"range","property id":82958002,"state":"CT","next rent":64164},"type":"Feature","geometry":{"type":"Point","coordinates":[-73.231413,41.830887]}},{"properties":{"city":"COLCHESTER","geo_precision0":"range","zip":"06415-9998","bldg own":"A","geo_score0":1.0,"int sq ft":7881,"district":"Connecticut Valley","lo years":5,"annual rent / sq ft":19,"annual rent":149739,"geo_score":1.0,"po name":"COLCHESTER","lo nbr":1,"site sq ft":31133,"exp date":"10/31/2011","land own":"A","unit name":"MAIN OFFICE","tax clause":"Percentage","lessor name":"CBMS ASSOCIATES","id":"a8uq3rv6xgqy","address":"103 S MAIN ST","maint":"Landlord","eff date":"11/01/2006","purchase option":null,"next rent / sq ft":25,"geo_precision":"range","property id":81360001,"state":"CT","next rent":198177},"type":"Feature","geometry":{"type":"Point","coordinates":[-72.331945,41.573142]}},{"properties":{"city":"GEORGETOWN","geo_precision0":"range","zip":"06829-9299","bldg own":"A","geo_score0":0.805,"int sq ft":1682,"district":"Connecticut Valley","lo years":null,"annual rent / sq ft":19,"annual rent":31958,"geo_score":0.805,"po name":"GEORGETOWN","lo nbr":null,"site sq ft":11424,"exp date":"10/31/2015","land own":"A","unit name":"MAIN OFFICE","tax clause":"Reimbursable","lessor name":"BERNARD S UNGER","id":"a8uq3rxtzvdi","address":"65 REDDING RD","maint":"USPS","eff date":"11/01/2005","purchase option":"N","next rent / sq ft":0,"geo_precision":"range","property id":82754002,"state":"CT","next rent":0},"type":"Feature","geometry":{"type":"Point","coordinates":[-73.290875,41.161943]}},{"properties":{"city":"MORRIS","geo_precision0":"range","zip":"06763-9998","bldg own":"B","geo_score0":0.875,"int sq ft":897,"district":"Connecticut Valley","lo years":null,"annual rent / sq ft":19,"annual rent":17220,"geo_score":0.875,"po name":"MORRIS","lo nbr":null,"site sq ft":20720,"exp date":"8/31/2015","land own":"B","unit name":"MAIN OFFICE","tax clause":"Reimbursable","lessor name":"SUNSET VIEWS LLC","id":"a8uq3rth0dko","address":"8 WEST ST","maint":"Landlord","eff date":"09/01/2010","purchase option":null,"next rent / sq ft":0,"geo_precision":"range","property id":84522001,"state":"CT","next rent":0},"type":"Feature","geometry":{"type":"Point","coordinates":[-73.199634,41.683636]}},{"properties":{"city":"COLUMBIA","geo_precision0":"range","zip":"06237-9998","bldg own":"P","geo_score0":0.829,"int sq ft":6480,"district":"Connecticut Valley","lo years":20,"annual rent / sq ft":19,"annual rent":126300,"geo_score":0.829,"po name":"COLUMBIA","lo nbr":4,"site sq ft":67954,"exp date":"03/06/2022","land own":"P","unit name":"MAIN OFFICE","tax clause":"Reimbursable","lessor name":"KENNETH J BAER","id":"a8uq3s02a236","address":"172 ROUTE 66","maint":"Shared","eff date":"03/07/2002","purchase option":"Y","next rent / sq ft":18,"geo_precision":"range","property id":81462002,"state":"CT","next rent":118116},"type":"Feature","geometry":{"type":"Point","coordinates":[-72.300884,41.702618]}},{"properties":{"city":"HARTFORD","geo_precision0":"range","zip":"06112-9998","bldg own":"B","geo_score0":1.0,"int sq ft":4575,"district":"Connecticut Valley","lo years":null,"annual rent / sq ft":19,"annual rent":89152,"geo_score":1.0,"po name":"HARTFORD","lo nbr":null,"site sq ft":16000,"exp date":null,"land own":"B","unit name":"BLUE HILLS STATION","tax clause":"Reimbursable","lessor name":"NATIONWIDE POSTAL MANAGEMENT","id":"a8uq3s4hnwgb","address":"433 WOODLAND ST","maint":"USPS (Not Roof)","eff date":"05/01/2007","purchase option":"N","next rent / sq ft":0,"geo_precision":"range","property id":83366010,"state":"CT","next rent":0},"type":"Feature","geometry":{"type":"Point","coordinates":[-72.697177,41.780143]}},{"properties":{"city":"BOTSFORD","geo_precision0":"range","zip":"06404-9991","bldg own":"P","geo_score0":0.805,"int sq ft":3169,"district":"Connecticut Valley","lo years":15,"annual rent / sq ft":20,"annual rent":61796,"geo_score":0.805,"po name":"BOTSFORD","lo nbr":3,"site sq ft":41400,"exp date":"2/28/2022","land own":"P","unit name":"MAIN OFFICE","tax clause":"None Specified","lessor name":"JOHN E KALAS","id":"a8uq3s3smkux","address":"1 BOTSFORD HILL RD","maint":"USPS (Not Roof)","eff date":"03/01/2002","purchase option":null,"next rent / sq ft":22,"geo_precision":"range","property id":80510002,"state":"CT","next rent":69718},"type":"Feature","geometry":{"type":"Point","coordinates":[-73.263751,41.363142]}},{"properties":{"city":"KENT","geo_precision0":"range","zip":"06757-9998","bldg own":"B","geo_score0":1.0,"int sq ft":3934,"district":"Connecticut Valley","lo years":null,"annual rent / sq ft":20,"annual rent":77303,"geo_score":1.0,"po name":"KENT","lo nbr":null,"site sq ft":5584,"exp date":"3/31/2015","land own":"B","unit name":"MAIN OFFICE","tax clause":"None Specified","lessor name":"HOUSATONIC ENTERPRISES","id":"a8uq3rysn311","address":"31 KENT GREEN BLVD","maint":"Landlord","eff date":"04/01/2010","purchase option":null,"next rent / sq ft":0,"geo_precision":"range","property id":83638002,"state":"CT","next rent":0},"type":"Feature","geometry":{"type":"Point","coordinates":[-73.473389,41.7279]}},{"properties":{"city":"HARTFORD","geo_precision0":"range","zip":"06114-9998","bldg own":"B","geo_score0":1.0,"int sq ft":4340,"district":"Connecticut Valley","lo years":null,"annual rent / sq ft":20,"annual rent":86000,"geo_score":1.0,"po name":"HARTFORD","lo nbr":null,"site sq ft":9369,"exp date":"11/30/2012","land own":"B","unit name":"BARRY SQUARE STATION","tax clause":"None Specified","lessor name":"IVACLA INVESTMENT INC","id":"a8uq3rvmjvzm","address":"645 MAPLE AVE","maint":"Landlord","eff date":"12/01/2009","purchase option":"N","next rent / sq ft":0,"geo_precision":"range","property id":83366015,"state":"CT","next rent":0},"type":"Feature","geometry":{"type":"Point","coordinates":[-72.682729,41.743092]}},{"properties":{"city":"BALLOUVILLE","geo_precision0":"range","zip":"06233-9997","bldg own":"E","geo_score0":0.902,"int sq ft":240,"district":"Connecticut Valley","lo years":null,"annual rent / sq ft":20,"annual rent":4800,"geo_score":0.902,"po name":"BALLOUVILLE","lo nbr":null,"site sq ft":240,"exp date":null,"land own":"E","unit name":"MAIN OFFICE","tax clause":"None Specified","lessor name":"ARTHUR C BERUBE","id":"a8uq3rvdoour","address":"252 BALLOUVILLE RD","maint":"Landlord","eff date":"09/01/2005","purchase option":null,"next rent / sq ft":0,"geo_precision":"range","property id":80204001,"state":"CT","next rent":0},"type":"Feature","geometry":{"type":"Point","coordinates":[-71.863766,41.873083]}},{"properties":{"city":"GALES FERRY","geo_precision0":"range","zip":"06335-1400","bldg own":"P","geo_score0":1.0,"int sq ft":4100,"district":"Connecticut Valley","lo years":null,"annual rent / sq ft":20,"annual rent":82000,"geo_score":1.0,"po name":"GALES FERRY","lo nbr":null,"site sq ft":11642,"exp date":"9/30/2013","land own":"P","unit name":"MAIN OFFICE","tax clause":"Reimbursable","lessor name":"BANNERSTONE LLC","id":"a8uq3ruptira","address":"12 MILITARY HWY","maint":"Landlord","eff date":"10/01/2008","purchase option":null,"next rent / sq ft":0,"geo_precision":"range","property id":82686001,"state":"CT","next rent":0},"type":"Feature","geometry":{"type":"Point","coordinates":[-72.088523,41.412449]}},{"properties":{"city":"REDDING RIDGE","geo_precision0":"street","zip":"06876-9997","bldg own":"P","geo_score0":0.314,"int sq ft":600,"district":"Connecticut Valley","lo years":null,"annual rent / sq ft":20,"annual rent":12000,"geo_score":0.314,"po name":"REDDING RIDGE","lo nbr":null,"site sq ft":3680,"exp date":"7/31/2013","land own":"P","unit name":"MAIN OFFICE","tax clause":null,"lessor name":"119 BLACK ROCK LLC","id":"a8uq3s31n4n1","address":"121 BLACK ROCK TPKE","maint":"USPS (Not Roof)","eff date":"08/01/2008","purchase option":null,"next rent / sq ft":0,"geo_precision":"street","property id":86358001,"state":"CT","next rent":0},"type":"Feature","geometry":{"type":"Point","coordinates":[-73.405423,41.130673]}},{"properties":{"city":"NEW HAVEN","geo_precision0":"range","zip":"06519-9992","bldg own":"P","geo_score0":1.0,"int sq ft":2371,"district":"Connecticut Valley","lo years":null,"annual rent / sq ft":20,"annual rent":47500,"geo_score":1.0,"po name":"NEW HAVEN","lo nbr":null,"site sq ft":26297,"exp date":"10/31/2012","land own":"P","unit name":"KILBY STATION","tax clause":"Reimbursable","lessor name":"ESTATE JOHN J ANTHONY","id":"a8uq3s07ui9c","address":"369 WASHINGTON AVE","maint":"USPS (Not Roof)","eff date":"11/01/2007","purchase option":null,"next rent / sq ft":0,"geo_precision":"range","property id":84726038,"state":"CT","next rent":0},"type":"Feature","geometry":{"type":"Point","coordinates":[-72.935462,41.298477]}},{"properties":{"city":"REDDING CENTER","geo_precision0":"range","zip":"06875-9992","bldg own":"B","geo_score0":0.805,"int sq ft":375,"district":"Connecticut Valley","lo years":null,"annual rent / sq ft":20,"annual rent":7606,"geo_score":0.805,"po name":"REDDING","lo nbr":null,"site sq ft":375,"exp date":"6/30/2011","land own":"B","unit name":"MAIN OFFICE","tax clause":"None Specified","lessor name":"TOWN OF REDDING","id":"a8uq3rz3fnvt","address":"10 LONETOWN RD","maint":"Landlord","eff date":"07/01/2010","purchase option":"N","next rent / sq ft":0,"geo_precision":"range","property id":86324001,"state":"CT","next rent":0},"type":"Feature","geometry":{"type":"Point","coordinates":[-73.383065,41.308156]}},{"properties":{"city":"NEW FAIRFIELD","geo_precision0":"range","zip":"06812-9998","bldg own":"B","geo_score0":1.0,"int sq ft":1920,"district":"Connecticut Valley","lo years":null,"annual rent / sq ft":20,"annual rent":39091,"geo_score":1.0,"po name":"DANBURY","lo nbr":null,"site sq ft":8713,"exp date":"8/31/2014","land own":"B","unit name":"NEW FAIRFIELD BR","tax clause":"Percentage","lessor name":"BERNARD DISARRO TRUST U/A","id":"a8uq3rx1udo3","address":"7 BRUSH HILL RD","maint":"USPS","eff date":"09/01/2009","purchase option":null,"next rent / sq ft":0,"geo_precision":"range","property id":81666002,"state":"CT","next rent":0},"type":"Feature","geometry":{"type":"Point","coordinates":[-73.486533,41.46545]}},{"properties":{"city":"BRIDGEPORT","geo_precision0":"range","zip":"06605-9998","bldg own":"P","geo_score0":1.0,"int sq ft":10772,"district":"Connecticut Valley","lo years":10,"annual rent / sq ft":20,"annual rent":220000,"geo_score":1.0,"po name":"BRIDGEPORT","lo nbr":2,"site sq ft":101424,"exp date":"2/28/2015","land own":"P","unit name":"BARNUM STATION","tax clause":"None Specified","lessor name":"WORDIN ASSOCS LLC","id":"a8uq3rxcggru","address":"2253 FAIRFIELD AVE","maint":"USPS (Not Roof)","eff date":"03/01/1995","purchase option":"Y","next rent / sq ft":33,"geo_precision":"range","property id":80578030,"state":"CT","next rent":352000},"type":"Feature","geometry":{"type":"Point","coordinates":[-73.220082,41.163999]}},{"properties":{"city":"NORTH HAVEN","geo_precision0":"range","zip":"06473-9992","bldg own":"P","geo_score0":1.0,"int sq ft":6986,"district":"Connecticut Valley","lo years":null,"annual rent / sq ft":20,"annual rent":142675,"geo_score":1.0,"po name":"NORTH HAVEN","lo nbr":1,"site sq ft":65150,"exp date":"10/12/2011","land own":"P","unit name":"MAIN OFFICE","tax clause":"Reimbursable","lessor name":"NORTH HAVEN PARTNERS","id":"a8uq3s1umzt9","address":"74 WASHINGTON AVE","maint":"USPS (Not Roof)","eff date":"10/13/2001","purchase option":"N","next rent / sq ft":0,"geo_precision":"range","property id":85202001,"state":"CT","next rent":0},"type":"Feature","geometry":{"type":"Point","coordinates":[-72.858856,41.391935]}},{"properties":{"city":"EAST HAVEN","geo_precision0":"range","zip":"06512-3099","bldg own":"B","geo_score0":0.865,"int sq ft":1602,"district":"Connecticut Valley","lo years":null,"annual rent / sq ft":21,"annual rent":33085,"geo_score":0.865,"po name":"NEW HAVEN","lo nbr":null,"site sq ft":1658,"exp date":null,"land own":"B","unit name":"TROLLEY SQUARE BRANCH","tax clause":"None Specified","lessor name":"KATE REALTY CO INC","id":"a8uq3s0v99ri","address":"175 MAIN ST STE 2","maint":"USPS (Not Roof)","eff date":"05/01/1997","purchase option":"Y","next rent / sq ft":0,"geo_precision":"range","property id":84726049,"state":"CT","next rent":0},"type":"Feature","geometry":{"type":"Point","coordinates":[-72.871841,41.278024]}},{"properties":{"city":"HADLYME","geo_precision0":"street","zip":"06439-9992","bldg own":"P","geo_score0":0.878,"int sq ft":522,"district":"Connecticut Valley","lo years":null,"annual rent / sq ft":21,"annual rent":10800,"geo_score":0.878,"po name":"HADLYME","lo nbr":null,"site sq ft":522,"exp date":"9/30/2013","land own":"P","unit name":"MAIN OFFICE","tax clause":"None Specified","lessor name":"MATTHEW E ELGART, OD","id":"a8uq3s049zl6","address":"1 FERRY RD","maint":"USPS","eff date":"10/01/2008","purchase option":null,"next rent / sq ft":0,"geo_precision":"street","property id":83230001,"state":"CT","next rent":0},"type":"Feature","geometry":{"type":"Point","coordinates":[-72.399585,41.422363]}},{"properties":{"city":"EAST BERLIN","geo_precision0":"range","zip":"06023-9998","bldg own":"P","geo_score0":1.0,"int sq ft":1193,"district":"Connecticut Valley","lo years":null,"annual rent / sq ft":21,"annual rent":25344,"geo_score":1.0,"po name":"EAST BERLIN","lo nbr":null,"site sq ft":11250,"exp date":"6/30/2015","land own":"P","unit name":"MAIN OFFICE","tax clause":"Reimbursable","lessor name":"115 MAIN STREET LLC","id":"a8uq3rtk3cqp","address":"115 MAIN ST","maint":"Landlord","eff date":"07/01/2010","purchase option":"N","next rent / sq ft":0,"geo_precision":"range","property id":81938001,"state":"CT","next rent":0},"type":"Feature","geometry":{"type":"Point","coordinates":[-72.717768,41.611812]}},{"properties":{"city":"BETHEL","geo_precision0":"range","zip":"06801-9998","bldg own":"P","geo_score0":1.0,"int sq ft":5400,"district":"Connecticut Valley","lo years":null,"annual rent / sq ft":21,"annual rent":115000,"geo_score":1.0,"po name":"BETHEL","lo nbr":null,"site sq ft":37000,"exp date":"6/30/2019","land own":"P","unit name":"MAIN OFFICE","tax clause":"Reimbursable","lessor name":"EILEEN WEISNER LVNG TR","id":"a8uq3s72472u","address":"10 LIBRARY PL","maint":"USPS (Not Roof)","eff date":"07/01/2009","purchase option":"N","next rent / sq ft":0,"geo_precision":"range","property id":80374001,"state":"CT","next rent":0},"type":"Feature","geometry":{"type":"Point","coordinates":[-73.414081,41.372194]}},{"properties":{"city":"NEW HAVEN","geo_precision0":"range","zip":"06515-9994","bldg own":"P","geo_score0":1.0,"int sq ft":2396,"district":"Connecticut Valley","lo years":2,"annual rent / sq ft":22,"annual rent":52971,"geo_score":1.0,"po name":"NEW HAVEN","lo nbr":1,"site sq ft":18000,"exp date":"10/31/2011","land own":"P","unit name":"AMITY FINANCE STATION","tax clause":"Percentage","lessor name":"ACL/SMARTYALE LLC","id":"a8uq3s113xou","address":"1449 WHALLEY AVE","maint":"USPS (Not Roof)","eff date":"11/01/2008","purchase option":null,"next rent / sq ft":25,"geo_precision":"range","property id":84726905,"state":"CT","next rent":59600},"type":"Feature","geometry":{"type":"Point","coordinates":[-72.976557,41.334524]}},{"properties":{"city":"COBALT","geo_precision0":"street","zip":"06414-9800","bldg own":"P","geo_score0":0.407,"int sq ft":539,"district":"Connecticut Valley","lo years":null,"annual rent / sq ft":22,"annual rent":12000,"geo_score":0.407,"po name":"COBALT","lo nbr":null,"site sq ft":1451,"exp date":"5/31/2014","land own":"P","unit name":"MAIN OFFICE","tax clause":"None Specified","lessor name":"K ENTERPRISES LLC","id":"a8uq3s1gt3ep","address":"371 W HIGH ST","maint":"Landlord","eff date":"06/01/2009","purchase option":null,"next rent / sq ft":0,"geo_precision":"street","property id":81326001,"state":"CT","next rent":0},"type":"Feature","geometry":{"type":"Point","coordinates":[-72.947178,41.536331]}},{"properties":{"city":"HAMDEN","geo_precision0":"zip","zip":"06514-9998","bldg own":"B","geo_score0":0.585,"int sq ft":6187,"district":"Connecticut Valley","lo years":null,"annual rent / sq ft":23,"annual rent":141520,"geo_score":0.585,"po name":"NEW HAVEN","lo nbr":null,"site sq ft":33379,"exp date":"07/11/2029","land own":"B","unit name":"HAMDEN BRANCH","tax clause":"Reimbursable","lessor name":"WILLIAM T ESPOSITO","id":"a8uq3s4otwt3","address":"1744 DIXWELL AVE","maint":"Landlord","eff date":"07/12/2009","purchase option":"N","next rent / sq ft":0,"geo_precision":"zip","property id":84726004,"state":"CT","next rent":0},"type":"Feature","geometry":{"type":"Point","coordinates":[-72.908713,41.36343]}},{"properties":{"city":"TRUMBULL","geo_precision0":"range","zip":"06611-9998","bldg own":"P","geo_score0":1.0,"int sq ft":3845,"district":"Connecticut Valley","lo years":20,"annual rent / sq ft":23,"annual rent":88000,"geo_score":1.0,"po name":"BRIDGEPORT","lo nbr":4,"site sq ft":3845,"exp date":"1/31/2017","land own":"P","unit name":"TRUMBULL BRANCH","tax clause":"Percentage","lessor name":"THE STOP &amp; SHOP","id":"a8uq3rrwqlse","address":"50 QUALITY ST","maint":"USPS","eff date":"03/01/2000","purchase option":"N","next rent / sq ft":30,"geo_precision":"range","property id":80578034,"state":"CT","next rent":117128},"type":"Feature","geometry":{"type":"Point","coordinates":[-73.217544,41.256026]}},{"properties":{"city":"HARTFORD","geo_precision0":"range","zip":"06103-9991","bldg own":"B","geo_score0":1.0,"int sq ft":2000,"district":"Connecticut Valley","lo years":null,"annual rent / sq ft":24,"annual rent":47015,"geo_score":1.0,"po name":"HARTFORD","lo nbr":null,"site sq ft":2000,"exp date":"2/28/2015","land own":"B","unit name":"FINANCE STATION","tax clause":"None Specified","lessor name":"JOHN E RIMSCHA","id":"a8uq3ryf8c8t","address":"185 ANN ST","maint":"Landlord","eff date":"03/01/2010","purchase option":"N","next rent / sq ft":0,"geo_precision":"range","property id":83366039,"state":"CT","next rent":0},"type":"Feature","geometry":{"type":"Point","coordinates":[-72.677952,41.767876]}},{"properties":{"city":"BRANFORD","geo_precision0":"range","zip":"06405-9991","bldg own":"B","geo_score0":0.89,"int sq ft":882,"district":"Connecticut Valley","lo years":null,"annual rent / sq ft":24,"annual rent":21500,"geo_score":0.89,"po name":"BRANFORD","lo nbr":null,"site sq ft":10890,"exp date":"9/30/2013","land own":"B","unit name":"SHORT BEACH STA","tax clause":null,"lessor name":"JUDITH E SALEEBY","id":"a8uq3s5qzlj9","address":"5 COURT ST","maint":"Landlord","eff date":"10/01/2010","purchase option":null,"next rent / sq ft":0,"geo_precision":"range","property id":80544003,"state":"CT","next rent":0},"type":"Feature","geometry":{"type":"Point","coordinates":[-72.848814,41.259285]}},{"properties":{"city":"HAWLEYVILLE","geo_precision0":"range","zip":"06440-9992","bldg own":"P","geo_score0":0.702,"int sq ft":2002,"district":"Connecticut Valley","lo years":null,"annual rent / sq ft":25,"annual rent":49132,"geo_score":0.702,"po name":"HAWLEYVILLE","lo nbr":null,"site sq ft":65939,"exp date":"03/11/2030","land own":"P","unit name":"MAIN POST OFFICE","tax clause":"Percentage","lessor name":"HAWLEYVILLE DEVELOPMENT LLC","id":"a8uq3rtunq5m","address":"23 BARNABAS RD STE 5","maint":"USPS","eff date":"03/12/2010","purchase option":null,"next rent / sq ft":0,"geo_precision":"range","property id":83400003,"state":"CT","next rent":0},"type":"Feature","geometry":{"type":"Point","coordinates":[-73.352019,41.426234]}},{"properties":{"city":"BANTAM","geo_precision0":"range","zip":"06750-9998","bldg own":"B","geo_score0":0.732,"int sq ft":2179,"district":"Connecticut Valley","lo years":6,"annual rent / sq ft":25,"annual rent":54000,"geo_score":0.732,"po name":"BANTAM","lo nbr":2,"site sq ft":5811,"exp date":"2/28/2013","land own":"B","unit name":"MAIN POST OFFICE","tax clause":"None Specified","lessor name":"TOWN OF LITCHFIELD","id":"a8uq3s3boosu","address":"80 DOYLE RD","maint":"Landlord","eff date":"03/01/2010","purchase option":"N","next rent / sq ft":27,"geo_precision":"range","property id":80272004,"state":"CT","next rent":59000},"type":"Feature","geometry":{"type":"Point","coordinates":[-73.423707,41.568943]}},{"properties":{"city":"ROXBURY","geo_precision0":"range","zip":"06783-9998","bldg own":"D","geo_score0":0.854,"int sq ft":1206,"district":"Connecticut Valley","lo years":null,"annual rent / sq ft":25,"annual rent":30150,"geo_score":0.854,"po name":"ROXBURY","lo nbr":null,"site sq ft":1263,"exp date":null,"land own":"D","unit name":"MAIN OFFICE","tax clause":"None Specified","lessor name":null,"id":"a8uq3rt315gi","address":"26 NORTH ST","maint":"USPS (Not Roof)","eff date":"10/01/2004","purchase option":"N","next rent / sq ft":0,"geo_precision":"range","property id":86630001,"state":"CT","next rent":0},"type":"Feature","geometry":{"type":"Point","coordinates":[-73.309481,41.558372]}},{"properties":{"city":"ROXBURY","geo_precision0":"range","zip":"06783-9998","bldg own":"D","geo_score0":0.854,"int sq ft":1206,"district":"Connecticut Valley","lo years":null,"annual rent / sq ft":25,"annual rent":30150,"geo_score":0.854,"po name":"ROXBURY","lo nbr":null,"site sq ft":1263,"exp date":null,"land own":"D","unit name":"MAIN OFFICE","tax clause":"None Specified","lessor name":"ROXBURY MARKET PLACE PROP","id":"a8uq3rxqx1zv","address":"26 NORTH ST","maint":"USPS (Not Roof)","eff date":"10/01/2004","purchase option":"N","next rent / sq ft":0,"geo_precision":"range","property id":86630001,"state":"CT","next rent":0},"type":"Feature","geometry":{"type":"Point","coordinates":[-73.309481,41.558372]}},{"properties":{"city":"MIDDLE HADDAM","geo_precision0":"range","zip":"06456-9992","bldg own":"B","geo_score0":1.0,"int sq ft":434,"district":"Connecticut Valley","lo years":5,"annual rent / sq ft":25,"annual rent":11000,"geo_score":1.0,"po name":"MIDDLE HADDAM","lo nbr":1,"site sq ft":470,"exp date":"12/31/2015","land own":"B","unit name":"MAIN OFFICE","tax clause":"None Specified","lessor name":"MIDDLE HADDAM ASSOCIATES","id":"a8uq3rt8b7nu","address":"77 MIDDLE HADDAM RD","maint":"Landlord","eff date":"01/01/2011","purchase option":"N","next rent / sq ft":28,"geo_precision":"range","property id":84284001,"state":"CT","next rent":12250},"type":"Feature","geometry":{"type":"Point","coordinates":[-72.553839,41.558329]}},{"properties":{"city":"ESSEX","geo_precision0":"range","zip":"06426-9998","bldg own":"P","geo_score0":0.865,"int sq ft":1856,"district":"Connecticut Valley","lo years":5,"annual rent / sq ft":26,"annual rent":47967,"geo_score":0.865,"po name":"ESSEX","lo nbr":1,"site sq ft":2207,"exp date":"2/28/2015","land own":"P","unit name":"MAIN OFFICE","tax clause":"None Specified","lessor name":"JANET J VON STAATS","id":"a8uq3s4nhrvq","address":"12 MAIN ST STE 5","maint":"Landlord","eff date":"03/01/2010","purchase option":null,"next rent / sq ft":28,"geo_precision":"range","property id":82482001,"state":"CT","next rent":52754},"type":"Feature","geometry":{"type":"Point","coordinates":[-72.390845,41.353146]}},{"properties":{"city":"OLD GREENWICH","geo_precision0":"range","zip":"06870-9203","bldg own":"B","geo_score0":1.0,"int sq ft":5398,"district":"Connecticut Valley","lo years":null,"annual rent / sq ft":27,"annual rent":145000,"geo_score":1.0,"po name":"OLD GREENWICH","lo nbr":null,"site sq ft":16819,"exp date":"11/30/2015","land own":"B","unit name":"MAIN OFFICE","tax clause":"Reimbursable","lessor name":"MARMAH INC","id":"a8uq3rthlw7j","address":"36 ARCADIA RD","maint":"USPS","eff date":"12/01/2010","purchase option":null,"next rent / sq ft":0,"geo_precision":"range","property id":85542002,"state":"CT","next rent":0},"type":"Feature","geometry":{"type":"Point","coordinates":[-73.564739,41.031887]}},{"properties":{"city":"HAMDEN","geo_precision0":"range","zip":"06518-9997","bldg own":"P","geo_score0":1.0,"int sq ft":4591,"district":"Connecticut Valley","lo years":15,"annual rent / sq ft":27,"annual rent":123500,"geo_score":1.0,"po name":"NEW HAVEN","lo nbr":3,"site sq ft":112302,"exp date":"8/27/2017","land own":"P","unit name":"MT CARMEL POSTAL STORE","tax clause":"Reimbursable","lessor name":"SKPO-HAMDEN LLC","id":"a8uq3s7ecy4x","address":"2514 WHITNEY AVE","maint":"Landlord","eff date":"8/28/1997","purchase option":"N","next rent / sq ft":40,"geo_precision":"range","property id":84726059,"state":"CT","next rent":185000},"type":"Feature","geometry":{"type":"Point","coordinates":[-72.898679,41.390542]}},{"properties":{"city":"GREENS FARMS","geo_precision0":"range","zip":"06838-9997","bldg own":"B","geo_score0":0.763,"int sq ft":964,"district":"Connecticut Valley","lo years":null,"annual rent / sq ft":27,"annual rent":26038,"geo_score":0.763,"po name":"GREENS FARMS","lo nbr":null,"site sq ft":13016,"exp date":"10/31/2015","land own":"B","unit name":"MAIN OFFICE","tax clause":"None Specified","lessor name":"JAN SHERWOOD CAVANAGH","id":"a8uq3ry03h72","address":"4 POST OFFICE LN","maint":"Landlord","eff date":"11/01/2010","purchase option":"N","next rent / sq ft":0,"geo_precision":"range","property id":83026001,"state":"CT","next rent":0},"type":"Feature","geometry":{"type":"Point","coordinates":[-72.527008,41.279124]}},{"properties":{"city":"EASTON","geo_precision0":"range","zip":"06612-9998","bldg own":"B","geo_score0":1.0,"int sq ft":747,"district":"Connecticut Valley","lo years":null,"annual rent / sq ft":28,"annual rent":20756,"geo_score":1.0,"po name":"BRIDGEPORT","lo nbr":null,"site sq ft":6667,"exp date":"8/31/2015","land own":"B","unit name":"EASTON BRANCH","tax clause":"None Specified","lessor name":"RICHARD F GREISER","id":"a8uq3rumbw8w","address":"295 CENTER RD","maint":"Landlord","eff date":"09/01/2010","purchase option":null,"next rent / sq ft":0,"geo_precision":"range","property id":80578021,"state":"CT","next rent":0},"type":"Feature","geometry":{"type":"Point","coordinates":[-73.30054,41.250872]}},{"properties":{"city":"DARIEN","geo_precision0":"range","zip":"06820-9998","bldg own":"P","geo_score0":1.0,"int sq ft":7869,"district":"Connecticut Valley","lo years":null,"annual rent / sq ft":28,"annual rent":219100,"geo_score":1.0,"po name":"DARIEN","lo nbr":null,"site sq ft":22178,"exp date":"7/31/2011","land own":"P","unit name":"MAIN OFFICE","tax clause":"Reimbursable","lessor name":"BAYWATER 30 CORBIN LLC","id":"a8uq3rtf2o0p","address":"30 CORBIN DR","maint":"USPS","eff date":"08/01/2006","purchase option":null,"next rent / sq ft":0,"geo_precision":"range","property id":81734001,"state":"CT","next rent":0},"type":"Feature","geometry":{"type":"Point","coordinates":[-73.471381,41.074537]}},{"properties":{"city":"GROTON","geo_precision0":"range","zip":"06340-5723","bldg own":"P","geo_score0":0.707,"int sq ft":528,"district":"Connecticut Valley","lo years":null,"annual rent / sq ft":30,"annual rent":15600,"geo_score":0.707,"po name":"GROTON","lo nbr":null,"site sq ft":528,"exp date":"5/31/2014","land own":"P","unit name":"NOANK STATION","tax clause":"None Specified","lessor name":"MARTHA L QUARATELLA","id":"a8uq3rydg7x6","address":"19 1/2 PEARL ST","maint":"USPS","eff date":"06/01/2009","purchase option":null,"next rent / sq ft":0,"geo_precision":"range","property id":83110005,"state":"CT","next rent":0},"type":"Feature","geometry":{"type":"Point","coordinates":[-71.988295,41.324678]}},{"properties":{"city":"HARTFORD","geo_precision0":"range","zip":"06103-9998","bldg own":"P","geo_score0":0.854,"int sq ft":6076,"district":"Connecticut Valley","lo years":null,"annual rent / sq ft":34,"annual rent":207101,"geo_score":0.854,"po name":"HARTFORD","lo nbr":null,"site sq ft":8535,"exp date":"1/31/2017","land own":"P","unit name":"OLD STATE HOUSE STA.","tax clause":"None Specified","lessor name":"FBE-STATE SQUARE LLC","id":"a8uq3ryjkr1y","address":"80 STATE HOUSE SQ","maint":"Landlord","eff date":"02/01/2007","purchase option":null,"next rent / sq ft":0,"geo_precision":"range","property id":83366045,"state":"CT","next rent":0},"type":"Feature","geometry":{"type":"Point","coordinates":[-72.67281,41.7665]}},{"properties":{"city":"DARIEN","geo_precision0":"range","zip":"06820-9992","bldg own":"P","geo_score0":0.883,"int sq ft":1631,"district":"Connecticut Valley","lo years":null,"annual rent / sq ft":34,"annual rent":55945,"geo_score":0.883,"po name":"DARIEN","lo nbr":null,"site sq ft":1670,"exp date":null,"land own":"P","unit name":"NOROTON HEIGHTS STA.","tax clause":"None Specified","lessor name":"NOROTON HEIGHTS SHOPPING CENTER INC","id":"a8uq3s26ci9n","address":"368 HEIGHTS RD","maint":"Landlord","eff date":"08/01/2004","purchase option":"N","next rent / sq ft":0,"geo_precision":"range","property id":81734003,"state":"CT","next rent":0},"type":"Feature","geometry":{"type":"Point","coordinates":[-73.495629,41.069194]}},{"properties":{"city":"RIVERSIDE","geo_precision0":"range","zip":"06878-9998","bldg own":"P","geo_score0":1.0,"int sq ft":2793,"district":"Connecticut Valley","lo years":null,"annual rent / sq ft":37,"annual rent":103320,"geo_score":1.0,"po name":"RIVERSIDE","lo nbr":null,"site sq ft":2050,"exp date":"9/30/2015","land own":"P","unit name":"MAIN OFFICE","tax clause":"Percentage","lessor name":"THRU-WAY SHOPPING","id":"a8uq3s48vtc2","address":"1273 E PUTNAM AVE","maint":"USPS","eff date":"10/01/2010","purchase option":null,"next rent / sq ft":0,"geo_precision":"range","property id":86426002,"state":"CT","next rent":0},"type":"Feature","geometry":{"type":"Point","coordinates":[-73.575191,41.043114]}},{"properties":{"city":"GREENWICH","geo_precision0":"range","zip":"06831-9991","bldg own":"B","geo_score0":0.908,"int sq ft":3565,"district":"Connecticut Valley","lo years":null,"annual rent / sq ft":45,"annual rent":159936,"geo_score":0.908,"po name":"GREENWICH","lo nbr":null,"site sq ft":16491,"exp date":"10/31/2012","land own":"B","unit name":"GLENVILLE STATION","tax clause":"Percentage","lessor name":"STANFORD SUTTON","id":"a8uq3rvpl27i","address":"25 GLEN RIDGE RD STE 6","maint":"Landlord","eff date":"11/01/2007","purchase option":"N","next rent / sq ft":0,"geo_precision":"range","property id":83060002,"state":"CT","next rent":0},"type":"Feature","geometry":{"type":"Point","coordinates":[-73.668726,41.038573]}},{"properties":{"city":"NORWALK","geo_precision0":"range","zip":"06853-1412","bldg own":"P","geo_score0":0.902,"int sq ft":1059,"district":"Connecticut Valley","lo years":null,"annual rent / sq ft":46,"annual rent":48204,"geo_score":0.902,"po name":"NORWALK","lo nbr":null,"site sq ft":1339,"exp date":"6/30/2013","land own":"P","unit name":"ROWAYTON STA","tax clause":"Percentage","lessor name":"140 ROWAYTON AVE ASSOC LLC","id":"a8uq3s5vvhis","address":"144 ROWAYTON AVE STE 1","maint":"USPS (Not Roof)","eff date":"07/01/2008","purchase option":"N","next rent / sq ft":0,"geo_precision":"range","property id":85406001,"state":"CT","next rent":0},"type":"Feature","geometry":{"type":"Point","coordinates":[-73.443435,41.06833]}},{"properties":{"city":"COS COB","geo_precision0":"range","zip":"06807-9984","bldg own":"P","geo_score0":1.0,"int sq ft":2576,"district":"Connecticut Valley","lo years":null,"annual rent / sq ft":53,"annual rent":136305,"geo_score":1.0,"po name":"COS COB","lo nbr":null,"site sq ft":2747,"exp date":"2/28/2015","land own":"P","unit name":"MAIN OFFICE","tax clause":"Percentage","lessor name":"ESTATE OF ALEX TAYLOR &amp;","id":"a8uq3s33bu14","address":"152 E PUTNAM AVE","maint":"USPS","eff date":"03/01/2010","purchase option":null,"next rent / sq ft":0,"geo_precision":"range","property id":81564001,"state":"CT","next rent":0},"type":"Feature","geometry":{"type":"Point","coordinates":[-73.600247,41.037697]}}],"is_temporal":false,"author":{"url":"","metadata":"","contact_name":"","contact_address":"","source":"","contact_phone":""},"source":"","pagination":{"sort":null,"start":0,"total":196,"limit":1000000},"state":"complete","tags":"","published":"2014-08-15T00:29:58-04:00","id":277080}