{"type":"FeatureCollection","data_type":"Dataset","url_type":null,"permissions":[{"permissions":{"download":true,"view":true},"group_id":"everyone"}],"classification":null,"title":"NIFB First Monday Truck Route ","count":13,"stream_id":277091,"contributor":{"url":"http://geocommons.com/users/52224","name":"reiser.28@osu.edu"},"data_attributes":null,"calculation_params":null,"icon_link":null,"link":"http://geocommons.com/overlays/277091.json","extent":[-88.443,41.1885,-87.9707,41.8781],"geometry_types":["point"],"unique_name":null,"name":"NIFB First Monday Truck Route ","feature_count":13,"description":"","next_feature":null,"is_raster":false,"short_classification":"Y","stats":{},"features":[{"properties":{"name":"Batavia Interfaith Food Pantry","city":"Batavia","geo_score":0.927,"zip code":"60510","id":"a8uqtyoovyf3","address":"100 Flinn Drive","geo_precision":"range","state":"IL","fbc county code":"KANE"},"type":"Feature","geometry":{"type":"Point","coordinates":[-88.308132,41.847165]}},{"properties":{"name":"Holy Angels Pantry","city":"Aurora","geo_score":0.614,"zip code":"60506-4969","id":"a8uqtysm8rm6","address":"204 S. Russell Avenue","geo_precision":"street","state":"IL","fbc county code":"KANE"},"type":"Feature","geometry":{"type":"Point","coordinates":[-88.331092,41.778771]}},{"properties":{"name":"Green Harvest Food Pantry","city":"Plainfield","geo_score":0.947,"zip code":"60585-6866","id":"a8uqtyi6z81r","address":"10135 S Mandel St.","geo_precision":"range","state":"IL","fbc county code":"WILL"},"type":"Feature","geometry":{"type":"Point","coordinates":[-88.240346,41.698951]}},{"properties":{"name":"Lockport Fish Food Pantry","city":"Lockport","geo_score":0.927,"zip code":"60441","id":"a8uqtypd3t9d","address":"604 E 9th Street","geo_precision":"range","state":"IL","fbc county code":"WILL"},"type":"Feature","geometry":{"type":"Point","coordinates":[-88.048401,41.587551]}},{"properties":{"name":"New Life Bilingual Food Pantry","city":"West Chicago","geo_score":1.0,"zip code":"60185","id":"a8uqtyvllji5","address":"464 Ann Street","geo_precision":"range","state":"IL","fbc county code":"DUPAGE"},"type":"Feature","geometry":{"type":"Point","coordinates":[-88.213338,41.878082]}},{"properties":{"name":"Kuzma Care Cottage","city":"Wilmington","geo_score":1.0,"zip code":"60481","id":"a8uqtys6v64o","address":"635 S Main Street","geo_precision":"range","state":"IL","fbc county code":"WILL"},"type":"Feature","geometry":{"type":"Point","coordinates":[-88.143543,41.304126]}},{"properties":{"name":"Community Care Center - Braidwood","city":"Braidwood","geo_score":1.0,"zip code":"60408","id":"a8uqtyriemw0","address":"112 S Center Street","geo_precision":"range","state":"IL","fbc county code":"WILL"},"type":"Feature","geometry":{"type":"Point","coordinates":[-88.217381,41.26413]}},{"properties":{"name":"Church Of Hope","city":"Gardner","geo_score":0.92,"zip code":"60424","id":"a8uqtyqd5mhx","address":"202 N Monroe","geo_precision":"range","state":"IL","fbc county code":"GRUNDY"},"type":"Feature","geometry":{"type":"Point","coordinates":[-88.309977,41.18849]}},{"properties":{"name":"Warren Sharpe Community Center","city":"Joliet","geo_score":1.0,"zip code":"60436","id":"a8uqtyrakq8r","address":"454 S Joliet St","geo_precision":"range","state":"IL","fbc county code":"WILL"},"type":"Feature","geometry":{"type":"Point","coordinates":[-88.083946,41.514554]}},{"properties":{"name":"Soul Food Pantry","city":"Joliet","geo_score":0.463,"zip code":"60435","id":"a8uqtynz3mau","address":"2800 Black Road","geo_precision":"street","state":"IL","fbc county code":"WILL"},"type":"Feature","geometry":{"type":"Point","coordinates":[-88.239267,41.238763]}},{"properties":{"name":"PRC-Southeast - Westmont","city":"Westmont","geo_score":0.585,"zip code":"60559","id":"a8uqtyfe73px","address":"649 Blackhawk Drive","geo_precision":"zip","state":"IL","fbc county code":"DUPAGE"},"type":"Feature","geometry":{"type":"Point","coordinates":[-87.970713,41.799876]}},{"properties":{"name":"Kendall County Pantry","city":"Yorkville","geo_score":0.935,"zip code":"60560","id":"a8uqtyqw3bua","address":"1204 A Deer Street","geo_precision":"range","state":"IL","fbc county code":"KENDALL"},"type":"Feature","geometry":{"type":"Point","coordinates":[-88.443012,41.629478]}},{"properties":{"name":"Spanish Community Center","city":"Joliet","geo_score":1.0,"zip code":"60432","id":"a8uqtykcyrkm","address":"309 N Eastern Ave","geo_precision":"range","state":"IL","fbc county code":"WILL"},"type":"Feature","geometry":{"type":"Point","coordinates":[-88.074951,41.531403]}}],"is_temporal":false,"author":{"url":"","metadata":"","contact_name":"","contact_address":"","source":"","contact_phone":""},"source":"","pagination":{"sort":null,"start":0,"total":13,"limit":1000000},"state":"complete","tags":"","published":"2014-08-15T00:30:48-04:00","id":277091}