{"type":"FeatureCollection","data_type":"Dataset","url_type":null,"permissions":[{"permissions":{"download":true,"edit":true,"view":true},"group_id":53593},{"permissions":{"download":true,"view":true},"group_id":"everyone"}],"classification":null,"title":"Station 5 July EMS Calls","count":126,"stream_id":278541,"contributor":{"url":"http://geocommons.com/users/51527","name":"radoni"},"data_attributes":null,"calculation_params":null,"icon_link":null,"link":"http://geocommons.com/overlays/278541.json","extent":[-121.925,37.2695,-121.853,37.4066],"geometry_types":["point"],"unique_name":null,"name":"Station 5 July EMS Calls","feature_count":126,"description":"","next_feature":null,"is_raster":false,"short_classification":"Y","stats":{"inci_type":{"max":3213,"variance":1417314.47422222,"mean":940.722222222222,"stdev":1190.51017392638,"min":311,"median":321},"station":{"max":5,"variance":0.0,"mean":5.0,"stdev":0.0,"min":5,"median":5}},"features":[{"properties":{"alm_date":"7/4/2012","city":"SAN JOSE","zip":"95112","inci_no":"12-1869248","inci_type":311,"geo_score":0.641,"id":"a8xczzdtn6tg","address":"2151 OAKLAND RD","station":5,"geo_precision":"street"},"type":"Feature","geometry":{"type":"Point","coordinates":[-121.895437,37.37683]}},{"properties":{"alm_date":"7/7/2012","city":"SAN JOSE","zip":"95112","inci_no":"12-1899019","inci_type":311,"geo_score":0.763,"id":"a8xczzjdes2p","address":"1408 N 1ST ST","station":5,"geo_precision":"range"},"type":"Feature","geometry":{"type":"Point","coordinates":[-121.911262,37.364034]}},{"properties":{"alm_date":"7/18/2012","city":"SAN JOSE","zip":"95112","inci_no":"12-2009200","inci_type":311,"geo_score":0.653,"id":"a8xczz8kiw23","address":"N 1ST ST","station":5,"geo_precision":"street"},"type":"Feature","geometry":{"type":"Point","coordinates":[-121.890566,37.336168]}},{"properties":{"alm_date":"7/1/2012","city":"SAN JOSE","zip":"95112","inci_no":"12-1839026","inci_type":321,"geo_score":0.805,"id":"a8xczz8cmr9h","address":"2050 GATEWAY PL","station":5,"geo_precision":"range"},"type":"Feature","geometry":{"type":"Point","coordinates":[-121.923344,37.371041]}},{"properties":{"alm_date":"7/1/2012","city":"SAN JOSE","zip":"95112","inci_no":"12-1839103","inci_type":321,"geo_score":0.771,"id":"a8xczz6wwxx2","address":"831 N 15TH ST","station":5,"geo_precision":"range"},"type":"Feature","geometry":{"type":"Point","coordinates":[-121.887907,37.358395]}},{"properties":{"alm_date":"7/2/2012","city":"SAN JOSE","zip":"95112","inci_no":"12-1849040","inci_type":321,"geo_score":0.763,"id":"a8xczzgro8ot","address":"1550 N 1ST ST","station":5,"geo_precision":"range"},"type":"Feature","geometry":{"type":"Point","coordinates":[-121.911731,37.364631]}},{"properties":{"alm_date":"7/3/2012","city":"SAN JOSE","zip":"95112","inci_no":"12-1859205","inci_type":321,"geo_score":0.449,"id":"a8xczzh4mzlf","address":"900 GOLDEN WHEEL PARK DR","station":5,"geo_precision":"street"},"type":"Feature","geometry":{"type":"Point","coordinates":[-121.867777,37.391648]}},{"properties":{"alm_date":"7/4/2012","city":"SAN JOSE","zip":"95112","inci_no":"12-1869026","inci_type":321,"geo_score":0.771,"id":"a8xczzbd05nj","address":"740 N 11TH ST","station":5,"geo_precision":"range"},"type":"Feature","geometry":{"type":"Point","coordinates":[-121.890561,37.355422]}},{"properties":{"alm_date":"7/4/2012","city":"SAN JOSE","zip":"95112","inci_no":"12-1869068","inci_type":321,"geo_score":0.791,"id":"a8xczzhwup9v","address":"101 W YOUNGER AV","station":5,"geo_precision":"range"},"type":"Feature","geometry":{"type":"Point","coordinates":[-121.901552,37.356649]}},{"properties":{"alm_date":"7/4/2012","city":"SAN JOSE","zip":"95112","inci_no":"12-1869230","inci_type":321,"geo_score":0.771,"id":"a8xczza3xq3p","address":"915 N 16TH ST","station":5,"geo_precision":"range"},"type":"Feature","geometry":{"type":"Point","coordinates":[-121.888805,37.361354]}},{"properties":{"alm_date":"7/5/2012","city":"SAN JOSE","zip":"95112","inci_no":"12-1879085","inci_type":321,"geo_score":0.763,"id":"a8xczz98euhv","address":"1440 N 1ST ST","station":5,"geo_precision":"range"},"type":"Feature","geometry":{"type":"Point","coordinates":[-121.910772,37.363312]}},{"properties":{"alm_date":"7/5/2012","city":"SAN JOSE","zip":"95112","inci_no":"12-1879094","inci_type":321,"geo_score":0.771,"id":"a8xczzgmzack","address":"908 N 17TH ST","station":5,"geo_precision":"range"},"type":"Feature","geometry":{"type":"Point","coordinates":[-121.887897,37.362087]}},{"properties":{"alm_date":"7/5/2012","city":"SAN JOSE","zip":"95112","inci_no":"12-1879162","inci_type":321,"geo_score":0.805,"id":"a8xczzd17zsk","address":"1754 TECHNOLOGY DR","station":5,"geo_precision":"range"},"type":"Feature","geometry":{"type":"Point","coordinates":[-121.919597,37.368846]}},{"properties":{"alm_date":"7/5/2012","city":"SAN JOSE","zip":"95112","inci_no":"12-1879198","inci_type":321,"geo_score":0.763,"id":"a8xczzhcsld7","address":"1550 N 1ST ST","station":5,"geo_precision":"range"},"type":"Feature","geometry":{"type":"Point","coordinates":[-121.911731,37.364631]}},{"properties":{"alm_date":"7/6/2012","city":"SAN JOSE","zip":"95112","inci_no":"12-1889082","inci_type":321,"geo_score":0.571,"id":"a8xczzj4y47j","address":"2114 N 1ST ST","station":5,"geo_precision":"street"},"type":"Feature","geometry":{"type":"Point","coordinates":[-121.919864,37.375437]}},{"properties":{"alm_date":"7/6/2012","city":"SAN JOSE","zip":"95112","inci_no":"12-1889204","inci_type":321,"geo_score":0.763,"id":"a8xczz75czby","address":"947 N 7TH ST","station":5,"geo_precision":"range"},"type":"Feature","geometry":{"type":"Point","coordinates":[-121.897853,37.357303]}},{"properties":{"alm_date":"7/7/2012","city":"SAN JOSE","zip":"95112","inci_no":"12-1899001","inci_type":321,"geo_score":0.488,"id":"a8xczziz27j9","address":"880","station":5,"geo_precision":"zip"},"type":"Feature","geometry":{"type":"Point","coordinates":[-121.892093,37.37004]}},{"properties":{"alm_date":"7/7/2012","city":"SAN JOSE","zip":"95112","inci_no":"12-1899131","inci_type":321,"geo_score":0.805,"id":"a8xczzgrgifq","address":"1205 ELM LAKE CT","station":5,"geo_precision":"range"},"type":"Feature","geometry":{"type":"Point","coordinates":[-121.896049,37.384057]}},{"properties":{"alm_date":"7/7/2012","city":"SAN JOSE","zip":"95112","inci_no":"12-1899143","inci_type":321,"geo_score":0.836,"id":"a8xczzf4znk8","address":"1515 BERGER DR","station":5,"geo_precision":"range"},"type":"Feature","geometry":{"type":"Point","coordinates":[-121.897362,37.370017]}},{"properties":{"alm_date":"7/8/2012","city":"SAN JOSE","zip":"95112","inci_no":"12-1909053","inci_type":321,"geo_score":0.488,"id":"a8xczzcv2fo7","address":"858 1","station":5,"geo_precision":"zip"},"type":"Feature","geometry":{"type":"Point","coordinates":[-121.892093,37.37004]}},{"properties":{"alm_date":"7/8/2012","city":"SAN JOSE","zip":"95112","inci_no":"12-1909122","inci_type":321,"geo_score":0.763,"id":"a8xczzhvp257","address":"1160 N 4TH ST","station":5,"geo_precision":"range"},"type":"Feature","geometry":{"type":"Point","coordinates":[-121.90442,37.360618]}},{"properties":{"alm_date":"7/8/2012","city":"SAN JOSE","zip":"95112","inci_no":"12-1909169","inci_type":321,"geo_score":0.763,"id":"a8xczzjhk72i","address":"1275 N 4TH ST","station":5,"geo_precision":"range"},"type":"Feature","geometry":{"type":"Point","coordinates":[-121.90486,37.360941]}},{"properties":{"alm_date":"7/8/2012","city":"SAN JOSE","zip":"95112","inci_no":"12-1909199","inci_type":321,"geo_score":0.763,"id":"a8xczzfkrgph","address":"1275 N 4TH ST","station":5,"geo_precision":"range"},"type":"Feature","geometry":{"type":"Point","coordinates":[-121.90486,37.360941]}},{"properties":{"alm_date":"7/9/2012","city":"SAN JOSE","zip":"95112","inci_no":"12-1919088","inci_type":321,"geo_score":0.791,"id":"a8xczz7dnube","address":"55 W YOUNGER AV","station":5,"geo_precision":"range"},"type":"Feature","geometry":{"type":"Point","coordinates":[-121.902713,37.35617]}},{"properties":{"alm_date":"7/9/2012","city":"SAN JOSE","zip":"95112","inci_no":"12-1919086","inci_type":321,"geo_score":0.771,"id":"a8xczzgh0ssv","address":"795 N 13TH ST","station":5,"geo_precision":"range"},"type":"Feature","geometry":{"type":"Point","coordinates":[-121.887928,37.355054]}},{"properties":{"alm_date":"7/9/2012","city":"SAN JOSE","zip":"95112","inci_no":"12-1919122","inci_type":321,"geo_score":0.771,"id":"a8xczz43xfgu","address":"743 N 16TH ST","station":5,"geo_precision":"range"},"type":"Feature","geometry":{"type":"Point","coordinates":[-121.885997,37.357519]}},{"properties":{"alm_date":"7/11/2012","city":"SAN JOSE","zip":"95112","inci_no":"12-1939135","inci_type":321,"geo_score":0.763,"id":"a8xczz5b4fqc","address":"914 N 5TH ST","station":5,"geo_precision":"range"},"type":"Feature","geometry":{"type":"Point","coordinates":[-121.900249,37.356946]}},{"properties":{"alm_date":"7/11/2012","city":"SAN JOSE","zip":"95112","inci_no":"12-1939181","inci_type":321,"geo_score":0.771,"id":"a8xczz90lcxz","address":"1410 N 10TH ST","station":5,"geo_precision":"range"},"type":"Feature","geometry":{"type":"Point","coordinates":[-121.900037,37.366297]}},{"properties":{"alm_date":"7/11/2012","city":"SAN JOSE","zip":"95112","inci_no":"12-1939201","inci_type":321,"geo_score":0.641,"id":"a8xczza85rx8","address":"2151 OAKLAND RD","station":5,"geo_precision":"street"},"type":"Feature","geometry":{"type":"Point","coordinates":[-121.895437,37.37683]}},{"properties":{"alm_date":"7/12/2012","city":"SAN JOSE","zip":"95112","inci_no":"12-1949003","inci_type":321,"geo_score":0.763,"id":"a8xczzj969n8","address":"1174 OLD BAYSHORE","station":5,"geo_precision":"range"},"type":"Feature","geometry":{"type":"Point","coordinates":[-121.894954,37.363798]}},{"properties":{"alm_date":"7/12/2012","city":"SAN JOSE","zip":"95112","inci_no":"12-1949141","inci_type":321,"geo_score":0.69,"id":"a8xczz4jlbfh","address":"1550 1ST ST","station":5,"geo_precision":"range"},"type":"Feature","geometry":{"type":"Point","coordinates":[-121.911731,37.364631]}},{"properties":{"alm_date":"7/12/2012","city":"SAN JOSE","zip":"95112","inci_no":"12-1949178","inci_type":321,"geo_score":0.836,"id":"a8xczzchxrei","address":"1135 OAKLAND RD","station":5,"geo_precision":"range"},"type":"Feature","geometry":{"type":"Point","coordinates":[-121.892007,37.365818]}},{"properties":{"alm_date":"7/12/2012","city":"SAN JOSE","zip":"95112","inci_no":"12-1949281","inci_type":321,"geo_score":0.763,"id":"a8xczzjb13qx","address":"1550 N 1ST ST","station":5,"geo_precision":"range"},"type":"Feature","geometry":{"type":"Point","coordinates":[-121.911731,37.364631]}},{"properties":{"alm_date":"7/13/2012","city":"SAN JOSE","zip":"95112","inci_no":"12-1959007","inci_type":321,"geo_score":0.763,"id":"a8xczzb6qlc0","address":"1174 OLD BAYSHORE","station":5,"geo_precision":"range"},"type":"Feature","geometry":{"type":"Point","coordinates":[-121.894954,37.363798]}},{"properties":{"alm_date":"7/13/2012","city":"SAN JOSE","zip":"95112","inci_no":"12-1959127","inci_type":321,"geo_score":0.763,"id":"a8xczz8j62lz","address":"1080 N 7TH ST","station":5,"geo_precision":"range"},"type":"Feature","geometry":{"type":"Point","coordinates":[-121.899846,37.360289]}},{"properties":{"alm_date":"7/13/2012","city":"SAN JOSE","zip":"95112","inci_no":"12-1959208","inci_type":321,"geo_score":0.424,"id":"a8xczzifu7c0","address":"1321 LAKESHORE CL","station":5,"geo_precision":"street"},"type":"Feature","geometry":{"type":"Point","coordinates":[-121.907977,37.366073]}},{"properties":{"alm_date":"7/13/2012","city":"SAN JOSE","zip":"95112","inci_no":"12-1959222","inci_type":321,"geo_score":0.836,"id":"a8xczzf4cmye","address":"1610 CRANE CT","station":5,"geo_precision":"range"},"type":"Feature","geometry":{"type":"Point","coordinates":[-121.911977,37.373011]}},{"properties":{"alm_date":"7/15/2012","city":"SAN JOSE","zip":"95112","inci_no":"12-1979185","inci_type":321,"geo_score":0.78,"id":"a8xczzgabnlk","address":"1437 SAN JUAN AV","station":5,"geo_precision":"range"},"type":"Feature","geometry":{"type":"Point","coordinates":[-121.915547,37.361244]}},{"properties":{"alm_date":"7/16/2012","city":"SAN JOSE","zip":"95112","inci_no":"12-1989053","inci_type":321,"geo_score":0.488,"id":"a8xczzeyvdbi","address":"1505 SCHALLENBERGER RD","station":5,"geo_precision":"zip"},"type":"Feature","geometry":{"type":"Point","coordinates":[-121.892093,37.37004]}},{"properties":{"alm_date":"7/16/2012","city":"SAN JOSE","zip":"95112","inci_no":"12-1989067","inci_type":321,"geo_score":0.569,"id":"a8xczz5tw0t5","address":"2121 N 1ST ST","station":5,"geo_precision":"street"},"type":"Feature","geometry":{"type":"Point","coordinates":[-121.917704,37.372535]}},{"properties":{"alm_date":"7/17/2012","city":"SAN JOSE","zip":"95112","inci_no":"12-1999089","inci_type":321,"geo_score":0.683,"id":"a8xczzj0fkp5","address":"226 AIRPORT","station":5,"geo_precision":"range"},"type":"Feature","geometry":{"type":"Point","coordinates":[-121.92207,37.369652]}},{"properties":{"alm_date":"7/17/2012","city":"SAN JOSE","zip":"95112","inci_no":"12-1999138","inci_type":321,"geo_score":0.617,"id":"a8xczz464n56","address":"2020 JUNCTION AV","station":5,"geo_precision":"street"},"type":"Feature","geometry":{"type":"Point","coordinates":[-121.905985,37.376753]}},{"properties":{"alm_date":"7/18/2012","city":"SAN JOSE","zip":"95112","inci_no":"12-2009003","inci_type":321,"geo_score":0.836,"id":"a8xczzh69ilt","address":"1801 BERING DR","station":5,"geo_precision":"range"},"type":"Feature","geometry":{"type":"Point","coordinates":[-121.910292,37.373177]}},{"properties":{"alm_date":"7/18/2012","city":"SAN JOSE","zip":"95112","inci_no":"12-2009019","inci_type":321,"geo_score":0.439,"id":"a8xczz4deayn","address":"845 E MISSION ST","station":5,"geo_precision":"street"},"type":"Feature","geometry":{"type":"Point","coordinates":[-121.858898,37.406589]}},{"properties":{"alm_date":"7/18/2012","city":"SAN JOSE","zip":"95112","inci_no":"12-2009052","inci_type":321,"geo_score":0.641,"id":"a8xczzb8cieb","address":"2151 OAKLAND RD","station":5,"geo_precision":"street"},"type":"Feature","geometry":{"type":"Point","coordinates":[-121.895437,37.37683]}},{"properties":{"alm_date":"7/18/2012","city":"SAN JOSE","zip":"95112","inci_no":"12-2009066","inci_type":321,"geo_score":0.569,"id":"a8xczzeel47g","address":"2211 N 1ST ST","station":5,"geo_precision":"street"},"type":"Feature","geometry":{"type":"Point","coordinates":[-121.917704,37.372535]}},{"properties":{"alm_date":"7/18/2012","city":"SAN JOSE","zip":"95112","inci_no":"12-2009067","inci_type":321,"geo_score":0.449,"id":"a8xczzfkdpqz","address":"900 GOLDEN WHEEL PARK DR","station":5,"geo_precision":"street"},"type":"Feature","geometry":{"type":"Point","coordinates":[-121.867777,37.391648]}},{"properties":{"alm_date":"7/18/2012","city":"SAN JOSE","zip":"95112","inci_no":"12-2009108","inci_type":321,"geo_score":0.836,"id":"a8xczzgui9r5","address":"1610 CRANE CT","station":5,"geo_precision":"range"},"type":"Feature","geometry":{"type":"Point","coordinates":[-121.911977,37.373011]}},{"properties":{"alm_date":"7/19/2012","city":"SAN JOSE","zip":"95112","inci_no":"12-2019067","inci_type":321,"geo_score":0.805,"id":"a8xczzihixum","address":"1445 N SAN PEDRO ST","station":5,"geo_precision":"range"},"type":"Feature","geometry":{"type":"Point","coordinates":[-121.912376,37.361053]}},{"properties":{"alm_date":"7/19/2012","city":"SAN JOSE","zip":"95112","inci_no":"12-2019162","inci_type":321,"geo_score":0.76,"id":"a8xczzag3vwi","address":"E BROKAW RD","station":5,"geo_precision":"street"},"type":"Feature","geometry":{"type":"Point","coordinates":[-121.91822,37.373252]}},{"properties":{"alm_date":"7/19/2012","city":"SAN JOSE","zip":"95112","inci_no":"12-2019243","inci_type":321,"geo_score":0.641,"id":"a8xczzcmnuxy","address":"2151 OAKLAND RD","station":5,"geo_precision":"street"},"type":"Feature","geometry":{"type":"Point","coordinates":[-121.895437,37.37683]}},{"properties":{"alm_date":"7/20/2012","city":"SAN JOSE","zip":"95112","inci_no":"12-2029033","inci_type":321,"geo_score":0.763,"id":"a8xczzjoxnvk","address":"1440 N 1ST ST","station":5,"geo_precision":"range"},"type":"Feature","geometry":{"type":"Point","coordinates":[-121.910772,37.363312]}},{"properties":{"alm_date":"7/20/2012","city":"SAN JOSE","zip":"95112","inci_no":"12-2029045","inci_type":321,"geo_score":0.449,"id":"a8xczzi1co1e","address":"900 GOLDEN WHEEL PARK DR","station":5,"geo_precision":"street"},"type":"Feature","geometry":{"type":"Point","coordinates":[-121.867777,37.391648]}},{"properties":{"alm_date":"7/20/2012","city":"SAN JOSE","zip":"95112","inci_no":"12-2029156","inci_type":321,"geo_score":0.641,"id":"a8xczz7dnleb","address":"2151 OAKLAND RD","station":5,"geo_precision":"street"},"type":"Feature","geometry":{"type":"Point","coordinates":[-121.895437,37.37683]}},{"properties":{"alm_date":"7/22/2012","city":"SAN JOSE","zip":"95112","inci_no":"12-2049189","inci_type":321,"geo_score":0.463,"id":"a8xczz7l7lyo","address":"1035 MCKAY DR","station":5,"geo_precision":"street"},"type":"Feature","geometry":{"type":"Point","coordinates":[-121.853493,37.269507]}},{"properties":{"alm_date":"7/23/2012","city":"SAN JOSE","zip":"95112","inci_no":"12-2059038","inci_type":321,"geo_score":0.763,"id":"a8xczzbu6rvu","address":"1174 OLD BAYSHORE","station":5,"geo_precision":"range"},"type":"Feature","geometry":{"type":"Point","coordinates":[-121.894954,37.363798]}},{"properties":{"alm_date":"7/23/2012","city":"SAN JOSE","zip":"95112","inci_no":"12-2059052","inci_type":321,"geo_score":0.805,"id":"a8xczzk20wos","address":"2099 GATEWAY PL","station":5,"geo_precision":"range"},"type":"Feature","geometry":{"type":"Point","coordinates":[-121.925071,37.372074]}},{"properties":{"alm_date":"7/23/2012","city":"SAN JOSE","zip":"95112","inci_no":"12-2059168","inci_type":321,"geo_score":0.836,"id":"a8xczzfeci6r","address":"667 COMMERCIAL ST","station":5,"geo_precision":"range"},"type":"Feature","geometry":{"type":"Point","coordinates":[-121.893719,37.36385]}},{"properties":{"alm_date":"7/24/2012","city":"SAN JOSE","zip":"95112","inci_no":"12-2069023","inci_type":321,"geo_score":0.805,"id":"a8xczzhgea2q","address":"1488 SEAREEL LN","station":5,"geo_precision":"range"},"type":"Feature","geometry":{"type":"Point","coordinates":[-121.904077,37.398074]}},{"properties":{"alm_date":"7/24/2012","city":"SAN JOSE","zip":"95112","inci_no":"12-2069063","inci_type":321,"geo_score":0.771,"id":"a8xczzj2g0he","address":"1380 N 10TH ST","station":5,"geo_precision":"range"},"type":"Feature","geometry":{"type":"Point","coordinates":[-121.898282,37.363914]}},{"properties":{"alm_date":"7/24/2012","city":"SAN JOSE","zip":"95112","inci_no":"12-2069090","inci_type":321,"geo_score":0.641,"id":"a8xczzb6rgg6","address":"2151 OAKLAND RD","station":5,"geo_precision":"street"},"type":"Feature","geometry":{"type":"Point","coordinates":[-121.895437,37.37683]}},{"properties":{"alm_date":"7/24/2012","city":"SAN JOSE","zip":"95112","inci_no":"12-2069162","inci_type":321,"geo_score":0.771,"id":"a8xczz7p9sk3","address":"776 N 12TH ST","station":5,"geo_precision":"range"},"type":"Feature","geometry":{"type":"Point","coordinates":[-121.88904,37.355079]}},{"properties":{"alm_date":"7/25/2012","city":"SAN JOSE","zip":"95112","inci_no":"12-2079067","inci_type":321,"geo_score":0.836,"id":"a8xczzdtf1dd","address":"1070 COMMERCIAL ST","station":5,"geo_precision":"range"},"type":"Feature","geometry":{"type":"Point","coordinates":[-121.885464,37.367753]}},{"properties":{"alm_date":"7/25/2012","city":"SAN JOSE","zip":"95112","inci_no":"12-2079083","inci_type":321,"geo_score":0.763,"id":"a8xczzd6k3e9","address":"1740 N 1ST ST","station":5,"geo_precision":"range"},"type":"Feature","geometry":{"type":"Point","coordinates":[-121.914702,37.368515]}},{"properties":{"alm_date":"7/25/2012","city":"SAN JOSE","zip":"95112","inci_no":"12-2079110","inci_type":321,"geo_score":0.763,"id":"a8xczz5agdai","address":"1460 N 4TH ST","station":5,"geo_precision":"range"},"type":"Feature","geometry":{"type":"Point","coordinates":[-121.907359,37.364368]}},{"properties":{"alm_date":"7/25/2012","city":"SAN JOSE","zip":"95112","inci_no":"12-2079119","inci_type":321,"geo_score":0.665,"id":"a8xczz49tlz3","address":"2081 N 1ST ST","station":5,"geo_precision":"range"},"type":"Feature","geometry":{"type":"Point","coordinates":[-121.918592,37.373614]}},{"properties":{"alm_date":"7/25/2012","city":"SAN JOSE","zip":"95112","inci_no":"12-2079294","inci_type":321,"geo_score":0.763,"id":"a8xczzk683j2","address":"1174 OLD BAYSHORE","station":5,"geo_precision":"range"},"type":"Feature","geometry":{"type":"Point","coordinates":[-121.894954,37.363798]}},{"properties":{"alm_date":"7/26/2012","city":"SAN JOSE","zip":"95112","inci_no":"12-2089084","inci_type":321,"geo_score":0.771,"id":"a8xczz5ar3g1","address":"858 N 13TH ST","station":5,"geo_precision":"range"},"type":"Feature","geometry":{"type":"Point","coordinates":[-121.890724,37.359148]}},{"properties":{"alm_date":"7/26/2012","city":"SAN JOSE","zip":"95112","inci_no":"12-2089292","inci_type":321,"geo_score":0.836,"id":"a8xczzaflhc7","address":"1610 CRANE CT","station":5,"geo_precision":"range"},"type":"Feature","geometry":{"type":"Point","coordinates":[-121.911977,37.373011]}},{"properties":{"alm_date":"7/27/2012","city":"SAN JOSE","zip":"95112","inci_no":"12-2099030","inci_type":321,"geo_score":0.771,"id":"a8xczza560pc","address":"865 N 15TH ST","station":5,"geo_precision":"range"},"type":"Feature","geometry":{"type":"Point","coordinates":[-121.88892,37.359823]}},{"properties":{"alm_date":"7/28/2012","city":"SAN JOSE","zip":"95112","inci_no":"12-2109005","inci_type":321,"geo_score":0.763,"id":"a8xczz8fvk0p","address":"1488 N 1ST ST","station":5,"geo_precision":"range"},"type":"Feature","geometry":{"type":"Point","coordinates":[-121.909907,37.36223]}},{"properties":{"alm_date":"7/28/2012","city":"SAN JOSE","zip":"95112","inci_no":"12-2109046","inci_type":321,"geo_score":0.836,"id":"a8xczz84crnp","address":"850 FAULSTICH CT","station":5,"geo_precision":"range"},"type":"Feature","geometry":{"type":"Point","coordinates":[-121.891607,37.370227]}},{"properties":{"alm_date":"7/28/2012","city":"SAN JOSE","zip":"95112","inci_no":"12-2109115","inci_type":321,"geo_score":0.763,"id":"a8xczzffrcee","address":"1136 N 3RD ST","station":5,"geo_precision":"range"},"type":"Feature","geometry":{"type":"Point","coordinates":[-121.904591,37.358902]}},{"properties":{"alm_date":"7/28/2012","city":"SAN JOSE","zip":"95112","inci_no":"12-2109219","inci_type":321,"geo_score":0.836,"id":"a8xczz7aw84v","address":"1610 CRANE CT","station":5,"geo_precision":"range"},"type":"Feature","geometry":{"type":"Point","coordinates":[-121.911977,37.373011]}},{"properties":{"alm_date":"7/28/2012","city":"SAN JOSE","zip":"95112","inci_no":"12-2109236","inci_type":321,"geo_score":0.763,"id":"a8xczze9a3mf","address":"1740 N 1ST ST","station":5,"geo_precision":"range"},"type":"Feature","geometry":{"type":"Point","coordinates":[-121.914702,37.368515]}},{"properties":{"alm_date":"7/28/2012","city":"SAN JOSE","zip":"95112","inci_no":"12-2109237","inci_type":321,"geo_score":0.763,"id":"a8xczzjgcadd","address":"1740 N 1ST ST","station":5,"geo_precision":"range"},"type":"Feature","geometry":{"type":"Point","coordinates":[-121.914702,37.368515]}},{"properties":{"alm_date":"7/29/2012","city":"SAN JOSE","zip":"95112","inci_no":"12-2119113","inci_type":321,"geo_score":0.439,"id":"a8xczzf0xorm","address":"536 E MISSION ST","station":5,"geo_precision":"street"},"type":"Feature","geometry":{"type":"Point","coordinates":[-121.858898,37.406589]}},{"properties":{"alm_date":"7/30/2012","city":"SAN JOSE","zip":"95112","inci_no":"12-2129116","inci_type":321,"geo_score":0.641,"id":"a8xczzg0xavy","address":"2151 OAKLAND RD","station":5,"geo_precision":"street"},"type":"Feature","geometry":{"type":"Point","coordinates":[-121.895437,37.37683]}},{"properties":{"alm_date":"7/30/2012","city":"SAN JOSE","zip":"95112","inci_no":"12-2129121","inci_type":321,"geo_score":0.805,"id":"a8xczz6vfq3w","address":"1791 MAPLE LAKE CT","station":5,"geo_precision":"range"},"type":"Feature","geometry":{"type":"Point","coordinates":[-121.893527,37.385861]}},{"properties":{"alm_date":"7/30/2012","city":"SAN JOSE","zip":"95112","inci_no":"12-2129164","inci_type":321,"geo_score":0.665,"id":"a8xczz8fizra","address":"N 13TH ST","station":5,"geo_precision":"street"},"type":"Feature","geometry":{"type":"Point","coordinates":[-121.879226,37.343569]}},{"properties":{"alm_date":"7/30/2012","city":"SAN JOSE","zip":"95112","inci_no":"12-2129295","inci_type":321,"geo_score":0.771,"id":"a8xczz9el35m","address":"875 N 13TH ST","station":5,"geo_precision":"range"},"type":"Feature","geometry":{"type":"Point","coordinates":[-121.89059,37.358633]}},{"properties":{"alm_date":"7/30/2012","city":"SAN JOSE","zip":"95112","inci_no":"12-2129298","inci_type":321,"geo_score":0.665,"id":"a8xczz8fn1yp","address":"2050 N 1ST ST","station":5,"geo_precision":"range"},"type":"Feature","geometry":{"type":"Point","coordinates":[-121.91822,37.373252]}},{"properties":{"alm_date":"7/30/2012","city":"SAN JOSE","zip":"95112","inci_no":"12-2129291","inci_type":321,"geo_score":0.653,"id":"a8xczzioj7f7","address":"N 1ST ST","station":5,"geo_precision":"street"},"type":"Feature","geometry":{"type":"Point","coordinates":[-121.890566,37.336168]}},{"properties":{"alm_date":"7/31/2012","city":"SAN JOSE","zip":"95112","inci_no":"12-2139012","inci_type":321,"geo_score":0.836,"id":"a8xczzhj21at","address":"1350 OAKLAND RD","station":5,"geo_precision":"range"},"type":"Feature","geometry":{"type":"Point","coordinates":[-121.892777,37.369528]}},{"properties":{"alm_date":"7/31/2012","city":"SAN JOSE","zip":"95112","inci_no":"12-2139024","inci_type":321,"geo_score":0.836,"id":"a8xczzhct2pj","address":"1460 OAKLAND RD","station":5,"geo_precision":"range"},"type":"Feature","geometry":{"type":"Point","coordinates":[-121.893867,37.37269]}},{"properties":{"alm_date":"7/31/2012","city":"SAN JOSE","zip":"95112","inci_no":"12-2139140","inci_type":321,"geo_score":0.496,"id":"a8xczzh2bqx4","address":"2211 1ST ST","station":5,"geo_precision":"street"},"type":"Feature","geometry":{"type":"Point","coordinates":[-121.917704,37.372535]}},{"properties":{"alm_date":"7/3/2012","city":"SAN JOSE","zip":"95112","inci_no":"12-1859155","inci_type":322,"geo_score":0.714,"id":"a8xczzk0yhpr","address":null,"station":5,"geo_precision":"zip"},"type":"Feature","geometry":{"type":"Point","coordinates":[-121.892093,37.37004]}},{"properties":{"alm_date":"7/14/2012","city":"SAN JOSE","zip":"95112","inci_no":"12-1969163","inci_type":322,"geo_score":0.76,"id":"a8xczzk52bbr","address":"E GISH RD","station":5,"geo_precision":"street"},"type":"Feature","geometry":{"type":"Point","coordinates":[-121.909637,37.361737]}},{"properties":{"alm_date":"7/15/2012","city":"SAN JOSE","zip":"95112","inci_no":"12-1979062","inci_type":322,"geo_score":0.653,"id":"a8xczzht2o0j","address":"N 1ST ST","station":5,"geo_precision":"street"},"type":"Feature","geometry":{"type":"Point","coordinates":[-121.890566,37.336168]}},{"properties":{"alm_date":"7/17/2012","city":"SAN JOSE","zip":"95112","inci_no":"12-1999008","inci_type":322,"geo_score":0.349,"id":"a8xczzj31wwy","address":"101","station":5,"geo_precision":"street"},"type":"Feature","geometry":{"type":"Point","coordinates":[-121.896169,37.363436]}},{"properties":{"alm_date":"7/18/2012","city":"SAN JOSE","zip":"95112","inci_no":"12-2009133","inci_type":322,"geo_score":0.488,"id":"a8xczz93lkqi","address":"880","station":5,"geo_precision":"zip"},"type":"Feature","geometry":{"type":"Point","coordinates":[-121.892093,37.37004]}},{"properties":{"alm_date":"7/24/2012","city":"SAN JOSE","zip":"95112","inci_no":"12-2069006","inci_type":322,"geo_score":0.682,"id":"a8xczz6vbwx3","address":"BROKAW RD","station":5,"geo_precision":"street"},"type":"Feature","geometry":{"type":"Point","coordinates":[-121.91822,37.373252]}},{"properties":{"alm_date":"7/25/2012","city":"SAN JOSE","zip":"95112","inci_no":"12-2079070","inci_type":322,"geo_score":0.537,"id":"a8xczze5jd54","address":"NB 101 TO OLD BAYSHORE RP","station":5,"geo_precision":"street"},"type":"Feature","geometry":{"type":"Point","coordinates":[-121.896701,37.364688]}},{"properties":{"alm_date":"7/25/2012","city":"SAN JOSE","zip":"95112","inci_no":"12-2079295","inci_type":322,"geo_score":0.641,"id":"a8xczz7o2890","address":"2151 OAKLAND RD","station":5,"geo_precision":"street"},"type":"Feature","geometry":{"type":"Point","coordinates":[-121.895437,37.37683]}},{"properties":{"alm_date":"7/26/2012","city":"SAN JOSE","zip":"95112","inci_no":"12-2089065","inci_type":322,"geo_score":0.76,"id":"a8xczzcot34n","address":"E GISH RD","station":5,"geo_precision":"street"},"type":"Feature","geometry":{"type":"Point","coordinates":[-121.909637,37.361737]}},{"properties":{"alm_date":"7/27/2012","city":"SAN JOSE","zip":"95112","inci_no":"12-2099227","inci_type":322,"geo_score":0.349,"id":"a8xczzfdfxy2","address":"101","station":5,"geo_precision":"street"},"type":"Feature","geometry":{"type":"Point","coordinates":[-121.896169,37.363436]}},{"properties":{"alm_date":"7/11/2012","city":"SAN JOSE","zip":"95112","inci_no":"12-1939108","inci_type":324,"geo_score":0.399,"id":"a8xczz4z9jcq","address":"NB 101 TO NB 880 RP","station":5,"geo_precision":"street"},"type":"Feature","geometry":{"type":"Point","coordinates":[-121.896169,37.363436]}},{"properties":{"alm_date":"7/24/2012","city":"SAN JOSE","zip":"95112","inci_no":"12-2069183","inci_type":353,"geo_score":0.836,"id":"a8xczzefhhiz","address":"1415 OAKLAND RD","station":5,"geo_precision":"range"},"type":"Feature","geometry":{"type":"Point","coordinates":[-121.89435,37.373522]}},{"properties":{"alm_date":"7/26/2012","city":"SAN JOSE","zip":"95112","inci_no":"12-2089220","inci_type":353,"geo_score":0.805,"id":"a8xczz3w0f91","address":"2001 GATEWAY PL","station":5,"geo_precision":"range"},"type":"Feature","geometry":{"type":"Point","coordinates":[-121.921415,37.370395]}},{"properties":{"alm_date":"7/1/2012","city":"SAN JOSE","zip":"95112","inci_no":"12-1839080","inci_type":3211,"geo_score":0.763,"id":"a8xczzi3mt59","address":"1550 N 1ST ST","station":5,"geo_precision":"range"},"type":"Feature","geometry":{"type":"Point","coordinates":[-121.911731,37.364631]}},{"properties":{"alm_date":"7/1/2012","city":"SAN JOSE","zip":"95112","inci_no":"12-1839135","inci_type":3211,"geo_score":0.836,"id":"a8xczzjdodtc","address":"1212 OAKLAND RD","station":5,"geo_precision":"range"},"type":"Feature","geometry":{"type":"Point","coordinates":[-121.89171,37.364694]}},{"properties":{"alm_date":"7/10/2012","city":"SAN JOSE","zip":"95112","inci_no":"12-1929113","inci_type":3211,"geo_score":0.805,"id":"a8xczz7wr4x6","address":"1488 SEAREEL LN","station":5,"geo_precision":"range"},"type":"Feature","geometry":{"type":"Point","coordinates":[-121.904077,37.398074]}},{"properties":{"alm_date":"7/11/2012","city":"SAN JOSE","zip":"95112","inci_no":"12-1939276","inci_type":3211,"geo_score":0.763,"id":"a8xczzc70fcx","address":"1700 N 1ST ST","station":5,"geo_precision":"range"},"type":"Feature","geometry":{"type":"Point","coordinates":[-121.912305,37.365433]}},{"properties":{"alm_date":"7/13/2012","city":"SAN JOSE","zip":"95112","inci_no":"12-1959124","inci_type":3211,"geo_score":0.836,"id":"a8xczzf7v87q","address":"297 COMMERCIAL ST","station":5,"geo_precision":"range"},"type":"Feature","geometry":{"type":"Point","coordinates":[-121.902245,37.359752]}},{"properties":{"alm_date":"7/13/2012","city":"SAN JOSE","zip":"95112","inci_no":"12-1959159","inci_type":3211,"geo_score":0.69,"id":"a8xczzf7ge3n","address":"1550 1ST ST","station":5,"geo_precision":"range"},"type":"Feature","geometry":{"type":"Point","coordinates":[-121.911731,37.364631]}},{"properties":{"alm_date":"7/14/2012","city":"SAN JOSE","zip":"95112","inci_no":"12-1969207","inci_type":3211,"geo_score":0.463,"id":"a8xczz8jf7a8","address":"1095 MCKAY DR","station":5,"geo_precision":"street"},"type":"Feature","geometry":{"type":"Point","coordinates":[-121.853493,37.269507]}},{"properties":{"alm_date":"7/15/2012","city":"SAN JOSE","zip":"95112","inci_no":"12-1979073","inci_type":3211,"geo_score":0.665,"id":"a8xczz4dxl8i","address":"2050 N 1ST ST","station":5,"geo_precision":"range"},"type":"Feature","geometry":{"type":"Point","coordinates":[-121.91822,37.373252]}},{"properties":{"alm_date":"7/16/2012","city":"SAN JOSE","zip":"95112","inci_no":"12-1989101","inci_type":3211,"geo_score":0.653,"id":"a8xczzbojn2i","address":"N 1ST ST","station":5,"geo_precision":"street"},"type":"Feature","geometry":{"type":"Point","coordinates":[-121.890566,37.336168]}},{"properties":{"alm_date":"7/16/2012","city":"SAN JOSE","zip":"95112","inci_no":"12-1989102","inci_type":3211,"geo_score":0.706,"id":"a8xczzi8o5b8","address":"887 11TH ST","station":5,"geo_precision":"range"},"type":"Feature","geometry":{"type":"Point","coordinates":[-121.871158,37.328506]}},{"properties":{"alm_date":"7/17/2012","city":"SAN JOSE","zip":"95112","inci_no":"12-1999117","inci_type":3211,"geo_score":0.671,"id":"a8xczze0yxlv","address":"MURPHY AV","station":5,"geo_precision":"street"},"type":"Feature","geometry":{"type":"Point","coordinates":[-121.895361,37.38133]}},{"properties":{"alm_date":"7/19/2012","city":"SAN JOSE","zip":"95112","inci_no":"12-2019191","inci_type":3211,"geo_score":0.439,"id":"a8xczz45ms2x","address":"635 E MISSION ST","station":5,"geo_precision":"street"},"type":"Feature","geometry":{"type":"Point","coordinates":[-121.858898,37.406589]}},{"properties":{"alm_date":"7/20/2012","city":"SAN JOSE","zip":"95112","inci_no":"12-2029095","inci_type":3211,"geo_score":0.836,"id":"a8xczz8pdi5c","address":"1560 BERGER DR","station":5,"geo_precision":"range"},"type":"Feature","geometry":{"type":"Point","coordinates":[-121.89667,37.372742]}},{"properties":{"alm_date":"7/22/2012","city":"SAN JOSE","zip":"95112","inci_no":"12-2049025","inci_type":3211,"geo_score":0.706,"id":"a8xczzdqty1y","address":"854 19TH ST","station":5,"geo_precision":"range"},"type":"Feature","geometry":{"type":"Point","coordinates":[-121.884505,37.360802]}},{"properties":{"alm_date":"7/22/2012","city":"SAN JOSE","zip":"95112","inci_no":"12-2049123","inci_type":3211,"geo_score":0.76,"id":"a8xczzcge00d","address":"E BROKAW RD","station":5,"geo_precision":"street"},"type":"Feature","geometry":{"type":"Point","coordinates":[-121.91822,37.373252]}},{"properties":{"alm_date":"7/23/2012","city":"SAN JOSE","zip":"95112","inci_no":"12-2059088","inci_type":3211,"geo_score":0.659,"id":"a8xczz7ust7c","address":"2180 O'NEL DR","station":5,"geo_precision":"range"},"type":"Feature","geometry":{"type":"Point","coordinates":[-121.899208,37.286644]}},{"properties":{"alm_date":"7/25/2012","city":"SAN JOSE","zip":"95112","inci_no":"12-2079045","inci_type":3211,"geo_score":0.836,"id":"a8xczzfbo6sv","address":"1555 BERGER DR","station":5,"geo_precision":"range"},"type":"Feature","geometry":{"type":"Point","coordinates":[-121.896653,37.37292]}},{"properties":{"alm_date":"7/26/2012","city":"SAN JOSE","zip":"95112","inci_no":"12-2089252","inci_type":3211,"geo_score":0.836,"id":"a8xczz4808mv","address":"1358 OAKLAND RD","station":5,"geo_precision":"range"},"type":"Feature","geometry":{"type":"Point","coordinates":[-121.892777,37.369528]}},{"properties":{"alm_date":"7/27/2012","city":"SAN JOSE","zip":"95112","inci_no":"12-2099105","inci_type":3211,"geo_score":0.771,"id":"a8xczz4olj2i","address":"680 N 11TH ST","station":5,"geo_precision":"range"},"type":"Feature","geometry":{"type":"Point","coordinates":[-121.888246,37.352406]}},{"properties":{"alm_date":"7/29/2012","city":"SAN JOSE","zip":"95112","inci_no":"12-2119277","inci_type":3211,"geo_score":0.836,"id":"a8xczzd8pjqu","address":"701 KINGS ROW","station":5,"geo_precision":"range"},"type":"Feature","geometry":{"type":"Point","coordinates":[-121.89943,37.371769]}},{"properties":{"alm_date":"7/31/2012","city":"SAN JOSE","zip":"95112","inci_no":"12-2139267","inci_type":3211,"geo_score":0.665,"id":"a8xczz6fv2v0","address":"N 13TH ST","station":5,"geo_precision":"street"},"type":"Feature","geometry":{"type":"Point","coordinates":[-121.879226,37.343569]}},{"properties":{"alm_date":"7/3/2012","city":"SAN JOSE","zip":"95112","inci_no":"12-1859211","inci_type":3212,"geo_score":0.617,"id":"a8xczzjt1z5a","address":"OAKLAND RD","station":5,"geo_precision":"range"},"type":"Feature","geometry":{"type":"Point","coordinates":[-121.892777,37.369528]}},{"properties":{"alm_date":"7/10/2012","city":"SAN JOSE","zip":"95112","inci_no":"12-1929223","inci_type":3212,"geo_score":0.349,"id":"a8xczz8pcj26","address":"101","station":5,"geo_precision":"street"},"type":"Feature","geometry":{"type":"Point","coordinates":[-121.896169,37.363436]}},{"properties":{"alm_date":"7/15/2012","city":"SAN JOSE","zip":"95112","inci_no":"12-1979037","inci_type":3212,"geo_score":0.515,"id":"a8xczz92cr3m","address":"NB 880 FROM BROKAW RP","station":5,"geo_precision":"street"},"type":"Feature","geometry":{"type":"Point","coordinates":[-121.91822,37.373252]}},{"properties":{"alm_date":"7/22/2012","city":"SAN JOSE","zip":"95112","inci_no":"12-2049053","inci_type":3212,"geo_score":0.771,"id":"a8xczz9rw4u3","address":"729 N 15TH ST","station":5,"geo_precision":"range"},"type":"Feature","geometry":{"type":"Point","coordinates":[-121.887111,37.357382]}},{"properties":{"alm_date":"7/1/2012","city":"SAN JOSE","zip":"95112","inci_no":"12-1839164","inci_type":3213,"geo_score":0.763,"id":"a8xczzjxqmz1","address":"1144 N 4TH ST","station":5,"geo_precision":"range"},"type":"Feature","geometry":{"type":"Point","coordinates":[-121.903016,37.358731]}},{"properties":{"alm_date":"7/23/2012","city":"SAN JOSE","zip":"95112","inci_no":"12-2059163","inci_type":3213,"geo_score":0.349,"id":"a8xczzc8let4","address":"101","station":5,"geo_precision":"street"},"type":"Feature","geometry":{"type":"Point","coordinates":[-121.896169,37.363436]}}],"is_temporal":false,"author":{"url":"","metadata":"","contact_name":"","contact_address":"","source":"","contact_phone":""},"source":"","pagination":{"sort":null,"start":0,"total":126,"limit":1000000},"state":"complete","tags":"","published":"2014-08-15T02:22:15-04:00","id":278541}