{"type":"FeatureCollection","data_type":"Dataset","url_type":null,"permissions":[{"permissions":{"download":true,"view":true},"group_id":"everyone"}],"classification":null,"title":"Station 5 July Other Calls","count":78,"stream_id":278568,"contributor":{"url":"http://geocommons.com/users/51527","name":"radoni"},"data_attributes":null,"calculation_params":null,"icon_link":null,"link":"http://geocommons.com/overlays/278568.json","extent":[-121.923,37.2866,-121.786,37.3823],"geometry_types":["point"],"unique_name":null,"name":"Station 5 July Other Calls","feature_count":78,"description":"","next_feature":null,"is_raster":false,"short_classification":"Y","stats":{"inci_type":{"max":6119,"variance":4718716.62487513,"mean":1693.80769230769,"stdev":2172.26071751876,"min":400,"median":730},"station":{"max":5,"variance":0.0,"mean":5.0,"stdev":0.0,"min":5,"median":5}},"features":[{"properties":{"alm_date":"7/9/2012","city":"SAN JOSE","zip":"95112","inci_no":"12-1919106","inci_type":400,"geo_score":0.76,"id":"a8xdylv623ui","address":"CHARLES ST","station":5,"geo_precision":"street"},"type":"Feature","geometry":{"type":"Point","coordinates":[-121.896662,37.365251]}},{"properties":{"alm_date":"7/10/2012","city":"SAN JOSE","zip":"95112","inci_no":"12-1929046","inci_type":400,"geo_score":0.76,"id":"a8xdylpn8yzq","address":"CHARLES ST","station":5,"geo_precision":"street"},"type":"Feature","geometry":{"type":"Point","coordinates":[-121.896662,37.365251]}},{"properties":{"alm_date":"7/9/2012","city":"SAN JOSE","zip":"95112","inci_no":"12-1919158","inci_type":444,"geo_score":0.76,"id":"a8xdylmbtdhd","address":"E HEDDING ST","station":5,"geo_precision":"street"},"type":"Feature","geometry":{"type":"Point","coordinates":[-121.902332,37.353877]}},{"properties":{"alm_date":"7/16/2012","city":"SAN JOSE","zip":"95112","inci_no":"12-1989103","inci_type":500,"geo_score":0.771,"id":"a8xdyll8w8iq","address":"761 N 15TH ST","station":5,"geo_precision":"range"},"type":"Feature","geometry":{"type":"Point","coordinates":[-121.886697,37.356682]}},{"properties":{"alm_date":"7/24/2012","city":"SAN JOSE","zip":"95112","inci_no":"12-2069174","inci_type":500,"geo_score":0.675,"id":"a8xdylm32j62","address":"CHARCOT AV","station":5,"geo_precision":"street"},"type":"Feature","geometry":{"type":"Point","coordinates":[-121.922611,37.379157]}},{"properties":{"alm_date":"7/28/2012","city":"SAN JOSE","zip":"95112","inci_no":"12-2109106","inci_type":510,"geo_score":0.641,"id":"a8xdylga88rv","address":"2151 OAKLAND RD","station":5,"geo_precision":"street"},"type":"Feature","geometry":{"type":"Point","coordinates":[-121.895437,37.37683]}},{"properties":{"alm_date":"7/29/2012","city":"SAN JOSE","zip":"95112","inci_no":"12-2119136","inci_type":531,"geo_score":0.349,"id":"a8xdylrxmc3x","address":"101","station":5,"geo_precision":"street"},"type":"Feature","geometry":{"type":"Point","coordinates":[-121.896169,37.363436]}},{"properties":{"alm_date":"7/5/2012","city":"SAN JOSE","zip":"95112","inci_no":"12-1879074","inci_type":541,"geo_score":0.665,"id":"a8xdylgmyzm9","address":"N 21ST ST","station":5,"geo_precision":"street"},"type":"Feature","geometry":{"type":"Point","coordinates":[-121.873912,37.350003]}},{"properties":{"alm_date":"7/15/2012","city":"SAN JOSE","zip":"95112","inci_no":"12-1979091","inci_type":550,"geo_score":0.653,"id":"a8xdyluc3dn9","address":"N 1ST ST","station":5,"geo_precision":"street"},"type":"Feature","geometry":{"type":"Point","coordinates":[-121.890566,37.336168]}},{"properties":{"alm_date":"7/29/2012","city":"SAN JOSE","zip":"95112","inci_no":"12-2119108","inci_type":550,"geo_score":0.771,"id":"a8xdyllhn11b","address":"1380 N 10TH ST","station":5,"geo_precision":"range"},"type":"Feature","geometry":{"type":"Point","coordinates":[-121.898282,37.363914]}},{"properties":{"alm_date":"7/13/2012","city":"SAN JOSE","zip":"95112","inci_no":"12-1959057","inci_type":552,"geo_score":0.771,"id":"a8xdylxrl8kh","address":"734 N 11TH ST","station":5,"geo_precision":"range"},"type":"Feature","geometry":{"type":"Point","coordinates":[-121.890639,37.355553]}},{"properties":{"alm_date":"7/13/2012","city":"SAN JOSE","zip":"95112","inci_no":"12-1959099","inci_type":552,"geo_score":0.763,"id":"a8xdym7akw5a","address":"2040 N 1ST ST","station":5,"geo_precision":"range"},"type":"Feature","geometry":{"type":"Point","coordinates":[-121.919864,37.375437]}},{"properties":{"alm_date":"7/24/2012","city":"SAN JOSE","zip":"95112","inci_no":"12-2069125","inci_type":552,"geo_score":0.836,"id":"a8xdylybpinw","address":"90 E GISH RD","station":5,"geo_precision":"range"},"type":"Feature","geometry":{"type":"Point","coordinates":[-121.907012,37.363035]}},{"properties":{"alm_date":"7/29/2012","city":"SAN JOSE","zip":"95112","inci_no":"12-2119311","inci_type":552,"geo_score":0.763,"id":"a8xdyma7f9xr","address":"1310 N 1ST ST","station":5,"geo_precision":"range"},"type":"Feature","geometry":{"type":"Point","coordinates":[-121.909462,37.361597]}},{"properties":{"alm_date":"7/2/2012","city":"SAN JOSE","zip":"95112","inci_no":"12-1849193","inci_type":554,"geo_score":0.763,"id":"a8xdym7l8j8i","address":"800 N 8TH ST","station":5,"geo_precision":"range"},"type":"Feature","geometry":{"type":"Point","coordinates":[-121.89517,37.355821]}},{"properties":{"alm_date":"7/2/2012","city":"SAN JOSE","zip":"95112","inci_no":"12-1849020","inci_type":571,"geo_score":0.771,"id":"a8xdymcqbt96","address":"1380 N 10TH ST","station":5,"geo_precision":"range"},"type":"Feature","geometry":{"type":"Point","coordinates":[-121.898282,37.363914]}},{"properties":{"alm_date":"7/4/2012","city":"SAN JOSE","zip":"95112","inci_no":"12-1869086","inci_type":571,"geo_score":0.771,"id":"a8xdym3lhgf6","address":"1380 N 10TH ST","station":5,"geo_precision":"range"},"type":"Feature","geometry":{"type":"Point","coordinates":[-121.898282,37.363914]}},{"properties":{"alm_date":"7/8/2012","city":"SAN JOSE","zip":"95112","inci_no":"12-1909063","inci_type":600,"geo_score":0.437,"id":"a8xdym8kyduc","address":"101 METRO DR","station":5,"geo_precision":"street"},"type":"Feature","geometry":{"type":"Point","coordinates":[-121.893212,37.359114]}},{"properties":{"alm_date":"7/8/2012","city":"SAN JOSE","zip":"95112","inci_no":"12-1909148","inci_type":600,"geo_score":0.39,"id":"a8xdym6xbpe5","address":"1042 ROCK AV","station":5,"geo_precision":"street"},"type":"Feature","geometry":{"type":"Point","coordinates":[-121.785711,37.330642]}},{"properties":{"alm_date":"7/8/2012","city":"SAN JOSE","zip":"95112","inci_no":"12-1909195","inci_type":600,"geo_score":0.683,"id":"a8xdym03gjda","address":"1730 TECHNOLOGY DR","station":5,"geo_precision":"range"},"type":"Feature","geometry":{"type":"Point","coordinates":[-121.918179,37.366536]}},{"properties":{"alm_date":"7/14/2012","city":"SAN JOSE","zip":"95112","inci_no":"12-1969008","inci_type":600,"geo_score":0.836,"id":"a8xdylzth6lu","address":"640 COMMERCIAL ST","station":5,"geo_precision":"range"},"type":"Feature","geometry":{"type":"Point","coordinates":[-121.892924,37.363981]}},{"properties":{"alm_date":"7/16/2012","city":"SAN JOSE","zip":"95112","inci_no":"12-1989060","inci_type":600,"geo_score":0.763,"id":"a8xdym1p6dyv","address":"1045 N 4TH ST","station":5,"geo_precision":"range"},"type":"Feature","geometry":{"type":"Point","coordinates":[-121.902513,37.357716]}},{"properties":{"alm_date":"7/19/2012","city":"SAN JOSE","zip":"95112","inci_no":"12-2019056","inci_type":600,"geo_score":0.836,"id":"a8xdym7gvupl","address":"777 E BROKAW RD","station":5,"geo_precision":"range"},"type":"Feature","geometry":{"type":"Point","coordinates":[-121.904849,37.382273]}},{"properties":{"alm_date":"7/27/2012","city":"SAN JOSE","zip":"95112","inci_no":"12-2099097","inci_type":600,"geo_score":0.617,"id":"a8xdylwunxz3","address":"OAKLAND RD","station":5,"geo_precision":"range"},"type":"Feature","geometry":{"type":"Point","coordinates":[-121.892777,37.369528]}},{"properties":{"alm_date":"7/15/2012","city":"SAN JOSE","zip":"95112","inci_no":"12-1979049","inci_type":611,"geo_score":0.836,"id":"a8xdym4epxaz","address":"1536 KERLEY DR","station":5,"geo_precision":"range"},"type":"Feature","geometry":{"type":"Point","coordinates":[-121.908873,37.363457]}},{"properties":{"alm_date":"7/1/2012","city":"SAN JOSE","zip":"95112","inci_no":"12-1839179","inci_type":622,"geo_score":0.665,"id":"a8xdymagevl0","address":"N 12TH ST","station":5,"geo_precision":"street"},"type":"Feature","geometry":{"type":"Point","coordinates":[-121.879054,37.341637]}},{"properties":{"alm_date":"7/3/2012","city":"SAN JOSE","zip":"95112","inci_no":"12-1859247","inci_type":622,"geo_score":0.763,"id":"a8xdym3khbs8","address":"1550 N 1ST ST","station":5,"geo_precision":"range"},"type":"Feature","geometry":{"type":"Point","coordinates":[-121.911731,37.364631]}},{"properties":{"alm_date":"7/7/2012","city":"SAN JOSE","zip":"95112","inci_no":"12-1899011","inci_type":622,"geo_score":0.836,"id":"a8xdyman1hk1","address":"1530 OAKLAND RD","station":5,"geo_precision":"range"},"type":"Feature","geometry":{"type":"Point","coordinates":[-121.8951,37.375723]}},{"properties":{"alm_date":"7/10/2012","city":"SAN JOSE","zip":"95112","inci_no":"12-1929225","inci_type":622,"geo_score":0.763,"id":"a8xdylxxnvne","address":"1412 N 1ST ST","station":5,"geo_precision":"range"},"type":"Feature","geometry":{"type":"Point","coordinates":[-121.911209,37.363943]}},{"properties":{"alm_date":"7/12/2012","city":"SAN JOSE","zip":"95112","inci_no":"12-1949058","inci_type":622,"geo_score":0.349,"id":"a8xdylydwf7u","address":"101","station":5,"geo_precision":"street"},"type":"Feature","geometry":{"type":"Point","coordinates":[-121.896169,37.363436]}},{"properties":{"alm_date":"7/17/2012","city":"SAN JOSE","zip":"95112","inci_no":"12-1999049","inci_type":622,"geo_score":0.349,"id":"a8xdymasi88y","address":"101","station":5,"geo_precision":"street"},"type":"Feature","geometry":{"type":"Point","coordinates":[-121.896169,37.363436]}},{"properties":{"alm_date":"7/17/2012","city":"SAN JOSE","zip":"95112","inci_no":"12-1999082","inci_type":622,"geo_score":0.771,"id":"a8xdym110b0e","address":"1200 N 15TH ST","station":5,"geo_precision":"range"},"type":"Feature","geometry":{"type":"Point","coordinates":[-121.892899,37.365559]}},{"properties":{"alm_date":"7/23/2012","city":"SAN JOSE","zip":"95112","inci_no":"12-2059189","inci_type":622,"geo_score":0.763,"id":"a8xdym96jrgi","address":"1350 N 1ST ST","station":5,"geo_precision":"range"},"type":"Feature","geometry":{"type":"Point","coordinates":[-121.909013,37.360906]}},{"properties":{"alm_date":"7/24/2012","city":"SAN JOSE","zip":"95112","inci_no":"12-2069179","inci_type":622,"geo_score":0.399,"id":"a8xdym2zpqkb","address":"SB 101 TO NB 880 RP","station":5,"geo_precision":"street"},"type":"Feature","geometry":{"type":"Point","coordinates":[-121.896169,37.363436]}},{"properties":{"alm_date":"7/25/2012","city":"SAN JOSE","zip":"95112","inci_no":"12-2079002","inci_type":622,"geo_score":0.787,"id":"a8xdym28rsei","address":"462 REYNOLDS CL","station":5,"geo_precision":"range"},"type":"Feature","geometry":{"type":"Point","coordinates":[-121.90842,37.370097]}},{"properties":{"alm_date":"7/18/2012","city":"SAN JOSE","zip":"95112","inci_no":"12-2009057","inci_type":652,"geo_score":0.195,"id":"a8xdym43ge07","address":"87","station":5,"geo_precision":"street"},"type":"Feature","geometry":{"type":"Point","coordinates":[-121.909196,37.350484]}},{"properties":{"alm_date":"7/18/2012","city":"SAN JOSE","zip":"95112","inci_no":"12-2009142","inci_type":700,"geo_score":0.836,"id":"a8xdym0yjiz3","address":"1602 CRANE CT","station":5,"geo_precision":"range"},"type":"Feature","geometry":{"type":"Point","coordinates":[-121.911796,37.373037]}},{"properties":{"alm_date":"7/18/2012","city":"SAN JOSE","zip":"95112","inci_no":"12-2009088","inci_type":730,"geo_score":0.836,"id":"a8xdym4s5w8h","address":"510 HORNING ST","station":5,"geo_precision":"range"},"type":"Feature","geometry":{"type":"Point","coordinates":[-121.89328,37.360982]}},{"properties":{"alm_date":"7/18/2012","city":"SAN JOSE","zip":"95112","inci_no":"12-2009116","inci_type":730,"geo_score":0.805,"id":"a8xdym5owvtq","address":"2033 GATEWAY PL","station":5,"geo_precision":"range"},"type":"Feature","geometry":{"type":"Point","coordinates":[-121.922728,37.370632]}},{"properties":{"alm_date":"7/29/2012","city":"SAN JOSE","zip":"95112","inci_no":"12-2119042","inci_type":730,"geo_score":0.763,"id":"a8xdymaf1oro","address":"879 N 7TH ST","station":5,"geo_precision":"range"},"type":"Feature","geometry":{"type":"Point","coordinates":[-121.896646,37.355691]}},{"properties":{"alm_date":"7/15/2012","city":"SAN JOSE","zip":"95112","inci_no":"12-1979045","inci_type":733,"geo_score":0.836,"id":"a8xdymcfhlg9","address":"1536 KERLEY DR","station":5,"geo_precision":"range"},"type":"Feature","geometry":{"type":"Point","coordinates":[-121.908873,37.363457]}},{"properties":{"alm_date":"7/18/2012","city":"SAN JOSE","zip":"95112","inci_no":"12-2009144","inci_type":733,"geo_score":0.836,"id":"a8xdym1d06cm","address":"1602 CRANE CT","station":5,"geo_precision":"range"},"type":"Feature","geometry":{"type":"Point","coordinates":[-121.911796,37.373037]}},{"properties":{"alm_date":"7/18/2012","city":"SAN JOSE","zip":"95112","inci_no":"12-2009149","inci_type":733,"geo_score":0.659,"id":"a8xdym28sjf7","address":"2180 O'NEL DR","station":5,"geo_precision":"range"},"type":"Feature","geometry":{"type":"Point","coordinates":[-121.899208,37.286644]}},{"properties":{"alm_date":"7/18/2012","city":"SAN JOSE","zip":"95112","inci_no":"12-2009166","inci_type":733,"geo_score":0.659,"id":"a8xdym12t8cp","address":"2180 O'NEL DR","station":5,"geo_precision":"range"},"type":"Feature","geometry":{"type":"Point","coordinates":[-121.899208,37.286644]}},{"properties":{"alm_date":"7/22/2012","city":"SAN JOSE","zip":"95112","inci_no":"12-2049130","inci_type":733,"geo_score":0.805,"id":"a8xdym5cnyyt","address":"2025 GATEWAY PL","station":5,"geo_precision":"range"},"type":"Feature","geometry":{"type":"Point","coordinates":[-121.922342,37.370649]}},{"properties":{"alm_date":"7/31/2012","city":"SAN JOSE","zip":"95112","inci_no":"12-2139194","inci_type":735,"geo_score":0.812,"id":"a8xdym73e58v","address":"1744 JUNCTION AV","station":5,"geo_precision":"range"},"type":"Feature","geometry":{"type":"Point","coordinates":[-121.905985,37.376753]}},{"properties":{"alm_date":"7/1/2012","city":"SAN JOSE","zip":"95112","inci_no":"12-1839022","inci_type":740,"geo_score":0.805,"id":"a8xdyly8u0hu","address":"2001 GATEWAY PL","station":5,"geo_precision":"range"},"type":"Feature","geometry":{"type":"Point","coordinates":[-121.921415,37.370395]}},{"properties":{"alm_date":"7/12/2012","city":"SAN JOSE","zip":"95112","inci_no":"12-1949071","inci_type":740,"geo_score":0.805,"id":"a8xdym6vo6sx","address":"2033 GATEWAY PL","station":5,"geo_precision":"range"},"type":"Feature","geometry":{"type":"Point","coordinates":[-121.922728,37.370632]}},{"properties":{"alm_date":"7/13/2012","city":"SAN JOSE","zip":"95112","inci_no":"12-1959073","inci_type":740,"geo_score":0.763,"id":"a8xdym6m6d9o","address":"1450 KOLL CL","station":5,"geo_precision":"range"},"type":"Feature","geometry":{"type":"Point","coordinates":[-121.906188,37.365345]}},{"properties":{"alm_date":"7/17/2012","city":"SAN JOSE","zip":"95112","inci_no":"12-1999205","inci_type":740,"geo_score":0.812,"id":"a8xdym1zh3vb","address":"1460 TERMINAL AV","station":5,"geo_precision":"range"},"type":"Feature","geometry":{"type":"Point","coordinates":[-121.905579,37.367632]}},{"properties":{"alm_date":"7/19/2012","city":"SAN JOSE","zip":"95112","inci_no":"12-2019218","inci_type":740,"geo_score":0.836,"id":"a8xdym80tqyd","address":"894 FAULSTICH CT","station":5,"geo_precision":"range"},"type":"Feature","geometry":{"type":"Point","coordinates":[-121.890501,37.370878]}},{"properties":{"alm_date":"7/23/2012","city":"SAN JOSE","zip":"95112","inci_no":"12-2059178","inci_type":740,"geo_score":0.642,"id":"a8xdym77e28s","address":"1776 OAKLAND RD","station":5,"geo_precision":"street"},"type":"Feature","geometry":{"type":"Point","coordinates":[-121.895437,37.37683]}},{"properties":{"alm_date":"7/30/2012","city":"SAN JOSE","zip":"95112","inci_no":"12-2129210","inci_type":740,"geo_score":0.763,"id":"a8xdym8af3ra","address":"800 N 8TH ST","station":5,"geo_precision":"range"},"type":"Feature","geometry":{"type":"Point","coordinates":[-121.89517,37.355821]}},{"properties":{"alm_date":"7/30/2012","city":"SAN JOSE","zip":"95112","inci_no":"12-2129273","inci_type":740,"geo_score":0.836,"id":"a8xdym9puqy5","address":"361-391 E BROKAW RD","station":5,"geo_precision":"range"},"type":"Feature","geometry":{"type":"Point","coordinates":[-121.912154,37.378055]}},{"properties":{"alm_date":"7/18/2012","city":"SAN JOSE","zip":"95112","inci_no":"12-2009117","inci_type":741,"geo_score":0.805,"id":"a8xdym1k8imn","address":"2033 GATEWAY PL","station":5,"geo_precision":"range"},"type":"Feature","geometry":{"type":"Point","coordinates":[-121.922728,37.370632]}},{"properties":{"alm_date":"7/20/2012","city":"SAN JOSE","zip":"95112","inci_no":"12-2029134","inci_type":741,"geo_score":0.805,"id":"a8xdylybmlkp","address":"1005 TIMOTHY DR","station":5,"geo_precision":"range"},"type":"Feature","geometry":{"type":"Point","coordinates":[-121.877854,37.362696]}},{"properties":{"alm_date":"7/4/2012","city":"SAN JOSE","zip":"95112","inci_no":"12-1869172","inci_type":743,"geo_score":0.659,"id":"a8xdymc1dahb","address":"2180 O'NEL DR","station":5,"geo_precision":"range"},"type":"Feature","geometry":{"type":"Point","coordinates":[-121.899208,37.286644]}},{"properties":{"alm_date":"7/11/2012","city":"SAN JOSE","zip":"95112","inci_no":"12-1939002","inci_type":743,"geo_score":0.791,"id":"a8xdymbxlsxj","address":"55 W YOUNGER AV","station":5,"geo_precision":"range"},"type":"Feature","geometry":{"type":"Point","coordinates":[-121.902713,37.35617]}},{"properties":{"alm_date":"7/2/2012","city":"SAN JOSE","zip":"95112","inci_no":"12-1849201","inci_type":744,"geo_score":0.659,"id":"a8xdym0b5k5j","address":"2180 O'NEL DR","station":5,"geo_precision":"range"},"type":"Feature","geometry":{"type":"Point","coordinates":[-121.899208,37.286644]}},{"properties":{"alm_date":"7/3/2012","city":"SAN JOSE","zip":"95112","inci_no":"12-1859242","inci_type":744,"geo_score":0.659,"id":"a8xdyma8n6sq","address":"2180 O'NEL DR","station":5,"geo_precision":"range"},"type":"Feature","geometry":{"type":"Point","coordinates":[-121.899208,37.286644]}},{"properties":{"alm_date":"7/3/2012","city":"SAN JOSE","zip":"95112","inci_no":"12-1859069","inci_type":745,"geo_score":0.611,"id":"a8xdym0ojq5x","address":"1550 TECHNOLOGY DR","station":5,"geo_precision":"street"},"type":"Feature","geometry":{"type":"Point","coordinates":[-121.917063,37.365317]}},{"properties":{"alm_date":"7/3/2012","city":"SAN JOSE","zip":"95112","inci_no":"12-1859206","inci_type":745,"geo_score":0.424,"id":"a8xdym2j097b","address":"1331 LAKESHORE CL","station":5,"geo_precision":"street"},"type":"Feature","geometry":{"type":"Point","coordinates":[-121.907977,37.366073]}},{"properties":{"alm_date":"7/26/2012","city":"SAN JOSE","zip":"95112","inci_no":"12-2089196","inci_type":745,"geo_score":0.791,"id":"a8xdymc3n096","address":"55 W YOUNGER AV","station":5,"geo_precision":"range"},"type":"Feature","geometry":{"type":"Point","coordinates":[-121.902713,37.35617]}},{"properties":{"alm_date":"7/6/2012","city":"SAN JOSE","zip":"95112","inci_no":"12-1889027","inci_type":6112,"geo_score":0.812,"id":"a8xdym4c0jg1","address":"251 W HEDDING ST","station":5,"geo_precision":"range"},"type":"Feature","geometry":{"type":"Point","coordinates":[-121.897013,37.356404]}},{"properties":{"alm_date":"7/9/2012","city":"SAN JOSE","zip":"95112","inci_no":"12-1919151","inci_type":6112,"geo_score":0.771,"id":"a8xdylx3q2uv","address":"704 N 13TH ST","station":5,"geo_precision":"range"},"type":"Feature","geometry":{"type":"Point","coordinates":[-121.889224,37.357093]}},{"properties":{"alm_date":"7/9/2012","city":"SAN JOSE","zip":"95112","inci_no":"12-1919186","inci_type":6112,"geo_score":0.665,"id":"a8xdym0nj55e","address":"2081 N 1ST ST","station":5,"geo_precision":"range"},"type":"Feature","geometry":{"type":"Point","coordinates":[-121.918592,37.373614]}},{"properties":{"alm_date":"7/10/2012","city":"SAN JOSE","zip":"95112","inci_no":"12-1929177","inci_type":6112,"geo_score":0.763,"id":"a8xdylyyphao","address":"1755 N 1ST ST","station":5,"geo_precision":"range"},"type":"Feature","geometry":{"type":"Point","coordinates":[-121.9164,37.370656]}},{"properties":{"alm_date":"7/17/2012","city":"SAN JOSE","zip":"95112","inci_no":"12-1999029","inci_type":6112,"geo_score":0.76,"id":"a8xdym3cnfoy","address":"COMMERCIAL ST","station":5,"geo_precision":"street"},"type":"Feature","geometry":{"type":"Point","coordinates":[-121.903411,37.359148]}},{"properties":{"alm_date":"7/18/2012","city":"SAN JOSE","zip":"95112","inci_no":"12-2009037","inci_type":6112,"geo_score":0.349,"id":"a8xdyly29em4","address":"101","station":5,"geo_precision":"street"},"type":"Feature","geometry":{"type":"Point","coordinates":[-121.896169,37.363436]}},{"properties":{"alm_date":"7/22/2012","city":"SAN JOSE","zip":"95112","inci_no":"12-2049248","inci_type":6112,"geo_score":0.763,"id":"a8xdym34x0ep","address":"879 N 7TH ST","station":5,"geo_precision":"range"},"type":"Feature","geometry":{"type":"Point","coordinates":[-121.896646,37.355691]}},{"properties":{"alm_date":"7/22/2012","city":"SAN JOSE","zip":"95112","inci_no":"12-2049254","inci_type":6112,"geo_score":0.653,"id":"a8xdylybtvup","address":"N 8TH ST","station":5,"geo_precision":"street"},"type":"Feature","geometry":{"type":"Point","coordinates":[-121.88425,37.341184]}},{"properties":{"alm_date":"7/24/2012","city":"SAN JOSE","zip":"95112","inci_no":"12-2069078","inci_type":6112,"geo_score":0.349,"id":"a8xdylxivdk1","address":"101","station":5,"geo_precision":"street"},"type":"Feature","geometry":{"type":"Point","coordinates":[-121.896169,37.363436]}},{"properties":{"alm_date":"7/24/2012","city":"SAN JOSE","zip":"95112","inci_no":"12-2069199","inci_type":6112,"geo_score":0.771,"id":"a8xdylyc8393","address":"701 N 13TH ST","station":5,"geo_precision":"range"},"type":"Feature","geometry":{"type":"Point","coordinates":[-121.88934,37.357143]}},{"properties":{"alm_date":"7/6/2012","city":"SAN JOSE","zip":"95112","inci_no":"12-1889042","inci_type":6115,"geo_score":0.763,"id":"a8xdymclowhw","address":"1510 N 1ST ST","station":5,"geo_precision":"range"},"type":"Feature","geometry":{"type":"Point","coordinates":[-121.912025,37.364944]}},{"properties":{"alm_date":"7/7/2012","city":"SAN JOSE","zip":"95112","inci_no":"12-1899005","inci_type":6115,"geo_score":0.763,"id":"a8xdym0ng95q","address":"1660 OLD BAYSHORE","station":5,"geo_precision":"range"},"type":"Feature","geometry":{"type":"Point","coordinates":[-121.905979,37.368463]}},{"properties":{"alm_date":"7/21/2012","city":"SAN JOSE","zip":"95112","inci_no":"12-2039127","inci_type":6115,"geo_score":0.665,"id":"a8xdymbum2gz","address":"N 10TH ST","station":5,"geo_precision":"street"},"type":"Feature","geometry":{"type":"Point","coordinates":[-121.881038,37.340693]}},{"properties":{"alm_date":"7/22/2012","city":"SAN JOSE","zip":"95112","inci_no":"12-2049146","inci_type":6119,"geo_score":0.805,"id":"a8xdymcstic2","address":"2025 GATEWAY PL","station":5,"geo_precision":"range"},"type":"Feature","geometry":{"type":"Point","coordinates":[-121.922342,37.370649]}},{"properties":{"alm_date":"7/22/2012","city":"SAN JOSE","zip":"95112","inci_no":"12-2049193","inci_type":6119,"geo_score":0.763,"id":"a8xdymcj64w6","address":"1740 N 1ST ST","station":5,"geo_precision":"range"},"type":"Feature","geometry":{"type":"Point","coordinates":[-121.914702,37.368515]}}],"is_temporal":false,"author":{"url":"","metadata":"","contact_name":"","contact_address":"","source":"","contact_phone":""},"source":"","pagination":{"sort":null,"start":0,"total":78,"limit":1000000},"state":"complete","tags":"","published":"2014-08-15T02:24:11-04:00","id":278568}