{"type":"FeatureCollection","data_type":"Dataset","url_type":null,"permissions":[{"permissions":{"download":true,"view":true},"group_id":"everyone"}],"classification":null,"title":"WorkingZip","count":39,"stream_id":279334,"contributor":{"url":"http://geocommons.com/users/52417","name":"Raphael"},"data_attributes":null,"calculation_params":null,"icon_link":null,"link":"http://geocommons.com/overlays/279334.json","extent":[-84.5847,38.7348,-80.6706,41.864],"geometry_types":["point"],"unique_name":null,"name":"WorkingZip","feature_count":39,"description":"","next_feature":null,"is_raster":false,"short_classification":"Y","stats":{},"features":[{"properties":{"center name":"Fairview Park Victory Center","city":"Fairview Park","zip":"44126","geo_score":0.878,"id":"a90wu02wv62o","address":"22641 Lorain Road","geo_precision":"range","state":"OH"},"type":"Feature","geometry":{"type":"Point","coordinates":[-81.871058,41.438948]}},{"properties":{"center name":"Bowling Green Victory Center","city":"Bowling Green","zip":"43402","geo_score":0.993,"id":"a90wu08ikeae","address":"111 S Main St","geo_precision":"range","state":"OH"},"type":"Feature","geometry":{"type":"Point","coordinates":[-83.650338,41.374717]}},{"properties":{"center name":"Lebanon Victory Center","city":"Lebanon","zip":"45036","geo_score":1.0,"id":"a90wu050ie1d","address":"30 West Main Street","geo_precision":"range","state":"OH"},"type":"Feature","geometry":{"type":"Point","coordinates":[-84.209525,39.4335]}},{"properties":{"center name":"Liberty Township Victory Center","city":"Liberty Township","zip":"45011","geo_score":0.921,"id":"a90wu06mfe8p","address":"4879 Mercedes Drive","geo_precision":"range","state":"OH"},"type":"Feature","geometry":{"type":"Point","coordinates":[-84.452851,39.423662]}},{"properties":{"center name":"Beavercreek Victory Center","city":"Beavercreek","zip":"45430","geo_score":1.0,"id":"a90wu0j0rt9e","address":"3297 Seajay Dr","geo_precision":"range","state":"OH"},"type":"Feature","geometry":{"type":"Point","coordinates":[-84.061664,39.719849]}},{"properties":{"center name":"Wadsworth Victory Center","city":"Wadsworth","zip":"44281","geo_score":0.585,"id":"a90wu0idizz3","address":"300 Weatherstone Dr","geo_precision":"zip","state":"OH"},"type":"Feature","geometry":{"type":"Point","coordinates":[-81.751008,41.071841]}},{"properties":{"center name":"Independence Victory Center","city":"Independence","zip":"44131","geo_score":0.585,"id":"a90wu0f5g3pp","address":"6490 Brecksville Road","geo_precision":"zip","state":"OH"},"type":"Feature","geometry":{"type":"Point","coordinates":[-81.676239,41.39533]}},{"properties":{"center name":"Grandview Victory Center","city":"Columbus","zip":"43215","geo_score":1.0,"id":"a90wu0i36x8u","address":"1335 Dublin Rd","geo_precision":"range","state":"OH"},"type":"Feature","geometry":{"type":"Point","coordinates":[-83.062514,39.97976]}},{"properties":{"center name":"Centerville Victory Center","city":"Centerville","zip":"45459","geo_score":1.0,"id":"a90wu06qjykx","address":"7720 Paragon Rd","geo_precision":"range","state":"OH"},"type":"Feature","geometry":{"type":"Point","coordinates":[-84.181081,39.630888]}},{"properties":{"center name":"Westwood Victory Center","city":"Cincinnati","zip":"45211","geo_score":1.0,"id":"a90wu0e6riyz","address":"2300 Montana Ave","geo_precision":"range","state":"OH"},"type":"Feature","geometry":{"type":"Point","coordinates":[-84.568047,39.15688]}},{"properties":{"center name":"Lancaster Victory Center","city":"Lancaster","zip":"43130","geo_score":1.0,"id":"a90wu0af9teg","address":"118 E Main St","geo_precision":"range","state":"OH"},"type":"Feature","geometry":{"type":"Point","coordinates":[-82.601464,39.713645]}},{"properties":{"center name":"Eastgate Victory Center","city":"Cincinnati","zip":"45245","geo_score":0.931,"id":"a90wu05bhur8","address":"813 Eastgate South Drive","geo_precision":"range","state":"OH"},"type":"Feature","geometry":{"type":"Point","coordinates":[-84.266108,39.094323]}},{"properties":{"center name":"Lisbon Victory Center","city":"Lisbon","zip":"44432","geo_score":0.986,"id":"a90wu0jdmqou","address":"124 W Lincoln Way","geo_precision":"range","state":"OH"},"type":"Feature","geometry":{"type":"Point","coordinates":[-80.769537,40.772095]}},{"properties":{"center name":"Kenwood Victory Center","city":"Cincinnati","zip":"45236","geo_score":1.0,"id":"a90wu0ij08fo","address":"8220 Northcreek Dr","geo_precision":"range","state":"OH"},"type":"Feature","geometry":{"type":"Point","coordinates":[-84.370542,39.207204]}},{"properties":{"center name":"Westerville Victory Center","city":"Columbus","zip":"43240","geo_score":1.0,"id":"a90wu0csg6mm","address":"8489 Sancus Blvd","geo_precision":"range","state":"OH"},"type":"Feature","geometry":{"type":"Point","coordinates":[-82.990486,40.141404]}},{"properties":{"center name":"Avon Lake Victory Center","city":"Avon Lake","zip":"44012","geo_score":1.0,"id":"a90wu05pu5w1","address":"375 Lear Rd","geo_precision":"range","state":"OH"},"type":"Feature","geometry":{"type":"Point","coordinates":[-81.988405,41.494729]}},{"properties":{"center name":"Heath Victory Center","city":"Heath","zip":"43056","geo_score":0.984,"id":"a90wu0au03hq","address":"1006 Hebron Rd","geo_precision":"range","state":"OH"},"type":"Feature","geometry":{"type":"Point","coordinates":[-82.447286,40.025168]}},{"properties":{"center name":"Steubenville Victory Center","city":"Steubenville","zip":"43952","geo_score":1.0,"id":"a90wu0elbkw6","address":"100 Mall Dr","geo_precision":"range","state":"OH"},"type":"Feature","geometry":{"type":"Point","coordinates":[-80.670645,40.371089]}},{"properties":{"center name":"Richmond Heights Victory Center","city":"Richmond Heights","zip":"44143","geo_score":1.0,"id":"a90wu0hj9ug7","address":"5164 Wilson Mills Road","geo_precision":"range","state":"OH"},"type":"Feature","geometry":{"type":"Point","coordinates":[-81.49222,41.538935]}},{"properties":{"center name":"Mentor Victory Center","city":"Mentor","zip":"44060","geo_score":0.986,"id":"a90wu05iatwe","address":"7488 Mentor Ave","geo_precision":"range","state":"OH"},"type":"Feature","geometry":{"type":"Point","coordinates":[-81.372939,41.655415]}},{"properties":{"center name":"Dover Victory Center","city":"Dover","zip":"44622","geo_score":0.604,"id":"a90wu067seq2","address":"203 S. Wooster Ave","geo_precision":"street","state":"OH"},"type":"Feature","geometry":{"type":"Point","coordinates":[-81.47211,40.51905]}},{"properties":{"center name":"Grove City Victory Center","city":"Grove City","zip":"43123","geo_score":1.0,"id":"a90wu06llw7o","address":"2065 Stringtown Rd","geo_precision":"range","state":"OH"},"type":"Feature","geometry":{"type":"Point","coordinates":[-83.057957,39.878362]}},{"properties":{"center name":"Colerain Victory Center","city":"Colerain Township","zip":"45239","geo_score":0.96,"id":"a90wu0frs991","address":"8240 Clara Ave","geo_precision":"range","state":"OH"},"type":"Feature","geometry":{"type":"Point","coordinates":[-84.584678,39.221306]}},{"properties":{"center name":"Youngstown Victory Center","city":"Youngstown","zip":"44512","geo_score":1.0,"id":"a90wu0bhqt62","address":"621 Boardman Canfield Road","geo_precision":"range","state":"OH"},"type":"Feature","geometry":{"type":"Point","coordinates":[-80.68167,41.024423]}},{"properties":{"center name":"Reynoldsburg Victory Center","city":"Reynoldsburg","zip":"43068","geo_score":0.953,"id":"a90wu0i7yuyb","address":"1940 Baltimore Reynoldsburg Rd","geo_precision":"range","state":"OH"},"type":"Feature","geometry":{"type":"Point","coordinates":[-82.79511,39.944465]}},{"properties":{"center name":"Maumee Victory Center","city":"Maumee","zip":"43537","geo_score":0.947,"id":"a90wu0bhxzfv","address":"326 W Dussel Dr","geo_precision":"range","state":"OH"},"type":"Feature","geometry":{"type":"Point","coordinates":[-83.665746,41.585373]}},{"properties":{"center name":"Stow Victory Center","city":"Stow","zip":"44224","geo_score":0.98,"id":"a90wu087j53j","address":"3889 Darrow Rd","geo_precision":"range","state":"OH"},"type":"Feature","geometry":{"type":"Point","coordinates":[-81.440309,41.17253]}},{"properties":{"center name":"Canton Victory Center","city":"Canton","zip":"44718","geo_score":1.0,"id":"a90wu06vcax9","address":"3976 Fulton Dr NW","geo_precision":"range","state":"OH"},"type":"Feature","geometry":{"type":"Point","coordinates":[-81.422937,40.835979]}},{"properties":{"center name":"Ashtabula Victory Center","city":"Ashtabula","zip":"44004","geo_score":1.0,"id":"a90wu0blivvb","address":"2525 South Ridge Rd East","geo_precision":"range","state":"OH"},"type":"Feature","geometry":{"type":"Point","coordinates":[-80.761047,41.864018]}},{"properties":{"center name":"Ontario Victory Center","city":"Ontario","zip":"44960","geo_score":0.537,"id":"a90wu0jfbchz","address":"2069 West 4th St","geo_precision":"street","state":"OH"},"type":"Feature","geometry":{"type":"Point","coordinates":[-83.42123,41.151585]}},{"properties":{"center name":"Niles Victory Center","city":"Niles","zip":"44446","geo_score":1.0,"id":"a90wu0hn7o6h","address":"5555 Youngstown Warren Rd","geo_precision":"range","state":"OH"},"type":"Feature","geometry":{"type":"Point","coordinates":[-80.750489,41.210417]}},{"properties":{"center name":"Kent Victory Center","city":"Kent","zip":"44240","geo_score":1.0,"id":"a90wu0fdts14","address":"175 East Erie St","geo_precision":"range","state":"OH"},"type":"Feature","geometry":{"type":"Point","coordinates":[-81.357406,41.152784]}},{"properties":{"center name":"Athens Victory Center","city":"Athens","zip":"45701","geo_score":0.912,"id":"a90wu07r64f7","address":"14 N Court St","geo_precision":"range","state":"OH"},"type":"Feature","geometry":{"type":"Point","coordinates":[-82.100987,39.33018]}},{"properties":{"center name":"Lima Victory Center","city":"Lima","zip":"45805","geo_score":1.0,"id":"a90wu0dj7d27","address":"2062 N Cable Rd","geo_precision":"range","state":"OH"},"type":"Feature","geometry":{"type":"Point","coordinates":[-84.147028,40.765944]}},{"properties":{"center name":"Wooster Victory Center","city":"Wooster","zip":"44691","geo_score":0.585,"id":"a90wu0eaprhp","address":"120 N Buckeye St","geo_precision":"zip","state":"OH"},"type":"Feature","geometry":{"type":"Point","coordinates":[-81.925698,40.857834]}},{"properties":{"center name":"Findlay Victory Center","city":"Findlay","zip":"45840","geo_score":1.0,"id":"a90wu06keqzf","address":"404 S Main St","geo_precision":"range","state":"OH"},"type":"Feature","geometry":{"type":"Point","coordinates":[-83.650336,41.037757]}},{"properties":{"center name":"Portsmouth Victory Center","city":"Portsmouth","zip":"45662","geo_score":0.902,"id":"a90wu03dq5l4","address":"612 6th Street","geo_precision":"range","state":"OH"},"type":"Feature","geometry":{"type":"Point","coordinates":[-83.000491,38.734823]}},{"properties":{"center name":"Marietta Victory Center","city":"Marietta","zip":"45750","geo_score":1.0,"id":"a90wu0j4qtel","address":"119 Greene St","geo_precision":"range","state":"OH"},"type":"Feature","geometry":{"type":"Point","coordinates":[-81.450976,39.411357]}},{"properties":{"center name":"Chillicothe Victory Center","city":"Chillicothe","zip":"45601","geo_score":1.0,"id":"a90wu0gyqpu4","address":"129 East Main Street","geo_precision":"range","state":"OH"},"type":"Feature","geometry":{"type":"Point","coordinates":[-82.976834,39.334057]}}],"is_temporal":false,"author":{"url":"","metadata":"","contact_name":"","contact_address":"","source":"","contact_phone":""},"source":"","pagination":{"sort":null,"start":0,"total":39,"limit":1000000},"state":"complete","tags":"","published":"2014-08-15T03:11:19-04:00","id":279334}