{"type":"FeatureCollection","data_type":"Dataset","url_type":null,"permissions":[{"permissions":{"download":true,"view":true},"group_id":"everyone"}],"classification":null,"title":"interacoes-por-pais-20121003b","count":58,"stream_id":279645,"contributor":{"url":"http://geocommons.com/users/52762","name":"chbritocruz"},"data_attributes":null,"calculation_params":null,"icon_link":null,"link":"http://geocommons.com/overlays/279645.json","extent":[-88.625,-54.4667,174.82,60.4239],"geometry_types":["point"],"unique_name":null,"name":"interacoes-por-pais-20121003b","feature_count":58,"description":"FAPESP international collaboration","next_feature":null,"is_raster":false,"short_classification":"Y","stats":{"qty":{"max":1723,"variance":58130.3847549909,"mean":73.9655172413793,"stdev":241.102436227822,"min":1,"median":5}},"features":[{"properties":{"city":"Washington","qty":1723,"country":"United States","geo_score":0.857,"id":"a91o8wtdzx5u","geo_precision":"zip"},"type":"Feature","geometry":{"type":"Point","coordinates":[-88.5226141,44.018873]}},{"properties":{"city":"Paris","qty":548,"country":"France","geo_score":0.857,"id":"a91o8wukxkdm","geo_precision":"zip"},"type":"Feature","geometry":{"type":"Point","coordinates":[4.9333333,47.1]}},{"properties":{"city":"London","qty":297,"country":"England","geo_score":0.714,"id":"a91o8wvxrkb8","geo_precision":"zip"},"type":"Feature","geometry":{"type":"Point","coordinates":[-80.75,8.5833333]}},{"properties":{"city":"Roma","qty":240,"country":"Italy","geo_score":0.857,"id":"a91o8x1x1k07","geo_precision":"zip"},"type":"Feature","geometry":{"type":"Point","coordinates":[11.01857,46.441412]}},{"properties":{"city":"Madrid","qty":231,"country":"Spain","geo_score":0.857,"id":"a91o8wqis3a8","geo_precision":"zip"},"type":"Feature","geometry":{"type":"Point","coordinates":[3.8007,40.0014]}},{"properties":{"city":"Ottawa","qty":222,"country":"Canada","geo_score":0.857,"id":"a91o8x3znept","geo_precision":"zip"},"type":"Feature","geometry":{"type":"Point","coordinates":[-75.6902861595154,45.4209405046496]}},{"properties":{"city":"Berlin","qty":216,"country":"Germany","geo_score":0.857,"id":"a91o8x03tfst","geo_precision":"zip"},"type":"Feature","geometry":{"type":"Point","coordinates":[7.8166667,51.4]}},{"properties":{"city":"Lisbon","qty":201,"country":"Portugal","geo_score":0.857,"id":"a91o8wyzjheh","geo_precision":"zip"},"type":"Feature","geometry":{"type":"Point","coordinates":[-9.1333333,38.7166667]}},{"properties":{"city":"London","qty":94,"country":"UK","geo_score":0.714,"id":"a91o8ww2szu6","geo_precision":"zip"},"type":"Feature","geometry":{"type":"Point","coordinates":[-80.75,8.5833333]}},{"properties":{"city":"Santiago","qty":65,"country":"Chile","geo_score":0.857,"id":"a91o8wzt55hx","geo_precision":"zip"},"type":"Feature","geometry":{"type":"Point","coordinates":[-71.1,-54.4666667]}},{"properties":{"city":"Sidney","qty":59,"country":"Australia","geo_score":0.857,"id":"a91o8wukvt51","geo_precision":"zip"},"type":"Feature","geometry":{"type":"Point","coordinates":[137.0166667,-20.05]}},{"properties":{"city":"Amsterdam","qty":50,"country":"Netherlands","geo_score":0.857,"id":"a91o8wrl5trt","geo_precision":"zip"},"type":"Feature","geometry":{"type":"Point","coordinates":[4.5333333,52.3333333]}},{"properties":{"city":"Geneve","qty":42,"country":"Switzerland","geo_score":0.857,"id":"a91o8wprbuyd","geo_precision":"zip"},"type":"Feature","geometry":{"type":"Point","coordinates":[6.12737163329788,46.2080390370304]}},{"properties":{"city":"Brussels","qty":35,"country":"Belgium","geo_score":0.857,"id":"a91o8wshefdo","geo_precision":"zip"},"type":"Feature","geometry":{"type":"Point","coordinates":[4.48207855224609,50.8961039555436]}},{"properties":{"city":"Toquio","qty":34,"country":"Japan","geo_score":0.857,"id":"a91o8wsrkem8","geo_precision":"zip"},"type":"Feature","geometry":{"type":"Point","coordinates":[139.7166667,39.95]}},{"properties":{"city":"Buenos Aires","qty":29,"country":"Argentina","geo_score":0.857,"id":"a91o8x3fa5ev","geo_precision":"zip"},"type":"Feature","geometry":{"type":"Point","coordinates":[-58.4088134765625,-34.5761256318848]}},{"properties":{"city":"Copenhagen","qty":20,"country":"Denmark","geo_score":0.857,"id":"a91o8wv55oe0","geo_precision":"zip"},"type":"Feature","geometry":{"type":"Point","coordinates":[12.5903,55.6771]}},{"properties":{"city":"Glasgow","qty":20,"country":"Scotland","geo_score":0.714,"id":"a91o8x0rsw4u","geo_precision":"zip"},"type":"Feature","geometry":{"type":"Point","coordinates":[28.6333333,51.6333333]}},{"properties":{"city":"Stokholm","qty":17,"country":"Sweden","geo_score":0.857,"id":"a91o8wupxugg","geo_precision":"zip"},"type":"Feature","geometry":{"type":"Point","coordinates":[18.7772222,59.6]}},{"properties":{"city":"Vienna","qty":14,"country":"Austria","geo_score":0.857,"id":"a91o8wx8naft","geo_precision":"zip"},"type":"Feature","geometry":{"type":"Point","coordinates":[16.3720750808716,48.2084877601653]}},{"properties":{"city":"Mexico City","qty":13,"country":"Mexico","geo_score":0.857,"id":"a91o8wxhvrta","geo_precision":"zip"},"type":"Feature","geometry":{"type":"Point","coordinates":[-88.625,20.625]}},{"properties":{"city":"Moscow","qty":12,"country":"Russia","geo_score":0.857,"id":"a91o8wxubbq0","geo_precision":"zip"},"type":"Feature","geometry":{"type":"Point","coordinates":[38.3666667,58.7666667]}},{"properties":{"city":"Warsaw","qty":10,"country":"Poland","geo_score":0.857,"id":"a91o8wu04g33","geo_precision":"zip"},"type":"Feature","geometry":{"type":"Point","coordinates":[21.0,52.25]}},{"properties":{"city":"Athens","qty":10,"country":"Greece","geo_score":0.857,"id":"a91o8wq1kqlr","geo_precision":"zip"},"type":"Feature","geometry":{"type":"Point","coordinates":[23.7333333,37.9833333]}},{"properties":{"city":"Tel Aviv","qty":9,"country":"Israel","geo_score":0.857,"id":"a91o8x1jwdq9","geo_precision":"zip"},"type":"Feature","geometry":{"type":"Point","coordinates":[34.7666667,32.0666667]}},{"properties":{"city":"Delhi","qty":8,"country":"India","geo_score":0.857,"id":"a91o8wolitvg","geo_precision":"zip"},"type":"Feature","geometry":{"type":"Point","coordinates":[77.0941667,31.2208333]}},{"properties":{"city":"Cardiff","qty":6,"country":"Wales","geo_score":0.714,"id":"a91o8wsaauo8","geo_precision":"zip"},"type":"Feature","geometry":{"type":"Point","coordinates":[38.2047222,55.5869444]}},{"properties":{"city":"Maputo","qty":5,"country":"Mozambique","geo_score":0.857,"id":"a91o8wqxyzu4","geo_precision":"zip"},"type":"Feature","geometry":{"type":"Point","coordinates":[36.4861111,-14.5027778]}},{"properties":{"city":"Joannesburg","qty":5,"country":"South Africa","geo_score":0.857,"id":"a91o8wzolg0f","geo_precision":"zip"},"type":"Feature","geometry":{"type":"Point","coordinates":[26.7666667,-32.65]}},{"properties":{"city":"Prague","qty":4,"country":"Czech Republic","geo_score":0.857,"id":"a91o8wu6grk7","geo_precision":"zip"},"type":"Feature","geometry":{"type":"Point","coordinates":[15.2,49.3]}},{"properties":{"city":"Wellington","qty":4,"country":"new Zealand","geo_score":0.857,"id":"a91o8wxqd0f1","geo_precision":"zip"},"type":"Feature","geometry":{"type":"Point","coordinates":[174.820191387,-36.57819173]}},{"properties":{"city":"Montevideo","qty":4,"country":"Uruguay","geo_score":0.857,"id":"a91o8x0n1qpt","geo_precision":"zip"},"type":"Feature","geometry":{"type":"Point","coordinates":[-56.1959105730057,-34.8888527484512]}},{"properties":{"city":"Helsinki","qty":4,"country":"Finland","geo_score":0.857,"id":"a91o8wyzveyh","geo_precision":"zip"},"type":"Feature","geometry":{"type":"Point","coordinates":[26.0566667,60.4238889]}},{"properties":{"city":"Oslo","qty":4,"country":"Norway","geo_score":0.857,"id":"a91o8wpaqc6r","geo_precision":"zip"},"type":"Feature","geometry":{"type":"Point","coordinates":[10.7413673400879,59.912697157616]}},{"properties":{"city":"Peking","qty":3,"country":"China","geo_score":0.857,"id":"a91o8x2msy1d","geo_precision":"zip"},"type":"Feature","geometry":{"type":"Point","coordinates":[116.6887855,23.747422]}},{"properties":{"city":"Hong Kong","qty":3,"country":"Hong Kong","geo_score":0.857,"id":"a91o8wqybnp2","geo_precision":"zip"},"type":"Feature","geometry":{"type":"Point","coordinates":[114.171831607819,22.2941790516604]}},{"properties":{"city":"Dublin","qty":3,"country":"Ireland","geo_score":0.857,"id":"a91o8wsbxpf8","geo_precision":"zip"},"type":"Feature","geometry":{"type":"Point","coordinates":[-7.5502778,52.5744444]}},{"properties":{"city":"Bogota","qty":2,"country":"Colombia","geo_score":0.714,"id":"a91o8x44capo","geo_precision":"zip"},"type":"Feature","geometry":{"type":"Point","coordinates":[26.25,2.9666667]}},{"properties":{"city":"Kiev","qty":2,"country":"Ukraine","geo_score":0.857,"id":"a91o8wyzpydu","geo_precision":"zip"},"type":"Feature","geometry":{"type":"Point","coordinates":[34.1666667,44.5]}},{"properties":{"city":"Havana","qty":2,"country":"Cuba","geo_score":0.857,"id":"a91o8woux7l5","geo_precision":"zip"},"type":"Feature","geometry":{"type":"Point","coordinates":[-82.3641667,23.1319444]}},{"properties":{"city":"Cairo","qty":2,"country":"Egypt","geo_score":0.857,"id":"a91o8wq2yh3b","geo_precision":"zip"},"type":"Feature","geometry":{"type":"Point","coordinates":[31.25,30.05]}},{"properties":{"city":"Budapest","qty":2,"country":"Hungary","geo_score":0.857,"id":"a91o8wxcg3or","geo_precision":"zip"},"type":"Feature","geometry":{"type":"Point","coordinates":[19.1006326675415,47.5117804685792]}},{"properties":{"city":"Sofia","qty":1,"country":"Bulgaria","geo_score":0.857,"id":"a91o8wy74znt","geo_precision":"zip"},"type":"Feature","geometry":{"type":"Point","coordinates":[27.3833333,43.0333333]}},{"properties":{"city":"Jacarta","qty":1,"country":"Indonesia","geo_score":0.857,"id":"a91o8wywl4b5","geo_precision":"zip"},"type":"Feature","geometry":{"type":"Point","coordinates":[111.0379,-6.8808]}},{"properties":{"city":"Fidji","qty":1,"country":"fiji","geo_score":0.0,"id":"a91o8wxpe7ke","geo_precision":"unmatched"},"type":"Feature","geometry":null},{"properties":{"city":"Bangkok","qty":1,"country":"Thailand","geo_score":0.857,"id":"a91o8x04ifv6","geo_precision":"zip"},"type":"Feature","geometry":{"type":"Point","coordinates":[98.8333333,18.5833333]}},{"properties":{"city":"Luxemborug","qty":1,"country":"Luxembourg","geo_score":0.0,"id":"a91o8x0bd7wd","geo_precision":"unmatched"},"type":"Feature","geometry":null},{"properties":{"city":"Singapore","qty":1,"country":"Singapore","geo_score":0.857,"id":"a91o8wt4n7d8","geo_precision":"zip"},"type":"Feature","geometry":{"type":"Point","coordinates":[103.8558333,1.2930556]}},{"properties":{"city":"Ljubljana","qty":1,"country":"Slovenia","geo_score":0.857,"id":"a91o8x00l4na","geo_precision":"zip"},"type":"Feature","geometry":{"type":"Point","coordinates":[14.615421295166,46.0596231340107]}},{"properties":{"city":"Damascus","qty":1,"country":"Syria","geo_score":0.857,"id":"a91o8wzhg5mm","geo_precision":"zip"},"type":"Feature","geometry":{"type":"Point","coordinates":[36.3,33.5]}},{"properties":{"city":"Lima","qty":1,"country":"Peru","geo_score":0.857,"id":"a91o8wxzq7r0","geo_precision":"zip"},"type":"Feature","geometry":{"type":"Point","coordinates":[-75.8166667,-13.2333333]}},{"properties":{"city":"Malta","qty":1,"country":"Malta","geo_score":0.857,"id":"a91o8x3fz9eg","geo_precision":"zip"},"type":"Feature","geometry":{"type":"Point","coordinates":[14.4333333,35.9166667]}},{"properties":{"city":"La Paz","qty":1,"country":"Bolivia","geo_score":0.857,"id":"a91o8x1238kd","geo_precision":"zip"},"type":"Feature","geometry":{"type":"Point","coordinates":[-64.8833333,-19.2166667]}},{"properties":{"city":"Ouagadougou","qty":1,"country":"Burkina Faso","geo_score":0.857,"id":"a91o8wugnnvf","geo_precision":"zip"},"type":"Feature","geometry":{"type":"Point","coordinates":[-1.512417,12.353194]}},{"properties":{"city":"Praia","qty":1,"country":"Cape Verde","geo_score":0.857,"id":"a91o8wxnh22n","geo_precision":"zip"},"type":"Feature","geometry":{"type":"Point","coordinates":[-23.5166667,14.9166667]}},{"properties":{"city":"Caracas","qty":1,"country":"Venezuela","geo_score":0.857,"id":"a91o8wyclf84","geo_precision":"zip"},"type":"Feature","geometry":{"type":"Point","coordinates":[-63.505,9.0733333]}},{"properties":{"city":"Berlin","qty":1,"country":"West Germany","geo_score":0.714,"id":"a91o8wrqfo2k","geo_precision":"zip"},"type":"Feature","geometry":{"type":"Point","coordinates":[6.491667,53.1325]}},{"properties":{"city":"Seoul","qty":1,"country":"South Korea","geo_score":0.857,"id":"a91o8wo2dae6","geo_precision":"zip"},"type":"Feature","geometry":{"type":"Point","coordinates":[128.8261111,36.8175]}}],"is_temporal":false,"author":{"url":"","metadata":"","contact_name":"","contact_address":"","source":"","contact_phone":""},"source":"","pagination":{"sort":null,"start":0,"total":58,"limit":1000000},"state":"complete","tags":"fapesp","published":"2014-08-15T03:27:55-04:00","id":279645}