{"type":"FeatureCollection","data_type":"Dataset","url_type":null,"permissions":[{"permissions":{"download":true,"view":true},"group_id":"everyone"}],"classification":null,"title":"sales_report_for_geocites_101012","count":230,"stream_id":283085,"contributor":{"url":"http://geocommons.com/users/48706","name":"dithyoung"},"data_attributes":null,"calculation_params":null,"icon_link":null,"link":"http://geocommons.com/overlays/283085.json","extent":[-122.767,18.3223,-64.9637,48.2746],"geometry_types":["point"],"unique_name":null,"name":"sales_report_for_geocites_101012","feature_count":230,"description":"","next_feature":null,"is_raster":false,"short_classification":"Y","stats":{"last yrs $":{"max":210245,"variance":817761906.549765,"mean":18884.0956521739,"stdev":28596.53661809,"min":0,"median":9394},"y-t-d $":{"max":136992,"variance":604400650.000835,"mean":21715.2782608696,"stdev":24584.56121229,"min":2585,"median":13060}},"features":[{"properties":{"name":"A &amp; G MERCH","city":"BROOKLYN","zip":"11211","last yrs $":73150,"geo_score":0.857,"y-t-d $":136992,"address line 1":"111 N 6TH ST","address line 2":"BROOKLYN, NY 11211","rep":"THE WEINER GROUP, INC.","address line 3":null,"id":"a97k0hb4s4dw","geo_precision":"zip","state":"NY"},"type":"Feature","geometry":{"type":"Point","coordinates":[-73.953471,40.714269]}},{"properties":{"name":"RUBIN'S","city":"MADISON","zip":"53703","last yrs $":119334,"geo_score":0.857,"y-t-d $":124772,"address line 1":"317 E WILSON","address line 2":"MADISON, WI 53703","rep":"SCOTT GREENBLAT","address line 3":null,"id":"a97k0h2bkfvx","geo_precision":"zip","state":"WI"},"type":"Feature","geometry":{"type":"Point","coordinates":[-89.352764,43.053085]}},{"properties":{"name":"THE BIG IGUANA CO.,LTD.","city":"BALTIMORE","zip":"21231","last yrs $":120058,"geo_score":0.857,"y-t-d $":123516,"address line 1":"DBA/SU CASA","address line 2":"901 S. BOND STREET","rep":"THE WEINER GROUP, INC.","address line 3":"BALTIMORE, MD 21231","id":"a97k0h95pwqr","geo_precision":"zip","state":"MD"},"type":"Feature","geometry":{"type":"Point","coordinates":[-76.592238,39.288757]}},{"properties":{"name":"DWELL HOME FURNISHING","city":"CORALVILLE","zip":"52241","last yrs $":0,"geo_score":0.857,"y-t-d $":116297,"address line 1":"250 12TH AVENUE","address line 2":"SUITE 100","rep":"SCOTT GREENBLAT","address line 3":"CORALVILLE, IA 52241","id":"a97k0hbfnk0l","geo_precision":"zip","state":"IA"},"type":"Feature","geometry":{"type":"Point","coordinates":[-91.6332,41.699942]}},{"properties":{"name":"CITY SUPPLY CO","city":"CHARLOTTE","zip":"28205","last yrs $":81997,"geo_score":0.857,"y-t-d $":115528,"address line 1":"1219 THOMAS AVENUE","address line 2":"CHARLOTTE, NC 28205","rep":"THE MARTIN GROUP","address line 3":null,"id":"a97k0h2odmzn","geo_precision":"zip","state":"NC"},"type":"Feature","geometry":{"type":"Point","coordinates":[-80.827444,35.325959]}},{"properties":{"name":"DOMICILE FURNITURE","city":"LINCOLNWOOD","zip":"60712","last yrs $":159245,"geo_score":0.857,"y-t-d $":108791,"address line 1":"3701 WEST LUNT","address line 2":"LINCOLNWOOD, IL 60712","rep":"DAVID LEVIN","address line 3":null,"id":"a97k0h5cig21","geo_precision":"zip","state":"IL"},"type":"Feature","geometry":{"type":"Point","coordinates":[-87.736135,42.00798]}},{"properties":{"name":"AREA","city":"GREENSBORO","zip":"27406","last yrs $":59821,"geo_score":0.857,"y-t-d $":100173,"address line 1":"515 S. ELM ST","address line 2":"GREENSBORO, NC  27406","rep":"THE MARTIN GROUP-5","address line 3":null,"id":"a97k0h4hkfk5","geo_precision":"zip","state":"NC"},"type":"Feature","geometry":{"type":"Point","coordinates":[-79.759794,35.991647]}},{"properties":{"name":"DIRECT FURNITURE","city":"ATLANTA","zip":"30318","last yrs $":43658,"geo_score":0.857,"y-t-d $":100063,"address line 1":"1005 HOWELL MILL ROAD","address line 2":"ATLANTA, GA 30318","rep":"THE MARTIN GROUP","address line 3":null,"id":"a97k0gvwxelt","geo_precision":"zip","state":"GA"},"type":"Feature","geometry":{"type":"Point","coordinates":[-84.442778,33.792005]}},{"properties":{"name":"BEND FURNITURE &amp; DESIGN","city":"BEND","zip":"97701","last yrs $":72126,"geo_score":0.857,"y-t-d $":98812,"address line 1":"2797 NW CLEARWATER DRIVE","address line 2":"SUITE 500","rep":"DAVID LEVIN","address line 3":"BEND, OR 97701","id":"a97k0gyqy6qv","geo_precision":"zip","state":"OR"},"type":"Feature","geometry":{"type":"Point","coordinates":[-121.258922,44.160119]}},{"properties":{"name":"SOMNIA FURNITURE","city":"PHILADELPHIA","zip":"19127","last yrs $":58308,"geo_score":0.857,"y-t-d $":86722,"address line 1":"4050 MAIN ST","address line 2":"PHILADELPHIA, PA 19127","rep":"THE WEINER GROUP, INC.","address line 3":null,"id":"a97k0h85xxae","geo_precision":"zip","state":"PA"},"type":"Feature","geometry":{"type":"Point","coordinates":[-75.222473,40.024761]}},{"properties":{"name":"CASSONA","city":"CHICAGO","zip":"60640","last yrs $":0,"geo_score":0.857,"y-t-d $":82179,"address line 1":"5241 N. CLARK STREET","address line 2":"CHICAGO, IL 60640","rep":"SCOTT GREENBLAT","address line 3":null,"id":"a97k0h1248oh","geo_precision":"zip","state":"IL"},"type":"Feature","geometry":{"type":"Point","coordinates":[-87.68732,41.811929]}},{"properties":{"name":"BLISS HOME &amp; ART","city":"KNOXVILLE","zip":"37902","last yrs $":109314,"geo_score":0.857,"y-t-d $":75501,"address line 1":"29 MARKET SQUARE","address line 2":"KNOXVILLE, TN 37902","rep":"DAVID LEVIN","address line 3":null,"id":"a97k0gyo37l1","geo_precision":"zip","state":"TN"},"type":"Feature","geometry":{"type":"Point","coordinates":[-83.875822,35.944976]}},{"properties":{"name":"SUBURBAN FURNITURE","city":"OKLAHOMA CITY","zip":"73107","last yrs $":85840,"geo_score":0.857,"y-t-d $":68578,"address line 1":"201 N. PORTLAND","address line 2":"OKLAHOMA CITY, OK 73107","rep":"R.D. BOZEMAN-5","address line 3":null,"id":"a97k0h9h88zj","geo_precision":"zip","state":"OK"},"type":"Feature","geometry":{"type":"Point","coordinates":[-97.542666,35.481908]}},{"properties":{"name":"BUILDERS DESIGN &amp; LEASING, INC","city":"GAITHERSBURG","zip":"20879","last yrs $":64327,"geo_score":0.857,"y-t-d $":63942,"address line 1":"7601 LINDBERGH DR","address line 2":"GAITHERSBURG, MD 20879","rep":"DAVID LEVIN","address line 3":null,"id":"a97k0h9i27l9","geo_precision":"zip","state":"MD"},"type":"Feature","geometry":{"type":"Point","coordinates":[-77.187482,39.20344]}},{"properties":{"name":"HG BUYING DEPT.","city":"FRAMINGHAM","zip":"1701","last yrs $":0,"geo_score":0.857,"y-t-d $":63465,"address line 1":"P.O. BOX 9338","address line 2":"FRAMINGHAM, MA 01701","rep":"House","address line 3":null,"id":"a97k0gwuwjyu","geo_precision":"zip","state":"MA"},"type":"Feature","geometry":{"type":"Point","coordinates":[-71.437006,42.297318]}},{"properties":{"name":"CONCEPTS FURNITURE &amp; ASSOC.INC","city":"LONGMONT","zip":"80501","last yrs $":135948,"geo_score":0.857,"y-t-d $":62529,"address line 1":"800 S. MAIN ST.","address line 2":"LONGMONT, CO 80501","rep":"DAVID LEVIN","address line 3":null,"id":"a97k0h2qban9","geo_precision":"zip","state":"CO"},"type":"Feature","geometry":{"type":"Point","coordinates":[-104.998868,40.138873]}},{"properties":{"name":"R.D.BOZEMAN &amp; ASSOC.","city":"DALLAS","zip":"75207","last yrs $":23227,"geo_score":0.857,"y-t-d $":59323,"address line 1":"2050 STEMMONS FREEWAY UNIT 156","address line 2":"DALLAS, TX 75207","rep":"R.D.BOZEMAN &amp; ASSOC.","address line 3":null,"id":"a97k0h9bop45","geo_precision":"zip","state":"TX"},"type":"Feature","geometry":{"type":"Point","coordinates":[-96.798372,32.76313]}},{"properties":{"name":"THE WORKSPACE CORP.","city":"NEW ORLEANS","zip":"70130","last yrs $":210245,"geo_score":0.857,"y-t-d $":57682,"address line 1":"1600 PRYTANIA ST","address line 2":"NEW ORLEANS, LA 70130","rep":"House","address line 3":null,"id":"a97k0gylh4qa","geo_precision":"zip","state":"LA"},"type":"Feature","geometry":{"type":"Point","coordinates":[-90.074122,29.939504]}},{"properties":{"name":"ECKO INTERNATIONAL, INC","city":"CHAPEL HILL","zip":"-9195","last yrs $":59859,"geo_score":0.714,"y-t-d $":55805,"address line 1":"P O BOX 9195","address line 2":"CHAPEL HILL, NC 27515-9195","rep":"House","address line 3":null,"id":"a97k0h0waib2","geo_precision":"city","state":"NC"},"type":"Feature","geometry":{"type":"Point","coordinates":[-79.054475,36.004647]}},{"properties":{"name":"SHELTER FURNITURE IC.","city":"TORONTO","zip":"B 4J1","last yrs $":18363,"geo_score":0.0,"y-t-d $":54046,"address line 1":"DBA/ION DESIGN FURNITURE MARKETING","address line 2":"885 CALEDONIA ROAD","rep":"DAVID PELOW","address line 3":"TORONTO, ON M6B 4J1","id":"a97k0h7w9cit","geo_precision":"unmatched","state":"ON"},"type":"Feature","geometry":null},{"properties":{"name":"SUNRISE HOME","city":"SAN RAFAEL","zip":"94901","last yrs $":22210,"geo_score":0.857,"y-t-d $":53500,"address line 1":"831 \"B\" STREET","address line 2":"SAN RAFAEL, CA 94901","rep":"House","address line 3":null,"id":"a97k0h8ts574","geo_precision":"zip","state":"CA"},"type":"Feature","geometry":{"type":"Point","coordinates":[-122.504286,37.970948]}},{"properties":{"name":"ROYAL KING FURNITURE","city":"BRONX","zip":"10462","last yrs $":52402,"geo_score":0.857,"y-t-d $":52996,"address line 1":"2100 WHITE PLAINES ROAD","address line 2":"BRONX, NY 10462","rep":"THE WEINER GROUP, INC.","address line 3":null,"id":"a97k0h3p07sx","geo_precision":"zip","state":"NY"},"type":"Feature","geometry":{"type":"Point","coordinates":[-73.863746,40.848434]}},{"properties":{"name":"J GRIGG","city":"SAN RAFAEL","zip":"94901","last yrs $":3489,"geo_score":0.857,"y-t-d $":51441,"address line 1":"1224 4TH STREET","address line 2":"SAN RAFAEL, CA 94901","rep":"House","address line 3":null,"id":"a97k0gymeg7a","geo_precision":"zip","state":"CA"},"type":"Feature","geometry":{"type":"Point","coordinates":[-122.504286,37.970948]}},{"properties":{"name":"STUFF BY LAUREN MISHAAN","city":"BROOKLYN","zip":"11230","last yrs $":68900,"geo_score":0.857,"y-t-d $":50053,"address line 1":"1283 EAST 9TH STREET","address line 2":"BROOKLYN, NY 11230","rep":"THE WEINER GROUP, INC.","address line 3":null,"id":"a97k0h1xa6a0","geo_precision":"zip","state":"NY"},"type":"Feature","geometry":{"type":"Point","coordinates":[-73.966109,40.62251]}},{"properties":{"name":"NEWTREND FURNITURE INC","city":"AMHERST","zip":"14226","last yrs $":51898,"geo_score":0.857,"y-t-d $":48480,"address line 1":"3636 SHERIDAN DR","address line 2":"AMHERST, NY 14226","rep":"DAVID PELOW","address line 3":null,"id":"a97k0h6dm724","geo_precision":"zip","state":"NY"},"type":"Feature","geometry":{"type":"Point","coordinates":[-78.783922,42.963669]}},{"properties":{"name":"HUIZEN'S FURNITURE","city":"GRAND RAPIDS","zip":"49505","last yrs $":48612,"geo_score":0.857,"y-t-d $":44709,"address line 1":"DBA/STONES THROW","address line 2":"1428 PLAINFIELD NE","rep":"CHUCK MATSON","address line 3":"GRAND RAPIDS, MI 49505","id":"a97k0h57wd1s","geo_precision":"zip","state":"MI"},"type":"Feature","geometry":{"type":"Point","coordinates":[-85.611596,43.017776]}},{"properties":{"name":"BETH SMITH ENT LTD.","city":"ROYAL OAK","zip":"48067","last yrs $":45899,"geo_score":0.857,"y-t-d $":43939,"address line 1":"DBA/BRIGHT IDEAS","address line 2":"220 S. MAIN ST.","rep":"CHUCK MATSON","address line 3":"ROYAL OAK, MI 48067","id":"a97k0h3o0hrh","geo_precision":"zip","state":"MI"},"type":"Feature","geometry":{"type":"Point","coordinates":[-83.145375,42.492485]}},{"properties":{"name":"K-2 STUDIO","city":"ASHEVILLE","zip":"28801","last yrs $":7048,"geo_score":0.857,"y-t-d $":43542,"address line 1":"59 COLLEGE STREET","address line 2":"ASHEVILLE, NC 28801","rep":"THE MARTIN GROUP","address line 3":null,"id":"a97k0haqijp3","geo_precision":"zip","state":"NC"},"type":"Feature","geometry":{"type":"Point","coordinates":[-82.567281,35.602711]}},{"properties":{"name":"DESIGNING SOLUTIONS","city":"SILVER SPRING","zip":"20903","last yrs $":27891,"geo_score":0.857,"y-t-d $":43506,"address line 1":"2124 EDGEWATER PARKWAY","address line 2":"SILVER SPRING, MD 20903","rep":"THE WEINER GROUP, INC.","address line 3":null,"id":"a97k0h2rg49a","geo_precision":"zip","state":"MD"},"type":"Feature","geometry":{"type":"Point","coordinates":[-76.990532,38.997055]}},{"properties":{"name":"WINE &amp; DESIGN","city":"CLEVELAND","zip":"44113","last yrs $":28389,"geo_score":0.857,"y-t-d $":41787,"address line 1":"751 STARKWEATHER AVENUE","address line 2":"CLEVELAND, OH 44113","rep":"CHUCK MATSON","address line 3":null,"id":"a97k0h074prv","geo_precision":"zip","state":"OH"},"type":"Feature","geometry":{"type":"Point","coordinates":[-81.64297,41.473782]}},{"properties":{"name":"EUROPEAN FURNITURE WAREHOUSE","city":"CHICAGO","zip":"60612","last yrs $":19087,"geo_score":0.857,"y-t-d $":41603,"address line 1":"(RICHARD RACANA &amp; ASSOC.)","address line 2":"2145 W. GRAND","rep":"SCOTT GREENBLAT","address line 3":"CHICAGO, IL 60612","id":"a97k0gvitvt4","geo_precision":"zip","state":"IL"},"type":"Feature","geometry":{"type":"Point","coordinates":[-87.68732,41.811929]}},{"properties":{"name":"SMART FURNITURE, INC.","city":"CHATTANOOGA","zip":"37402","last yrs $":0,"geo_score":0.857,"y-t-d $":39050,"address line 1":"430 MARKET STREET","address line 2":"CHATTANOOGA, TN 37402","rep":"DAVID LEVIN","address line 3":null,"id":"a97k0h7k040n","geo_precision":"zip","state":"TN"},"type":"Feature","geometry":{"type":"Point","coordinates":[-85.312907,35.046323]}},{"properties":{"name":"RED GINGER HOME, INC.","city":"MIDDLETOWN","zip":"7748","last yrs $":38696,"geo_score":0.857,"y-t-d $":38797,"address line 1":"840 CHURCH LANE","address line 2":"MIDDLETOWN, NJ 07748","rep":"THE WEINER GROUP, INC.","address line 3":null,"id":"a97k0haav0pl","geo_precision":"zip","state":"NJ"},"type":"Feature","geometry":{"type":"Point","coordinates":[-74.124309,40.418997]}},{"properties":{"name":"COLLECTIC HOME","city":"AUSTIN","zip":"78746","last yrs $":7449,"geo_score":0.857,"y-t-d $":38704,"address line 1":"2785 BEE CAVES ROAD","address line 2":"AUSTIN, TX 78746","rep":"R.D.BOZEMAN &amp; ASSOC.","address line 3":null,"id":"a97k0gyplmwz","geo_precision":"zip","state":"TX"},"type":"Feature","geometry":{"type":"Point","coordinates":[-97.818113,30.2971]}},{"properties":{"name":"CARLYN &amp; CO","city":"GREAT FALLS","zip":"22066","last yrs $":60402,"geo_score":0.857,"y-t-d $":37771,"address line 1":"746 WALKER RD. SUITE 22","address line 2":"GREAT FALLS, VA  22066","rep":"THE WEINER GROUP, INC.","address line 3":null,"id":"a97k0gwo6t2c","geo_precision":"zip","state":"VA"},"type":"Feature","geometry":{"type":"Point","coordinates":[-77.306416,39.001609]}},{"properties":{"name":"CRAZY JANE'S INC.","city":"CHARLOTTE","zip":"28203","last yrs $":7738,"geo_score":0.857,"y-t-d $":37730,"address line 1":"1817 HAWKINS STREET","address line 2":"CHARLOTTE, NC  28203","rep":"THE MARTIN GROUP","address line 3":null,"id":"a97k0h4phd3h","geo_precision":"zip","state":"NC"},"type":"Feature","geometry":{"type":"Point","coordinates":[-80.856343,35.208992]}},{"properties":{"name":"DOMA HOME FURNISHINGS","city":"ST. PETERSBURG","zip":"33713","last yrs $":32163,"geo_score":0.857,"y-t-d $":36750,"address line 1":"2540 22ND AVENUE, NORTH","address line 2":"ST. PETERSBURG, FL 33713","rep":"JACOB H. KORNGOLD","address line 3":null,"id":"a97k0harwh1r","geo_precision":"zip","state":"FL"},"type":"Feature","geometry":{"type":"Point","coordinates":[-82.677321,27.789403]}},{"properties":{"name":"LOFT LIVING CO.","city":"BETHESDA","zip":"20814","last yrs $":62967,"geo_score":0.857,"y-t-d $":34779,"address line 1":"7215-B ARLINGTON ROAD","address line 2":"BETHESDA, MD 20814","rep":"THE WEINER GROUP, INC.","address line 3":null,"id":"a97k0gwb7xzw","geo_precision":"zip","state":"MD"},"type":"Feature","geometry":{"type":"Point","coordinates":[-77.109978,38.98261]}},{"properties":{"name":"DANCO MODERN FURNITURE &amp; ASSOC.","city":"WEST HATFIELD","zip":"1088","last yrs $":39206,"geo_score":0.857,"y-t-d $":34497,"address line 1":"FORMERLY DANISH INSPIRATIONS","address line 2":"10 WEST ST. (RT 5 &amp; 10)","rep":"JOAN FAIN","address line 3":"WEST HATFIELD, MA 01088","id":"a97k0h3sn234","geo_precision":"zip","state":"MA"},"type":"Feature","geometry":{"type":"Point","coordinates":[-72.646894,42.390583]}},{"properties":{"name":"URBAN ESSENTIALS","city":"WASHINGTON","zip":"20005","last yrs $":95941,"geo_score":0.857,"y-t-d $":33180,"address line 1":"1401 14TH ST, NW","address line 2":"WASHINGTON, DC 20005","rep":"THE WEINER GROUP, INC.","address line 3":null,"id":"a97k0gxi75pc","geo_precision":"zip","state":"DC"},"type":"Feature","geometry":{"type":"Point","coordinates":[-77.031695,38.904011]}},{"properties":{"name":"NOWELLS","city":"CARY","zip":"27511","last yrs $":32034,"geo_score":0.857,"y-t-d $":32860,"address line 1":"900 E CHATHAM ST","address line 2":"CARY, NC 27511","rep":"THE MARTIN GROUP","address line 3":null,"id":"a97k0gyk2wf4","geo_precision":"zip","state":"NC"},"type":"Feature","geometry":{"type":"Point","coordinates":[-78.70732,35.751243]}},{"properties":{"name":"MERKEL BROTHERS, INC.","city":"CHELSEA","zip":"48118","last yrs $":18816,"geo_score":0.857,"y-t-d $":32722,"address line 1":"205 S. MAIN STREET","address line 2":"CHELSEA, MI 48118","rep":"CHUCK MATSON","address line 3":null,"id":"a97k0h5xkclc","geo_precision":"zip","state":"MI"},"type":"Feature","geometry":{"type":"Point","coordinates":[-84.013999,42.31375]}},{"properties":{"name":"MARTHA O'HARA INTERIORS","city":"ST. LOUIS PARK","zip":"55426","last yrs $":8839,"geo_score":0.857,"y-t-d $":32446,"address line 1":"9950 WAYZATA BLVD.","address line 2":"ST. LOUIS PARK, MN 55426","rep":"SCOTT GREENBLAT","address line 3":null,"id":"a97k0h4yt309","geo_precision":"zip","state":"MN"},"type":"Feature","geometry":{"type":"Point","coordinates":[-93.382928,44.955014]}},{"properties":{"name":"INTAGLIA HOME COLLECTION","city":"ATLANTA","zip":"30324","last yrs $":0,"geo_score":0.857,"y-t-d $":32273,"address line 1":"1544 PIEDMONT AVENUE NE #105","address line 2":"ATLANTA, GA 30324","rep":"THE MARTIN GROUP","address line 3":null,"id":"a97k0hbov3cj","geo_precision":"zip","state":"GA"},"type":"Feature","geometry":{"type":"Point","coordinates":[-84.366475,33.820104]}},{"properties":{"name":"KEMP INTERIORS, LLC","city":"COLUMBIA","zip":"29205","last yrs $":18648,"geo_score":0.857,"y-t-d $":31696,"address line 1":"27 HEATHWOOD CIRCLE","address line 2":"COLUMBIA, SC 29205","rep":"THE MARTIN GROUP","address line 3":null,"id":"a97k0h8gz3ee","geo_precision":"zip","state":"SC"},"type":"Feature","geometry":{"type":"Point","coordinates":[-81.000013,33.987555]}},{"properties":{"name":"YOUNGS FURNITURE COMPANY AND","city":null,"zip":null,"last yrs $":9839,"geo_score":0.0,"y-t-d $":31333,"address line 1":"YOUNGS FURNITURE MARKET AND","address line 2":"YOUNGS ETHAN ALLEN","rep":"JOAN FAIN","address line 3":"130 WESTERN AVENUE","id":"a97k0h9ai9jd","geo_precision":"","state":null},"type":"Feature","geometry":null},{"properties":{"name":"SOJOURN","city":"CALGARY","zip":"2H2S1","last yrs $":74426,"geo_score":0.0,"y-t-d $":30642,"address line 1":"UNIT ONE 7133-11TH ST. SE","address line 2":"CALGARY, AB CANADA T2H2S1","rep":"House","address line 3":null,"id":"a97k0gwnhel0","geo_precision":"unmatched","state":"AB"},"type":"Feature","geometry":null},{"properties":{"name":"YOURS BY DESIGN","city":"HIAWATHA","zip":"52233","last yrs $":25050,"geo_score":0.857,"y-t-d $":30506,"address line 1":"762 N. CENTER POINT ROAD","address line 2":"HIAWATHA, IA 52233","rep":"SCOTT GREENBLAT","address line 3":null,"id":"a97k0h745aww","geo_precision":"zip","state":"IA"},"type":"Feature","geometry":{"type":"Point","coordinates":[-91.685645,42.047863]}},{"properties":{"name":"FURNITURELAND SOUTH","city":"JAMESTOWN","zip":"27282","last yrs $":4277,"geo_score":0.857,"y-t-d $":29987,"address line 1":"P O BOX 1550","address line 2":"JAMESTOWN, NC 27282","rep":"THE MARTIN GROUP-5","address line 3":null,"id":"a97k0h7kgspr","geo_precision":"zip","state":"NC"},"type":"Feature","geometry":{"type":"Point","coordinates":[-79.92837,35.981803]}},{"properties":{"name":"LUCY AND COMPANY","city":"CHARLOTTE","zip":"28203","last yrs $":20895,"geo_score":0.857,"y-t-d $":28551,"address line 1":"1009 EAST BLVD.","address line 2":"CHARLOTTE, NC 28203","rep":"THE MARTIN GROUP","address line 3":null,"id":"a97k0gxnj8a1","geo_precision":"zip","state":"NC"},"type":"Feature","geometry":{"type":"Point","coordinates":[-80.856343,35.208992]}},{"properties":{"name":"SCOUT","city":"LOUISVILLE","zip":"40202","last yrs $":45482,"geo_score":0.857,"y-t-d $":28360,"address line 1":"742 E MARKET","address line 2":"LOUISVILLE, KY 40202","rep":"CHUCK MATSON","address line 3":null,"id":"a97k0h5a80ju","geo_precision":"zip","state":"KY"},"type":"Feature","geometry":{"type":"Point","coordinates":[-85.753812,38.25247]}},{"properties":{"name":"HOUSEWORKS, INC.","city":"INDIANAPOLIS","zip":"46250","last yrs $":40619,"geo_score":0.857,"y-t-d $":28043,"address line 1":"5252 E. 82ND STREET","address line 2":"SUITE 100","rep":"CHUCK MATSON","address line 3":"INDIANAPOLIS, IN 46250","id":"a97k0gx0cdrc","geo_precision":"zip","state":"IN"},"type":"Feature","geometry":{"type":"Point","coordinates":[-86.052207,39.906983]}},{"properties":{"name":"ADORE FURNITURE LLC","city":"ATLANTA","zip":"30318","last yrs $":35731,"geo_score":0.857,"y-t-d $":27271,"address line 1":"1510 ELLSWORTH INDUSTRIAL BLVD.","address line 2":"SUITE B","rep":"THE MARTIN GROUP","address line 3":"ATLANTA, GA 30318","id":"a97k0gvogs6b","geo_precision":"zip","state":"GA"},"type":"Feature","geometry":{"type":"Point","coordinates":[-84.442778,33.792005]}},{"properties":{"name":"FAIRFIELD GALLERIES","city":"FT. WAYNE","zip":"46818","last yrs $":12384,"geo_score":0.857,"y-t-d $":26659,"address line 1":"5010 GOSHEN ROAD","address line 2":"FT. WAYNE, IN 46818","rep":"CHUCK MATSON","address line 3":null,"id":"a97k0hahhlpx","geo_precision":"zip","state":"IN"},"type":"Feature","geometry":{"type":"Point","coordinates":[-85.203895,41.112548]}},{"properties":{"name":"CARTERS FURNITURE","city":"URBANA","zip":"61803","last yrs $":0,"geo_score":0.857,"y-t-d $":25934,"address line 1":"PO BOX 817","address line 2":"URBANA, IL 61803","rep":"SCOTT GREENBLAT","address line 3":null,"id":"a97k0h6qxqpt","geo_precision":"zip","state":"IL"},"type":"Feature","geometry":{"type":"Point","coordinates":[-88.224669,40.10593]}},{"properties":{"name":"GOODWORKS","city":"SAINT LOUIS","zip":"63130","last yrs $":38165,"geo_score":0.857,"y-t-d $":25215,"address line 1":"6323 DELMAR","address line 2":"SAINT LOUIS, MO 63130","rep":"DAVID LEVIN","address line 3":null,"id":"a97k0h8se4mp","geo_precision":"zip","state":"MO"},"type":"Feature","geometry":{"type":"Point","coordinates":[-90.309281,38.655885]}},{"properties":{"name":"THE DESIGN FIRM, INC.","city":"STAFFORD","zip":"-4110","last yrs $":21779,"geo_score":0.714,"y-t-d $":24476,"address line 1":"13013 SOUTHWEST FREEWAY","address line 2":"STAFFORD, TX 77477-4110","rep":"R.D.BOZEMAN &amp; ASSOC.","address line 3":null,"id":"a97k0h19xgj8","geo_precision":"city","state":"TX"},"type":"Feature","geometry":{"type":"Point","coordinates":[-95.996865,29.450518]}},{"properties":{"name":"NEST FURNISHINGS","city":"FORT MILL","zip":"29708","last yrs $":8719,"geo_score":0.857,"y-t-d $":24471,"address line 1":"1653 KATY LANE","address line 2":"FORT MILL, SC 29708","rep":"THE MARTIN GROUP","address line 3":null,"id":"a97k0h10oi3n","geo_precision":"zip","state":"SC"},"type":"Feature","geometry":{"type":"Point","coordinates":[-80.990828,35.050243]}},{"properties":{"name":"PERLORA","city":"PITTSBURG","zip":"15203","last yrs $":27684,"geo_score":0.857,"y-t-d $":24250,"address line 1":"2220 E. CARSON ST.","address line 2":"PITTSBURG, PA 15203","rep":"CHUCK MATSON","address line 3":null,"id":"a97k0gzxpdw6","geo_precision":"zip","state":"PA"},"type":"Feature","geometry":{"type":"Point","coordinates":[-79.979914,40.425369]}},{"properties":{"name":"C.A.I.DESIGNS","city":"ARLINGTON HEIGHTS","zip":"60004","last yrs $":23229,"geo_score":0.857,"y-t-d $":24241,"address line 1":"3441 RIDGE AVENUE","address line 2":"ARLINGTON HEIGHTS, IL 60004","rep":"SCOTT GREENBLAT","address line 3":null,"id":"a97k0gytepuw","geo_precision":"zip","state":"IL"},"type":"Feature","geometry":{"type":"Point","coordinates":[-87.99822,42.085626]}},{"properties":{"name":"SPENZAC INT. AT BLACKLION","city":"CHARLOTTE","zip":"28210","last yrs $":27161,"geo_score":0.857,"y-t-d $":23720,"address line 1":"10635 PARK RD., STE 124","address line 2":"CHARLOTTE, NC 28210","rep":"THE MARTIN GROUP","address line 3":null,"id":"a97k0h08mfdq","geo_precision":"zip","state":"NC"},"type":"Feature","geometry":{"type":"Point","coordinates":[-80.851319,35.156753]}},{"properties":{"name":"KELLY HANSEN INTERIORS LLC","city":"HOWELL","zip":"48843","last yrs $":32239,"geo_score":0.857,"y-t-d $":23714,"address line 1":"124 STATE STREET","address line 2":"HOWELL, MI 48843","rep":"CHUCK MATSON","address line 3":null,"id":"a97k0h4w3xl8","geo_precision":"zip","state":"MI"},"type":"Feature","geometry":{"type":"Point","coordinates":[-83.861613,42.526978]}},{"properties":{"name":"STUDIO DWELL, LLC","city":"SCOTTSDALE","zip":"85250","last yrs $":0,"geo_score":0.857,"y-t-d $":23638,"address line 1":"6625 NORTH SCOTTSDALE ROAD SUITE A","address line 2":"SCOTTSDALE, AZ 85250","rep":"HUGO K. TANIWAKI","address line 3":null,"id":"a97k0haq8c5k","geo_precision":"zip","state":"AZ"},"type":"Feature","geometry":{"type":"Point","coordinates":[-111.874248,33.524143]}},{"properties":{"name":"URBAN LIFESTYLE FURNITURE","city":"ASTORIA","zip":"11103","last yrs $":15088,"geo_score":0.857,"y-t-d $":23505,"address line 1":"32-37 STEINWAY ST.","address line 2":"ASTORIA, NY 11103","rep":"THE WEINER GROUP, INC.","address line 3":null,"id":"a97k0hb6hmsk","geo_precision":"zip","state":"NY"},"type":"Feature","geometry":{"type":"Point","coordinates":[-73.903748,40.774546]}},{"properties":{"name":"CONTEMPORARY GALLERIES","city":"CHARLESTON","zip":"25301","last yrs $":35574,"geo_score":0.857,"y-t-d $":23358,"address line 1":"P.O. BOX 2829","address line 2":"CHARLESTON, WV 25301","rep":"DAVID LEVIN","address line 3":null,"id":"a97k0gwynf9z","geo_precision":"zip","state":"WV"},"type":"Feature","geometry":{"type":"Point","coordinates":[-81.605094,38.328948]}},{"properties":{"name":"INDESIGN FURNISHINGS INC","city":"TORONTO","zip":"A 1E1","last yrs $":43776,"geo_score":0.0,"y-t-d $":23330,"address line 1":"C/O GENE PONG","address line 2":"174 BARTLEY DRIVE UNIT #3B","rep":"DAVID PELOW","address line 3":"TORONTO, ON M4A 1E1","id":"a97k0h8009k3","geo_precision":"unmatched","state":"ON"},"type":"Feature","geometry":null},{"properties":{"name":"DBA/DESIGNERS FURNITURE","city":"MAYFIELD","zip":"44124","last yrs $":31403,"geo_score":0.857,"y-t-d $":22772,"address line 1":"KA/EXPRESSIONS PLUS, INC.","address line 2":"1603 GOLDEN GATE PLAZA","rep":"CHUCK MATSON","address line 3":"MAYFIELD, OH 44124","id":"a97k0gxcy9bo","geo_precision":"zip","state":"OH"},"type":"Feature","geometry":{"type":"Point","coordinates":[-81.439283,41.551995]}},{"properties":{"name":"GARTH ANDREW'S COMPANY","city":"BATH","zip":"44210","last yrs $":10486,"geo_score":0.857,"y-t-d $":22588,"address line 1":"P.O. BOX 237","address line 2":"BATH, OH 44210","rep":"CHUCK MATSON","address line 3":null,"id":"a97k0gy4fe16","geo_precision":"zip","state":"OH"},"type":"Feature","geometry":{"type":"Point","coordinates":[-81.53999,41.128705]}},{"properties":{"name":"JS INTERIORS","city":"HIGHLAND PARK","zip":"60035","last yrs $":26937,"geo_score":0.857,"y-t-d $":22485,"address line 1":"591 ROGER WILLIAMS AVENUE","address line 2":"HIGHLAND PARK, IL 60035","rep":"SCOTT GREENBLAT","address line 3":null,"id":"a97k0hac77kx","geo_precision":"zip","state":"IL"},"type":"Feature","geometry":{"type":"Point","coordinates":[-87.787009,42.163637]}},{"properties":{"name":"SG INTERIORS, INC.","city":"BUFFALO GROVE","zip":"60089","last yrs $":35796,"geo_score":0.857,"y-t-d $":22337,"address line 1":"2640 CHELSEY STREET","address line 2":"BUFFALO GROVE, IL 60089","rep":"SCOTT GREENBLAT","address line 3":null,"id":"a97k0h1fdwa6","geo_precision":"zip","state":"IL"},"type":"Feature","geometry":{"type":"Point","coordinates":[-87.960771,42.180411]}},{"properties":{"name":"ANGELA MORTON DESIGN","city":"LOVELAND","zip":"45140","last yrs $":22589,"geo_score":0.857,"y-t-d $":22295,"address line 1":"3281 SHADYLAKE DR","address line 2":"LOVELAND, OH 45140","rep":"CHUCK MATSON","address line 3":null,"id":"a97k0h4p9oij","geo_precision":"zip","state":"OH"},"type":"Feature","geometry":{"type":"Point","coordinates":[-84.279938,39.306448]}},{"properties":{"name":"SCAN FURNITURE HOUSE","city":"SAN DIEGO","zip":"92126","last yrs $":44768,"geo_score":0.857,"y-t-d $":22272,"address line 1":"7340 MIRAMAR ROAD SUITE 106","address line 2":"SAN DIEGO, CA  92126","rep":"House","address line 3":null,"id":"a97k0h7a50sn","geo_precision":"zip","state":"CA"},"type":"Feature","geometry":{"type":"Point","coordinates":[-117.144916,32.899613]}},{"properties":{"name":"BUSYBEE DESIGN","city":"PHILADELPHIA","zip":"19123","last yrs $":12219,"geo_score":0.857,"y-t-d $":22208,"address line 1":"149-A WEST LAUREL ST.","address line 2":"PHILADELPHIA, PA 19123","rep":"THE WEINER GROUP, INC.","address line 3":null,"id":"a97k0h27lycy","geo_precision":"zip","state":"PA"},"type":"Feature","geometry":{"type":"Point","coordinates":[-75.115369,39.98238]}},{"properties":{"name":"HABITATION DBA/ECLECTIC LIVING","city":"LOUISVILLE","zip":"40207","last yrs $":41119,"geo_score":0.857,"y-t-d $":22142,"address line 1":"4050 WESTPORT ROAD","address line 2":"SUITE 100","rep":"CHUCK MATSON","address line 3":"LOUISVILLE, KY 40207","id":"a97k0hb2ar13","geo_precision":"zip","state":"KY"},"type":"Feature","geometry":{"type":"Point","coordinates":[-85.671628,38.267848]}},{"properties":{"name":"CONTEMPORARY GALLERIES OF KY","city":"LOUISVILLE","zip":"40222","last yrs $":41579,"geo_score":0.857,"y-t-d $":21957,"address line 1":"220 N. HURSTBOURNE PKWY","address line 2":"LOUISVILLE, KY  40222","rep":"CHUCK MATSON","address line 3":null,"id":"a97k0h8m31am","geo_precision":"zip","state":"KY"},"type":"Feature","geometry":{"type":"Point","coordinates":[-85.61135,38.252016]}},{"properties":{"name":"FIVE ELEMENTS FURNITURE","city":"AUSTIN","zip":"78704","last yrs $":1726,"geo_score":0.857,"y-t-d $":21840,"address line 1":"701-D SOUTH LAMAR BLVD.","address line 2":"AUSTIN, TX 78704","rep":"R.D.BOZEMAN &amp; ASSOC.","address line 3":null,"id":"a97k0gx1fuko","geo_precision":"zip","state":"TX"},"type":"Feature","geometry":{"type":"Point","coordinates":[-97.768832,30.240685]}},{"properties":{"name":"JOSEPH WILLIAMS HOME","city":"CINCINNATI","zip":"45202","last yrs $":16401,"geo_score":0.857,"y-t-d $":21307,"address line 1":"1232 VINE STREET","address line 2":"CINCINNATI, OH 45202","rep":"CHUCK MATSON","address line 3":null,"id":"a97k0h8dvlet","geo_precision":"zip","state":"OH"},"type":"Feature","geometry":{"type":"Point","coordinates":[-84.486142,39.11026]}},{"properties":{"name":"THREE CHAIRS CO.","city":"ANN ARBOR","zip":"48104","last yrs $":21683,"geo_score":0.857,"y-t-d $":21277,"address line 1":"208 S. ASHLEY STREET","address line 2":"ANN ARBOR, MI 48104","rep":"CHUCK MATSON","address line 3":null,"id":"a97k0h83aoo7","geo_precision":"zip","state":"MI"},"type":"Feature","geometry":{"type":"Point","coordinates":[-83.727826,42.270903]}},{"properties":{"name":"STUDIO D","city":"NEW YORK","zip":"10005","last yrs $":3283,"geo_score":0.857,"y-t-d $":21272,"address line 1":"131 PERRY ST.","address line 2":"NEW YORK, NY 10005","rep":"THE WEINER GROUP, INC.","address line 3":null,"id":"a97k0ha9aaxy","geo_precision":"zip","state":"NY"},"type":"Feature","geometry":{"type":"Point","coordinates":[-74.008654,40.706903]}},{"properties":{"name":"HOUSEWORKS/CONTEMPORARY FURNITURE CENTER","city":"PITTSBURGH","zip":"15229","last yrs $":14077,"geo_score":0.857,"y-t-d $":21104,"address line 1":"176 ROCHESTER ROAD","address line 2":"PITTSBURGH, PA  15229","rep":"CHUCK MATSON","address line 3":null,"id":"a97k0h6r19yd","geo_precision":"zip","state":"PA"},"type":"Feature","geometry":{"type":"Point","coordinates":[-80.050333,40.526735]}},{"properties":{"name":"LEE ALEX DECOR, LLC","city":"DENVER","zip":"80203","last yrs $":6559,"geo_score":0.857,"y-t-d $":21098,"address line 1":"24 BROADWAY, STE 104","address line 2":"DENVER, CO 80203","rep":"HUGO K. TANIWAKI","address line 3":null,"id":"a97k0hb0ew9s","geo_precision":"zip","state":"CO"},"type":"Feature","geometry":{"type":"Point","coordinates":[-104.970331,39.729205]}},{"properties":{"name":"BOYNE USA INC.","city":null,"zip":null,"last yrs $":0,"geo_score":0.0,"y-t-d $":20435,"address line 1":"BDG PETOSKEY","address line 2":"1200 BAYVIEW ROAD","rep":"CHUCK MATSON","address line 3":"BOYNE DESIGN GROUP","id":"a97k0gz30200","geo_precision":"","state":null},"type":"Feature","geometry":null},{"properties":{"name":"BATTAGLIA'S HOME FURNISHINGS","city":"HOBOKEN","zip":"7030","last yrs $":16100,"geo_score":0.857,"y-t-d $":20244,"address line 1":"1414 WILLOW AVENUE","address line 2":"HOBOKEN, NJ 07030","rep":"THE WEINER GROUP, INC.","address line 3":null,"id":"a97k0gvcwjo7","geo_precision":"zip","state":"NJ"},"type":"Feature","geometry":{"type":"Point","coordinates":[-74.033934,40.746851]}},{"properties":{"name":"WESTWOOD FURNITURE","city":"DEDHAM","zip":"2026","last yrs $":33506,"geo_score":0.857,"y-t-d $":19668,"address line 1":"960 WASHINGTON STREET","address line 2":"DEDHAM, MA 02026","rep":"JOAN FAIN","address line 3":null,"id":"a97k0h42vya5","geo_precision":"zip","state":"MA"},"type":"Feature","geometry":{"type":"Point","coordinates":[-71.181141,42.244733]}},{"properties":{"name":"PHOEBE MARSH, LLC","city":"DENVER","zip":"80209","last yrs $":17000,"geo_score":0.857,"y-t-d $":19440,"address line 1":"595 S. BROADWAY SUITE 111E","address line 2":"DENVER, CO 80209","rep":"HUGO K. TANIWAKI","address line 3":null,"id":"a97k0h9fotbx","geo_precision":"zip","state":"CO"},"type":"Feature","geometry":{"type":"Point","coordinates":[-104.964236,39.707332]}},{"properties":{"name":"HELLO WORLD (JAMES J. LAMANCUSO)","city":"PHILADELPHIA","zip":"19103","last yrs $":0,"geo_score":0.857,"y-t-d $":19419,"address line 1":"257 S. 20TH STREET","address line 2":"PHILADELPHIA, PA 19103","rep":"THE WEINER GROUP, INC.","address line 3":null,"id":"a97k0h3bgucm","geo_precision":"zip","state":"PA"},"type":"Feature","geometry":{"type":"Point","coordinates":[-75.186822,40.003361]}},{"properties":{"name":"TYNER FURNITURE","city":"ANN ARBOR","zip":"48108","last yrs $":12524,"geo_score":0.857,"y-t-d $":19068,"address line 1":"3900 SOUTH STATE STREET","address line 2":"ANN ARBOR, MI 48108","rep":"CHUCK MATSON","address line 3":null,"id":"a97k0h4jxp12","geo_precision":"zip","state":"MI"},"type":"Feature","geometry":{"type":"Point","coordinates":[-83.729342,42.223305]}},{"properties":{"name":"GINGERS LOW COUNTRY/DBA SEVERED TIES","city":null,"zip":null,"last yrs $":17788,"geo_score":0.0,"y-t-d $":18782,"address line 1":"111 CHERRY ST.","address line 2":"NEW CANAAN, CT 06840","rep":"JOAN FAIN","address line 3":"ATTN: GINGER CRAFT","id":"a97k0h6jox67","geo_precision":"","state":null},"type":"Feature","geometry":null},{"properties":{"name":"LA DIFFERENCE","city":"RICHMOND","zip":"23219","last yrs $":40220,"geo_score":0.857,"y-t-d $":18335,"address line 1":"125 SOUTH 14TH ST","address line 2":"RICHMOND, VA 23219","rep":"THE WEINER GROUP, INC.","address line 3":null,"id":"a97k0gxfm2zg","geo_precision":"zip","state":"VA"},"type":"Feature","geometry":{"type":"Point","coordinates":[-77.439204,37.541696]}},{"properties":{"name":"UNDER THE ROOF","city":"CROZET","zip":"22932","last yrs $":22420,"geo_score":0.857,"y-t-d $":18034,"address line 1":"P O BOX 339","address line 2":"CROZET, VA 22932","rep":"THE WEINER GROUP, INC.","address line 3":null,"id":"a97k0hbhdwm4","geo_precision":"zip","state":"VA"},"type":"Feature","geometry":{"type":"Point","coordinates":[-78.667797,38.15069]}},{"properties":{"name":"NICKOLAS JOHN INTERIORS","city":"CHICAGO","zip":"60618","last yrs $":0,"geo_score":0.857,"y-t-d $":17471,"address line 1":"4256 N. SPRINGFIELD","address line 2":"CHICAGO, IL 60618","rep":"SCOTT GREENBLAT","address line 3":null,"id":"a97k0gz2jwxc","geo_precision":"zip","state":"IL"},"type":"Feature","geometry":{"type":"Point","coordinates":[-87.68732,41.811929]}},{"properties":{"name":"NANCY OLENDER DESIGN LLC.","city":"GRAND RAPIDS","zip":"49508","last yrs $":16466,"geo_score":0.857,"y-t-d $":17060,"address line 1":"1643 MILLBROOK ST. SE","address line 2":"GRAND RAPIDS, MI 49508","rep":"CHUCK MATSON","address line 3":null,"id":"a97k0h1kgz11","geo_precision":"zip","state":"MI"},"type":"Feature","geometry":{"type":"Point","coordinates":[-85.683361,42.826418]}},{"properties":{"name":"LEON &amp; LULU","city":"CLAWSON","zip":"48017","last yrs $":7132,"geo_score":0.857,"y-t-d $":16981,"address line 1":"96 WEST 14 MILE ROAD","address line 2":"CLAWSON, MI 48017","rep":"CHUCK MATSON","address line 3":null,"id":"a97k0h99k7w5","geo_precision":"zip","state":"MI"},"type":"Feature","geometry":{"type":"Point","coordinates":[-83.146427,42.536785]}},{"properties":{"name":"URBAN ELEMENTS","city":"SALEM","zip":"1970","last yrs $":0,"geo_score":0.857,"y-t-d $":16769,"address line 1":"83 WASHINGTON STREET","address line 2":"SALEM, MA 01970","rep":"JOAN FAIN","address line 3":null,"id":"a97k0h7u7fjl","geo_precision":"zip","state":"MA"},"type":"Feature","geometry":{"type":"Point","coordinates":[-70.892549,42.511207]}},{"properties":{"name":"MOLDOVAN INTERIOR DESIGN","city":"ATLANTA","zip":"30345","last yrs $":9281,"geo_score":0.857,"y-t-d $":16526,"address line 1":"2244 HENDERSON MILL RD., STE 500","address line 2":"ATLANTA, GA 30345","rep":"THE MARTIN GROUP","address line 3":null,"id":"a97k0gz65vpt","geo_precision":"zip","state":"GA"},"type":"Feature","geometry":{"type":"Point","coordinates":[-84.281422,33.845603]}},{"properties":{"name":"ADAM'S INTERIORS","city":"FT. LAUDERDALE","zip":"33308","last yrs $":20664,"geo_score":0.857,"y-t-d $":16448,"address line 1":"3900 FEDERAL HIGHWAY","address line 2":"FT. LAUDERDALE, FL 33308","rep":"JACOB H. KORNGOLD","address line 3":null,"id":"a97k0h8a3vcb","geo_precision":"zip","state":"FL"},"type":"Feature","geometry":{"type":"Point","coordinates":[-80.144212,26.191473]}},{"properties":{"name":"MERIDIEN MARKETING &amp; LOGISTICS","city":"WILMINGTON","zip":"28401","last yrs $":0,"geo_score":0.857,"y-t-d $":16080,"address line 1":"C/O AMERICAN HOME","address line 2":"1536 CASTLE HAYNE ROAD SUITE D","rep":"DAVID LEVIN","address line 3":"WILMINGTON, NC 28401","id":"a97k0gxn51n2","geo_precision":"zip","state":"NC"},"type":"Feature","geometry":{"type":"Point","coordinates":[-77.95481,34.163503]}},{"properties":{"name":"DINA'S INTERIORS &amp; LEATHER, INC.","city":"LAKEWOOD","zip":"8701","last yrs $":5034,"geo_score":0.857,"y-t-d $":16080,"address line 1":"399 CEDAR BRIDGE AVENUE","address line 2":"LAKEWOOD, NJ 08701","rep":"THE WEINER GROUP, INC.","address line 3":null,"id":"a97k0gz0dz9i","geo_precision":"zip","state":"NJ"},"type":"Feature","geometry":{"type":"Point","coordinates":[-74.21181,40.158447]}},{"properties":{"name":"NICHOLS FURNITURE","city":"LITTLE ROCK","zip":"72211","last yrs $":15931,"geo_score":0.857,"y-t-d $":15386,"address line 1":"108 N. SHACKLEFORD ROAD","address line 2":"LITTLE ROCK, AR 72211","rep":"R.D.BOZEMAN &amp; ASSOC.","address line 3":null,"id":"a97k0h5jp86p","geo_precision":"zip","state":"AR"},"type":"Feature","geometry":{"type":"Point","coordinates":[-92.430851,34.783664]}},{"properties":{"name":"BOHEMIAN","city":"COLUMBIA","zip":"29205","last yrs $":29338,"geo_score":0.714,"y-t-d $":15350,"address line 1":"2720 DEVINE STREET","address line 2":"COLUMBIA,SC 29205","rep":"THE MARTIN GROUP","address line 3":null,"id":"a97k0h6n1elm","geo_precision":"zip","state":"C"},"type":"Feature","geometry":{"type":"Point","coordinates":[-81.000013,33.987555]}},{"properties":{"name":"THE TRADE CONNECTION","city":"CARMEL","zip":"46032","last yrs $":10430,"geo_score":0.857,"y-t-d $":15316,"address line 1":"200 S. RANGE LINE ROAD SUITE 225","address line 2":"CARMEL, IN 46032","rep":"CHUCK MATSON","address line 3":null,"id":"a97k0hbtccl9","geo_precision":"zip","state":"IN"},"type":"Feature","geometry":{"type":"Point","coordinates":[-86.061652,39.961427]}},{"properties":{"name":"SOUTHERN PLACES","city":"COLUMBIA","zip":"29223","last yrs $":6444,"geo_score":0.857,"y-t-d $":14887,"address line 1":"9350 TWO NOTCH ROAD","address line 2":"COLUMBIA, SC 29223","rep":"THE MARTIN GROUP","address line 3":null,"id":"a97k0h762kqn","geo_precision":"zip","state":"SC"},"type":"Feature","geometry":{"type":"Point","coordinates":[-80.924638,34.099488]}},{"properties":{"name":"THE SITTING ROOM","city":"MT PLEASANT","zip":"29464","last yrs $":26812,"geo_score":0.857,"y-t-d $":14828,"address line 1":"280 W COLEMAN BLVD., UNIT I","address line 2":"MT PLEASANT, SC 29464","rep":"THE MARTIN GROUP","address line 3":null,"id":"a97k0h02i3df","geo_precision":"zip","state":"SC"},"type":"Feature","geometry":{"type":"Point","coordinates":[-79.884253,32.802676]}},{"properties":{"name":"EUROPA DESIGN","city":"MONTEREY","zip":"93940","last yrs $":9803,"geo_score":0.857,"y-t-d $":14698,"address line 1":"1280 DEL MONTE AVENUE","address line 2":"MONTEREY, CA 93940","rep":"House","address line 3":null,"id":"a97k0gywnv6t","geo_precision":"zip","state":"CA"},"type":"Feature","geometry":{"type":"Point","coordinates":[-121.688623,36.521811]}},{"properties":{"name":"PURPLE MOON","city":"CHARLESTON","zip":"25338","last yrs $":0,"geo_score":0.857,"y-t-d $":14499,"address line 1":"PO BOX 3825","address line 2":"CHARLESTON, WV 25338","rep":"DAVID LEVIN","address line 3":null,"id":"a97k0gysr4up","geo_precision":"zip","state":"WV"},"type":"Feature","geometry":{"type":"Point","coordinates":[-81.554655,38.296818]}},{"properties":{"name":"ELEMENTS","city":"BLOOMINGTON","zip":"47401","last yrs $":48130,"geo_score":0.857,"y-t-d $":14491,"address line 1":"2901 EAST COVENANTER DRIVE","address line 2":"BLOOMINGTON, IN 47401","rep":"CHUCK MATSON","address line 3":null,"id":"a97k0gy9tne9","geo_precision":"zip","state":"IN"},"type":"Feature","geometry":{"type":"Point","coordinates":[-86.503052,39.151992]}},{"properties":{"name":"DANE DECOR","city":"DOWNINGTOWN","zip":"19335","last yrs $":33402,"geo_score":0.857,"y-t-d $":14357,"address line 1":"JAMES C. HAMILTON INC.","address line 2":"216 E. LANCASTER AVE.","rep":"THE WEINER GROUP, INC.","address line 3":"DOWNINGTOWN, PA 19335","id":"a97k0gw5vq8x","geo_precision":"zip","state":"PA"},"type":"Feature","geometry":{"type":"Point","coordinates":[-75.749663,40.037049]}},{"properties":{"name":"FORSEY FURNITURE","city":"SALT LAKE CITY","zip":"84106","last yrs $":18676,"geo_score":0.857,"y-t-d $":13896,"address line 1":"2977 SOUTH HIGHLAND DRIVE","address line 2":"SALT LAKE CITY, UT 84106","rep":"HUGO K. TANIWAKI","address line 3":null,"id":"a97k0gyafr7s","geo_precision":"zip","state":"UT"},"type":"Feature","geometry":{"type":"Point","coordinates":[-111.836766,40.707846]}},{"properties":{"name":"PALMETTO INTERIORS OF CHARLESTON, INC.","city":"JOHNS ISLAND","zip":"29455","last yrs $":0,"geo_score":0.857,"y-t-d $":13820,"address line 1":"3538 MEEKS FARM ROAD","address line 2":"JOHNS ISLAND, SC 29455","rep":"THE MARTIN GROUP","address line 3":null,"id":"a97k0h5591m8","geo_precision":"zip","state":"SC"},"type":"Feature","geometry":{"type":"Point","coordinates":[-80.170652,32.577128]}},{"properties":{"name":"LABRETT  INTERIORS","city":"SALT LAKE CITY","zip":"84124","last yrs $":7171,"geo_score":0.857,"y-t-d $":13662,"address line 1":"3978 S. HIGHLAND DRIVE","address line 2":"SALT LAKE CITY, UT 84124","rep":"HUGO K. TANIWAKI","address line 3":null,"id":"a97k0h8cixg6","geo_precision":"zip","state":"UT"},"type":"Feature","geometry":{"type":"Point","coordinates":[-111.820566,40.653246]}},{"properties":{"name":"FURNITURE BY OTMAR","city":"CINCINNATI","zip":"45242","last yrs $":9402,"geo_score":0.857,"y-t-d $":13634,"address line 1":"9500 MONTGOMERY ROAD","address line 2":"CINCINNATI, OH 45242","rep":"CHUCK MATSON","address line 3":null,"id":"a97k0habe29u","geo_precision":"zip","state":"OH"},"type":"Feature","geometry":{"type":"Point","coordinates":[-84.362996,39.266169]}},{"properties":{"name":"THERE'S NO PLACE LIKE HOME FURNISHINGS","city":"FT. WORTH","zip":"76107","last yrs $":0,"geo_score":0.857,"y-t-d $":13543,"address line 1":"855 FOCH STREET","address line 2":"FT. WORTH, TX 76107","rep":"R.D.BOZEMAN &amp; ASSOC.","address line 3":null,"id":"a97k0h4q60u5","geo_precision":"zip","state":"TX"},"type":"Feature","geometry":{"type":"Point","coordinates":[-97.41363,32.744852]}},{"properties":{"name":"FAIRHAVEN FURNITURE LLC","city":"NEW HAVEN","zip":"6513","last yrs $":12202,"geo_score":0.857,"y-t-d $":13411,"address line 1":"72 BLATCHLEY AVE.","address line 2":"NEW HAVEN, CT 06513","rep":"JOAN FAIN","address line 3":null,"id":"a97k0h44tmcx","geo_precision":"zip","state":"CT"},"type":"Feature","geometry":{"type":"Point","coordinates":[-72.895657,41.311208]}},{"properties":{"name":"SPECTRA WOOD","city":"STATE COLLEGE","zip":"16801","last yrs $":16574,"geo_score":0.857,"y-t-d $":13402,"address line 1":"2625 CAROLEAN INDUSTRIAL DR.","address line 2":"STATE COLLEGE, PA 16801","rep":"CHUCK MATSON","address line 3":null,"id":"a97k0gzd7s2w","geo_precision":"zip","state":"PA"},"type":"Feature","geometry":{"type":"Point","coordinates":[-77.825555,40.763396]}},{"properties":{"name":"NANDINA CORP.","city":"AIKEN","zip":"29801","last yrs $":5639,"geo_score":0.857,"y-t-d $":13060,"address line 1":"158 LAURENS ST. SW","address line 2":"AIKEN, SC 29801","rep":"THE MARTIN GROUP","address line 3":null,"id":"a97k0h40usgh","geo_precision":"zip","state":"SC"},"type":"Feature","geometry":{"type":"Point","coordinates":[-81.719275,33.612639]}},{"properties":{"name":"NEBRASKA FURNITURE MART","city":"OMAHA","zip":"68103","last yrs $":16996,"geo_score":0.857,"y-t-d $":12874,"address line 1":"PO BOX 3456","address line 2":"OMAHA, NE 68103","rep":"SCOTT GREENBLAT-5","address line 3":null,"id":"a97k0h39yhj1","geo_precision":"zip","state":"NE"},"type":"Feature","geometry":{"type":"Point","coordinates":[-96.171104,41.291736]}},{"properties":{"name":"ABOUT THE HOME","city":"GRAND LEDGE","zip":"48837","last yrs $":5133,"geo_score":0.857,"y-t-d $":12791,"address line 1":"216 S.BRIDGE ST.","address line 2":"GRAND LEDGE, MI 48837","rep":"CHUCK MATSON","address line 3":null,"id":"a97k0h7t97cn","geo_precision":"zip","state":"MI"},"type":"Feature","geometry":{"type":"Point","coordinates":[-84.70082,42.827812]}},{"properties":{"name":"NICHE, INC.","city":"OMAHA","zip":"68102","last yrs $":18568,"geo_score":0.857,"y-t-d $":12624,"address line 1":"1112 HOWARD STREET","address line 2":"OMAHA, NE 68102","rep":"SCOTT GREENBLAT","address line 3":null,"id":"a97k0gzzem9t","geo_precision":"zip","state":"NE"},"type":"Feature","geometry":{"type":"Point","coordinates":[-95.933564,41.262003]}},{"properties":{"name":"HUNTER &amp; CO. INTERIOR DESIGN","city":"WHITEFISH","zip":"59937","last yrs $":0,"geo_score":0.857,"y-t-d $":12591,"address line 1":"200 WISCONSIN AVENUE","address line 2":"WHITEFISH, MT 59937","rep":"HUGO K. TANIWAKI","address line 3":null,"id":"a97k0h68z77l","geo_precision":"zip","state":"MT"},"type":"Feature","geometry":{"type":"Point","coordinates":[-114.365126,48.274564]}},{"properties":{"name":"TAYLOR CREATIVE INC.","city":"NEW YORK","zip":"10001","last yrs $":0,"geo_score":0.857,"y-t-d $":12480,"address line 1":"150 WEST 28TH STREET","address line 2":"SUITE 1001","rep":"THE WEINER GROUP, INC.","address line 3":"NEW YORK, NY 10001","id":"a97k0h7004fp","geo_precision":"zip","state":"NY"},"type":"Feature","geometry":{"type":"Point","coordinates":[-73.996328,40.750422]}},{"properties":{"name":"H&amp;E DESIGN DBA/BY DESIGN","city":"ARLINGTON","zip":"76011","last yrs $":3723,"geo_score":0.857,"y-t-d $":12410,"address line 1":"2160 N. COLLINS","address line 2":"ARLINGTON, TX 76011","rep":"R.D.BOZEMAN &amp; ASSOC.","address line 3":null,"id":"a97k0hakui5x","geo_precision":"zip","state":"TX"},"type":"Feature","geometry":{"type":"Point","coordinates":[-97.079633,32.771455]}},{"properties":{"name":"BOVA DALLAS","city":"DALLAS","zip":"75244","last yrs $":0,"geo_score":0.857,"y-t-d $":11909,"address line 1":"4490 ALPHA RD #300","address line 2":"DALLAS, TX 75244","rep":"R.D.BOZEMAN &amp; ASSOC.","address line 3":null,"id":"a97k0gvjoggg","geo_precision":"zip","state":"TX"},"type":"Feature","geometry":{"type":"Point","coordinates":[-96.777626,32.767268]}},{"properties":{"name":"BLUE HERON LTD.","city":"SUN CITY WEST","zip":"85375","last yrs $":8611,"geo_score":0.857,"y-t-d $":11790,"address line 1":"ATTN: GALEN TARMAN","address line 2":"15724 W. HERITAGE DR.","rep":"House","address line 3":"SUN CITY WEST, AZ 85375","id":"a97k0gvzfb1r","geo_precision":"zip","state":"AZ"},"type":"Feature","geometry":{"type":"Point","coordinates":[-112.18717,33.276539]}},{"properties":{"name":"GALA FUTONS &amp; FURNITURE","city":"ARLINGTON","zip":"22201","last yrs $":13660,"geo_score":0.857,"y-t-d $":11673,"address line 1":"2622 N. PERSHING DRIVE","address line 2":"ARLINGTON, VA 22201","rep":"THE WEINER GROUP, INC.","address line 3":null,"id":"a97k0h8kmrby","geo_precision":"zip","state":"VA"},"type":"Feature","geometry":{"type":"Point","coordinates":[-77.099113,38.885484]}},{"properties":{"name":"MOLLIE RILEY INTERIORS","city":"HOMER","zip":"13077","last yrs $":0,"geo_score":0.857,"y-t-d $":11509,"address line 1":"5411 STATE ROUTE 41","address line 2":"HOMER, NY 13077","rep":"DAVID PELOW","address line 3":null,"id":"a97k0gyila0q","geo_precision":"zip","state":"NY"},"type":"Feature","geometry":{"type":"Point","coordinates":[-76.243263,42.729513]}},{"properties":{"name":"GARDELLA FURNITURE","city":"DETROIT","zip":"48207","last yrs $":23960,"geo_score":0.857,"y-t-d $":11314,"address line 1":"2306 GRATIOT AVENUE","address line 2":"DETROIT, MI 48207","rep":"CHUCK MATSON","address line 3":null,"id":"a97k0gz7r5y4","geo_precision":"zip","state":"MI"},"type":"Feature","geometry":{"type":"Point","coordinates":[-83.150823,42.239933]}},{"properties":{"name":"ROCKERS UNLIMITED DBA","city":"ROSWELL","zip":"30075","last yrs $":11185,"geo_score":0.857,"y-t-d $":10835,"address line 1":"THE COMFORTABLE CHAIR STORE","address line 2":"30 E. CROSSVILLE RD SUITE 180","rep":"THE MARTIN GROUP","address line 3":"ROSWELL, GA 30075","id":"a97k0h3goifm","geo_precision":"zip","state":"GA"},"type":"Feature","geometry":{"type":"Point","coordinates":[-84.411316,34.080932]}},{"properties":{"name":"SLEEP SANCTUARY DBA/ TAOS LIFESTYLE","city":"TAOS","zip":"87571","last yrs $":0,"geo_score":0.857,"y-t-d $":10822,"address line 1":"710 PASEO DEL PUEBLO SUR","address line 2":"TAOS, NM 87571","rep":"HUGO K. TANIWAKI","address line 3":null,"id":"a97k0h4qjfxe","geo_precision":"zip","state":"NM"},"type":"Feature","geometry":{"type":"Point","coordinates":[-105.597789,36.404192]}},{"properties":{"name":"SILK GREENERY HOME STORE","city":"ST. THOMAS","zip":"802","last yrs $":0,"geo_score":0.714,"y-t-d $":10550,"address line 1":"4500 FORT MYLNER SUITE 8","address line 2":"ST. THOMAS, USVI 00802","rep":"House","address line 3":null,"id":"a97k0gx11w2n","geo_precision":"zip","state":"US"},"type":"Feature","geometry":{"type":"Point","coordinates":[-64.963715,18.322285]}},{"properties":{"name":"JAN WARE DESIGNS, LLC","city":"BIRMINGHAM","zip":"35213","last yrs $":0,"geo_score":0.857,"y-t-d $":10459,"address line 1":"8 ROCKLEDGE ROAD","address line 2":"BIRMINGHAM, AL 35213","rep":"THE MARTIN GROUP","address line 3":null,"id":"a97k0gx4n5nr","geo_precision":"zip","state":"AL"},"type":"Feature","geometry":{"type":"Point","coordinates":[-86.749588,33.455408]}},{"properties":{"name":"METAHOME","city":"CORALVILLE","zip":"52241","last yrs $":9394,"geo_score":0.857,"y-t-d $":10440,"address line 1":"115 5TH STREET","address line 2":"CORALVILLE, IA 52241","rep":"DAVID LEVIN","address line 3":null,"id":"a97k0gxmxg4f","geo_precision":"zip","state":"IA"},"type":"Feature","geometry":{"type":"Point","coordinates":[-91.6332,41.699942]}},{"properties":{"name":"NOWELL &amp; CO.","city":"WILSON","zip":"27893","last yrs $":43698,"geo_score":0.857,"y-t-d $":10431,"address line 1":"2801 -4D WARD BLVD","address line 2":"WILSON, NC 27893","rep":"THE MARTIN GROUP","address line 3":null,"id":"a97k0h91igr6","geo_precision":"zip","state":"NC"},"type":"Feature","geometry":{"type":"Point","coordinates":[-77.783034,35.706825]}},{"properties":{"name":"DARRON'S","city":"COLUMBUS","zip":"43221","last yrs $":11788,"geo_score":0.857,"y-t-d $":10266,"address line 1":"1325 WEST LANE AVENUE","address line 2":"COLUMBUS, OH 43221","rep":"CHUCK MATSON","address line 3":null,"id":"a97k0h1puylx","geo_precision":"zip","state":"OH"},"type":"Feature","geometry":{"type":"Point","coordinates":[-83.062408,39.994508]}},{"properties":{"name":"MOTIF MODERN LIVING","city":"KYLE","zip":"78640","last yrs $":27593,"geo_score":0.857,"y-t-d $":10149,"address line 1":"5 BRENT BLVD.SUITE 100","address line 2":"KYLE, TX 78640","rep":"R.D.BOZEMAN &amp; ASSOC.","address line 3":null,"id":"a97k0h327hnu","geo_precision":"zip","state":"TX"},"type":"Feature","geometry":{"type":"Point","coordinates":[-97.786114,29.957718]}},{"properties":{"name":"HANSEN INTERIORS","city":"RACINE","zip":"53405","last yrs $":0,"geo_score":0.857,"y-t-d $":10122,"address line 1":"1945 N. HIGHWAY 31","address line 2":"RACINE, WI 53405","rep":"SCOTT GREENBLAT","address line 3":null,"id":"a97k0h7xej97","geo_precision":"zip","state":"WI"},"type":"Feature","geometry":{"type":"Point","coordinates":[-87.820925,42.731827]}},{"properties":{"name":"R.O.I. DESIGN","city":"GRAND RAPIDS","zip":"49504","last yrs $":858,"geo_score":0.857,"y-t-d $":9919,"address line 1":"1451 FRONT AVENUE NW SUITE A","address line 2":"GRAND RAPIDS, MI 49504","rep":"CHUCK MATSON","address line 3":null,"id":"a97k0h4s7poc","geo_precision":"zip","state":"MI"},"type":"Feature","geometry":{"type":"Point","coordinates":[-85.768092,43.001413]}},{"properties":{"name":"MODERN DESIGN,INC.","city":"SHELBURNE","zip":"5482","last yrs $":9501,"geo_score":0.857,"y-t-d $":9904,"address line 1":"2915 SHELBURNE ROAD","address line 2":"SHELBURNE, VT 05482","rep":"JOAN FAIN","address line 3":null,"id":"a97k0gyoqzs9","geo_precision":"zip","state":"VT"},"type":"Feature","geometry":{"type":"Point","coordinates":[-73.215403,44.370607]}},{"properties":{"name":"URBAN PAD","city":"LITTLEROCK","zip":"72202","last yrs $":0,"geo_score":0.857,"y-t-d $":9900,"address line 1":"3513 OLD CANTRELL ROAD","address line 2":"LITTLEROCK, AR 72202","rep":"R.D.BOZEMAN &amp; ASSOC.","address line 3":null,"id":"a97k0h30d0so","geo_precision":"zip","state":"AR"},"type":"Feature","geometry":{"type":"Point","coordinates":[-92.290419,34.752299]}},{"properties":{"name":"PARKER KENNEDY LIVING","city":"ATLANTA","zip":"30318","last yrs $":0,"geo_score":0.857,"y-t-d $":9604,"address line 1":"1227 LOGAN CIRCLE","address line 2":"ATLANTA, GA 30318","rep":"THE MARTIN GROUP","address line 3":null,"id":"a97k0gy5o78h","geo_precision":"zip","state":"GA"},"type":"Feature","geometry":{"type":"Point","coordinates":[-84.442778,33.792005]}},{"properties":{"name":"DWELL LIVING INC.","city":"FT. LAUDERDALE","zip":"33304","last yrs $":0,"geo_score":0.857,"y-t-d $":9555,"address line 1":"1924 E. SUNRISE BLVD.","address line 2":"FT. LAUDERDALE, FL 33304","rep":"JACOB H. KORNGOLD","address line 3":null,"id":"a97k0h3866zs","geo_precision":"zip","state":"FL"},"type":"Feature","geometry":{"type":"Point","coordinates":[-80.120216,26.124513]}},{"properties":{"name":"URBANEST LIVING","city":"CHICAGO","zip":"60640","last yrs $":15213,"geo_score":0.857,"y-t-d $":9353,"address line 1":"5212 N. CLARK ST.","address line 2":"CHICAGO, IL 60640","rep":"SCOTT GREENBLAT","address line 3":null,"id":"a97k0h4nsuyu","geo_precision":"zip","state":"IL"},"type":"Feature","geometry":{"type":"Point","coordinates":[-87.68732,41.811929]}},{"properties":{"name":"THE BAYBERRY GROUP/DBA THE HOMESTEAD","city":"GLEN ARBOR","zip":"49636","last yrs $":1172,"geo_score":0.857,"y-t-d $":9344,"address line 1":"WOOD RIDGE ROAD","address line 2":"GLEN ARBOR, MI 49636","rep":"CHUCK MATSON","address line 3":null,"id":"a97k0h334ff4","geo_precision":"zip","state":"MI"},"type":"Feature","geometry":{"type":"Point","coordinates":[-85.98867,44.873421]}},{"properties":{"name":"HAWLEY DESIGN FURNISHINGS","city":"TULSA","zip":"74104","last yrs $":0,"geo_score":0.857,"y-t-d $":9311,"address line 1":"702 S. UTICA AVENUE","address line 2":"TULSA, OK 74104","rep":"R.D.BOZEMAN &amp; ASSOC.","address line 3":null,"id":"a97k0gxqe3mn","geo_precision":"zip","state":"OK"},"type":"Feature","geometry":{"type":"Point","coordinates":[-95.951483,36.146143]}},{"properties":{"name":"LINGER/LOUNGE","city":"HIGH FALLS","zip":"12440","last yrs $":13263,"geo_score":0.857,"y-t-d $":9126,"address line 1":"P.O. BOX 367","address line 2":"HIGH FALLS, NY 12440","rep":"DAVID PELOW","address line 3":null,"id":"a97k0h16uzie","geo_precision":"zip","state":"NY"},"type":"Feature","geometry":{"type":"Point","coordinates":[-74.172923,41.797593]}},{"properties":{"name":"NEIGHBORHOOD","city":"DALLAS","zip":"75248","last yrs $":0,"geo_score":0.857,"y-t-d $":8735,"address line 1":"6606 HUNTERS RIDGE","address line 2":"DALLAS, TX 75248","rep":"R.D.BOZEMAN &amp; ASSOC.","address line 3":null,"id":"a97k0h6gvy1n","geo_precision":"zip","state":"TX"},"type":"Feature","geometry":{"type":"Point","coordinates":[-96.767999,32.986006]}},{"properties":{"name":"DOMICILE","city":"FT LAUDERDALE","zip":"33304","last yrs $":11708,"geo_score":0.857,"y-t-d $":8652,"address line 1":"1926 E. SUNRISE BLVD. #5","address line 2":"FT LAUDERDALE, FL 33304","rep":"JACOB H. KORNGOLD","address line 3":null,"id":"a97k0gx8dh6i","geo_precision":"zip","state":"FL"},"type":"Feature","geometry":{"type":"Point","coordinates":[-80.120216,26.124513]}},{"properties":{"name":"LIFESTYLES FURNITURE","city":"COLUMBIA","zip":"65203","last yrs $":9372,"geo_score":0.857,"y-t-d $":8513,"address line 1":"63 E BROADWAY","address line 2":"COLUMBIA, MO 65203","rep":"House","address line 3":null,"id":"a97k0h6mayax","geo_precision":"zip","state":"MO"},"type":"Feature","geometry":{"type":"Point","coordinates":[-92.397824,38.88248]}},{"properties":{"name":"ARNOLD'S HOME FURNISHINGS","city":"BREMERTON","zip":"98312","last yrs $":35645,"geo_score":0.857,"y-t-d $":8473,"address line 1":"PO BOX 5869","address line 2":"BREMERTON, WA 98312","rep":"DAVID LEVIN","address line 3":null,"id":"a97k0hbj3tka","geo_precision":"zip","state":"WA"},"type":"Feature","geometry":{"type":"Point","coordinates":[-122.766816,47.604538]}},{"properties":{"name":"BURKIN DESIGN, INC.","city":"GREENSBORO","zip":"27401","last yrs $":1994,"geo_score":0.857,"y-t-d $":8464,"address line 1":"214 WEST FRIENDLY AVENUE","address line 2":"GREENSBORO, NC 27401","rep":"THE MARTIN GROUP","address line 3":null,"id":"a97k0hacdrb3","geo_precision":"zip","state":"NC"},"type":"Feature","geometry":{"type":"Point","coordinates":[-79.831692,36.055285]}},{"properties":{"name":"WEST BEND FURNITURE","city":"WEST BEND","zip":"53095","last yrs $":14437,"geo_score":0.857,"y-t-d $":8093,"address line 1":"1411 W. WASHINGTON ST.","address line 2":"WEST BEND, WI 53095","rep":"SCOTT GREENBLAT","address line 3":null,"id":"a97k0h32l8fp","geo_precision":"zip","state":"WI"},"type":"Feature","geometry":{"type":"Point","coordinates":[-88.185928,43.451666]}},{"properties":{"name":"INNOVATIONS FURNITURE &amp; LIGHTING","city":"NORCROSS","zip":"30093","last yrs $":0,"geo_score":0.857,"y-t-d $":8037,"address line 1":"6500 DAWSON BLVD.","address line 2":"NORCROSS, GA 30093","rep":"THE MARTIN GROUP","address line 3":null,"id":"a97k0gyztv3a","geo_precision":"zip","state":"GA"},"type":"Feature","geometry":{"type":"Point","coordinates":[-84.181881,33.932173]}},{"properties":{"name":"METRO HOME/M &amp; M DESIGNS, INC.","city":"W. PALM BEACH","zip":"33401","last yrs $":12349,"geo_score":0.857,"y-t-d $":7966,"address line 1":"410 EVERNIA ST. #113","address line 2":"W. PALM BEACH, FL 33401","rep":"JACOB H. KORNGOLD","address line 3":null,"id":"a97k0h94yy0y","geo_precision":"zip","state":"FL"},"type":"Feature","geometry":{"type":"Point","coordinates":[-80.070613,26.672643]}},{"properties":{"name":"TOP DRAWER FURNITURE &amp; DESIGN STUDIO","city":"MARIETTA","zip":"45750","last yrs $":2635,"geo_score":0.857,"y-t-d $":7651,"address line 1":"200 FRONT STREET","address line 2":"MARIETTA, OH 45750","rep":"CHUCK MATSON","address line 3":null,"id":"a97k0h9yjgh3","geo_precision":"zip","state":"OH"},"type":"Feature","geometry":{"type":"Point","coordinates":[-81.460677,39.438685]}},{"properties":{"name":"ELLEN TAYLOR INTERIORS + DESIGN","city":"COLUMBIA","zip":"29201","last yrs $":12788,"geo_score":0.857,"y-t-d $":7581,"address line 1":"807 GERVAIS STREET SUITE 100","address line 2":"COLUMBIA, SC 29201","rep":"THE MARTIN GROUP","address line 3":null,"id":"a97k0hbnpe3m","geo_precision":"zip","state":"SC"},"type":"Feature","geometry":{"type":"Point","coordinates":[-81.029814,33.976544]}},{"properties":{"name":"LISBETH R. COOPER","city":"MILL SPRING","zip":"28756","last yrs $":11614,"geo_score":0.857,"y-t-d $":7575,"address line 1":"101 HEALING FARM LANE","address line 2":"MILL SPRING, NC 28756","rep":"THE MARTIN GROUP","address line 3":null,"id":"a97k0hadfxyu","geo_precision":"zip","state":"NC"},"type":"Feature","geometry":{"type":"Point","coordinates":[-82.18789,35.374285]}},{"properties":{"name":"ISIDRO DUNBAR MODERN INTERIORS","city":"MIRAMAR BEACH","zip":"32550","last yrs $":10640,"geo_score":0.857,"y-t-d $":7561,"address line 1":"12555 EMERALD COAST PARKWAY","address line 2":"MIRAMAR BEACH, FL 32550","rep":"THE MARTIN GROUP","address line 3":null,"id":"a97k0gz2nu1s","geo_precision":"zip","state":"FL"},"type":"Feature","geometry":{"type":"Point","coordinates":[-86.344604,30.385269]}},{"properties":{"name":"TONYA R. COMER INTERIORS","city":"PHILADELPHIA","zip":"19103","last yrs $":5212,"geo_score":0.857,"y-t-d $":7550,"address line 1":"2200 ARCH ST UNIT 808","address line 2":"PHILADELPHIA, PA 19103","rep":"THE WEINER GROUP, INC.","address line 3":null,"id":"a97k0h7uogp3","geo_precision":"zip","state":"PA"},"type":"Feature","geometry":{"type":"Point","coordinates":[-75.186822,40.003361]}},{"properties":{"name":"THE FUTON CORNER","city":"GAINESVILLE","zip":"32609","last yrs $":20292,"geo_score":0.857,"y-t-d $":7536,"address line 1":"1601 NORTH MAIN STREET","address line 2":"GAINESVILLE, FL 32609","rep":"JACOB H. KORNGOLD","address line 3":null,"id":"a97k0gw2xiz5","geo_precision":"zip","state":"FL"},"type":"Feature","geometry":{"type":"Point","coordinates":[-82.398315,29.761371]}},{"properties":{"name":"DESIGN","city":"ALBUQUERQUE","zip":"87109","last yrs $":25481,"geo_score":0.857,"y-t-d $":7503,"address line 1":"3700 OSUNA NE SUITE 707","address line 2":"ALBUQUERQUE, NM 87109","rep":"HUGO K. TANIWAKI","address line 3":null,"id":"a97k0gvwn09g","geo_precision":"zip","state":"NM"},"type":"Feature","geometry":{"type":"Point","coordinates":[-106.58678,35.127194]}},{"properties":{"name":"DUOHOME","city":"CLEVELAND","zip":"44102","last yrs $":7950,"geo_score":0.857,"y-t-d $":7452,"address line 1":"6507 DETROIT AVENUE","address line 2":"CLEVELAND, OH 44102","rep":"CHUCK MATSON","address line 3":null,"id":"a97k0h2i9prs","geo_precision":"zip","state":"OH"},"type":"Feature","geometry":{"type":"Point","coordinates":[-81.740305,41.47225]}},{"properties":{"name":"VIRGINIA COURT INTERIORS","city":"CLARKSVILLE","zip":"47129","last yrs $":0,"geo_score":0.857,"y-t-d $":7401,"address line 1":"767 N. RANDOLPH AVENUE","address line 2":"CLARKSVILLE, IN 47129","rep":"CHUCK MATSON","address line 3":null,"id":"a97k0h7i4cdd","geo_precision":"zip","state":"IN"},"type":"Feature","geometry":{"type":"Point","coordinates":[-85.764463,38.310958]}},{"properties":{"name":"INTERIOR TREASURES","city":"CARMEL","zip":"46032","last yrs $":0,"geo_score":0.857,"y-t-d $":7330,"address line 1":"1077 S. RANGELINE ROAD","address line 2":"CARMEL, IN 46032","rep":"CHUCK MATSON","address line 3":null,"id":"a97k0h6ivx0b","geo_precision":"zip","state":"IN"},"type":"Feature","geometry":{"type":"Point","coordinates":[-86.061652,39.961427]}},{"properties":{"name":"MODERN HOME","city":"LEXINGTON","zip":"40505","last yrs $":8603,"geo_score":0.857,"y-t-d $":7241,"address line 1":"1050 E. NEW CIRCLE ROAD","address line 2":"LEXINGTON, KY 40505","rep":"CHUCK MATSON","address line 3":null,"id":"a97k0h9rugpx","geo_precision":"zip","state":"KY"},"type":"Feature","geometry":{"type":"Point","coordinates":[-84.534941,38.149242]}},{"properties":{"name":"P. FURNITURE &amp; DESIGN II","city":"VAIL","zip":"81658","last yrs $":6630,"geo_score":0.857,"y-t-d $":7196,"address line 1":"P.O. BOX 397","address line 2":"VAIL, CO 81658","rep":"HUGO K. TANIWAKI","address line 3":null,"id":"a97k0h01ruk8","geo_precision":"zip","state":"CO"},"type":"Feature","geometry":{"type":"Point","coordinates":[-106.497314,39.624171]}},{"properties":{"name":"WOODLAND CREEK FURNITURE","city":"KALKASKA","zip":"49646","last yrs $":0,"geo_score":0.857,"y-t-d $":7095,"address line 1":"546 M-72 SE","address line 2":"KALKASKA, MI 49646","rep":"CHUCK MATSON","address line 3":null,"id":"a97k0gyrm8i0","geo_precision":"zip","state":"MI"},"type":"Feature","geometry":{"type":"Point","coordinates":[-85.051993,44.771675]}},{"properties":{"name":"LEE'S STUDIO INC.","city":"NEW YORK","zip":"10019","last yrs $":0,"geo_score":0.857,"y-t-d $":7004,"address line 1":"220 WEST 57TH STREET","address line 2":"NEW YORK, NY 10019","rep":"THE WEINER GROUP, INC.","address line 3":null,"id":"a97k0gy8po0w","geo_precision":"zip","state":"NY"},"type":"Feature","geometry":{"type":"Point","coordinates":[-73.985443,40.765926]}},{"properties":{"name":"ALAN FERGUSON ASSOCIATES","city":"HIGH POINT","zip":"27262","last yrs $":7007,"geo_score":0.857,"y-t-d $":6972,"address line 1":"PO BOX 6222","address line 2":"1212 NORTH MAIN STREET","rep":"THE MARTIN GROUP","address line 3":"HIGH POINT, NC 27262","id":"a97k0gxq20sp","geo_precision":"zip","state":"NC"},"type":"Feature","geometry":{"type":"Point","coordinates":[-80.013043,35.955786]}},{"properties":{"name":"RENEE GRISSOM DESIGN INC.","city":"LEAWOOD","zip":"66206","last yrs $":2625,"geo_score":0.857,"y-t-d $":6955,"address line 1":"2405 W 103RD ST","address line 2":"LEAWOOD, KS  66206","rep":"DAVID LEVIN","address line 3":null,"id":"a97k0h69wnv4","geo_precision":"zip","state":"KS"},"type":"Feature","geometry":{"type":"Point","coordinates":[-94.716155,38.959356]}},{"properties":{"name":"URBAN LIVING","city":"AUSTIN","zip":"78757","last yrs $":67566,"geo_score":0.857,"y-t-d $":6881,"address line 1":"7727 BURNET RD","address line 2":"AUSTIN, TX  78757","rep":"R.D.BOZEMAN &amp; ASSOC.","address line 3":null,"id":"a97k0gyo0dsz","geo_precision":"zip","state":"TX"},"type":"Feature","geometry":{"type":"Point","coordinates":[-97.601444,30.348567]}},{"properties":{"name":"DWELLINGS","city":"LEWISBERG","zip":"17837","last yrs $":4334,"geo_score":0.857,"y-t-d $":6843,"address line 1":"425 MARKET ST","address line 2":"LEWISBERG, PA 17837","rep":"THE WEINER GROUP, INC.","address line 3":null,"id":"a97k0h2fyme4","geo_precision":"zip","state":"PA"},"type":"Feature","geometry":{"type":"Point","coordinates":[-76.988301,40.983695]}},{"properties":{"name":"GRAND TRAVERSE RESORT","city":"ACME","zip":"49610","last yrs $":1682,"geo_score":0.857,"y-t-d $":6840,"address line 1":"PO BOX 404","address line 2":"ACME, MI 49610","rep":"CHUCK MATSON","address line 3":null,"id":"a97k0gy5z9nm","geo_precision":"zip","state":"MI"},"type":"Feature","geometry":{"type":"Point","coordinates":[-85.488449,44.789382]}},{"properties":{"name":"THE METRO","city":"CHARLOTTE","zip":"28204","last yrs $":0,"geo_score":0.857,"y-t-d $":6826,"address line 1":"911 EAST MOREHEAD ST.","address line 2":"CHARLOTTE, NC 28204","rep":"THE MARTIN GROUP","address line 3":null,"id":"a97k0h6fq3pk","geo_precision":"zip","state":"NC"},"type":"Feature","geometry":{"type":"Point","coordinates":[-80.828706,35.215342]}},{"properties":{"name":"STANLEY'S FURNITURE","city":"MIDLAND","zip":"48640","last yrs $":9776,"geo_score":0.857,"y-t-d $":6569,"address line 1":"118 E. HINES ST.","address line 2":"MIDLAND, MI 48640","rep":"CHUCK MATSON","address line 3":null,"id":"a97k0h1uma5m","geo_precision":"zip","state":"MI"},"type":"Feature","geometry":{"type":"Point","coordinates":[-84.369441,43.612528]}},{"properties":{"name":"SOHO","city":"LITTLE ROCK","zip":"72202","last yrs $":9691,"geo_score":0.714,"y-t-d $":6568,"address line 1":"2200 CANTRELL RD #76","address line 2":"LITTLE ROCK,AR 72202","rep":"R.D.BOZEMAN &amp; ASSOC.","address line 3":null,"id":"a97k0gxrp5xj","geo_precision":"zip","state":"R"},"type":"Feature","geometry":{"type":"Point","coordinates":[-92.290419,34.752299]}},{"properties":{"name":"DINA LOWERY STUDIO DESIGN","city":"YORK","zip":"29745","last yrs $":3622,"geo_score":0.857,"y-t-d $":6555,"address line 1":"103 KINGS MOUNTAIN STREET","address line 2":"YORK, SC 29745","rep":"THE MARTIN GROUP","address line 3":null,"id":"a97k0h0h9d0j","geo_precision":"zip","state":"SC"},"type":"Feature","geometry":{"type":"Point","coordinates":[-81.143408,34.996251]}},{"properties":{"name":"J DOUGLAS DESIGN","city":"DALLAS","zip":"75219","last yrs $":2494,"geo_score":0.857,"y-t-d $":6518,"address line 1":"3301 OAK LAWN AVENUE","address line 2":"DALLAS, TX 75219","rep":"R.D.BOZEMAN &amp; ASSOC.","address line 3":null,"id":"a97k0gvl4uz3","geo_precision":"zip","state":"TX"},"type":"Feature","geometry":{"type":"Point","coordinates":[-96.777626,32.767268]}},{"properties":{"name":"MA ALLEN INTERIORS","city":"RALEIGH","zip":"28628","last yrs $":0,"geo_score":0.857,"y-t-d $":6454,"address line 1":"PO BOX 6512","address line 2":"RALEIGH, NC 28628","rep":"THE MARTIN GROUP","address line 3":null,"id":"a97k0gwdsash","geo_precision":"zip","state":"NC"},"type":"Feature","geometry":{"type":"Point","coordinates":[-81.817998,35.721174]}},{"properties":{"name":"IN DETAIL DESIGN &amp; CREATE, INC.","city":"PENSACOLA","zip":"32502","last yrs $":4720,"geo_score":0.857,"y-t-d $":6442,"address line 1":"59 E GREGORY ST.","address line 2":"PENSACOLA, FL 32502","rep":"JACOB H. KORNGOLD","address line 3":null,"id":"a97k0gwyouc0","geo_precision":"zip","state":"FL"},"type":"Feature","geometry":{"type":"Point","coordinates":[-87.225691,30.474288]}},{"properties":{"name":"UPSTAIRS FURNITURE","city":"CHARLESTON","zip":"61920","last yrs $":27334,"geo_score":0.857,"y-t-d $":6340,"address line 1":"DBA/WOODY ALLEN'S","address line 2":"P.O. BOX 253","rep":"DAVID LEVIN","address line 3":"CHARLESTON, IL 61920","id":"a97k0ha1merg","geo_precision":"zip","state":"IL"},"type":"Feature","geometry":{"type":"Point","coordinates":[-88.101706,39.604201]}},{"properties":{"name":"EDWARDS HOME FURNISHINGS","city":"SUTTONS BAY","zip":"49682","last yrs $":5547,"geo_score":0.857,"y-t-d $":6278,"address line 1":"211 ST. JOSEPH AVENUE","address line 2":"SUTTONS BAY, MI 49682","rep":"CHUCK MATSON","address line 3":null,"id":"a97k0h74devx","geo_precision":"zip","state":"MI"},"type":"Feature","geometry":{"type":"Point","coordinates":[-85.644068,44.988569]}},{"properties":{"name":"CELENE DESIGNS INC.","city":"JUPITER","zip":"33478","last yrs $":0,"geo_score":0.857,"y-t-d $":6113,"address line 1":"10875 154TH ROAD NORTH","address line 2":"JUPITER, FL 33478","rep":"JACOB H. KORNGOLD","address line 3":null,"id":"a97k0gxjvldt","geo_precision":"zip","state":"FL"},"type":"Feature","geometry":{"type":"Point","coordinates":[-80.430269,26.645895]}},{"properties":{"name":"SHELTON TAYLOR &amp; ASSOC.","city":"ROSWELL","zip":"30076","last yrs $":25528,"geo_score":0.857,"y-t-d $":5970,"address line 1":"1210 WARSAW ROAD SUITE 100","address line 2":"ROSWELL, GA 30076","rep":"THE MARTIN GROUP","address line 3":null,"id":"a97k0hau8mzs","geo_precision":"zip","state":"GA"},"type":"Feature","geometry":{"type":"Point","coordinates":[-84.320162,34.027783]}},{"properties":{"name":"DPF DESIGN, INC.","city":"WHITE RIVER JUNCTION","zip":"5001","last yrs $":11003,"geo_score":0.857,"y-t-d $":5858,"address line 1":"85 NORTH MAIN ST. SUITE 130","address line 2":"WHITE RIVER JUNCTION, VT 05001","rep":"JOAN FAIN","address line 3":null,"id":"a97k0h6kuitx","geo_precision":"zip","state":"VT"},"type":"Feature","geometry":{"type":"Point","coordinates":[-72.355092,43.617015]}},{"properties":{"name":"FURNITURE MARKET","city":"LAS VEGAS","zip":"89119","last yrs $":0,"geo_score":0.857,"y-t-d $":5788,"address line 1":"6675 SOUTH EASTERN AVENUE","address line 2":"LAS VEGAS, NV 89119","rep":"HUGO K. TANIWAKI","address line 3":null,"id":"a97k0gwhqmv0","geo_precision":"zip","state":"NV"},"type":"Feature","geometry":{"type":"Point","coordinates":[-115.148313,36.089022]}},{"properties":{"name":"COPENHAGEN IMPORTS","city":"SARASOTA","zip":"34231","last yrs $":8689,"geo_score":0.857,"y-t-d $":5724,"address line 1":"7211 S.TAMIAMI TRAIL","address line 2":"SARASOTA, FL 34231","rep":"JACOB H. KORNGOLD","address line 3":null,"id":"a97k0h17glzj","geo_precision":"zip","state":"FL"},"type":"Feature","geometry":{"type":"Point","coordinates":[-82.432111,27.227589]}},{"properties":{"name":"BRITTEN DESIGN CONTINUUM, INC.","city":"SCHAUMBURG","zip":"60194","last yrs $":12055,"geo_score":0.857,"y-t-d $":5710,"address line 1":"869 E. SCHAUMBURG ROAD","address line 2":"SUITE 380","rep":"SCOTT GREENBLAT","address line 3":"SCHAUMBURG, IL 60194","id":"a97k0h8kmw8b","geo_precision":"zip","state":"IL"},"type":"Feature","geometry":{"type":"Point","coordinates":[-88.116655,42.028926]}},{"properties":{"name":"MOHR &amp; MCPHERSON, INC.","city":"BOSTON","zip":"2118","last yrs $":0,"geo_score":0.857,"y-t-d $":5668,"address line 1":"460 HARRISON AVENUE","address line 2":"BOSTON, MA 02118","rep":"JOAN FAIN","address line 3":null,"id":"a97k0h744yoh","geo_precision":"zip","state":"MA"},"type":"Feature","geometry":{"type":"Point","coordinates":[-71.072854,42.336162]}},{"properties":{"name":"BLUE LITE, A DESIGN COMPANY, INC.","city":"MIAMI","zip":"33127","last yrs $":6985,"geo_score":0.857,"y-t-d $":5665,"address line 1":"2700 NORTH MIAMI AVENUE","address line 2":"SUITE 2","rep":"NANCY HANSBROUGH","address line 3":"MIAMI, FL 33127","id":"a97k0gyx35o7","geo_precision":"zip","state":"FL"},"type":"Feature","geometry":{"type":"Point","coordinates":[-80.205611,25.813321]}},{"properties":{"name":"INTERIOR DESIGN OPTIONS","city":"GAYLORD","zip":"49735","last yrs $":28152,"geo_score":0.857,"y-t-d $":5643,"address line 1":"846 CARPENTER ST.","address line 2":"GAYLORD, MI 49735","rep":"CHUCK MATSON","address line 3":null,"id":"a97k0h2ckdso","geo_precision":"zip","state":"MI"},"type":"Feature","geometry":{"type":"Point","coordinates":[-84.69253,44.916958]}},{"properties":{"name":"THE TEICH GROUP","city":"ROYAL OAK","zip":"48067","last yrs $":0,"geo_score":0.857,"y-t-d $":5616,"address line 1":"333 WEST 7TH ST., STE 210","address line 2":"ROYAL OAK, MI 48067","rep":"CHUCK MATSON","address line 3":null,"id":"a97k0h6zgxi8","geo_precision":"zip","state":"MI"},"type":"Feature","geometry":{"type":"Point","coordinates":[-83.145375,42.492485]}},{"properties":{"name":"MEAD DESIGN","city":"WINTER SPRINGS","zip":"32708","last yrs $":0,"geo_score":0.857,"y-t-d $":5555,"address line 1":"1139 BLACK ACRE TRAIL","address line 2":"WINTER SPRINGS, FL 32708","rep":"JACOB H. KORNGOLD","address line 3":null,"id":"a97k0h8ojgxr","geo_precision":"zip","state":"FL"},"type":"Feature","geometry":{"type":"Point","coordinates":[-81.222547,28.690114]}},{"properties":{"name":"FURNITURE BY OTMAR","city":"DAYTON","zip":"45459","last yrs $":12598,"geo_score":0.857,"y-t-d $":5543,"address line 1":"301 W. FRANKLIN ST.","address line 2":"DAYTON, OH 45459","rep":"CHUCK MATSON","address line 3":null,"id":"a97k0h0m2c3y","geo_precision":"zip","state":"OH"},"type":"Feature","geometry":{"type":"Point","coordinates":[-84.171733,39.646371]}},{"properties":{"name":"GENERATIONS HOME FURNISHINGS","city":"CASSELBERRY","zip":"32730","last yrs $":0,"geo_score":0.857,"y-t-d $":5470,"address line 1":"345 SEMORAN BLVD. #107","address line 2":"CASSELBERRY, FL 32730","rep":"JACOB H. KORNGOLD","address line 3":null,"id":"a97k0gznx3hc","geo_precision":"zip","state":"FL"},"type":"Feature","geometry":{"type":"Point","coordinates":[-81.34184,28.651275]}},{"properties":{"name":"PAUL D. SLOAN INTERIORS","city":"COLUMBIA","zip":"29201","last yrs $":11988,"geo_score":0.857,"y-t-d $":5458,"address line 1":"1012 GERVAIS STREET","address line 2":"COLUMBIA, SC 29201","rep":"THE MARTIN GROUP","address line 3":null,"id":"a97k0gvcbve8","geo_precision":"zip","state":"SC"},"type":"Feature","geometry":{"type":"Point","coordinates":[-81.029814,33.976544]}},{"properties":{"name":"NJMODERN, LLC","city":"HACKENSACK","zip":"7601","last yrs $":0,"geo_score":0.857,"y-t-d $":5456,"address line 1":"200 S. NEWMAN ST. UNIT 6","address line 2":"HACKENSACK, NJ 07601","rep":"THE WEINER GROUP, INC.","address line 3":null,"id":"a97k0h25cclk","geo_precision":"zip","state":"NJ"},"type":"Feature","geometry":{"type":"Point","coordinates":[-74.001623,40.913482]}},{"properties":{"name":"DESIGNER INTERIORS","city":"TROY","zip":"48084","last yrs $":2387,"geo_score":0.857,"y-t-d $":5445,"address line 1":"3435 WITHERBEE DRIVE","address line 2":"TROY, MI 48084","rep":"CHUCK MATSON","address line 3":null,"id":"a97k0h2t75zm","geo_precision":"zip","state":"MI"},"type":"Feature","geometry":{"type":"Point","coordinates":[-83.17688,42.554751]}},{"properties":{"name":"SIGNATURE INTERIORS","city":"EVANS","zip":"30809","last yrs $":0,"geo_score":0.857,"y-t-d $":5412,"address line 1":"4299 SOUTHERN PINES DR.","address line 2":"EVANS, GA 30809","rep":"THE MARTIN GROUP","address line 3":null,"id":"a97k0gygqmwr","geo_precision":"zip","state":"GA"},"type":"Feature","geometry":{"type":"Point","coordinates":[-82.143617,33.551132]}},{"properties":{"name":"IRMO INTERIORS","city":"COLUMBIA","zip":"29212","last yrs $":0,"geo_score":0.857,"y-t-d $":5268,"address line 1":"527 RAPIDS ROAD","address line 2":"COLUMBIA, SC 29212","rep":"THE MARTIN GROUP","address line 3":null,"id":"a97k0h18k6pl","geo_precision":"zip","state":"SC"},"type":"Feature","geometry":{"type":"Point","coordinates":[-81.197778,34.020988]}},{"properties":{"name":"OSKAR HUBER FURNITURE","city":"SOUTHAMPTON","zip":"18966","last yrs $":0,"geo_score":0.857,"y-t-d $":5235,"address line 1":"618 SECOND ST. PIKE","address line 2":"SOUTHAMPTON, PA 18966","rep":"THE WEINER GROUP, INC.","address line 3":null,"id":"a97k0hbicd2c","geo_precision":"zip","state":"PA"},"type":"Feature","geometry":{"type":"Point","coordinates":[-75.007099,40.186758]}},{"properties":{"name":"KAREN HARTLEY INTERIORS","city":"VILLA RICA","zip":"30180","last yrs $":1148,"geo_score":0.857,"y-t-d $":5200,"address line 1":"2343 S VAN WERT RD","address line 2":"VILLA RICA, GA 30180","rep":"THE MARTIN GROUP","address line 3":null,"id":"a97k0hb5qnlu","geo_precision":"zip","state":"GA"},"type":"Feature","geometry":{"type":"Point","coordinates":[-84.975668,33.705546]}},{"properties":{"name":"ART OF INTERIORS, INC.","city":"RALEIGH","zip":"27603","last yrs $":0,"geo_score":0.857,"y-t-d $":5170,"address line 1":"9032 CHELSEA DR.","address line 2":"RALEIGH, NC 27603","rep":"THE MARTIN GROUP","address line 3":null,"id":"a97k0gylam2b","geo_precision":"zip","state":"NC"},"type":"Feature","geometry":{"type":"Point","coordinates":[-78.647783,35.701265]}},{"properties":{"name":"DECOR BY DENISE","city":null,"zip":"ITE F","last yrs $":0,"geo_score":0.0,"y-t-d $":5167,"address line 1":"CREATIVE CONSULTING, LLC","address line 2":"340 MILL STREET NE","rep":"THE WEINER GROUP, INC.","address line 3":"SUITE F","id":"a97k0hazzlhe","geo_precision":"unmatched","state":null},"type":"Feature","geometry":null},{"properties":{"name":"ADNHS DESIGNS INC.","city":"CUMMING","zip":"30041","last yrs $":3162,"geo_score":0.857,"y-t-d $":5113,"address line 1":"DBA/ALLISON HAVILL TODD INTERIORS","address line 2":"5325 LAKE POINTE CENTER DRIVE","rep":"THE MARTIN GROUP","address line 3":"CUMMING, GA 30041","id":"a97k0h63wjy1","geo_precision":"zip","state":"GA"},"type":"Feature","geometry":{"type":"Point","coordinates":[-84.103108,34.203659]}},{"properties":{"name":"PUDDLE GLUM, INC. DBA/RED","city":"FREDERICKSBURG","zip":"78624","last yrs $":5338,"geo_score":0.857,"y-t-d $":5072,"address line 1":"307 E. MAIN ST.","address line 2":"FREDERICKSBURG, TX 78624","rep":"R.D.BOZEMAN &amp; ASSOC.","address line 3":null,"id":"a97k0h5vdoa7","geo_precision":"zip","state":"TX"},"type":"Feature","geometry":{"type":"Point","coordinates":[-99.009215,30.483246]}},{"properties":{"name":"TOWER INTERIORS LTD.","city":"HALIFAX","zip":"M 2M9","last yrs $":1303,"geo_score":0.0,"y-t-d $":4939,"address line 1":"51 LAURENTIDE DRIVE","address line 2":"HALIFAX, NOVA SCOTIA B3M 2M9","rep":"DAVID LEVIN","address line 3":null,"id":"a97k0h6on2ft","geo_precision":"unmatched","state":"NO"},"type":"Feature","geometry":null},{"properties":{"name":"GROSSMAN BETTER FURNITURE","city":"PHILADELPHIA","zip":"19106","last yrs $":0,"geo_score":0.857,"y-t-d $":4437,"address line 1":"M. GROSSMAN &amp; CO., INC.","address line 2":"206 ARCH STREET","rep":"THE WEINER GROUP, INC.","address line 3":"PHILADELPHIA, PA 19106","id":"a97k0h9cb7uf","geo_precision":"zip","state":"PA"},"type":"Feature","geometry":{"type":"Point","coordinates":[-75.150071,39.950004]}},{"properties":{"name":"EVOFURNITURE/INMOD","city":"HAWORTH","zip":"7641","last yrs $":0,"geo_score":0.857,"y-t-d $":4410,"address line 1":"PO BOX 142","address line 2":"HAWORTH, NJ 07641","rep":"THE WEINER GROUP, INC.","address line 3":null,"id":"a97k0h6nw902","geo_precision":"zip","state":"NJ"},"type":"Feature","geometry":{"type":"Point","coordinates":[-73.99358,40.963867]}},{"properties":{"name":"DESIGN SPEC, INC.","city":"CHAPEN HILL","zip":"27516","last yrs $":0,"geo_score":0.857,"y-t-d $":4285,"address line 1":"1911 BILLABONG LANE","address line 2":"CHAPEN HILL, NC 27516","rep":"THE MARTIN GROUP","address line 3":null,"id":"a97k0gyhmwrm","geo_precision":"zip","state":"NC"},"type":"Feature","geometry":{"type":"Point","coordinates":[-79.136862,35.946263]}},{"properties":{"name":"CURRENTS HOME &amp; DESIGN","city":"PAWLEYS ISLAND","zip":"28585","last yrs $":0,"geo_score":0.714,"y-t-d $":4260,"address line 1":"10185 OCEAN HIGHWAY","address line 2":"PAWLEYS ISLAND, SC 28585","rep":"THE MARTIN GROUP","address line 3":null,"id":"a97k0h131bby","geo_precision":"zip","state":"SC"},"type":"Feature","geometry":{"type":"Point","coordinates":[-77.589413,35.01044]}},{"properties":{"name":"IN STUDIO INTERIORS","city":"GREENVILLE","zip":"29601","last yrs $":0,"geo_score":0.857,"y-t-d $":3918,"address line 1":"211 EAST WASHINGTON ST.","address line 2":"GREENVILLE, SC 29601","rep":"THE MARTIN GROUP","address line 3":null,"id":"a97k0h1rhlmy","geo_precision":"zip","state":"SC"},"type":"Feature","geometry":{"type":"Point","coordinates":[-82.441234,34.916228]}},{"properties":{"name":"D2D STUDIO, INC.","city":"LITTLETON","zip":"80163","last yrs $":0,"geo_score":0.857,"y-t-d $":3884,"address line 1":"PO BOX 631876","address line 2":"LITTLETON, CO 80163","rep":"HUGO K. TANIWAKI","address line 3":null,"id":"a97k0h0jnog7","geo_precision":"zip","state":"CO"},"type":"Feature","geometry":{"type":"Point","coordinates":[-104.994708,39.347863]}},{"properties":{"name":"BOWLES/NELSON/POWERS, INC.","city":"ROANOKE","zip":"24011","last yrs $":0,"geo_score":0.857,"y-t-d $":3812,"address line 1":"12 E. CAMPBELL AVENUE","address line 2":"ROANOKE, VA 24011","rep":"THE WEINER GROUP, INC.","address line 3":null,"id":"a97k0h77cdqs","geo_precision":"zip","state":"VA"},"type":"Feature","geometry":{"type":"Point","coordinates":[-79.941586,37.270237]}},{"properties":{"name":"WINDOW DESIGNS BY AVIVA","city":"LAUREL","zip":"20724","last yrs $":0,"geo_score":0.857,"y-t-d $":3555,"address line 1":"3429 LINDENWOOD DRIVE","address line 2":"LAUREL, MD 20724","rep":"THE WEINER GROUP, INC.","address line 3":null,"id":"a97k0h6vlu57","geo_precision":"zip","state":"MD"},"type":"Feature","geometry":{"type":"Point","coordinates":[-76.785241,39.080141]}},{"properties":{"name":"THE DESIGN SOURCE LTD.","city":"BALLWIN","zip":"63011","last yrs $":0,"geo_score":0.857,"y-t-d $":3440,"address line 1":"519 BITTERFIELD DRIVE","address line 2":"BALLWIN, MO 63011","rep":"DAVID LEVIN","address line 3":null,"id":"a97k0h241vne","geo_precision":"zip","state":"MO"},"type":"Feature","geometry":{"type":"Point","coordinates":[-90.509288,38.596998]}},{"properties":{"name":"DESIGN INNOVATION","city":"SAN ANTONIO","zip":"78209","last yrs $":0,"geo_score":0.857,"y-t-d $":3417,"address line 1":"8000 BROADWAY","address line 2":"SAN ANTONIO, TX 78209","rep":"R.D.BOZEMAN &amp; ASSOC.","address line 3":null,"id":"a97k0h4nangm","geo_precision":"zip","state":"TX"},"type":"Feature","geometry":{"type":"Point","coordinates":[-98.427793,29.431232]}},{"properties":{"name":"MILL RIVER FURNITURE","city":"LITTLETON","zip":"3561","last yrs $":0,"geo_score":0.857,"y-t-d $":3415,"address line 1":"42 MAIN STREET","address line 2":"LITTLETON, NH 03561","rep":"JOAN FAIN","address line 3":null,"id":"a97k0h89t2ec","geo_precision":"zip","state":"NH"},"type":"Feature","geometry":{"type":"Point","coordinates":[-71.877638,44.335289]}},{"properties":{"name":"AFFORDABLE ELEGANCE","city":"LAKE CHARLES","zip":"70601","last yrs $":0,"geo_score":0.857,"y-t-d $":3411,"address line 1":"925 ENTERPRISE BLVD.","address line 2":"LAKE CHARLES, LA 70601","rep":"R.D.BOZEMAN &amp; ASSOC.","address line 3":null,"id":"a97k0h05lah7","geo_precision":"zip","state":"LA"},"type":"Feature","geometry":{"type":"Point","coordinates":[-93.199877,30.300482]}},{"properties":{"name":"ALLARD &amp; ROBERTS INTERIOR DESIGNS","city":"ASHEVILLE","zip":"28801","last yrs $":0,"geo_score":0.857,"y-t-d $":3338,"address line 1":"84 W. WALNUT SUITE 201","address line 2":"ASHEVILLE, NC 28801","rep":"THE MARTIN GROUP","address line 3":null,"id":"a97k0gyzistl","geo_precision":"zip","state":"NC"},"type":"Feature","geometry":{"type":"Point","coordinates":[-82.567281,35.602711]}},{"properties":{"name":"MARINE HOME CENTER","city":"NANTUCKET","zip":"2554","last yrs $":0,"geo_score":0.857,"y-t-d $":3326,"address line 1":"ATTN: ACCOUNTS PAYABLE","address line 2":"134 ORANGE ST.","rep":"JOAN FAIN","address line 3":"NANTUCKET, MA 02554","id":"a97k0gvqh0tg","geo_precision":"zip","state":"MA"},"type":"Feature","geometry":{"type":"Point","coordinates":[-69.980014,41.304288]}},{"properties":{"name":"MODERN MARKET LIFESTYLE","city":"NEW ORLEANS","zip":"70115","last yrs $":0,"geo_score":0.857,"y-t-d $":3270,"address line 1":"3138 MAGAZINE ST. SUITE C","address line 2":"NEW ORLEANS, LA 70115","rep":"R.D.BOZEMAN &amp; ASSOC.","address line 3":null,"id":"a97k0h7cu5w7","geo_precision":"zip","state":"LA"},"type":"Feature","geometry":{"type":"Point","coordinates":[-90.100773,29.938343]}},{"properties":{"name":"DEEN HYDE DESIGNS, INC.","city":"TROY","zip":"48085","last yrs $":0,"geo_score":0.857,"y-t-d $":3232,"address line 1":"1216 BRADLEY","address line 2":"TROY, MI 48085","rep":"CHUCK MATSON","address line 3":null,"id":"a97k0h0a1gld","geo_precision":"zip","state":"MI"},"type":"Feature","geometry":{"type":"Point","coordinates":[-83.119827,42.600614]}},{"properties":{"name":"RECONSTRUCTURE","city":"PROVIDENCE","zip":"2908","last yrs $":0,"geo_score":0.857,"y-t-d $":3204,"address line 1":"96 CALVERLEY ST.","address line 2":"PROVIDENCE, RI 02908","rep":"JOAN FAIN","address line 3":null,"id":"a97k0h72v1ov","geo_precision":"zip","state":"RI"},"type":"Feature","geometry":{"type":"Point","coordinates":[-71.4399,41.837399]}},{"properties":{"name":"PLANTATION INTERIORS, INC.","city":"HILTON HEAD","zip":"29928","last yrs $":0,"geo_score":0.857,"y-t-d $":3203,"address line 1":"10 TARGET ROAD","address line 2":"HILTON HEAD, SC 29928","rep":"THE MARTIN GROUP","address line 3":null,"id":"a97k0h41wjhq","geo_precision":"zip","state":"SC"},"type":"Feature","geometry":{"type":"Point","coordinates":[-80.74372,32.146597]}},{"properties":{"name":"BAUER INTERNATIONAL","city":"DURHAM","zip":"27707","last yrs $":0,"geo_score":0.857,"y-t-d $":3144,"address line 1":"3107 CORNWALL ROAD","address line 2":"DURHAM, NC 27707","rep":"THE MARTIN GROUP","address line 3":null,"id":"a97k0h2sgiz2","geo_precision":"zip","state":"NC"},"type":"Feature","geometry":{"type":"Point","coordinates":[-78.941599,35.94816]}},{"properties":{"name":"ROSENTHAL FURNITURE","city":"MINNEAPOLIS","zip":"55403","last yrs $":567,"geo_score":0.857,"y-t-d $":3119,"address line 1":"22 N. 5TH STREET","address line 2":"MINNEAPOLIS, MN 55403","rep":"SCOTT GREENBLAT","address line 3":null,"id":"a97k0h848p4d","geo_precision":"zip","state":"MN"},"type":"Feature","geometry":{"type":"Point","coordinates":[-93.287275,44.972615]}},{"properties":{"name":"STAGED TO SEE/LIVE LLD","city":"GLEN ARBOR","zip":"49636","last yrs $":0,"geo_score":0.857,"y-t-d $":3045,"address line 1":"2 PINE TRACE","address line 2":"GLEN ARBOR, MI 49636","rep":"CHUCK MATSON","address line 3":null,"id":"a97k0h4suvjb","geo_precision":"zip","state":"MI"},"type":"Feature","geometry":{"type":"Point","coordinates":[-85.98867,44.873421]}},{"properties":{"name":"FREEDOM FURNITURE &amp; DESIGN","city":"DALLAS","zip":"75244","last yrs $":0,"geo_score":0.857,"y-t-d $":3041,"address line 1":"13810 WELCH ROAD","address line 2":"DALLAS, TX 75244","rep":"R.D.BOZEMAN &amp; ASSOC.","address line 3":null,"id":"a97k0h5hwaul","geo_precision":"zip","state":"TX"},"type":"Feature","geometry":{"type":"Point","coordinates":[-96.777626,32.767268]}},{"properties":{"name":"SARGENT DESIGN COMPANY, LLC","city":"NORWICH","zip":"5055","last yrs $":0,"geo_score":0.857,"y-t-d $":3035,"address line 1":"397 CAMPBELL FLAT ROAD","address line 2":"NORWICH, VT 05055","rep":"JOAN FAIN","address line 3":null,"id":"a97k0h3rooj2","geo_precision":"zip","state":"VT"},"type":"Feature","geometry":{"type":"Point","coordinates":[-72.3612,43.717918]}},{"properties":{"name":"TOUCHE' DESIGN STUDIO","city":"TAMPA","zip":"33609","last yrs $":0,"geo_score":0.857,"y-t-d $":3000,"address line 1":"4502 WEST KENNEDY BLVD.","address line 2":"TAMPA, FL 33609","rep":"JACOB H. KORNGOLD","address line 3":null,"id":"a97k0gwmvisv","geo_precision":"zip","state":"FL"},"type":"Feature","geometry":{"type":"Point","coordinates":[-82.513067,27.942648]}},{"properties":{"name":"JENSEN-LEWIS CO.","city":"NEW YORK","zip":"10011","last yrs $":0,"geo_score":0.857,"y-t-d $":2585,"address line 1":"89 SEVENTH AVENUE","address line 2":"NEW YORK, NY 10011","rep":"DAVID LEVIN","address line 3":null,"id":"a97k0gy052qo","geo_precision":"zip","state":"NY"},"type":"Feature","geometry":{"type":"Point","coordinates":[-73.999769,40.740916]}}],"is_temporal":false,"author":{"url":"","metadata":null,"contact_name":null,"contact_address":null,"source":null,"contact_phone":null},"source":"","pagination":{"sort":null,"start":0,"total":230,"limit":1000000},"state":"complete","tags":"","published":"2014-08-14T18:27:13-04:00","id":283085}