{"type":"FeatureCollection","data_type":"Dataset","url_type":null,"permissions":[{"permissions":{"download":true,"view":true},"group_id":"everyone"}],"classification":null,"title":"map","count":77,"stream_id":283202,"contributor":{"url":"http://geocommons.com/users/53261","name":"wjiahua@gmail.com"},"data_attributes":null,"calculation_params":null,"icon_link":null,"link":"http://geocommons.com/overlays/283202.json","extent":[-122.693,25.7743,-71.027,47.6626],"geometry_types":["point"],"unique_name":null,"name":"map","feature_count":77,"description":"","next_feature":null,"is_raster":false,"short_classification":"Y","stats":{"threshold-wom":{"max":0.863343527,"variance":0.0239959315856503,"mean":0.0922856336623377,"stdev":0.154906202540926,"min":-0.197234839,"median":0.04880191},"tipping":{"max":5.242700209,"variance":1.06502621662046,"mean":2.06091015044156,"stdev":1.03200107394346,"min":-1.771552607,"median":2.060610234},"buzzing":{"max":20.05627576,"variance":5.57470578497298,"mean":1.86474551902597,"stdev":2.36108148630516,"min":1.056853604,"median":1.368651859},"wom":{"max":0.235158596,"variance":0.00242239539387987,"mean":0.137992420233766,"stdev":0.0492178361356924,"min":-0.086456854,"median":0.136741808}},"features":[{"properties":{"city":"Santa Cruz","threshold-wom":0.016933523,"tipping":3.048780561,"geo_score":0.714,"buzzing":1.10466033,"id":"a97qwoei6rck","geo_precision":"city","state":"CA","wom":0.161795048},"type":"Feature","geometry":{"type":"Point","coordinates":[-122.111126,37.052748]}},{"properties":{"city":"Charleston","threshold-wom":0.101986118,"tipping":1.772512438,"geo_score":0.714,"buzzing":1.605342836,"id":"a97qwobeu3jl","geo_precision":"city","state":"SC","wom":0.168476626},"type":"Feature","geometry":{"type":"Point","coordinates":[-79.970643,32.85712]}},{"properties":{"city":"Hartford","threshold-wom":0.013737863,"tipping":2.913777233,"geo_score":0.714,"buzzing":1.116781182,"id":"a97qwoc2dn45","geo_precision":"city","state":"CT","wom":0.117637646},"type":"Feature","geometry":{"type":"Point","coordinates":[-72.677099,41.78007]}},{"properties":{"city":"Orange","threshold-wom":0.032029841,"tipping":1.800710766,"geo_score":0.714,"buzzing":1.269646996,"id":"a97qwogoyvkm","geo_precision":"city","state":"CA","wom":0.118784341},"type":"Feature","geometry":{"type":"Point","coordinates":[-117.853112,33.787795]}},{"properties":{"city":"Kansas City","threshold-wom":0.081341245,"tipping":3.912048287,"geo_score":0.714,"buzzing":1.589044747,"id":"a97qwo8wezrg","geo_precision":"city","state":"MO","wom":0.138090094},"type":"Feature","geometry":{"type":"Point","coordinates":[-94.598583,39.102404]}},{"properties":{"city":"Springfield","threshold-wom":0.235418952,"tipping":1.630164796,"geo_score":0.714,"buzzing":2.012032522,"id":"a97qwoex0lac","geo_precision":"city","state":"MA","wom":0.232619948},"type":"Feature","geometry":{"type":"Point","coordinates":[-72.604842,42.170731]}},{"properties":{"city":"Dayton","threshold-wom":0.051367318,"tipping":2.112473133,"geo_score":0.714,"buzzing":1.268086152,"id":"a97qwobejgqt","geo_precision":"city","state":"OH","wom":0.191607501},"type":"Feature","geometry":{"type":"Point","coordinates":[-84.268593,39.750471]}},{"properties":{"city":"Sioux Falls","threshold-wom":0.082271245,"tipping":1.067829207,"geo_score":0.714,"buzzing":1.542194332,"id":"a97qwocjubj6","geo_precision":"city","state":"SD","wom":0.151737559},"type":"Feature","geometry":{"type":"Point","coordinates":[-97.597294,44.01053]}},{"properties":{"city":"Providence","threshold-wom":0.124182513,"tipping":2.676842561,"geo_score":0.714,"buzzing":1.847198367,"id":"a97qwoadthl5","geo_precision":"city","state":"RI","wom":0.146580208},"type":"Feature","geometry":{"type":"Point","coordinates":[-71.414451,41.82275]}},{"properties":{"city":"Salt Lake City","threshold-wom":0.038139397,"tipping":1.493847663,"geo_score":0.714,"buzzing":1.347076597,"id":"a97qwo3genl3","geo_precision":"city","state":"UT","wom":0.109887551},"type":"Feature","geometry":{"type":"Point","coordinates":[-111.900719,40.756095]}},{"properties":{"city":"Fort Lauderdale","threshold-wom":0.163765367,"tipping":1.836004024,"geo_score":0.714,"buzzing":2.164781934,"id":"a97qwo3d0ap6","geo_precision":"city","state":"FL","wom":0.140597447},"type":"Feature","geometry":{"type":"Point","coordinates":[-80.208381,26.166474]}},{"properties":{"city":"Little Rock","threshold-wom":0.04880191,"tipping":2.779329896,"geo_score":0.714,"buzzing":1.261002665,"id":"a97qwo70jqv1","geo_precision":"city","state":"AR","wom":0.186978587},"type":"Feature","geometry":{"type":"Point","coordinates":[-91.793741,33.464557]}},{"properties":{"city":"Grand Rapids","threshold-wom":0.075600306,"tipping":1.906633523,"geo_score":0.714,"buzzing":1.692695903,"id":"a97qwo6pf0v9","geo_precision":"city","state":"MI","wom":0.109139242},"type":"Feature","geometry":{"type":"Point","coordinates":[-85.306756,46.158336]}},{"properties":{"city":"Spokane","threshold-wom":-0.197234839,"tipping":1.023343093,"geo_score":0.714,"buzzing":3.281309468,"id":"a97qwodczwlw","geo_precision":"city","state":"WA","wom":-0.086456854},"type":"Feature","geometry":{"type":"Point","coordinates":[-117.435997,47.66264]}},{"properties":{"city":"Boise","threshold-wom":0.224849026,"tipping":1.787245455,"geo_score":0.714,"buzzing":2.10523966,"id":"a97qwodynuah","geo_precision":"city","state":"ID","wom":0.203439158},"type":"Feature","geometry":{"type":"Point","coordinates":[-116.272921,43.603768]}},{"properties":{"city":"Rochester","threshold-wom":0.139759387,"tipping":1.683306066,"geo_score":0.714,"buzzing":1.613344193,"id":"a97qwois95do","geo_precision":"city","state":"NY","wom":0.227864531},"type":"Feature","geometry":{"type":"Point","coordinates":[-77.684264,43.286024]}},{"properties":{"city":"Akron","threshold-wom":0.265521572,"tipping":1.606296462,"geo_score":0.714,"buzzing":2.837477848,"id":"a97qwo81cwii","geo_precision":"city","state":"OH","wom":0.144503278},"type":"Feature","geometry":{"type":"Point","coordinates":[-81.507831,41.012239]}},{"properties":{"city":"Birmingham","threshold-wom":0.05330829,"tipping":1.932552812,"geo_score":0.714,"buzzing":1.400838896,"id":"a97qwoepvkh9","geo_precision":"city","state":"AL","wom":0.132991809},"type":"Feature","geometry":{"type":"Point","coordinates":[-86.801904,33.456412]}},{"properties":{"city":"Orlando","threshold-wom":0.863343527,"tipping":-1.530772017,"geo_score":0.714,"buzzing":20.05627576,"id":"a97qwo73jqrz","geo_precision":"city","state":"FL","wom":0.045304945},"type":"Feature","geometry":{"type":"Point","coordinates":[-81.373291,28.545179]}},{"properties":{"city":"Madison","threshold-wom":0.051046615,"tipping":2.62257218,"geo_score":0.714,"buzzing":1.283544254,"id":"a97qwo5tm133","geo_precision":"city","state":"WI","wom":0.180030502},"type":"Feature","geometry":{"type":"Point","coordinates":[-89.423861,43.06956]}},{"properties":{"city":"Fort Wayne","threshold-wom":0.165058794,"tipping":2.644821749,"geo_score":0.714,"buzzing":1.896247331,"id":"a97qwo8ghf67","geo_precision":"city","state":"IN","wom":0.184166566},"type":"Feature","geometry":{"type":"Point","coordinates":[-85.12886,41.130604]}},{"properties":{"city":"Lincoln","threshold-wom":0.646768185,"tipping":0.845810504,"geo_score":0.714,"buzzing":3.750348894,"id":"a97qwoezh9vc","geo_precision":"city","state":"NE","wom":0.235158596},"type":"Feature","geometry":{"type":"Point","coordinates":[-96.823133,40.865142]}},{"properties":{"city":"Buffalo","threshold-wom":0.02984259,"tipping":0.799961794,"geo_score":0.714,"buzzing":1.208261096,"id":"a97qwo5spidi","geo_precision":"city","state":"NY","wom":0.143294116},"type":"Feature","geometry":{"type":"Point","coordinates":[-78.832706,42.929303]}},{"properties":{"city":"Toledo","threshold-wom":0.055568415,"tipping":1.563330914,"geo_score":0.714,"buzzing":1.275624519,"id":"a97qwoj2kbst","geo_precision":"city","state":"OH","wom":0.201609113},"type":"Feature","geometry":{"type":"Point","coordinates":[-84.124257,41.58568]}},{"properties":{"city":"Pittsburgh","threshold-wom":0.016763896,"tipping":2.664094207,"geo_score":0.714,"buzzing":1.162601155,"id":"a97qwof4vb2w","geo_precision":"city","state":"PA","wom":0.103098262},"type":"Feature","geometry":{"type":"Point","coordinates":[-80.024817,40.434436]}},{"properties":{"city":"New Orleans","threshold-wom":0.026811582,"tipping":2.213236344,"geo_score":0.714,"buzzing":1.21265325,"id":"a97qwodwky92","geo_precision":"city","state":"LA","wom":0.126081222},"type":"Feature","geometry":{"type":"Point","coordinates":[-89.930956,30.068812]}},{"properties":{"city":"Bakersfield","threshold-wom":0.057658395,"tipping":1.550184543,"geo_score":0.714,"buzzing":1.439577572,"id":"a97qwog8ym58","geo_precision":"city","state":"CA","wom":0.131167736},"type":"Feature","geometry":{"type":"Point","coordinates":[-119.007662,35.483501]}},{"properties":{"city":"Cincinnati","threshold-wom":0.127411258,"tipping":3.316275217,"geo_score":0.714,"buzzing":1.712156454,"id":"a97qwoekkg0p","geo_precision":"city","state":"OH","wom":0.178909082},"type":"Feature","geometry":{"type":"Point","coordinates":[-84.53822,39.166759]}},{"properties":{"city":"Tampa","threshold-wom":0.010275211,"tipping":0.648724826,"geo_score":0.714,"buzzing":1.086729438,"id":"a97qwogetqar","geo_precision":"city","state":"FL","wom":0.118474313},"type":"Feature","geometry":{"type":"Point","coordinates":[-82.582035,27.996097]}},{"properties":{"city":"Saint Louis","threshold-wom":0.04318743,"tipping":3.251147022,"geo_score":0.714,"buzzing":1.33452025,"id":"a97qwoepds5c","geo_precision":"city","state":"MO","wom":0.129102588},"type":"Feature","geometry":{"type":"Point","coordinates":[-92.254481,38.251613]}},{"properties":{"city":"Wichita","threshold-wom":0.035105646,"tipping":2.460783027,"geo_score":0.714,"buzzing":1.388175615,"id":"a97qwo9yu3t2","geo_precision":"city","state":"KS","wom":0.090437535},"type":"Feature","geometry":{"type":"Point","coordinates":[-97.258997,37.651974]}},{"properties":{"city":"Colorado Springs","threshold-wom":0.048069531,"tipping":2.394919025,"geo_score":0.714,"buzzing":1.390045584,"id":"a97qwoc818zh","geo_precision":"city","state":"CO","wom":0.123240802},"type":"Feature","geometry":{"type":"Point","coordinates":[-104.857828,38.861469]}},{"properties":{"city":"Minneapolis","threshold-wom":0.028930387,"tipping":2.669724517,"geo_score":0.714,"buzzing":1.37143027,"id":"a97qwodpzst5","geo_precision":"city","state":"MN","wom":0.077889148},"type":"Feature","geometry":{"type":"Point","coordinates":[-93.273024,44.979265]}},{"properties":{"city":"Tulsa","threshold-wom":0.016293096,"tipping":1.84799492,"geo_score":0.714,"buzzing":1.151461051,"id":"a97qwo61gkod","geo_precision":"city","state":"OK","wom":0.107572842},"type":"Feature","geometry":{"type":"Point","coordinates":[-95.868667,36.039147]}},{"properties":{"city":"Raleigh","threshold-wom":0.056440896,"tipping":2.020898767,"geo_score":0.714,"buzzing":1.353844267,"id":"a97qwo6dod1g","geo_precision":"city","state":"NC","wom":0.15950773},"type":"Feature","geometry":{"type":"Point","coordinates":[-82.293464,36.034279]}},{"properties":{"city":"Miami","threshold-wom":0.026263808,"tipping":3.329957725,"geo_score":0.714,"buzzing":1.125642509,"id":"a97qwogc9wd9","geo_precision":"city","state":"FL","wom":0.209036007},"type":"Feature","geometry":{"type":"Point","coordinates":[-80.193659,25.774266]}},{"properties":{"city":"Virginia Beach","threshold-wom":0.146348092,"tipping":2.78054049,"geo_score":0.714,"buzzing":1.644505159,"id":"a97qwo6kgaec","geo_precision":"city","state":"VA","wom":0.227070474},"type":"Feature","geometry":{"type":"Point","coordinates":[-76.12036,36.844004]}},{"properties":{"city":"Cleveland","threshold-wom":0.049939707,"tipping":2.920841404,"geo_score":0.714,"buzzing":1.392983495,"id":"a97qwo4xzegh","geo_precision":"city","state":"OH","wom":0.127078383},"type":"Feature","geometry":{"type":"Point","coordinates":[-81.599648,41.523401]}},{"properties":{"city":"Omaha","threshold-wom":0.064889187,"tipping":2.593930148,"geo_score":0.714,"buzzing":1.519204243,"id":"a97qwoa19vk7","geo_precision":"city","state":"NE","wom":0.124978152},"type":"Feature","geometry":{"type":"Point","coordinates":[-96.171104,41.291736]}},{"properties":{"city":"Sacramento","threshold-wom":0.038600797,"tipping":2.337217692,"geo_score":0.714,"buzzing":1.412620762,"id":"a97qwoh9xxo1","geo_precision":"city","state":"CA","wom":0.093550302},"type":"Feature","geometry":{"type":"Point","coordinates":[-121.555406,38.380456]}},{"properties":{"city":"Fresno","threshold-wom":0.08583747,"tipping":1.926432772,"geo_score":0.714,"buzzing":1.459035296,"id":"a97qwoagd3y3","geo_precision":"city","state":"CA","wom":0.18699536},"type":"Feature","geometry":{"type":"Point","coordinates":[-119.801015,36.8411]}},{"properties":{"city":"Albuquerque","threshold-wom":0.068459597,"tipping":2.657577068,"geo_score":0.714,"buzzing":1.380558904,"id":"a97qwocbo439","geo_precision":"city","state":"NM","wom":0.17989225},"type":"Feature","geometry":{"type":"Point","coordinates":[-106.651137,35.084491]}},{"properties":{"city":"Atlanta","threshold-wom":0.026397497,"tipping":2.902759647,"geo_score":0.714,"buzzing":1.197711636,"id":"a97qwoachnao","geo_precision":"city","state":"GA","wom":0.13351514},"type":"Feature","geometry":{"type":"Point","coordinates":[-84.47405,33.844371]}},{"properties":{"city":"Tucson","threshold-wom":0.043043457,"tipping":3.583459279,"geo_score":0.714,"buzzing":1.29221456,"id":"a97qwo75161y","geo_precision":"city","state":"AZ","wom":0.147300862},"type":"Feature","geometry":{"type":"Point","coordinates":[-110.970869,32.217975]}},{"properties":{"city":"Oklahoma City","threshold-wom":0.028819528,"tipping":1.928944463,"geo_score":0.714,"buzzing":1.219309464,"id":"a97qwoegoxom","geo_precision":"city","state":"OK","wom":0.131410324},"type":"Feature","geometry":{"type":"Point","coordinates":[-97.562817,35.491608]}},{"properties":{"city":"Louisville","threshold-wom":0.103189264,"tipping":1.207658037,"geo_score":0.714,"buzzing":1.711216455,"id":"a97qwo91jkn5","geo_precision":"city","state":"KY","wom":0.145088409},"type":"Feature","geometry":{"type":"Point","coordinates":[-85.676819,38.188962]}},{"properties":{"city":"Portland","threshold-wom":0.035988745,"tipping":1.454055473,"geo_score":0.714,"buzzing":1.259567592,"id":"a97qwo6mevu0","geo_precision":"city","state":"OR","wom":0.138648838},"type":"Feature","geometry":{"type":"Point","coordinates":[-122.693157,45.498931]}},{"properties":{"city":"Las Vegas","threshold-wom":0.050493839,"tipping":2.104996998,"geo_score":0.714,"buzzing":1.329098978,"id":"a97qwo8vt0ii","geo_precision":"city","state":"NV","wom":0.153430556},"type":"Feature","geometry":{"type":"Point","coordinates":[-115.10647,36.17372]}},{"properties":{"city":"Washington","threshold-wom":0.019560409,"tipping":1.362854485,"geo_score":0.714,"buzzing":1.193871101,"id":"a97qwo8spc2d","geo_precision":"city","state":"DC","wom":0.100893887},"type":"Feature","geometry":{"type":"Point","coordinates":[-77.036366,38.895112]}},{"properties":{"city":"Bergen","threshold-wom":0.083050857,"tipping":2.759025805,"geo_score":0.714,"buzzing":1.459332097,"id":"a97qwobsk44a","geo_precision":"city","state":"NJ","wom":0.180807867},"type":"Feature","geometry":{"type":"Point","coordinates":[-74.065697,40.729269]}},{"properties":{"city":"Nashville","threshold-wom":0.119667802,"tipping":2.375701164,"geo_score":0.714,"buzzing":1.667456542,"id":"a97qwo97uv79","geo_precision":"city","state":"TN","wom":0.179289279},"type":"Feature","geometry":{"type":"Point","coordinates":[-86.778098,36.165688]}},{"properties":{"city":"Seattle","threshold-wom":0.012370184,"tipping":1.773548043,"geo_score":0.714,"buzzing":1.159484705,"id":"a97qwoc58eb2","geo_precision":"city","state":"WA","wom":0.077563452},"type":"Feature","geometry":{"type":"Point","coordinates":[-121.803388,47.432251]}},{"properties":{"city":"Denver","threshold-wom":0.040788338,"tipping":1.838414854,"geo_score":0.714,"buzzing":1.393182201,"id":"a97qwo77sodh","geo_precision":"city","state":"CO","wom":0.103739026},"type":"Feature","geometry":{"type":"Point","coordinates":[-104.856808,39.726303]}},{"properties":{"city":"Milwaukee","threshold-wom":0.057102519,"tipping":2.585577449,"geo_score":0.714,"buzzing":1.357612083,"id":"a97qwoern652","geo_precision":"city","state":"WI","wom":0.159677265},"type":"Feature","geometry":{"type":"Point","coordinates":[-87.958409,43.011264]}},{"properties":{"city":"Boston","threshold-wom":0.038129697,"tipping":0.99602023,"geo_score":0.714,"buzzing":1.347899858,"id":"a97qwob4kz77","geo_precision":"city","state":"MA","wom":0.109599633},"type":"Feature","geometry":{"type":"Point","coordinates":[-71.026964,42.370567]}},{"properties":{"city":"Baltimore","threshold-wom":0.028395355,"tipping":1.500420798,"geo_score":0.714,"buzzing":1.20765672,"id":"a97qwofzdmoh","geo_precision":"city","state":"MD","wom":0.136741808},"type":"Feature","geometry":{"type":"Point","coordinates":[-75.844658,39.058168]}},{"properties":{"city":"Memphis","threshold-wom":0.067075433,"tipping":1.692292386,"geo_score":0.714,"buzzing":1.368651859,"id":"a97qwo6mc0mb","geo_precision":"city","state":"TN","wom":0.181947904},"type":"Feature","geometry":{"type":"Point","coordinates":[-89.990415,35.169255]}},{"properties":{"city":"Charlotte","threshold-wom":0.079901143,"tipping":1.455932228,"geo_score":0.714,"buzzing":1.464869726,"id":"a97qwo6qeox6","geo_precision":"city","state":"NC","wom":0.171878569},"type":"Feature","geometry":{"type":"Point","coordinates":[-80.804151,35.26002]}},{"properties":{"city":"Fort Worth","threshold-wom":0.034788852,"tipping":3.351274036,"geo_score":0.714,"buzzing":1.320615707,"id":"a97qwo4f052m","geo_precision":"city","state":"TX","wom":0.108506386},"type":"Feature","geometry":{"type":"Point","coordinates":[-98.399458,29.049969]}},{"properties":{"city":"Columbus","threshold-wom":0.041679795,"tipping":2.527861124,"geo_score":0.714,"buzzing":1.292425271,"id":"a97qwogvbp8b","geo_precision":"city","state":"OH","wom":0.142531439},"type":"Feature","geometry":{"type":"Point","coordinates":[-84.15053,40.97793]}},{"properties":{"city":"Austin","threshold-wom":0.033989015,"tipping":2.555436273,"geo_score":0.714,"buzzing":1.481314629,"id":"a97qwo5b1o9o","geo_precision":"city","state":"TX","wom":0.070617041},"type":"Feature","geometry":{"type":"Point","coordinates":[-97.771258,30.326374]}},{"properties":{"city":"Indianapolis","threshold-wom":0.040550282,"tipping":2.109468667,"geo_score":0.714,"buzzing":1.452301438,"id":"a97qwo8sa4gk","geo_precision":"city","state":"IN","wom":0.089653224},"type":"Feature","geometry":{"type":"Point","coordinates":[-86.13216,39.775092]}},{"properties":{"city":"Duval","threshold-wom":0.042764802,"tipping":2.060610234,"geo_score":0.714,"buzzing":1.275311258,"id":"a97qwoe7ztc1","geo_precision":"city","state":"FL","wom":0.155332557},"type":"Feature","geometry":{"type":"Point","coordinates":[-81.621763,30.48496]}},{"properties":{"city":"San Francisco","threshold-wom":0.022161038,"tipping":0.952636511,"geo_score":0.714,"buzzing":1.282771464,"id":"a97qwodrf4q2","geo_precision":"city","state":"CA","wom":0.078370845},"type":"Feature","geometry":{"type":"Point","coordinates":[-118.298662,33.786594]}},{"properties":{"city":"Detroit","threshold-wom":0.752340529,"tipping":-1.771552607,"geo_score":0.714,"buzzing":9.616820751,"id":"a97qwoca1k1l","geo_precision":"city","state":"MI","wom":0.087310686},"type":"Feature","geometry":{"type":"Point","coordinates":[-83.150823,42.239933]}},{"properties":{"city":"San Jose","threshold-wom":0.046784727,"tipping":2.284110178,"geo_score":0.714,"buzzing":1.300340829,"id":"a97qwo9hk7qy","geo_precision":"city","state":"CA","wom":0.155772116},"type":"Feature","geometry":{"type":"Point","coordinates":[-121.705327,37.189396]}},{"properties":{"city":"San Diego","threshold-wom":0.023163502,"tipping":-0.058462019,"geo_score":0.714,"buzzing":1.251525136,"id":"a97qwofgor1w","geo_precision":"city","state":"CA","wom":0.092092195},"type":"Feature","geometry":{"type":"Point","coordinates":[-117.174366,32.7211]}},{"properties":{"city":"Dallas","threshold-wom":0.080862178,"tipping":5.242700209,"geo_score":0.714,"buzzing":1.568776708,"id":"a97qwo9f1tln","geo_precision":"city","state":"TX","wom":0.142168581},"type":"Feature","geometry":{"type":"Point","coordinates":[-96.240533,32.370699]}},{"properties":{"city":"San Antonio","threshold-wom":0.026555166,"tipping":1.769462999,"geo_score":0.714,"buzzing":1.23235431,"id":"a97qwoaxhi51","geo_precision":"city","state":"TX","wom":0.114287383},"type":"Feature","geometry":{"type":"Point","coordinates":[-102.192713,33.770506]}},{"properties":{"city":"Philadelphia","threshold-wom":0.037136571,"tipping":1.534568245,"geo_score":0.714,"buzzing":1.358130016,"id":"a97qwohkn922","geo_precision":"city","state":"PA","wom":0.103695779},"type":"Feature","geometry":{"type":"Point","coordinates":[-75.11787,40.001811]}},{"properties":{"city":"Maricopa","threshold-wom":0.051824743,"tipping":1.057587779,"geo_score":0.714,"buzzing":1.402572481,"id":"a97qwodtd3hg","geo_precision":"city","state":"AZ","wom":0.128733944},"type":"Feature","geometry":{"type":"Point","coordinates":[-112.053351,32.957645]}},{"properties":{"city":"Piedmont Triad","threshold-wom":0.151743957,"tipping":2.419916965,"geo_score":0.714,"buzzing":1.731493806,"id":"a97qwoezxtuu","geo_precision":"city","state":"NC","wom":0.20744394},"type":"Feature","geometry":{"type":"Point","coordinates":[-80.797571,35.293753]}},{"properties":{"city":"Houston","threshold-wom":0.467004771,"tipping":3.345066854,"geo_score":0.714,"buzzing":4.527650278,"id":"a97qwo4o9vmw","geo_precision":"city","state":"TX","wom":0.13238409},"type":"Feature","geometry":{"type":"Point","coordinates":[-96.919704,29.845783]}},{"properties":{"city":"Chicago","threshold-wom":0.021600027,"tipping":2.847038437,"geo_score":0.714,"buzzing":1.258430338,"id":"a97qwof6hhn3","geo_precision":"city","state":"IL","wom":0.083581624},"type":"Feature","geometry":{"type":"Point","coordinates":[-87.68732,41.811929]}},{"properties":{"city":"Los Angeles","threshold-wom":0.005216648,"tipping":2.709138259,"geo_score":0.714,"buzzing":1.056853604,"id":"a97qwofefhbo","geo_precision":"city","state":"CA","wom":0.091755793},"type":"Feature","geometry":{"type":"Point","coordinates":[-120.618608,38.052816]}},{"properties":{"city":"Long Island","threshold-wom":0.063620584,"tipping":2.016796927,"geo_score":0.714,"buzzing":1.329139902,"id":"a97qwo2wx9aa","geo_precision":"city","state":"NY","wom":0.193293439},"type":"Feature","geometry":{"type":"Point","coordinates":[-77.646948,43.277284]}},{"properties":{"city":"New York","threshold-wom":0.017539392,"tipping":2.70085836,"geo_score":0.714,"buzzing":1.150639706,"id":"a97qwo9rfoal","geo_precision":"city","state":"NY","wom":0.116432731},"type":"Feature","geometry":{"type":"Point","coordinates":[-74.005973,40.714269]}}],"is_temporal":false,"author":{"url":"","metadata":"","contact_name":"","contact_address":"","source":"","contact_phone":""},"source":"","pagination":{"sort":null,"start":0,"total":77,"limit":1000000},"state":"complete","tags":"","published":"2014-08-14T18:37:11-04:00","id":283202}