{"type":"FeatureCollection","data_type":"Dataset","url_type":null,"permissions":[{"permissions":{"download":true,"view":true},"group_id":"everyone"}],"classification":null,"title":"Alabama Federal Courthouses","count":27,"stream_id":283640,"contributor":{"url":"http://geocommons.com/users/45691","name":"CalebChase"},"data_attributes":null,"calculation_params":null,"icon_link":null,"link":"http://geocommons.com/overlays/283640.json","extent":[-88.0936,30.7382,-85.3783,34.8025],"geometry_types":["point"],"unique_name":null,"name":"Alabama Federal Courthouses","feature_count":27,"description":"Name and address of Federal Courts in Alabama","next_feature":null,"is_raster":false,"short_classification":"Y","stats":{},"features":[{"properties":{"city":"Anniston","column_7":null,"dates of use":"1906present","geo_score":0.902,"street address":"1129 Noble Street","jurisdiction[1]":"N.D. Ala.","named for":"n/a","id":"a9992205mu5s","geo_precision":"range","courthouse":"U.S. Court House &amp; Post Office","state":"Alabama"},"type":"Feature","geometry":{"type":"Point","coordinates":[-85.829697,33.658463]}},{"properties":{"city":"Birmingham","column_7":null,"dates of use":"18931921","geo_score":0.422,"street address":"Second Avenue North and 18th Street","jurisdiction[1]":"N.D. Ala.","named for":"n/a","id":"a99922ehrqs2","geo_precision":"street","courthouse":"U.S. Court House &amp; Post Office","state":null},"type":"Feature","geometry":{"type":"Point","coordinates":[-86.827653,33.483038]}},{"properties":{"city":null,"column_7":null,"dates of use":"(razed in the early 20th century)","geo_score":0.0,"street address":null,"jurisdiction[1]":null,"named for":null,"id":"a999228hyc2q","geo_precision":"unmatched","courthouse":null,"state":"Alabama"},"type":"Feature","geometry":null},{"properties":{"city":"Birmingham","column_7":null,"dates of use":"1921present","geo_score":0.837,"street address":"1800 5th Avenue North","jurisdiction[1]":"N.D. Ala.","named for":"Court of Appeals judge Robert Smith Vance (1990)","id":"a999227fypgb","geo_precision":"range","courthouse":"Robert S. Vance Federal Building &amp; U.S. Courthouse","state":"Alabama"},"type":"Feature","geometry":{"type":"Point","coordinates":[-86.809582,33.517429]}},{"properties":{"city":"Birmingham","column_7":null,"dates of use":"1987present","geo_score":0.837,"street address":"1729 Fifth Avenue North","jurisdiction[1]":"N.D. Ala.","named for":"U.S. Senator and Supreme Court Justice Hugo Black (1987)","id":"a99922aho6w2","geo_precision":"range","courthouse":"Hugo L. Black U.S. Courthouse","state":"Alabama"},"type":"Feature","geometry":{"type":"Point","coordinates":[-86.811301,33.516497]}},{"properties":{"city":"Decatur","column_7":null,"dates of use":"1961present","geo_score":0.815,"street address":"400 Well Street","jurisdiction[1]":"N.D. Ala.","named for":"District Court judge Seybourn Harris Lynne (1995)","id":"a999220dxkar","geo_precision":"range","courthouse":"Seybourn H. Lynne U.S. Courthouse &amp; Post Office","state":"Alabama"},"type":"Feature","geometry":{"type":"Point","coordinates":[-86.981948,34.607258]}},{"properties":{"city":"Dothan","column_7":null,"dates of use":"1911present","geo_score":0.902,"street address":"100 West Troy Street","jurisdiction[1]":"M.D. Ala.","named for":"n/a","id":"a999221vg14x","geo_precision":"range","courthouse":"Federal Building and United States Courthouse","state":"Alabama"},"type":"Feature","geometry":{"type":"Point","coordinates":[-85.393588,31.225213]}},{"properties":{"city":"Florence","column_7":null,"dates of use":"1913present","geo_score":0.902,"street address":"210 North Seminary Street","jurisdiction[1]":"N.D. Ala.","named for":"U.S. Senator and Supreme Court Justice John McKinley (1998)","id":"a999224ltd43","geo_precision":"range","courthouse":"John McKinley Federal Building","state":"Alabama"},"type":"Feature","geometry":{"type":"Point","coordinates":[-87.67559,34.802451]}},{"properties":{"city":"Gadsden","column_7":null,"dates of use":"1910present","geo_score":0.902,"street address":"600 Broad Street","jurisdiction[1]":"N.D. Ala.","named for":"n/a","id":"a99921zmm51k","geo_precision":"range","courthouse":"Federal Building &amp; U.S. Courthouse","state":"Alabama"},"type":"Feature","geometry":{"type":"Point","coordinates":[-86.008086,34.014976]}},{"properties":{"city":"Huntsville","column_7":null,"dates of use":"18901936","geo_score":0.58,"street address":"Corner of Eustis Avenue and Greene Street","jurisdiction[1]":"N.D. Ala.","named for":"n/a","id":"a9992276rvo0","geo_precision":"street","courthouse":"U.S. Court House &amp; Post Office","state":"Alabama"},"type":"Feature","geometry":{"type":"Point","coordinates":[-86.583226,34.73064]}},{"properties":{"city":null,"column_7":null,"dates of use":null,"geo_score":0.0,"street address":null,"jurisdiction[1]":null,"named for":null,"id":"a999222zkl3s","geo_precision":"unmatched","courthouse":null,"state":"Alabama"},"type":"Feature","geometry":null},{"properties":{"city":null,"column_7":null,"dates of use":null,"geo_score":0.0,"street address":null,"jurisdiction[1]":null,"named for":null,"id":"a9992261322f","geo_precision":"unmatched","courthouse":null,"state":"Alabama"},"type":"Feature","geometry":null},{"properties":{"city":null,"column_7":null,"dates of use":"(razed in 1954)","geo_score":0.0,"street address":null,"jurisdiction[1]":null,"named for":null,"id":"a99922dah0mo","geo_precision":"unmatched","courthouse":null,"state":"Alabama"},"type":"Feature","geometry":null},{"properties":{"city":"Huntsville","column_7":null,"dates of use":"1936present","geo_score":0.79,"street address":"101 East Holmes Avenue","jurisdiction[1]":"N.D. Ala.","named for":"n/a","id":"a99922e1jugf","geo_precision":"range","courthouse":"U.S. Court House &amp; Post Office","state":"Alabama"},"type":"Feature","geometry":{"type":"Point","coordinates":[-86.587184,34.732121]}},{"properties":{"city":"Mobile","column_7":null,"dates of use":"18561934","geo_score":0.468,"street address":"107 St. Francis St","jurisdiction[1]":"S.D. Ala.","named for":"n/a","id":"a999227270nx","geo_precision":"street","courthouse":"U.S. Custom House &amp; Post Office","state":"Alabama"},"type":"Feature","geometry":{"type":"Point","coordinates":[-88.069481,30.738196]}},{"properties":{"city":null,"column_7":null,"dates of use":null,"geo_score":0.0,"street address":null,"jurisdiction[1]":null,"named for":null,"id":"a999220usz8a","geo_precision":"unmatched","courthouse":null,"state":"Alabama"},"type":"Feature","geometry":null},{"properties":{"city":null,"column_7":null,"dates of use":null,"geo_score":0.0,"street address":null,"jurisdiction[1]":null,"named for":null,"id":"a99922e1st6u","geo_precision":"unmatched","courthouse":null,"state":"Alabama"},"type":"Feature","geometry":null},{"properties":{"city":null,"column_7":null,"dates of use":"Razed in 1963; now the site of the RSABankTrust Building.","geo_score":0.0,"street address":null,"jurisdiction[1]":null,"named for":null,"id":"a99921zquh56","geo_precision":"unmatched","courthouse":null,"state":"Alabama"},"type":"Feature","geometry":null},{"properties":{"city":"Mobile","column_7":null,"dates of use":"1934present","geo_score":0.464,"street address":"113 St. Joseph Street","jurisdiction[1]":"S.D. Ala.","named for":"Supreme Court Justice John Archibald Campbell (1981)","id":"a99922cpys4u","geo_precision":"street","courthouse":"John Archibald Campbell U.S. Courthouse","state":"Alabama"},"type":"Feature","geometry":{"type":"Point","coordinates":[-88.093561,30.74393]}},{"properties":{"city":"Montgomery","column_7":null,"dates of use":"18851933","geo_score":0.902,"street address":"2 South Lawrence Street","jurisdiction[1]":"M.D. Ala.","named for":"n/a","id":"a99922bwb4d2","geo_precision":"range","courthouse":"U.S. Court House &amp; Post Office","state":"Alabama"},"type":"Feature","geometry":{"type":"Point","coordinates":[-86.306152,32.3763]}},{"properties":{"city":null,"column_7":null,"dates of use":null,"geo_score":0.0,"street address":null,"jurisdiction[1]":null,"named for":null,"id":"a99922agppbx","geo_precision":"unmatched","courthouse":null,"state":"Alabama"},"type":"Feature","geometry":null},{"properties":{"city":null,"column_7":null,"dates of use":null,"geo_score":0.0,"street address":null,"jurisdiction[1]":"5th Circuit","named for":null,"id":"a999226p05g3","geo_precision":"unmatched","courthouse":null,"state":"Alabama"},"type":"Feature","geometry":null},{"properties":{"city":"Montgomery","column_7":null,"dates of use":"1932present","geo_score":0.902,"street address":"15 Lee Street","jurisdiction[1]":"M.D. Ala.","named for":"District Court judge Frank Minis Johnson (1992)","id":"a99922eu7q8s","geo_precision":"range","courthouse":"Frank M. Johnson, Jr. Federal Bldg &amp; U.S. Courthouse","state":"Alabama"},"type":"Feature","geometry":{"type":"Point","coordinates":[-86.308951,32.375327]}},{"properties":{"city":"Opelika","column_7":null,"dates of use":"1918present","geo_score":0.902,"street address":"701 Avenue A","jurisdiction[1]":"M.D. Ala.","named for":"U.S. Rep. George W. Andrews (1968)","id":"a999227gd721","geo_precision":"range","courthouse":"George W. Andrews Federal Building &amp; U.S. Courthouse","state":"Alabama"},"type":"Feature","geometry":{"type":"Point","coordinates":[-85.378349,32.64738]}},{"properties":{"city":"Selma","column_7":null,"dates of use":"1909present","geo_score":0.727,"street address":"908 Alabama Avenue","jurisdiction[1]":"S.D. Ala.","named for":"n/a","id":"a999221ebnxm","geo_precision":"street","courthouse":"Federal Building &amp; U.S. Courthouse","state":"Alabama"},"type":"Feature","geometry":{"type":"Point","coordinates":[-87.023016,32.406481]}},{"properties":{"city":"Tuscaloosa","column_7":null,"dates of use":"19101968","geo_score":0.902,"street address":"2201 University Boulevard","jurisdiction[1]":"M.D. Ala.","named for":"n/a","id":"a99922dw5n9r","geo_precision":"range","courthouse":"U.S. Post Office &amp; Court House[2]","state":"Alabama"},"type":"Feature","geometry":{"type":"Point","coordinates":[-87.566499,33.21037]}},{"properties":{"city":"Tuscaloosa","column_7":null,"dates of use":"c. 1968present","geo_score":0.902,"street address":"1118 Greensboro Avenue","jurisdiction[1]":"N.D. Ala.","named for":"n/a","id":"a9992281z89m","geo_precision":"range","courthouse":"Federal Building &amp; U.S. Courthouse","state":"Alabama"},"type":"Feature","geometry":{"type":"Point","coordinates":[-87.565854,33.203305]}}],"is_temporal":false,"author":{"url":"","metadata":"","contact_name":"","contact_address":"","source":"","contact_phone":""},"source":"","pagination":{"sort":null,"start":0,"total":27,"limit":1000000},"state":"complete","tags":"alabama,courthouses,federal","published":"2012-10-12T16:00:00Z","id":283640}