{"type":"FeatureCollection","data_type":"Dataset","url_type":null,"permissions":[{"permissions":{"download":true,"view":true},"group_id":"everyone"}],"classification":null,"title":"china_map","count":190,"stream_id":283714,"contributor":{"url":"http://geocommons.com/users/53577","name":"william shu"},"data_attributes":null,"calculation_params":null,"icon_link":null,"link":"http://geocommons.com/overlays/283714.json","extent":[94.8667,18.6106,130.35,47.2396],"geometry_types":["point"],"unique_name":null,"name":"china_map","feature_count":190,"description":"","next_feature":null,"is_raster":false,"short_classification":"Y","stats":{},"features":[{"properties":{"city":"Rizhao","country":"China","geo_score":0.857,"id":"a99da5zn139q","geo_precision":"zip"},"type":"Feature","geometry":{"type":"Point","coordinates":[119.5458333,35.3902778]}},{"properties":{"city":"Qingdao","country":"China","geo_score":0.857,"id":"a99da67qja8c","geo_precision":"zip"},"type":"Feature","geometry":{"type":"Point","coordinates":[123.2758333,39.8347222]}},{"properties":{"city":"Shantou","country":"China","geo_score":0.857,"id":"a99da63g98py","geo_precision":"zip"},"type":"Feature","geometry":{"type":"Point","coordinates":[107.01,29.7661111]}},{"properties":{"city":"Tianjin","country":"China","geo_score":0.857,"id":"a99da6bp7tkn","geo_precision":"zip"},"type":"Feature","geometry":{"type":"Point","coordinates":[110.4858333,18.9722222]}},{"properties":{"city":"Zhangzhou","country":"China","geo_score":0.857,"id":"a99da6cp8z4d","geo_precision":"zip"},"type":"Feature","geometry":{"type":"Point","coordinates":[117.6555556,24.5133333]}},{"properties":{"city":"Yichang","country":"China","geo_score":0.857,"id":"a99da61qwcak","geo_precision":"zip"},"type":"Feature","geometry":{"type":"Point","coordinates":[105.9983333,27.3655556]}},{"properties":{"city":"Tacheng Area","country":"China","geo_score":0.857,"id":"a99da6a6bvxl","geo_precision":"zip"},"type":"Feature","geometry":{"type":"Point","coordinates":[94.8666667,29.5333333]}},{"properties":{"city":"Luohe","country":"China","geo_score":0.857,"id":"a99da619x42i","geo_precision":"zip"},"type":"Feature","geometry":{"type":"Point","coordinates":[105.1166667,26.6]}},{"properties":{"city":"Zhangjiakou","country":"China","geo_score":0.857,"id":"a99da614j54o","geo_precision":"zip"},"type":"Feature","geometry":{"type":"Point","coordinates":[116.471677,24.537138]}},{"properties":{"city":"Heze","country":"China","geo_score":0.857,"id":"a99da61cam4y","geo_precision":"zip"},"type":"Feature","geometry":{"type":"Point","coordinates":[97.8833333,24.45]}},{"properties":{"city":"Shanghai","country":"China","geo_score":0.857,"id":"a99da6amlyxf","geo_precision":"zip"},"type":"Feature","geometry":{"type":"Point","coordinates":[120.4277778,28.7658333]}},{"properties":{"city":"Shanghai","country":"China","geo_score":0.857,"id":"a99da63z9f7j","geo_precision":"zip"},"type":"Feature","geometry":{"type":"Point","coordinates":[120.4277778,28.7658333]}},{"properties":{"city":"Linxiahuizu Zi Zhi Zhou","country":"China","geo_score":0.857,"id":"a99da65i76x4","geo_precision":"zip"},"type":"Feature","geometry":{"type":"Point","coordinates":[119.7061111,25.6155556]}},{"properties":{"city":"Shanghai","country":"China","geo_score":0.857,"id":"a99da6a79q3i","geo_precision":"zip"},"type":"Feature","geometry":{"type":"Point","coordinates":[120.4277778,28.7658333]}},{"properties":{"city":"Penglai","country":"China","geo_score":0.857,"id":"a99da631sbiu","geo_precision":"zip"},"type":"Feature","geometry":{"type":"Point","coordinates":[117.6880556,25.2491667]}},{"properties":{"city":"Zhanjiang","country":"China","geo_score":0.857,"id":"a99da6a8x8he","geo_precision":"zip"},"type":"Feature","geometry":{"type":"Point","coordinates":[114.1338889,26.8780556]}},{"properties":{"city":"Dalian","country":"China","geo_score":0.857,"id":"a99da6cxyslh","geo_precision":"zip"},"type":"Feature","geometry":{"type":"Point","coordinates":[119.0733333,25.3105556]}},{"properties":{"city":"Dalian","country":"China","geo_score":0.857,"id":"a99da5ycvj75","geo_precision":"zip"},"type":"Feature","geometry":{"type":"Point","coordinates":[119.0733333,25.3105556]}},{"properties":{"city":"Qingdao","country":"China","geo_score":0.857,"id":"a99da67bj0tv","geo_precision":"zip"},"type":"Feature","geometry":{"type":"Point","coordinates":[123.2758333,39.8347222]}},{"properties":{"city":"Rizhao","country":"China","geo_score":0.857,"id":"a99da68wtg52","geo_precision":"zip"},"type":"Feature","geometry":{"type":"Point","coordinates":[119.5458333,35.3902778]}},{"properties":{"city":"Yangjiang","country":"China","geo_score":0.857,"id":"a99da6ds839j","geo_precision":"zip"},"type":"Feature","geometry":{"type":"Point","coordinates":[117.9133333,28.1386111]}},{"properties":{"city":"Weihai","country":"China","geo_score":0.857,"id":"a99da60a8t7d","geo_precision":"zip"},"type":"Feature","geometry":{"type":"Point","coordinates":[118.1322222,25.5772222]}},{"properties":{"city":"Jiaonan","country":"China","geo_score":0.857,"id":"a99da62u4wqd","geo_precision":"zip"},"type":"Feature","geometry":{"type":"Point","coordinates":[113.151984,22.7053043]}},{"properties":{"city":"Donggang","country":"China","geo_score":0.857,"id":"a99da666q4ny","geo_precision":"zip"},"type":"Feature","geometry":{"type":"Point","coordinates":[121.4738889,31.8280556]}},{"properties":{"city":"Pulandian","country":"China","geo_score":0.857,"id":"a99da60927xn","geo_precision":"zip"},"type":"Feature","geometry":{"type":"Point","coordinates":[114.1088889,25.9125]}},{"properties":{"city":"Penglai","country":"China","geo_score":0.857,"id":"a99da66wp14g","geo_precision":"zip"},"type":"Feature","geometry":{"type":"Point","coordinates":[117.6880556,25.2491667]}},{"properties":{"city":"Yantai","country":"China","geo_score":0.857,"id":"a99da62azbuu","geo_precision":"zip"},"type":"Feature","geometry":{"type":"Point","coordinates":[106.01564,31.65796]}},{"properties":{"city":"Dalian","country":"China","geo_score":0.857,"id":"a99da613p46f","geo_precision":"zip"},"type":"Feature","geometry":{"type":"Point","coordinates":[119.0733333,25.3105556]}},{"properties":{"city":"Rongcheng","country":"China","geo_score":0.857,"id":"a99da6coe3gg","geo_precision":"zip"},"type":"Feature","geometry":{"type":"Point","coordinates":[122.6075,37.3416667]}},{"properties":{"city":"Qingdao","country":"China","geo_score":0.857,"id":"a99da60vs4bz","geo_precision":"zip"},"type":"Feature","geometry":{"type":"Point","coordinates":[123.2758333,39.8347222]}},{"properties":{"city":"Shanwei","country":"China","geo_score":0.857,"id":"a99da6321jvh","geo_precision":"zip"},"type":"Feature","geometry":{"type":"Point","coordinates":[112.698903,23.26994]}},{"properties":{"city":"Hangzhou","country":"China","geo_score":0.857,"id":"a99da63d21ds","geo_precision":"zip"},"type":"Feature","geometry":{"type":"Point","coordinates":[111.202609,21.950227]}},{"properties":{"city":"Huzhou","country":"China","geo_score":0.857,"id":"a99da5zl38us","geo_precision":"zip"},"type":"Feature","geometry":{"type":"Point","coordinates":[113.169189,22.67079]}},{"properties":{"city":"Lianyungang","country":"China","geo_score":0.857,"id":"a99da67o8tzw","geo_precision":"zip"},"type":"Feature","geometry":{"type":"Point","coordinates":[119.1122821,34.5484419]}},{"properties":{"city":"Fuzhou","country":"China","geo_score":0.857,"id":"a99da67mwl0c","geo_precision":"zip"},"type":"Feature","geometry":{"type":"Point","coordinates":[111.207027,21.982146]}},{"properties":{"city":"Weihai","country":"China","geo_score":0.857,"id":"a99da65zqiqh","geo_precision":"zip"},"type":"Feature","geometry":{"type":"Point","coordinates":[118.1322222,25.5772222]}},{"properties":{"city":"Binzhou","country":"China","geo_score":0.857,"id":"a99da6bvt57i","geo_precision":"zip"},"type":"Feature","geometry":{"type":"Point","coordinates":[123.1666667,44.6]}},{"properties":{"city":"Chongqing","country":"China","geo_score":0.857,"id":"a99da5z8qs2f","geo_precision":"zip"},"type":"Feature","geometry":{"type":"Point","coordinates":[112.864642,23.263988]}},{"properties":{"city":"Zhucheng","country":"China","geo_score":0.857,"id":"a99da626niux","geo_precision":"zip"},"type":"Feature","geometry":{"type":"Point","coordinates":[118.3916667,30.7916667]}},{"properties":{"city":"Jinhua","country":"China","geo_score":0.857,"id":"a99da68hwope","geo_precision":"zip"},"type":"Feature","geometry":{"type":"Point","coordinates":[110.3919444,20.4966667]}},{"properties":{"city":"Nangong","country":"China","geo_score":0.857,"id":"a99da63idywl","geo_precision":"zip"},"type":"Feature","geometry":{"type":"Point","coordinates":[109.315,19.1005556]}},{"properties":{"city":"Yibin","country":"China","geo_score":0.857,"id":"a99da68yhcnn","geo_precision":"zip"},"type":"Feature","geometry":{"type":"Point","coordinates":[117.3833333,28.6666667]}},{"properties":{"city":"Jiaozuo","country":"China","geo_score":0.857,"id":"a99da60oxe7g","geo_precision":"zip"},"type":"Feature","geometry":{"type":"Point","coordinates":[114.3666667,23.5333333]}},{"properties":{"city":"Dezhou","country":"China","geo_score":0.857,"id":"a99da61f1p5j","geo_precision":"zip"},"type":"Feature","geometry":{"type":"Point","coordinates":[115.858275,24.5803721]}},{"properties":{"city":"Meishan","country":"China","geo_score":0.857,"id":"a99da69ootq7","geo_precision":"zip"},"type":"Feature","geometry":{"type":"Point","coordinates":[109.6502778,33.1711111]}},{"properties":{"city":"Taian","country":"China","geo_score":0.857,"id":"a99da6avaw96","geo_precision":"zip"},"type":"Feature","geometry":{"type":"Point","coordinates":[118.48,24.7727778]}},{"properties":{"city":"Tongliao","country":"China","geo_score":0.857,"id":"a99da6af2e1a","geo_precision":"zip"},"type":"Feature","geometry":{"type":"Point","coordinates":[95.3166667,30.6666667]}},{"properties":{"city":"Jinzhou","country":"China","geo_score":0.857,"id":"a99da68xpkp3","geo_precision":"zip"},"type":"Feature","geometry":{"type":"Point","coordinates":[115.215,37.1916667]}},{"properties":{"city":"Bengbu","country":"China","geo_score":0.857,"id":"a99da6822gq8","geo_precision":"zip"},"type":"Feature","geometry":{"type":"Point","coordinates":[105.325,25.9916667]}},{"properties":{"city":"Zigong","country":"China","geo_score":0.857,"id":"a99da6d1atzh","geo_precision":"zip"},"type":"Feature","geometry":{"type":"Point","coordinates":[109.8197222,18.6105556]}},{"properties":{"city":"Zhaodong","country":"China","geo_score":0.857,"id":"a99da62evetv","geo_precision":"zip"},"type":"Feature","geometry":{"type":"Point","coordinates":[116.378886,24.354619]}},{"properties":{"city":"Heshan","country":"China","geo_score":0.857,"id":"a99da61akgqb","geo_precision":"zip"},"type":"Feature","geometry":{"type":"Point","coordinates":[112.6863889,28.9241667]}},{"properties":{"city":"Huizhou","country":"China","geo_score":0.857,"id":"a99da60nkdy7","geo_precision":"zip"},"type":"Feature","geometry":{"type":"Point","coordinates":[113.169189,22.67079]}},{"properties":{"city":"Xiangtan","country":"China","geo_score":0.857,"id":"a99da5zzl5e1","geo_precision":"zip"},"type":"Feature","geometry":{"type":"Point","coordinates":[109.9091667,25.0275]}},{"properties":{"city":"Huhehaote","country":"China","geo_score":0.0,"id":"a99da609yhm5","geo_precision":"unmatched"},"type":"Feature","geometry":null},{"properties":{"city":"Weifang","country":"China","geo_score":0.857,"id":"a99da6bk1hax","geo_precision":"zip"},"type":"Feature","geometry":{"type":"Point","coordinates":[117.9218925,27.172671]}},{"properties":{"city":"Heze","country":"China","geo_score":0.857,"id":"a99da6ccbv91","geo_precision":"zip"},"type":"Feature","geometry":{"type":"Point","coordinates":[97.8833333,24.45]}},{"properties":{"city":"Dalian","country":"China","geo_score":0.857,"id":"a99da61ynlag","geo_precision":"zip"},"type":"Feature","geometry":{"type":"Point","coordinates":[119.0733333,25.3105556]}},{"properties":{"city":"Luzhou","country":"China","geo_score":0.857,"id":"a99da62z4gzk","geo_precision":"zip"},"type":"Feature","geometry":{"type":"Point","coordinates":[103.8833333,27.9]}},{"properties":{"city":"Shifang","country":"China","geo_score":0.857,"id":"a99da66mytsd","geo_precision":"zip"},"type":"Feature","geometry":{"type":"Point","coordinates":[110.8944444,27.4491667]}},{"properties":{"city":"Beijing","country":"China","geo_score":0.857,"id":"a99da655jpsd","geo_precision":"zip"},"type":"Feature","geometry":{"type":"Point","coordinates":[108.55,23.8]}},{"properties":{"city":"Tongliao","country":"China","geo_score":0.857,"id":"a99da62md2n6","geo_precision":"zip"},"type":"Feature","geometry":{"type":"Point","coordinates":[95.3166667,30.6666667]}},{"properties":{"city":"Jiutai","country":"China","geo_score":0.857,"id":"a99da66xlqgm","geo_precision":"zip"},"type":"Feature","geometry":{"type":"Point","coordinates":[119.75,34.35]}},{"properties":{"city":"Tongliao","country":"China","geo_score":0.857,"id":"a99da65chp6a","geo_precision":"zip"},"type":"Feature","geometry":{"type":"Point","coordinates":[95.3166667,30.6666667]}},{"properties":{"city":"Kaiyuan","country":"China","geo_score":0.857,"id":"a99da623l136","geo_precision":"zip"},"type":"Feature","geometry":{"type":"Point","coordinates":[107.0,24.65]}},{"properties":{"city":"Liuan","country":"China","geo_score":0.857,"id":"a99da67gy4su","geo_precision":"zip"},"type":"Feature","geometry":{"type":"Point","coordinates":[117.9627778,25.0463889]}},{"properties":{"city":"Heze","country":"China","geo_score":0.857,"id":"a99da68ddbj2","geo_precision":"zip"},"type":"Feature","geometry":{"type":"Point","coordinates":[97.8833333,24.45]}},{"properties":{"city":"Huaibei","country":"China","geo_score":0.857,"id":"a99da61ec5rp","geo_precision":"zip"},"type":"Feature","geometry":{"type":"Point","coordinates":[114.1925,35.8991667]}},{"properties":{"city":"Yangzhou","country":"China","geo_score":0.857,"id":"a99da6bozftf","geo_precision":"zip"},"type":"Feature","geometry":{"type":"Point","coordinates":[111.0738889,35.6052778]}},{"properties":{"city":"Zhangzhou","country":"China","geo_score":0.857,"id":"a99da6crbn5d","geo_precision":"zip"},"type":"Feature","geometry":{"type":"Point","coordinates":[117.6555556,24.5133333]}},{"properties":{"city":"Beijing","country":"China","geo_score":0.857,"id":"a99da6azkbra","geo_precision":"zip"},"type":"Feature","geometry":{"type":"Point","coordinates":[108.55,23.8]}},{"properties":{"city":"Weifang","country":"China","geo_score":0.857,"id":"a99da694l642","geo_precision":"zip"},"type":"Feature","geometry":{"type":"Point","coordinates":[117.9218925,27.172671]}},{"properties":{"city":"Beihai","country":"China","geo_score":0.857,"id":"a99da5z7pwzc","geo_precision":"zip"},"type":"Feature","geometry":{"type":"Point","coordinates":[107.1540105,31.0352385]}},{"properties":{"city":"Shanghai","country":"China","geo_score":0.857,"id":"a99da69qwg3i","geo_precision":"zip"},"type":"Feature","geometry":{"type":"Point","coordinates":[120.4277778,28.7658333]}},{"properties":{"city":"Shanghai","country":"China","geo_score":0.857,"id":"a99da60ni44o","geo_precision":"zip"},"type":"Feature","geometry":{"type":"Point","coordinates":[120.4277778,28.7658333]}},{"properties":{"city":"Tengzhou","country":"China","geo_score":0.857,"id":"a99da6cfpr7j","geo_precision":"zip"},"type":"Feature","geometry":{"type":"Point","coordinates":[124.325,41.6488889]}},{"properties":{"city":"Changge","country":"China","geo_score":0.857,"id":"a99da6cize1z","geo_precision":"zip"},"type":"Feature","geometry":{"type":"Point","coordinates":[120.4277778,28.7658333]}},{"properties":{"city":"Shanghai","country":"China","geo_score":0.857,"id":"a99da6bq0v27","geo_precision":"zip"},"type":"Feature","geometry":{"type":"Point","coordinates":[120.4277778,28.7658333]}},{"properties":{"city":"Taian","country":"China","geo_score":0.857,"id":"a99da68o0h18","geo_precision":"zip"},"type":"Feature","geometry":{"type":"Point","coordinates":[118.48,24.7727778]}},{"properties":{"city":"Langfang","country":"China","geo_score":0.857,"id":"a99da69969gb","geo_precision":"zip"},"type":"Feature","geometry":{"type":"Point","coordinates":[118.5955556,25.4522222]}},{"properties":{"city":"Zhucheng","country":"China","geo_score":0.857,"id":"a99da6b48f4m","geo_precision":"zip"},"type":"Feature","geometry":{"type":"Point","coordinates":[118.3916667,30.7916667]}},{"properties":{"city":"Zhoukou","country":"China","geo_score":0.857,"id":"a99da65c07el","geo_precision":"zip"},"type":"Feature","geometry":{"type":"Point","coordinates":[115.1469444,27.4936111]}},{"properties":{"city":"Yongji","country":"China","geo_score":0.857,"id":"a99da63zorbu","geo_precision":"zip"},"type":"Feature","geometry":{"type":"Point","coordinates":[111.5366667,28.2330556]}},{"properties":{"city":"Anyang","country":"China","geo_score":0.857,"id":"a99da6041ieh","geo_precision":"zip"},"type":"Feature","geometry":{"type":"Point","coordinates":[114.3366667,36.1363889]}},{"properties":{"city":"Haerbin","country":"China","geo_score":0.857,"id":"a99da69tc8iy","geo_precision":"zip"},"type":"Feature","geometry":{"type":"Point","coordinates":[126.250328,45.623403]}},{"properties":{"city":"Linyi","country":"China","geo_score":0.857,"id":"a99da62x4m7b","geo_precision":"zip"},"type":"Feature","geometry":{"type":"Point","coordinates":[110.3347222,18.8419444]}},{"properties":{"city":"Chengde","country":"China","geo_score":0.857,"id":"a99da6cpexem","geo_precision":"zip"},"type":"Feature","geometry":{"type":"Point","coordinates":[120.3527778,32.9611111]}},{"properties":{"city":"Chifeng","country":"China","geo_score":0.857,"id":"a99da668zmym","geo_precision":"zip"},"type":"Feature","geometry":{"type":"Point","coordinates":[110.8944444,27.4491667]}},{"properties":{"city":"Yanzhou","country":"China","geo_score":0.857,"id":"a99da68gm3p6","geo_precision":"zip"},"type":"Feature","geometry":{"type":"Point","coordinates":[109.7652778,28.7638889]}},{"properties":{"city":"Weifang","country":"China","geo_score":0.857,"id":"a99da6c3ckb6","geo_precision":"zip"},"type":"Feature","geometry":{"type":"Point","coordinates":[117.9218925,27.172671]}},{"properties":{"city":"Anyang","country":"China","geo_score":0.857,"id":"a99da623pnb3","geo_precision":"zip"},"type":"Feature","geometry":{"type":"Point","coordinates":[114.3366667,36.1363889]}},{"properties":{"city":"Beijing","country":"China","geo_score":0.857,"id":"a99da609pfjf","geo_precision":"zip"},"type":"Feature","geometry":{"type":"Point","coordinates":[108.55,23.8]}},{"properties":{"city":"Shanghai","country":"China","geo_score":0.857,"id":"a99da6dzfemw","geo_precision":"zip"},"type":"Feature","geometry":{"type":"Point","coordinates":[120.4277778,28.7658333]}},{"properties":{"city":"Nanchang","country":"China","geo_score":0.857,"id":"a99da6buenkw","geo_precision":"zip"},"type":"Feature","geometry":{"type":"Point","coordinates":[118.2975,25.7866667]}},{"properties":{"city":"Chongqing","country":"China","geo_score":0.857,"id":"a99da5zlxh3l","geo_precision":"zip"},"type":"Feature","geometry":{"type":"Point","coordinates":[112.864642,23.263988]}},{"properties":{"city":"Linyi","country":"China","geo_score":0.857,"id":"a99da6e0f93r","geo_precision":"zip"},"type":"Feature","geometry":{"type":"Point","coordinates":[110.3347222,18.8419444]}},{"properties":{"city":"Jiamusi","country":"China","geo_score":0.857,"id":"a99da5ziuu7t","geo_precision":"zip"},"type":"Feature","geometry":{"type":"Point","coordinates":[130.35,46.8333333]}},{"properties":{"city":"Qingzhou","country":"China","geo_score":0.857,"id":"a99da65vberq","geo_precision":"zip"},"type":"Feature","geometry":{"type":"Point","coordinates":[117.3852778,33.9061111]}},{"properties":{"city":"Yucheng","country":"China","geo_score":0.857,"id":"a99da69345es","geo_precision":"zip"},"type":"Feature","geometry":{"type":"Point","coordinates":[105.9983333,27.3655556]}},{"properties":{"city":"Linyi","country":"China","geo_score":0.857,"id":"a99da63rdok3","geo_precision":"zip"},"type":"Feature","geometry":{"type":"Point","coordinates":[110.3347222,18.8419444]}},{"properties":{"city":"Qiqihaer","country":"China","geo_score":0.857,"id":"a99da60dvjm8","geo_precision":"zip"},"type":"Feature","geometry":{"type":"Point","coordinates":[123.918131,47.239628]}},{"properties":{"city":"Pingdu","country":"China","geo_score":0.857,"id":"a99da5yv3s12","geo_precision":"zip"},"type":"Feature","geometry":{"type":"Point","coordinates":[122.65,45.7166667]}},{"properties":{"city":"Qingzhou","country":"China","geo_score":0.857,"id":"a99da60d0w3t","geo_precision":"zip"},"type":"Feature","geometry":{"type":"Point","coordinates":[117.3852778,33.9061111]}},{"properties":{"city":"Linyi","country":"China","geo_score":0.857,"id":"a99da6bmpqzr","geo_precision":"zip"},"type":"Feature","geometry":{"type":"Point","coordinates":[110.3347222,18.8419444]}},{"properties":{"city":"Dezhou","country":"China","geo_score":0.857,"id":"a99da65szl27","geo_precision":"zip"},"type":"Feature","geometry":{"type":"Point","coordinates":[115.858275,24.5803721]}},{"properties":{"city":"Zhucheng","country":"China","geo_score":0.857,"id":"a99da6d8l9hi","geo_precision":"zip"},"type":"Feature","geometry":{"type":"Point","coordinates":[118.3916667,30.7916667]}},{"properties":{"city":"Jining","country":"China","geo_score":0.857,"id":"a99da64vr7pm","geo_precision":"zip"},"type":"Feature","geometry":{"type":"Point","coordinates":[116.5293046,31.7418994]}},{"properties":{"city":"Beijing","country":"China","geo_score":0.857,"id":"a99da66x67z1","geo_precision":"zip"},"type":"Feature","geometry":{"type":"Point","coordinates":[108.55,23.8]}},{"properties":{"city":"Binzhou","country":"China","geo_score":0.857,"id":"a99da6czva7e","geo_precision":"zip"},"type":"Feature","geometry":{"type":"Point","coordinates":[123.1666667,44.6]}},{"properties":{"city":"Xiamen","country":"China","geo_score":0.857,"id":"a99da61pim2m","geo_precision":"zip"},"type":"Feature","geometry":{"type":"Point","coordinates":[118.6897222,25.6036111]}},{"properties":{"city":"Changchun","country":"China","geo_score":0.857,"id":"a99da63iymvs","geo_precision":"zip"},"type":"Feature","geometry":{"type":"Point","coordinates":[115.3563889,31.8136111]}},{"properties":{"city":"Shouguang","country":"China","geo_score":0.857,"id":"a99da63hpe9u","geo_precision":"zip"},"type":"Feature","geometry":{"type":"Point","coordinates":[97.1199989318848,33.3650869620919]}},{"properties":{"city":"Bayannaoer","country":"China","geo_score":0.857,"id":"a99da6bo6wwr","geo_precision":"zip"},"type":"Feature","geometry":{"type":"Point","coordinates":[104.8833333,40.1666667]}},{"properties":{"city":"Baicheng","country":"China","geo_score":0.857,"id":"a99da6cmyhwo","geo_precision":"zip"},"type":"Feature","geometry":{"type":"Point","coordinates":[118.0833333,37.1333333]}},{"properties":{"city":"Changchun","country":"China","geo_score":0.857,"id":"a99da667hqxb","geo_precision":"zip"},"type":"Feature","geometry":{"type":"Point","coordinates":[115.3563889,31.8136111]}},{"properties":{"city":"Taian","country":"China","geo_score":0.857,"id":"a99da63sxkd9","geo_precision":"zip"},"type":"Feature","geometry":{"type":"Point","coordinates":[118.48,24.7727778]}},{"properties":{"city":"Anshan","country":"China","geo_score":0.857,"id":"a99da69kzd9q","geo_precision":"zip"},"type":"Feature","geometry":{"type":"Point","coordinates":[110.1633333,27.0402778]}},{"properties":{"city":"Qingdao","country":"China","geo_score":0.857,"id":"a99da61rrenl","geo_precision":"zip"},"type":"Feature","geometry":{"type":"Point","coordinates":[123.2758333,39.8347222]}},{"properties":{"city":"Gaomi","country":"China","geo_score":0.857,"id":"a99da6dbv5x4","geo_precision":"zip"},"type":"Feature","geometry":{"type":"Point","coordinates":[113.3497222,34.6730556]}},{"properties":{"city":"Wafangdian","country":"China","geo_score":0.857,"id":"a99da68v3rzh","geo_precision":"zip"},"type":"Feature","geometry":{"type":"Point","coordinates":[110.6850059,30.164581]}},{"properties":{"city":"Haimen","country":"China","geo_score":0.857,"id":"a99da6adr21w","geo_precision":"zip"},"type":"Feature","geometry":{"type":"Point","coordinates":[105.2291667,28.5702778]}},{"properties":{"city":"Liuan","country":"China","geo_score":0.857,"id":"a99da60befy7","geo_precision":"zip"},"type":"Feature","geometry":{"type":"Point","coordinates":[117.9627778,25.0463889]}},{"properties":{"city":"Chifeng","country":"China","geo_score":0.857,"id":"a99da629b9ot","geo_precision":"zip"},"type":"Feature","geometry":{"type":"Point","coordinates":[110.8944444,27.4491667]}},{"properties":{"city":"Nanping","country":"China","geo_score":0.857,"id":"a99da6b4a6it","geo_precision":"zip"},"type":"Feature","geometry":{"type":"Point","coordinates":[98.95,23.5]}},{"properties":{"city":"Wuhan","country":"China","geo_score":0.857,"id":"a99da6cb73ay","geo_precision":"zip"},"type":"Feature","geometry":{"type":"Point","coordinates":[117.7333333,33.45]}},{"properties":{"city":"Yunfu","country":"China","geo_score":0.857,"id":"a99da6b9i771","geo_precision":"zip"},"type":"Feature","geometry":{"type":"Point","coordinates":[104.3833333,28.6333333]}},{"properties":{"city":"Zhucheng","country":"China","geo_score":0.857,"id":"a99da6clueld","geo_precision":"zip"},"type":"Feature","geometry":{"type":"Point","coordinates":[118.3916667,30.7916667]}},{"properties":{"city":"Taian","country":"China","geo_score":0.857,"id":"a99da69qlidp","geo_precision":"zip"},"type":"Feature","geometry":{"type":"Point","coordinates":[118.48,24.7727778]}},{"properties":{"city":"Weifang","country":"China","geo_score":0.857,"id":"a99da6c1x4qz","geo_precision":"zip"},"type":"Feature","geometry":{"type":"Point","coordinates":[117.9218925,27.172671]}},{"properties":{"city":"Chifeng","country":"China","geo_score":0.857,"id":"a99da69a22p5","geo_precision":"zip"},"type":"Feature","geometry":{"type":"Point","coordinates":[110.8944444,27.4491667]}},{"properties":{"city":"Nanping","country":"China","geo_score":0.857,"id":"a99da68xn7pk","geo_precision":"zip"},"type":"Feature","geometry":{"type":"Point","coordinates":[98.95,23.5]}},{"properties":{"city":"Heze","country":"China","geo_score":0.857,"id":"a99da6diqai1","geo_precision":"zip"},"type":"Feature","geometry":{"type":"Point","coordinates":[97.8833333,24.45]}},{"properties":{"city":"Weifang","country":"China","geo_score":0.857,"id":"a99da5zphhit","geo_precision":"zip"},"type":"Feature","geometry":{"type":"Point","coordinates":[117.9218925,27.172671]}},{"properties":{"city":"Suining","country":"China","geo_score":0.857,"id":"a99da65ukv5p","geo_precision":"zip"},"type":"Feature","geometry":{"type":"Point","coordinates":[106.8,36.6]}},{"properties":{"city":"Heze","country":"China","geo_score":0.857,"id":"a99da5yblkk9","geo_precision":"zip"},"type":"Feature","geometry":{"type":"Point","coordinates":[97.8833333,24.45]}},{"properties":{"city":"Xiamen","country":"China","geo_score":0.857,"id":"a99da62r6irq","geo_precision":"zip"},"type":"Feature","geometry":{"type":"Point","coordinates":[118.6897222,25.6036111]}},{"properties":{"city":"Zhucheng","country":"China","geo_score":0.857,"id":"a99da5zb8fiv","geo_precision":"zip"},"type":"Feature","geometry":{"type":"Point","coordinates":[118.3916667,30.7916667]}},{"properties":{"city":"Dezhou","country":"China","geo_score":0.857,"id":"a99da5yte9ea","geo_precision":"zip"},"type":"Feature","geometry":{"type":"Point","coordinates":[115.858275,24.5803721]}},{"properties":{"city":"Yantai","country":"China","geo_score":0.857,"id":"a99da6d5qghp","geo_precision":"zip"},"type":"Feature","geometry":{"type":"Point","coordinates":[106.01564,31.65796]}},{"properties":{"city":"Fuxin","country":"China","geo_score":0.0,"id":"a99da66ym2yr","geo_precision":"unmatched"},"type":"Feature","geometry":null},{"properties":{"city":"Dezhou","country":"China","geo_score":0.857,"id":"a99da6b02ewe","geo_precision":"zip"},"type":"Feature","geometry":{"type":"Point","coordinates":[115.858275,24.5803721]}},{"properties":{"city":"Tangshan","country":"China","geo_score":0.857,"id":"a99da5z54110","geo_precision":"zip"},"type":"Feature","geometry":{"type":"Point","coordinates":[117.5833333,33.2972222]}},{"properties":{"city":"Yichang","country":"China","geo_score":0.857,"id":"a99da5zqakj6","geo_precision":"zip"},"type":"Feature","geometry":{"type":"Point","coordinates":[105.9983333,27.3655556]}},{"properties":{"city":"Jiutai","country":"China","geo_score":0.857,"id":"a99da66m2q57","geo_precision":"zip"},"type":"Feature","geometry":{"type":"Point","coordinates":[119.75,34.35]}},{"properties":{"city":"Beijing","country":"China","geo_score":0.857,"id":"a99da65kpz6j","geo_precision":"zip"},"type":"Feature","geometry":{"type":"Point","coordinates":[108.55,23.8]}},{"properties":{"city":"Sanhe","country":"China","geo_score":0.857,"id":"a99da66qtdpy","geo_precision":"zip"},"type":"Feature","geometry":{"type":"Point","coordinates":[116.5766369,23.330193]}},{"properties":{"city":"Pingdu","country":"China","geo_score":0.857,"id":"a99da68twm14","geo_precision":"zip"},"type":"Feature","geometry":{"type":"Point","coordinates":[122.65,45.7166667]}},{"properties":{"city":"Suining","country":"China","geo_score":0.857,"id":"a99da68p8ku3","geo_precision":"zip"},"type":"Feature","geometry":{"type":"Point","coordinates":[106.8,36.6]}},{"properties":{"city":"Fuxin","country":"China","geo_score":0.0,"id":"a99da64hsv71","geo_precision":"unmatched"},"type":"Feature","geometry":null},{"properties":{"city":"Shenzhen","country":"China","geo_score":0.857,"id":"a99da64dlblk","geo_precision":"zip"},"type":"Feature","geometry":{"type":"Point","coordinates":[114.1333333,22.5666667]}},{"properties":{"city":"Changyi","country":"China","geo_score":0.857,"id":"a99da63rk3pt","geo_precision":"zip"},"type":"Feature","geometry":{"type":"Point","coordinates":[125.2486111,43.1086111]}},{"properties":{"city":"Lianyungang","country":"China","geo_score":0.857,"id":"a99da6cjxio7","geo_precision":"zip"},"type":"Feature","geometry":{"type":"Point","coordinates":[119.1122821,34.5484419]}},{"properties":{"city":"Luoyang","country":"China","geo_score":0.857,"id":"a99da5zpqqv1","geo_precision":"zip"},"type":"Feature","geometry":{"type":"Point","coordinates":[106.1502778,33.3291667]}},{"properties":{"city":"Maanshan","country":"China","geo_score":0.857,"id":"a99da63lsbk9","geo_precision":"zip"},"type":"Feature","geometry":{"type":"Point","coordinates":[106.6691667,33.1566667]}},{"properties":{"city":"Beijing","country":"China","geo_score":0.857,"id":"a99da658pqpe","geo_precision":"zip"},"type":"Feature","geometry":{"type":"Point","coordinates":[108.55,23.8]}},{"properties":{"city":"Rugao","country":"China","geo_score":0.857,"id":"a99da691ldiu","geo_precision":"zip"},"type":"Feature","geometry":{"type":"Point","coordinates":[117.1184595,27.8287575]}},{"properties":{"city":"Xian","country":"China","geo_score":0.857,"id":"a99da63f8m1i","geo_precision":"zip"},"type":"Feature","geometry":{"type":"Point","coordinates":[103.6166667,30.2666667]}},{"properties":{"city":"Beijing","country":"China","geo_score":0.857,"id":"a99da69rtl9j","geo_precision":"zip"},"type":"Feature","geometry":{"type":"Point","coordinates":[108.55,23.8]}},{"properties":{"city":"Linyi","country":"China","geo_score":0.857,"id":"a99da62wvolo","geo_precision":"zip"},"type":"Feature","geometry":{"type":"Point","coordinates":[110.3347222,18.8419444]}},{"properties":{"city":"Baiyin","country":"China","geo_score":0.857,"id":"a99da61ovgbg","geo_precision":"zip"},"type":"Feature","geometry":{"type":"Point","coordinates":[116.4083333,30.55]}},{"properties":{"city":"Neijiang","country":"China","geo_score":0.857,"id":"a99da6efci9b","geo_precision":"zip"},"type":"Feature","geometry":{"type":"Point","coordinates":[97.3333333,30.0833333]}},{"properties":{"city":"Zhangzhou","country":"China","geo_score":0.857,"id":"a99da68kgm5t","geo_precision":"zip"},"type":"Feature","geometry":{"type":"Point","coordinates":[117.6555556,24.5133333]}},{"properties":{"city":"Maanshan","country":"China","geo_score":0.857,"id":"a99da60qwbg1","geo_precision":"zip"},"type":"Feature","geometry":{"type":"Point","coordinates":[106.6691667,33.1566667]}},{"properties":{"city":"Zhucheng","country":"China","geo_score":0.857,"id":"a99da6b9b7oh","geo_precision":"zip"},"type":"Feature","geometry":{"type":"Point","coordinates":[118.3916667,30.7916667]}},{"properties":{"city":"Shanghai","country":"China","geo_score":0.857,"id":"a99da602jwcd","geo_precision":"zip"},"type":"Feature","geometry":{"type":"Point","coordinates":[120.4277778,28.7658333]}},{"properties":{"city":"Daqing","country":"China","geo_score":0.857,"id":"a99da678ypyt","geo_precision":"zip"},"type":"Feature","geometry":{"type":"Point","coordinates":[104.6666667,26.9833333]}},{"properties":{"city":"Baiyin","country":"China","geo_score":0.857,"id":"a99da68n2wh7","geo_precision":"zip"},"type":"Feature","geometry":{"type":"Point","coordinates":[116.4083333,30.55]}},{"properties":{"city":"Zhoukou","country":"China","geo_score":0.857,"id":"a99da689sdd7","geo_precision":"zip"},"type":"Feature","geometry":{"type":"Point","coordinates":[115.1469444,27.4936111]}},{"properties":{"city":"Beijing","country":"China","geo_score":0.857,"id":"a99da5zla1gs","geo_precision":"zip"},"type":"Feature","geometry":{"type":"Point","coordinates":[108.55,23.8]}},{"properties":{"city":"Yantai","country":"China","geo_score":0.857,"id":"a99da5yf5taf","geo_precision":"zip"},"type":"Feature","geometry":{"type":"Point","coordinates":[106.01564,31.65796]}},{"properties":{"city":"Shanghai","country":"China","geo_score":0.857,"id":"a99da6buqlhm","geo_precision":"zip"},"type":"Feature","geometry":{"type":"Point","coordinates":[120.4277778,28.7658333]}},{"properties":{"city":"Zhoukou","country":"China","geo_score":0.857,"id":"a99da6b24ppq","geo_precision":"zip"},"type":"Feature","geometry":{"type":"Point","coordinates":[115.1469444,27.4936111]}},{"properties":{"city":"Beijing","country":"China","geo_score":0.857,"id":"a99da68gl1rp","geo_precision":"zip"},"type":"Feature","geometry":{"type":"Point","coordinates":[108.55,23.8]}},{"properties":{"city":"Shanghai","country":"China","geo_score":0.857,"id":"a99da64wlgny","geo_precision":"zip"},"type":"Feature","geometry":{"type":"Point","coordinates":[120.4277778,28.7658333]}},{"properties":{"city":"Shenzhen","country":"China","geo_score":0.857,"id":"a99da6eh3w4j","geo_precision":"zip"},"type":"Feature","geometry":{"type":"Point","coordinates":[114.1333333,22.5666667]}},{"properties":{"city":"Shanghai","country":"China","geo_score":0.857,"id":"a99da68mdrvj","geo_precision":"zip"},"type":"Feature","geometry":{"type":"Point","coordinates":[120.4277778,28.7658333]}},{"properties":{"city":"Dachang","country":"China","geo_score":0.857,"id":"a99da5zpf0ep","geo_precision":"zip"},"type":"Feature","geometry":{"type":"Point","coordinates":[94.8666667,29.5333333]}},{"properties":{"city":"Weihai","country":"China","geo_score":0.857,"id":"a99da6d9pudw","geo_precision":"zip"},"type":"Feature","geometry":{"type":"Point","coordinates":[118.1322222,25.5772222]}},{"properties":{"city":"Chuzhou","country":"China","geo_score":0.857,"id":"a99da69gsoq2","geo_precision":"zip"},"type":"Feature","geometry":{"type":"Point","coordinates":[108.6016667,27.7263889]}},{"properties":{"city":"Changyi","country":"China","geo_score":0.857,"id":"a99da6a79fgg","geo_precision":"zip"},"type":"Feature","geometry":{"type":"Point","coordinates":[125.2486111,43.1086111]}},{"properties":{"city":"Haimen","country":"China","geo_score":0.857,"id":"a99da6avjlzh","geo_precision":"zip"},"type":"Feature","geometry":{"type":"Point","coordinates":[105.2291667,28.5702778]}},{"properties":{"city":"Guangzhou","country":"China","geo_score":0.857,"id":"a99da65x2mld","geo_precision":"zip"},"type":"Feature","geometry":{"type":"Point","coordinates":[117.3852778,33.9061111]}},{"properties":{"city":"Shanghai","country":"China","geo_score":0.857,"id":"a99da683ces3","geo_precision":"zip"},"type":"Feature","geometry":{"type":"Point","coordinates":[120.4277778,28.7658333]}},{"properties":{"city":"Hongkong","country":"China","geo_score":0.857,"id":"a99da6e1fwyx","geo_precision":"zip"},"type":"Feature","geometry":{"type":"Point","coordinates":[117.6547222,26.8108333]}},{"properties":{"city":"Guangzhou","country":"China","geo_score":0.857,"id":"a99da67lbpmq","geo_precision":"zip"},"type":"Feature","geometry":{"type":"Point","coordinates":[117.3852778,33.9061111]}},{"properties":{"city":"Luohe","country":"China","geo_score":0.857,"id":"a99da6cpssq5","geo_precision":"zip"},"type":"Feature","geometry":{"type":"Point","coordinates":[105.1166667,26.6]}},{"properties":{"city":"Yantai","country":"China","geo_score":0.857,"id":"a99da67ioump","geo_precision":"zip"},"type":"Feature","geometry":{"type":"Point","coordinates":[106.01564,31.65796]}},{"properties":{"city":"Beijing","country":"China","geo_score":0.857,"id":"a99da6a3egjo","geo_precision":"zip"},"type":"Feature","geometry":{"type":"Point","coordinates":[108.55,23.8]}},{"properties":{"city":"Dalian","country":"China","geo_score":0.857,"id":"a99da6571i3y","geo_precision":"zip"},"type":"Feature","geometry":{"type":"Point","coordinates":[119.0733333,25.3105556]}},{"properties":{"city":"Dongguan","country":"China","geo_score":0.857,"id":"a99da674ilwq","geo_precision":"zip"},"type":"Feature","geometry":{"type":"Point","coordinates":[119.54,27.3338889]}}],"is_temporal":false,"author":{"url":"","metadata":null,"contact_name":null,"contact_address":null,"source":null,"contact_phone":null},"source":"","pagination":{"sort":null,"start":0,"total":190,"limit":1000000},"state":"complete","tags":"","published":"2014-08-14T19:24:57-04:00","id":283714}