{"type":"FeatureCollection","data_type":"Dataset","url_type":null,"permissions":[{"permissions":{"download":true,"view":true},"group_id":"everyone"}],"classification":null,"title":"GBC Burial Ground Approved Providers","count":37,"stream_id":283951,"contributor":{"url":"http://geocommons.com/users/53670","name":"primal1"},"data_attributes":null,"calculation_params":null,"icon_link":null,"link":"http://geocommons.com/overlays/283951.json","extent":[-156.511,20.8822,-73.4423,48.8482],"geometry_types":["point"],"unique_name":null,"name":"GBC Burial Ground Approved Providers","feature_count":37,"description":"","next_feature":null,"is_raster":false,"short_classification":"Y","stats":{},"features":[{"properties":{"city":"Wailuku, Maui","name":"Valley Isle Memorial Park Cemetery - Hybrid (Ballard)","zipcode":"96793","url":"www.ballardfamilymortuaries.com","geo_score":0.857,"id":"a9b7mnhwtvpf","group":"Hybrid Burial Ground","geo_precision":"zip","state":"HI"},"type":"Feature","geometry":{"type":"Point","coordinates":[-156.510833,20.882222]}},{"properties":{"city":"Joshua Tree","name":"Joshua Tree Memorial Park","zipcode":"92252","url":"-","geo_score":0.857,"id":"a9b7mne1eevt","group":"Hybrid Burial Ground","geo_precision":"zip","state":"CA"},"type":"Feature","geometry":{"type":"Point","coordinates":[-116.268415,34.175713]}},{"properties":{"city":"Memphis","name":"Elmwood Cemetery","zipcode":"38104","url":"www.elmwoodcemetery.org","geo_score":0.857,"id":"a9b7mndhr5pd","group":"Hybrid Burial Ground","geo_precision":"zip","state":"TN"},"type":"Feature","geometry":{"type":"Point","coordinates":[-90.002079,35.13573]}},{"properties":{"city":"Indianapolis","name":"Flanner Buchanan - Kessler Woods Cemetery - Hybrid","zipcode":"46228","url":"www.flanner-buchanan.com","geo_score":0.857,"id":"a9b7mnaua5tz","group":"Hybrid Burial Ground","geo_precision":"zip","state":"IN"},"type":"Feature","geometry":{"type":"Point","coordinates":[-86.195081,39.846191]}},{"properties":{"city":"Grandville","name":"Ridgeview Memorial Gardens","zipcode":"49418","url":"www.ridgeviewmemorialgardens.com","geo_score":0.857,"id":"a9b7mnibc2ty","group":"Hybrid Burial Ground","geo_precision":"zip","state":"MI"},"type":"Feature","geometry":{"type":"Point","coordinates":[-85.753056,42.882726]}},{"properties":{"city":"Danbury","name":"Wooster Cemetery - Hybrid","zipcode":"6810","url":"-","geo_score":0.857,"id":"a9b7mna3sfwh","group":"Hybrid Burial Ground","geo_precision":"zip","state":"CT"},"type":"Feature","geometry":{"type":"Point","coordinates":[-73.442344,41.40815]}},{"properties":{"city":"Vancouver","name":"Mountain View Cemetery","zipcode":"V5W 2Z3","url":"www.vancouver.ca/cemetery","geo_score":0.0,"id":"a9b7mncu7tyk","group":"Hybrid Burial Ground","geo_precision":"unmatched","state":"BC"},"type":"Feature","geometry":null},{"properties":{"city":"Sioux Falls","name":"Mt. Pleasant Cemetery Association","zipcode":"57103","url":"www.mtpleasantsf.com","geo_score":0.857,"id":"a9b7mnfo2rsn","group":"Hybrid Burial Ground","geo_precision":"zip","state":"SD"},"type":"Feature","geometry":{"type":"Point","coordinates":[-96.63871,43.548433]}},{"properties":{"city":"Springfield","name":"Roselawn Memorial Park (Butler FH)","zipcode":"62703","url":"www.roselawninfo.com","geo_score":0.857,"id":"a9b7mnf7neib","group":"Hybrid Burial Ground","geo_precision":"zip","state":"IL"},"type":"Feature","geometry":{"type":"Point","coordinates":[-89.627547,39.762206]}},{"properties":{"city":"Bala Cynwyd","name":"West Laurel Hill Cemetery/Bringhurst Funeral Home","zipcode":"19004","url":"www.forever-care.com","geo_score":0.857,"id":"a9b7mncl9842","group":"Hybrid Burial Ground","geo_precision":"zip","state":"PA"},"type":"Feature","geometry":{"type":"Point","coordinates":[-75.242959,40.00289]}},{"properties":{"city":"Asheville","name":"Green Hills Cemetery","zipcode":"28806","url":"www.greenhillscemeteryasheville.com","geo_score":0.857,"id":"a9b7mn4peeav","group":"Hybrid Burial Ground","geo_precision":"zip","state":"NC"},"type":"Feature","geometry":{"type":"Point","coordinates":[-82.646797,35.640109]}},{"properties":{"city":"Candler","name":"Forest Lawn Memorial Park - Hybrid","zipcode":"28715","url":"www.moorefh.net","geo_score":0.857,"id":"a9b7mni5hrqc","group":"Hybrid Burial Ground","geo_precision":"zip","state":"NC"},"type":"Feature","geometry":{"type":"Point","coordinates":[-82.707353,35.565664]}},{"properties":{"city":"Snohomish","name":"Woodlawn Cemetery","zipcode":"98290","url":"www.woodlawncemeterysnohomish.com","geo_score":0.857,"id":"a9b7mnj13sgf","group":"Hybrid Burial Ground","geo_precision":"zip","state":"WA"},"type":"Feature","geometry":{"type":"Point","coordinates":[-122.014722,47.954558]}},{"properties":{"city":"Eastover","name":"Greenhaven Preserve","zipcode":"29044","url":"www.greenhavenpreserve.com","geo_score":0.857,"id":"a9b7mnj2tx0o","group":"Hybrid Burial Ground","geo_precision":"zip","state":"SC"},"type":"Feature","geometry":{"type":"Point","coordinates":[-80.637309,33.8071]}},{"properties":{"city":"Estacada","name":"Estacada Cemetery District","zipcode":"97023","url":"-","geo_score":0.857,"id":"a9b7mn5fhogy","group":"Hybrid Burial Ground","geo_precision":"zip","state":"OR"},"type":"Feature","geometry":{"type":"Point","coordinates":[-122.31564,45.26901]}},{"properties":{"city":"North Brooklyn Center","name":"Mound Cemetery of Brooklyn Center","zipcode":"55429","url":"www.moundcemetery.com","geo_score":0.857,"id":"a9b7mn5kmduq","group":"Hybrid Burial Ground","geo_precision":"zip","state":"MN"},"type":"Feature","geometry":{"type":"Point","coordinates":[-93.332728,45.076076]}},{"properties":{"city":"Rochester","name":"Mount Hope Cemetery - Hybrid","zipcode":"14620","url":"www.cityofrochester.gov/cemeteries","geo_score":0.857,"id":"a9b7mn8yhxbg","group":"Hybrid Burial Ground","geo_precision":"zip","state":"NY"},"type":"Feature","geometry":{"type":"Point","coordinates":[-77.618523,43.129862]}},{"properties":{"city":"Portland","name":"Riverview Cemetery - Hybrid","zipcode":"97219","url":"http://riverviewcemeteryfuneralhome.com","geo_score":0.857,"id":"a9b7mn9a7mcl","group":"Hybrid Burial Ground","geo_precision":"zip","state":"OR"},"type":"Feature","geometry":{"type":"Point","coordinates":[-122.730097,45.469841]}},{"properties":{"city":"Hillsboro","name":"Valley Memorial Park","zipcode":"97123","url":"www.valleymemorialoregon.com","geo_score":0.857,"id":"a9b7mn7mtjzs","group":"Hybrid Burial Ground","geo_precision":"zip","state":"OR"},"type":"Feature","geometry":{"type":"Point","coordinates":[-122.99177,45.41845]}},{"properties":{"city":"Sacramento","name":"Sunset Lawn Chapel of the Chimes - NorthStar","zipcode":"95838","url":"www.sunsetlawn.chapelofthechimes.com","geo_score":0.857,"id":"a9b7mn9i8wpz","group":"Hybrid Burial Ground","geo_precision":"zip","state":"CA"},"type":"Feature","geometry":{"type":"Point","coordinates":[-121.440015,38.645103]}},{"properties":{"city":"Georgetown","name":"Our Lady of the Rosary","zipcode":"38626","url":"www.olotr.com","geo_score":0.714,"id":"a9b7mnf3eu51","group":"Hybrid Burial Ground","geo_precision":"zip","state":"TX"},"type":"Feature","geometry":{"type":"Point","coordinates":[-90.416489,34.600103]}},{"properties":{"city":"Bountiful","name":"Lakeview Cemetery - Memorial Mortuaries","zipcode":"84010","url":"www.memorialutah.com","geo_score":0.857,"id":"a9b7mn5xtpah","group":"Hybrid Burial Ground","geo_precision":"zip","state":"UT"},"type":"Feature","geometry":{"type":"Point","coordinates":[-111.892993,40.855501]}},{"properties":{"city":"Harrisonburg","name":"Duck Run Natural Cemetery","zipcode":"22801","url":"www.duckruncemetery.com","geo_score":0.857,"id":"a9b7mn85csyr","group":"Natural Burial Ground","geo_precision":"zip","state":"VA"},"type":"Feature","geometry":{"type":"Point","coordinates":[-78.959752,38.486235]}},{"properties":{"city":"Ferndale","name":"Moles Greenacres Memorial Park - Natural","zipcode":"98248","url":"www.molesfuneralhomes.com","geo_score":0.857,"id":"a9b7mn97wsjy","group":"Natural Burial Ground","geo_precision":"zip","state":"WA"},"type":"Feature","geometry":{"type":"Point","coordinates":[-122.671288,48.848165]}},{"properties":{"city":"Wake Forest","name":"Pine Forest Memorial Gardens- Natural","zipcode":"27587","url":"www.pineforestmemorial.com","geo_score":0.857,"id":"a9b7mnjhtv25","group":"Natural Burial Ground","geo_precision":"zip","state":"NC"},"type":"Feature","geometry":{"type":"Point","coordinates":[-78.586534,35.858041]}},{"properties":{"city":"Pittsford","name":"White Haven Memorial Park-Natural Burial Ground","zipcode":"14534","url":"www.whitehavenmemorialpark.com","geo_score":0.857,"id":"a9b7mnk6lr5j","group":"Natural Burial Ground","geo_precision":"zip","state":"NY"},"type":"Feature","geometry":{"type":"Point","coordinates":[-77.474161,43.059508]}},{"properties":{"city":"Newfield","name":"Greensprings Natural Cemetery","zipcode":"14867","url":"www.naturalburial.org","geo_score":0.857,"id":"a9b7mnhimhxk","group":"Natural Burial Ground","geo_precision":"zip","state":"NY"},"type":"Feature","geometry":{"type":"Point","coordinates":[-76.632447,42.383684]}},{"properties":{"city":"Tuckahoe","name":"Steelmantown Cemetery - Natural Burial Ground","zipcode":"8270","url":"www.steelmantowncemetery.com","geo_score":0.857,"id":"a9b7mnaolq3o","group":"Natural Burial Ground","geo_precision":"zip","state":"NJ"},"type":"Feature","geometry":{"type":"Point","coordinates":[-74.792666,39.234837]}},{"properties":{"city":"Victoria","name":"Royal Oak Burial Park Natural and Hybrid","zipcode":"V8Y 1B4","url":"www.robp.ca","geo_score":0.0,"id":"a9b7mnhjk8ff","group":"Natural Burial Ground","geo_precision":"unmatched","state":"BC"},"type":"Feature","geometry":null},{"properties":{"city":"Crestone","name":"Crestone Cemetery","zipcode":"81131","url":"-","geo_score":0.857,"id":"a9b7mn7b8u8f","group":"Natural Burial Ground","geo_precision":"zip","state":"CO"},"type":"Feature","geometry":{"type":"Point","coordinates":[-105.68788,37.953038]}},{"properties":{"city":"Verona","name":"Penn Forest Natural Burial Park","zipcode":"15147","url":"www.pennforestcemetery.com","geo_score":0.857,"id":"a9b7mneummxi","group":"Natural Burial Ground","geo_precision":"zip","state":"PA"},"type":"Feature","geometry":{"type":"Point","coordinates":[-79.967551,40.015352]}},{"properties":{"city":"Oak Park","name":"Hebrew Memorial Gardens","zipcode":"48237","url":null,"geo_score":0.857,"id":"a9b7mnbklk1i","group":"Natural Burial Ground","geo_precision":"zip","state":"MI"},"type":"Feature","geometry":{"type":"Point","coordinates":[-83.178177,42.466585]}},{"properties":{"city":"Conyers","name":"Honey Creek Woodlands","zipcode":"30094","url":null,"geo_score":0.857,"id":"a9b7mnifbflx","group":"Conservation Burial Ground","geo_precision":"zip","state":"GA"},"type":"Feature","geometry":{"type":"Point","coordinates":[-84.068288,33.611119]}},{"properties":{"city":"Goldendale","name":"White Eagle Memorial - Conservation","zipcode":"98620","url":null,"geo_score":0.857,"id":"a9b7mnenpi8t","group":"Conservation Burial Ground","geo_precision":"zip","state":"WA"},"type":"Feature","geometry":{"type":"Point","coordinates":[-120.768762,45.840666]}},{"properties":{"city":"Westminster","name":"Ramsey Creek Preserve","zipcode":"29693","url":null,"geo_score":0.857,"id":"a9b7mn88za4c","group":"Conservation Burial Ground","geo_precision":"zip","state":"SC"},"type":"Feature","geometry":{"type":"Point","coordinates":[-83.196268,34.612598]}},{"properties":{"city":"Wilmot","name":"Foxfield Preserve","zipcode":"44689","url":null,"geo_score":0.857,"id":"a9b7mn9m1ydl","group":"Conservation Burial Ground","geo_precision":"zip","state":"OH"},"type":"Feature","geometry":{"type":"Point","coordinates":[-81.638348,40.657981]}},{"properties":{"city":"Gainsville","name":"Prairie Creek Conservation Cemetery","zipcode":"32641","url":null,"geo_score":0.857,"id":"a9b7mncaawqs","group":"Conservation Burial Ground","geo_precision":"zip","state":"FL"},"type":"Feature","geometry":{"type":"Point","coordinates":[-82.201383,29.682383]}}],"is_temporal":false,"author":{"url":"","metadata":"","contact_name":"","contact_address":"","source":"","contact_phone":""},"source":"","pagination":{"sort":null,"start":0,"total":37,"limit":1000000},"state":"complete","tags":"","published":"2014-08-14T19:38:51-04:00","id":283951}