{"type":"FeatureCollection","data_type":"Dataset","url_type":null,"permissions":[{"permissions":{"download":true,"view":true},"group_id":"everyone"}],"classification":null,"title":"Send Hunger Packing Sites","count":27,"stream_id":284461,"contributor":{"url":"http://geocommons.com/users/53770","name":"careandshare"},"data_attributes":null,"calculation_params":null,"icon_link":null,"link":"http://geocommons.com/overlays/284461.json","extent":[-108.904,37.3451,-103.732,38.8761],"geometry_types":["point"],"unique_name":null,"name":"Send Hunger Packing Sites","feature_count":27,"description":"","next_feature":null,"is_raster":false,"short_classification":"Y","stats":{},"features":[{"properties":{"city":"Colorado Springs","county":"El Paso","geo_score":0.604,"zip code":"80906","site":"Meadows Park (1109)","id":"a9cqy87i0m68","org/school":"Community Center","address":"1943 S. El Paso Ave","geo_precision":"street","state":"CO"},"type":"Feature","geometry":{"type":"Point","coordinates":[-104.813009,38.807881]}},{"properties":{"city":"Colorado Springs","county":"El Paso","geo_score":0.607,"zip code":"80928","site":"Hanover Com. Pantry (149)","id":"a9cqy85sswrl","org/school":null,"address":"17050 S. Peyton Hwy","geo_precision":"street","state":"CO"},"type":"Feature","geometry":{"type":"Point","coordinates":[-104.459521,38.688766]}},{"properties":{"city":"Colorado Springs","county":"El Paso","geo_score":1.0,"zip code":"80909","site":"Yuma Salvation Army (143)","id":"a9cqy7timv81","org/school":"Salvation Army","address":"908 Yuma Street","geo_precision":"range","state":"CO"},"type":"Feature","geometry":{"type":"Point","coordinates":[-104.77815,38.846129]}},{"properties":{"city":"Fountain","county":"El Paso","geo_score":0.614,"zip code":"80817","site":"Fountain (2600)","id":"a9cqy7zke6xf","org/school":"YMCA - Pikes Peak Region","address":"301 E. Iowa St","geo_precision":"street","state":"CO"},"type":"Feature","geometry":{"type":"Point","coordinates":[-104.699359,38.683907]}},{"properties":{"city":"Colorado Springs","county":"El Paso","geo_score":0.614,"zip code":"80903","site":"North Middle School","id":"a9cqy7x031kn","org/school":null,"address":"612 E. Yampa Street","geo_precision":"street","state":"CO"},"type":"Feature","geometry":{"type":"Point","coordinates":[-104.819111,38.847768]}},{"properties":{"city":"Colorado Springs","county":"El Paso","geo_score":0.604,"zip code":"80907","site":"Lincoln Elementary School","id":"a9cqy7uky3dc","org/school":null,"address":"2727 N. Cascade Ave.","geo_precision":"street","state":"CO"},"type":"Feature","geometry":{"type":"Point","coordinates":[-104.82403,38.853291]}},{"properties":{"city":"Colorado Springs","county":"El Paso","geo_score":0.607,"zip code":"80910","site":"Monroe","id":"a9cqy879e3bw","org/school":"Monroe Elementary School","address":"12 S. Chelton Road","geo_precision":"street","state":"CO"},"type":"Feature","geometry":{"type":"Point","coordinates":[-104.766322,38.831057]}},{"properties":{"city":"Calhan","county":"El Paso","geo_score":0.602,"zip code":"80808","site":"Ellicott Elementary &amp; Middle School","id":"a9cqy844pgmg","org/school":null,"address":"355 N. Ellicott Hwy","geo_precision":"street","state":"CO"},"type":"Feature","geometry":{"type":"Point","coordinates":[-104.386856,38.832161]}},{"properties":{"city":"Colorado Springs","county":"El Paso","geo_score":0.927,"zip code":"80907","site":"Scholars to Leaders Academy","id":"a9cqy7yrbldy","org/school":null,"address":"3115 Larkspur Ave","geo_precision":"range","state":"CO"},"type":"Feature","geometry":{"type":"Point","coordinates":[-104.800802,38.87612]}},{"properties":{"city":"Colorado Springs","county":"El Paso","geo_score":1.0,"zip code":"80915","site":"Evans Elementary","id":"a9cqy81oh56d","org/school":null,"address":"1675 Winnebago Rd","geo_precision":"range","state":"CO"},"type":"Feature","geometry":{"type":"Point","coordinates":[-104.695483,38.856134]}},{"properties":{"city":"Fountain","county":"El Paso","geo_score":0.619,"zip code":"80817","site":"Aragon Elementary","id":"a9cqy7x6kmfj","org/school":null,"address":"211 S. Main St","geo_precision":"street","state":"CO"},"type":"Feature","geometry":{"type":"Point","coordinates":[-104.700659,38.682757]}},{"properties":{"city":"Colorado Springs","county":"El Paso","geo_score":0.604,"zip code":"80903","site":"Pikes Peak Prep","id":"a9cqy7vumkt1","org/school":null,"address":"525 E. Costilla St","geo_precision":"street","state":"CO"},"type":"Feature","geometry":{"type":"Point","coordinates":[-104.825621,38.828276]}},{"properties":{"city":"Rush","county":"El Paso","geo_score":0.619,"zip code":"80833","site":"Miami Yoder School","id":"a9cqy7ue5uqp","org/school":null,"address":"420 S. Rush Rd","geo_precision":"street","state":"CO"},"type":"Feature","geometry":{"type":"Point","coordinates":[-104.091832,38.824821]}},{"properties":{"city":"Pueblo","county":"Pueblo","geo_score":1.0,"zip code":"81004","site":"Sprague (387)","id":"a9cqy7tyfpj8","org/school":"Boys &amp; Girls Club/Girls Inc.","address":"2601 Sprague Ave","geo_precision":"range","state":"CO"},"type":"Feature","geometry":{"type":"Point","coordinates":[-104.640533,38.240504]}},{"properties":{"city":"Pueblo","county":"Pueblo","geo_score":0.316,"zip code":"81004","site":"Eastside","id":"a9cqy87bdx32","org/school":"Boys &amp; Girls Club/Girls Inc.","address":"625 N. Monument Ave","geo_precision":"street","state":"CO"},"type":"Feature","geometry":{"type":"Point","coordinates":[-104.586393,38.268415]}},{"properties":{"city":"Pueblo","county":"Pueblo","geo_score":0.619,"zip code":"81003","site":"Irving Elementary School","id":"a9cqy7zuu806","org/school":null,"address":"1629 W. 21st St","geo_precision":"street","state":"CO"},"type":"Feature","geometry":{"type":"Point","coordinates":[-104.607354,38.287319]}},{"properties":{"city":"Ordway","county":"Crowley","geo_score":1.0,"zip code":"81063","site":"Ordway","id":"a9cqy7uwljsi","org/school":"Ordway Methodist Church","address":"403 Main St.","geo_precision":"range","state":"CO"},"type":"Feature","geometry":{"type":"Point","coordinates":[-103.756581,38.220299]}},{"properties":{"city":"Rocky Ford","county":"Otero","geo_score":0.602,"zip code":"81067","site":"Rocky Ford High School","id":"a9cqy874ihic","org/school":null,"address":"100 W. Washington","geo_precision":"street","state":"CO"},"type":"Feature","geometry":{"type":"Point","coordinates":[-103.732111,38.044194]}},{"properties":{"city":"Manzanola","county":"Otero","geo_score":0.614,"zip code":"81058","site":"Manzanola Elementary School","id":"a9cqy81hhy2l","org/school":null,"address":"200 S. Canal Street","geo_precision":"street","state":"CO"},"type":"Feature","geometry":{"type":"Point","coordinates":[-103.86897,38.108398]}},{"properties":{"city":"Cripple Creek","county":"Teller","geo_score":1.0,"zip code":"80813","site":"Cripple Creek High School","id":"a9cqy806uvet","org/school":"Aspen Mine Center","address":"166 E Bennett Ave","geo_precision":"range","state":"CO"},"type":"Feature","geometry":{"type":"Point","coordinates":[-105.17908,38.746518]}},{"properties":{"city":"Cripple Creek","county":"Teller","geo_score":0.571,"zip code":"80813","site":"Cresson Elementary School","id":"a9cqy82h0bid","org/school":null,"address":"410 N. C Street","geo_precision":"street","state":"CO"},"type":"Feature","geometry":{"type":"Point","coordinates":[-105.18629,38.751395]}},{"properties":{"city":"Durango","county":"La Plata","geo_score":0.985,"zip code":"81301","site":"Animas Valley Elementary School","id":"a9cqy86eptip","org/school":null,"address":"373 Hermosa Meadows Rod","geo_precision":"range","state":"CO"},"type":"Feature","geometry":{"type":"Point","coordinates":[-107.835815,37.400991]}},{"properties":{"city":"Mancos","county":"Montezuma","geo_score":0.571,"zip code":"81328","site":"Mancos Elementary School","id":"a9cqy86wh34u","org/school":null,"address":"395 W. Grand Ave","geo_precision":"street","state":"CO"},"type":"Feature","geometry":{"type":"Point","coordinates":[-108.289665,37.345117]}},{"properties":{"city":"Center","county":"Saguache","geo_score":0.604,"zip code":"81125","site":"Center","id":"a9cqy84bo8cs","org/school":"Haskin Elementary School","address":"500 S. Broadway","geo_precision":"street","state":"CO"},"type":"Feature","geometry":{"type":"Point","coordinates":[-106.112316,37.754453]}},{"properties":{"city":"Pueblo","county":"Pueblo","geo_score":0.619,"zip code":"81003","site":"Park View Elementary School","id":"a9cqy7v9p2k0","org/school":null,"address":"315 W. 11th Street","geo_precision":"street","state":"CO"},"type":"Feature","geometry":{"type":"Point","coordinates":[-104.607181,38.277136]}},{"properties":{"city":"Pueblo","county":"Pueblo","geo_score":0.935,"zip code":"81003","site":"Caesar Chavez Academy","id":"a9cqy87vc99g","org/school":null,"address":"2500 West 18th Street","geo_precision":"range","state":"CO"},"type":"Feature","geometry":{"type":"Point","coordinates":[-104.648157,38.283453]}},{"properties":{"city":"Dove Creek","county":"Dolores","geo_score":0.935,"zip code":"81324","site":"Dove Creek School","id":"a9cqy80opua3","org/school":"Dolores County","address":"525 N Main St","geo_precision":"range","state":"CO"},"type":"Feature","geometry":{"type":"Point","coordinates":[-108.903914,37.766061]}}],"is_temporal":false,"author":{"url":"","metadata":"","contact_name":"","contact_address":"","source":"","contact_phone":""},"source":"","pagination":{"sort":null,"start":0,"total":27,"limit":1000000},"state":"complete","tags":"","published":"2014-08-14T20:14:03-04:00","id":284461}