{"type":"FeatureCollection","data_type":"Dataset","url_type":null,"permissions":[{"permissions":{"download":true,"view":true},"group_id":"everyone"}],"classification":null,"title":"GBC Approved Funeral Homes","count":232,"stream_id":285505,"contributor":{"url":"http://geocommons.com/users/53969","name":"shoupshannon"},"data_attributes":null,"calculation_params":null,"icon_link":null,"link":"http://geocommons.com/overlays/285505.json","extent":[-123.403,26.6348,-71.0167,48.9358],"geometry_types":["point"],"unique_name":null,"name":"GBC Approved Funeral Homes","feature_count":232,"description":"","next_feature":null,"is_raster":false,"short_classification":"Y","stats":{},"features":[{"properties":{"city":"Coolidge","country":"US","geo_score":0.714,"zip code":"85128","website":"www.heritagemortuary.com","funeral home:":"Heritage Coolidge Mortuary - Heritage","id":"a9fip24bfl1i","geo_precision":"city","state":"AZ"},"type":"Feature","geometry":{"type":"Point","coordinates":[-111.247908,32.904485]}},{"properties":{"city":"El Mirage","country":"US","geo_score":0.857,"zip code":"85335","website":"www.heritagemortuary.com","funeral home:":"Sunwest Funeral Home - Heritage","id":"a9fip26de0m6","geo_precision":"zip","state":"AZ"},"type":"Feature","geometry":{"type":"Point","coordinates":[-112.314604,33.605595]}},{"properties":{"city":"Mesa","country":"US","geo_score":0.857,"zip code":"85207","website":"http://bunkerfuneral.com","funeral home:":"A Wise Choice Desert View Chapel (Bunkers)","id":"a9fip2bdl1lx","geo_precision":"zip","state":"AZ"},"type":"Feature","geometry":{"type":"Point","coordinates":[-111.651247,33.413381]}},{"properties":{"city":"Prescott","country":"US","geo_score":0.857,"zip code":"86301","website":"www.heritagemortuary.com","funeral home:":"Heritage Memory Mortuary - Heritage","id":"a9fip2a9si9e","geo_precision":"zip","state":"AZ"},"type":"Feature","geometry":{"type":"Point","coordinates":[-112.495726,34.56558]}},{"properties":{"city":"Colma","country":"US","geo_score":0.857,"zip code":"94014","website":"www.colmacremation.com","funeral home:":"Colma Cremation and Funeral Services","id":"a9fip25oddws","geo_precision":"zip","state":"CA"},"type":"Feature","geometry":{"type":"Point","coordinates":[-122.459695,37.676878]}},{"properties":{"city":"Fresno","country":"US","geo_score":0.857,"zip code":"93650","website":"http://farewell.com","funeral home:":"Farewell Funeral Service","id":"a9fip2826b7k","geo_precision":"zip","state":"CA"},"type":"Feature","geometry":{"type":"Point","coordinates":[-119.801015,36.8411]}},{"properties":{"city":"Hayward","country":"US","geo_score":0.857,"zip code":"94544","website":"www.hayward.chapelofthechimes.com","funeral home:":"Chapel of the Chimes - Hayward - NorthStar","id":"a9fip28olqfd","geo_precision":"zip","state":"CA"},"type":"Feature","geometry":{"type":"Point","coordinates":[-122.061673,37.613883]}},{"properties":{"city":"Laguna Hills","country":"US","geo_score":0.857,"zip code":"92653","website":"http://oconnormortuary.com","funeral home:":"O'Connor Laguna Hills Chapel and Crematory","id":"a9fip2c93ouf","geo_precision":"zip","state":"CA"},"type":"Feature","geometry":{"type":"Point","coordinates":[-117.725331,33.610301]}},{"properties":{"city":"Manhattan Beach","country":"US","geo_score":0.857,"zip code":"90266","website":"www.naturalgracefunerals.com","funeral home:":"Natural Grace","id":"a9fip2bi3ytp","geo_precision":"zip","state":"CA"},"type":"Feature","geometry":{"type":"Point","coordinates":[-118.298662,33.786594]}},{"properties":{"city":"Oakland","country":"US","geo_score":0.857,"zip code":"94611","website":"www.oakland.chapelofthechimes.com","funeral home:":"Chapel of the Chimes - Oakland - NorthStar","id":"a9fip249j7a6","geo_precision":"zip","state":"CA"},"type":"Feature","geometry":{"type":"Point","coordinates":[-122.231635,37.824372]}},{"properties":{"city":"Sacramento","country":"US","geo_score":0.857,"zip code":"95838","website":"www.sunsetlawn.chapelofthechimes.com","funeral home:":"Sunset Lawn Chapel of the Chimes - NorthStar","id":"a9fip1xz5ukx","geo_precision":"zip","state":"CA"},"type":"Feature","geometry":{"type":"Point","coordinates":[-121.440015,38.645103]}},{"properties":{"city":"San Francisco","country":"US","geo_score":0.857,"zip code":"94110","website":"http://www.duggansfuneralservice.com/","funeral home:":"Duggan Welch Family","id":"a9fip2anio3u","geo_precision":"zip","state":"CA"},"type":"Feature","geometry":{"type":"Point","coordinates":[-122.416281,37.748932]}},{"properties":{"city":"San Mateo","country":"US","geo_score":0.857,"zip code":"94402","website":"www.skylawnmemorialpark.com","funeral home:":"Skylawn Funeral Home - NorthStar","id":"a9fip27sa3ik","geo_precision":"zip","state":"CA"},"type":"Feature","geometry":{"type":"Point","coordinates":[-122.33063,37.541886]}},{"properties":{"city":"Santa Cruz","country":"US","geo_score":0.857,"zip code":"95062","website":"www.pacificgardenschapel.com","funeral home:":"Benito &amp; Azzaro Pacific Gardens Chapel","id":"a9fip28agbzp","geo_precision":"zip","state":"CA"},"type":"Feature","geometry":{"type":"Point","coordinates":[-122.025796,37.004394]}},{"properties":{"city":"Boulder","country":"US","geo_score":0.857,"zip code":"80301","website":"www.cristmortuary.com","funeral home:":"Crist Mortuary - SCI","id":"a9fip1yxvfd2","geo_precision":"zip","state":"CO"},"type":"Feature","geometry":{"type":"Point","coordinates":[-105.278083,40.094787]}},{"properties":{"city":"Fort Collins","country":"US","geo_score":0.857,"zip code":"80524","website":"www.goesfuneralcare.com/","funeral home:":"Goes Funeral Care","id":"a9fip29edj0m","geo_precision":"zip","state":"CO"},"type":"Feature","geometry":{"type":"Point","coordinates":[-105.252751,40.59889]}},{"properties":{"city":"Fort Collins","country":"US","geo_score":0.857,"zip code":"80524","website":"www.bohlenderfuneralchapel.com/","funeral home:":"Bohlender Funeral Chapel","id":"a9fip28zsfjt","geo_precision":"zip","state":"CO"},"type":"Feature","geometry":{"type":"Point","coordinates":[-105.252751,40.59889]}},{"properties":{"city":"Ft. Collins","country":"US","geo_score":0.857,"zip code":"80525","website":"www.resthavencolorado.com","funeral home:":"Resthaven Funeral Home","id":"a9fip249l664","geo_precision":"zip","state":"CO"},"type":"Feature","geometry":{"type":"Point","coordinates":[-105.207073,40.532277]}},{"properties":{"city":"Littleton","country":"US","geo_score":0.857,"zip code":"80121","website":"www.olingerchapelhill.com","funeral home:":"Olinger Chapel Hill Mortuary - SCI","id":"a9fip2bz20xd","geo_precision":"zip","state":"CO"},"type":"Feature","geometry":{"type":"Point","coordinates":[-104.88773,39.612789]}},{"properties":{"city":"Centerbrook","country":"US","geo_score":0.857,"zip code":"06409","website":"-","funeral home:":"Robinson, Wright &amp; Weymer Funeral Home","id":"a9fip28la1co","geo_precision":"zip","state":"CT"},"type":"Feature","geometry":{"type":"Point","coordinates":[-72.41338,41.349098]}},{"properties":{"city":"Fairfield","country":"US","geo_score":0.714,"zip code":"06824","website":"www.shaughnesseyfuneralhome.com","funeral home:":"Shaughnessey-Banks Funeral Home","id":"a9fip2cw0gya","geo_precision":"city","state":"CT"},"type":"Feature","geometry":{"type":"Point","coordinates":[-73.282408,41.175173]}},{"properties":{"city":"Lewes","country":"US","geo_score":0.857,"zip code":"19958","website":"http://parsellfuneralhomes.com","funeral home:":"Parsell Funeral Homes &amp; Crematorium","id":"a9fip2cuxtw4","geo_precision":"zip","state":"DE"},"type":"Feature","geometry":{"type":"Point","coordinates":[-75.147961,38.785112]}},{"properties":{"city":"Fort Myers","country":"US","geo_score":0.857,"zip code":"33907","website":"www.fortmyersmemorial.com","funeral home:":"Fort Myers Funeral Home (Northstar)","id":"a9fip24obgb7","geo_precision":"zip","state":"FL"},"type":"Feature","geometry":{"type":"Point","coordinates":[-81.959923,26.634845]}},{"properties":{"city":"Fort Pierce","country":"US","geo_score":0.857,"zip code":"34947","website":"www.haisleyfuneralhome.com","funeral home:":"Haisley Funeral and Cremation Service","id":"a9fip21jkzhy","geo_precision":"zip","state":"FL"},"type":"Feature","geometry":{"type":"Point","coordinates":[-80.387742,27.445611]}},{"properties":{"city":"Lakeland","country":"US","geo_score":0.857,"zip code":"33801","website":"www.heathfuneralchapel.com","funeral home:":"Heath Funeral Chapel","id":"a9fip29e7qz9","geo_precision":"zip","state":"FL"},"type":"Feature","geometry":{"type":"Point","coordinates":[-81.90508,28.157516]}},{"properties":{"city":"Tavares","country":"US","geo_score":0.857,"zip code":"32778","website":"www.steversonhamlinhilbish.com","funeral home:":"Steverson Hamlin &amp; Hilbish Funeral Home - Northstar","id":"a9fip2a5jqkj","geo_precision":"zip","state":"FL"},"type":"Feature","geometry":{"type":"Point","coordinates":[-81.725272,28.767762]}},{"properties":{"city":"Wildwood","country":"US","geo_score":0.857,"zip code":"34785","website":"-","funeral home:":"Banks/Page Theus Funeral Home - NorthStar","id":"a9fip2bepk0v","geo_precision":"zip","state":"FL"},"type":"Feature","geometry":{"type":"Point","coordinates":[-82.078342,28.844473]}},{"properties":{"city":"Lawrenceville","country":"US","geo_score":0.857,"zip code":"30045","website":"www.wagesfuneralhome.com","funeral home:":"Tom M. Wages Funeral Service, LLC","id":"a9fip28itkbu","geo_precision":"zip","state":"GA"},"type":"Feature","geometry":{"type":"Point","coordinates":[-83.957347,33.936729]}},{"properties":{"city":"Monticello","country":"US","geo_score":0.857,"zip code":"31064","website":"www.jordanfuneralhomemonticello.com","funeral home:":"Jordan Funeral Home","id":"a9fip25zuetj","geo_precision":"zip","state":"GA"},"type":"Feature","geometry":{"type":"Point","coordinates":[-83.778233,33.194016]}},{"properties":{"city":"Snellville","country":"US","geo_score":0.857,"zip code":"30099","website":"www.wagesfuneralhome.com","funeral home:":"Tom M. Wages Funeral Service, LLC","id":"a9fip24hi2iz","geo_precision":"zip","state":"GA"},"type":"Feature","geometry":{"type":"Point","coordinates":[-84.105011,33.959535]}},{"properties":{"city":"Cedar Rapids","country":"US","geo_score":0.857,"zip code":"52402","website":"www.cedarmemorial.com","funeral home:":"Cedar Memorial Funeral Homes","id":"a9fip224xtxh","geo_precision":"zip","state":"IA"},"type":"Feature","geometry":{"type":"Point","coordinates":[-91.681029,42.020105]}},{"properties":{"city":"Decatur","country":"US","geo_score":0.857,"zip code":"62526","website":"www.moranandgoebel.com","funeral home:":"Moran and Goebel Funeral Home - NorthStar","id":"a9fip1zmjl6h","geo_precision":"zip","state":"IL"},"type":"Feature","geometry":{"type":"Point","coordinates":[-88.938244,39.858284]}},{"properties":{"city":"Decatur","country":"US","geo_score":0.857,"zip code":"62526","website":"www.gracelandfairlawn.com","funeral home:":"Graceland Fairlawn Funeral Home - NorthStar","id":"a9fip221v6c6","geo_precision":"zip","state":"IL"},"type":"Feature","geometry":{"type":"Point","coordinates":[-88.938244,39.858284]}},{"properties":{"city":"Franklin Park","country":"US","geo_score":0.857,"zip code":"60131","website":"www.sax-tiedemann.com","funeral home:":"Sax-Tiedemann Funeral Home &amp; Crematorium","id":"a9fip1y07zgq","geo_precision":"zip","state":"IL"},"type":"Feature","geometry":{"type":"Point","coordinates":[-87.884962,41.93598]}},{"properties":{"city":"Joliet","country":"US","geo_score":0.857,"zip code":"60435","website":"www.tezakfuneralhome.com","funeral home:":"Tezak's Home to Celebrate Life","id":"a9fip224p59v","geo_precision":"zip","state":"IL"},"type":"Feature","geometry":{"type":"Point","coordinates":[-88.098671,41.554753]}},{"properties":{"city":"Lebanon","country":"US","geo_score":0.857,"zip code":"62254","website":"www.kalmermemorialservices.com","funeral home:":"Kalmer Memorial Services","id":"a9fip29z6h8z","geo_precision":"zip","state":"IL"},"type":"Feature","geometry":{"type":"Point","coordinates":[-89.82823,38.605448]}},{"properties":{"city":"Springfield","country":"US","geo_score":0.857,"zip code":"62703","website":"www.butlerfuneralhome.com","funeral home:":"Butler Funeral Homes &amp; Cremation Center","id":"a9fip28o692y","geo_precision":"zip","state":"IL"},"type":"Feature","geometry":{"type":"Point","coordinates":[-89.627547,39.762206]}},{"properties":{"city":"Wheeling,","country":"US","geo_score":0.857,"zip code":"60090","website":"www.funerals.pro","funeral home:":"Kolssak Funeral Home","id":"a9fip2avll79","geo_precision":"zip","state":"IL"},"type":"Feature","geometry":{"type":"Point","coordinates":[-87.933819,42.124176]}},{"properties":{"city":"Woodridge","country":"US","geo_score":0.857,"zip code":"60517","website":"www.simplicitycremationcare.com","funeral home:":"Simplicity Funeral and Cremation","id":"a9fip2bkbpb7","geo_precision":"zip","state":"IL"},"type":"Feature","geometry":{"type":"Point","coordinates":[-88.041731,41.736788]}},{"properties":{"city":"Fortville","country":"US","geo_score":0.857,"zip code":"46040","website":"www.sealsfuneralhome.com","funeral home:":"Seals Funeral Home &amp; Cremation Services","id":"a9fip259ln3j","geo_precision":"zip","state":"IN"},"type":"Feature","geometry":{"type":"Point","coordinates":[-85.840535,39.940596]}},{"properties":{"city":"Indianapolis","country":"US","geo_score":0.857,"zip code":"46202","website":"http://www.flannerbuchanan.com","funeral home:":"Flanner &amp; Buchanan - Market Street","id":"a9fip2cunr1f","geo_precision":"zip","state":"IN"},"type":"Feature","geometry":{"type":"Point","coordinates":[-86.143736,39.762392]}},{"properties":{"city":"Lafayette","country":"US","geo_score":0.857,"zip code":"47904","website":"www.hippensteelfuneralhome.com/","funeral home:":"Hippensteel Funeral Home","id":"a9fip2dcwiwd","geo_precision":"zip","state":"IN"},"type":"Feature","geometry":{"type":"Point","coordinates":[-86.917273,40.482287]}},{"properties":{"city":"Ligonier","country":"US","geo_score":0.857,"zip code":"46767","website":"www.yeagerfuneralhome.com","funeral home:":"Yeager Funeral Home","id":"a9fip1xqmn5u","geo_precision":"zip","state":"IN"},"type":"Feature","geometry":{"type":"Point","coordinates":[-85.42573,41.405478]}},{"properties":{"city":"Newcastle","country":"US","geo_score":0.857,"zip code":"47362","website":"www.hinsey-brown.com","funeral home:":"Hinsey-Brown Funeral Service","id":"a9fip2b7ydro","geo_precision":"zip","state":"IN"},"type":"Feature","geometry":{"type":"Point","coordinates":[-85.486641,39.951435]}},{"properties":{"city":"Topeka","country":"US","geo_score":0.857,"zip code":"66604","website":"www.penwellgabel.com","funeral home:":"Penwell-Gabel Funeral Home","id":"a9fip24e5dnq","geo_precision":"zip","state":"KS"},"type":"Feature","geometry":{"type":"Point","coordinates":[-95.876376,39.078611]}},{"properties":{"city":"Topeka","country":"US","geo_score":0.857,"zip code":"66606","website":"www.DoveFunerals.com","funeral home:":"Dove Cremation &amp; Funeral Service - Newcomer","id":"a9fip237b80k","geo_precision":"zip","state":"KS"},"type":"Feature","geometry":{"type":"Point","coordinates":[-95.72161,39.059349]}},{"properties":{"city":"Danville","country":"US","geo_score":0.857,"zip code":"40422","website":"www.stithfuneralhome.net","funeral home:":"Stith Funeral Home","id":"a9fip2cut6zo","geo_precision":"zip","state":"KY"},"type":"Feature","geometry":{"type":"Point","coordinates":[-84.862175,37.650075]}},{"properties":{"city":"Lexington","country":"US","geo_score":0.857,"zip code":"40507","website":"www.milwardfuneral.com","funeral home:":"Milward Funeral Home","id":"a9fip22k5jg5","geo_precision":"zip","state":"KY"},"type":"Feature","geometry":{"type":"Point","coordinates":[-84.495969,38.045571]}},{"properties":{"city":"Lowell","country":"US","geo_score":0.714,"zip code":"-","website":"www.mckennaouellette.com","funeral home:":"McKenna-Ouellette Funeral Home","id":"a9fip273scjt","geo_precision":"city","state":"MA"},"type":"Feature","geometry":{"type":"Point","coordinates":[-71.459405,42.446396]}},{"properties":{"city":"Quincy","country":"US","geo_score":0.857,"zip code":"02170","website":"www.keohane.com","funeral home:":"Keohane Funeral and Cremation Service","id":"a9fip20o0clx","geo_precision":"zip","state":"MA"},"type":"Feature","geometry":{"type":"Point","coordinates":[-71.016742,42.267248]}},{"properties":{"city":"Baltimore","country":"US","geo_score":0.857,"zip code":"21286","website":"www.cafa.com","funeral home:":"Cremation and Funeral Alternatives","id":"a9fip2dhsts3","geo_precision":"zip","state":"MD"},"type":"Feature","geometry":{"type":"Point","coordinates":[-76.578856,39.397607]}},{"properties":{"city":"Silver Spring","country":"US","geo_score":0.857,"zip code":"20910","website":"www.rappfuneral.com","funeral home:":"Rapp Funeral and Cremation Services","id":"a9fip1z5dsu4","geo_precision":"zip","state":"MD"},"type":"Feature","geometry":{"type":"Point","coordinates":[-77.060533,39.022332]}},{"properties":{"city":"Charlotte","country":"US","geo_score":0.857,"zip code":"48813","website":"www.prayfuneral.com","funeral home:":"Pray Funeral Home","id":"a9fip292w1el","geo_precision":"zip","state":"MI"},"type":"Feature","geometry":{"type":"Point","coordinates":[-84.895269,42.641425]}},{"properties":{"city":"Chelsea","country":"US","geo_score":0.857,"zip code":"48118","website":"www.mitchellfuneral.com","funeral home:":"Staffan-Mitchell Funeral Home","id":"a9fip27837c6","geo_precision":"zip","state":"MI"},"type":"Feature","geometry":{"type":"Point","coordinates":[-84.013999,42.31375]}},{"properties":{"city":"Clarkson","country":"US","geo_score":0.857,"zip code":"48346","website":"www.wintfuneralhome.com","funeral home:":"Lewis E. Wint Funeral Home","id":"a9fip23gbe1b","geo_precision":"zip","state":"MI"},"type":"Feature","geometry":{"type":"Point","coordinates":[-83.423242,42.723851]}},{"properties":{"city":"Clawson","country":"US","geo_score":0.857,"zip code":"48012","website":"www.lynchfuneraldirectors.com","funeral home:":"Lynch &amp; Son's Funeral Home - Clawson Chapel- Pat Lynch","id":"a9fip1y4ul76","geo_precision":"zip","state":"MI"},"type":"Feature","geometry":{"type":"Point","coordinates":[-83.292382,42.604425]}},{"properties":{"city":"Clawson","country":"US","geo_score":0.857,"zip code":"48017","website":"www.gramerfuneralhome.com","funeral home:":"Gramer Funeral Home","id":"a9fip28jyygo","geo_precision":"zip","state":"MI"},"type":"Feature","geometry":{"type":"Point","coordinates":[-83.146427,42.536785]}},{"properties":{"city":"Dowagiac","country":"US","geo_score":0.857,"zip code":"49047","website":"www.Starks-Menchinger.com","funeral home:":"Yazel-Clark Funeral Home","id":"a9fip27pvr6z","geo_precision":"zip","state":"MI"},"type":"Feature","geometry":{"type":"Point","coordinates":[-86.019304,41.961597]}},{"properties":{"city":"Farmington Hills","country":"US","geo_score":0.857,"zip code":"48336","website":"www.generationsfuneralservice.com","funeral home:":"Generations Funeral and Cremation Services","id":"a9fip233e2at","geo_precision":"zip","state":"MI"},"type":"Feature","geometry":{"type":"Point","coordinates":[-83.363784,42.465635]}},{"properties":{"city":"Fenton","country":"US","geo_score":0.857,"zip code":"48430","website":"www.sharpfuneralhomes.com","funeral home:":"Sharp Funeral Homes Fenton Chapel","id":"a9fip22l85jz","geo_precision":"zip","state":"MI"},"type":"Feature","geometry":{"type":"Point","coordinates":[-83.706618,42.835861]}},{"properties":{"city":"Flint","country":"US","geo_score":0.857,"zip code":"48507","website":"www.swartzfuneralhimeinc.com","funeral home:":"Swartz Funeral Home","id":"a9fip27um8do","geo_precision":"zip","state":"MI"},"type":"Feature","geometry":{"type":"Point","coordinates":[-83.734004,42.982076]}},{"properties":{"city":"Grand Rapids","country":"US","geo_score":0.857,"zip code":"49504","website":"www.lifestorynet.com","funeral home:":"Heritage Life Story Funeral Homes - Alt &amp; Shawmut Hills Chapel","id":"a9fip23rcr0a","geo_precision":"zip","state":"MI"},"type":"Feature","geometry":{"type":"Point","coordinates":[-85.768092,43.001413]}},{"properties":{"city":"Grandville","country":"US","geo_score":0.857,"zip code":"49418","website":"www.cookfuneralhome.com","funeral home:":"Cook Funeral &amp; Cremation Service","id":"a9fip1zhelqe","geo_precision":"zip","state":"MI"},"type":"Feature","geometry":{"type":"Point","coordinates":[-85.753056,42.882726]}},{"properties":{"city":"Lapeer","country":"US","geo_score":0.857,"zip code":"48446","website":"www.lynchfamilyfuneraldirectors.com","funeral home:":"Lynch &amp; Son's Funeral Home - Capstick Chapel- Tim Lynch","id":"a9fip2b7y483","geo_precision":"zip","state":"MI"},"type":"Feature","geometry":{"type":"Point","coordinates":[-83.439948,43.036416]}},{"properties":{"city":"Linden","country":"US","geo_score":0.857,"zip code":"48451","website":"www.sharpfuneralhomes.com","funeral home:":"Sharp Funeral Homes Linden Chapel","id":"a9fip24p3ayc","geo_precision":"zip","state":"MI"},"type":"Feature","geometry":{"type":"Point","coordinates":[-83.846343,42.791419]}},{"properties":{"city":"Marysville","country":"US","geo_score":0.857,"zip code":"48040","website":"www.pollockandrandallfuneralhome.com","funeral home:":"Marysville Funeral Home (Pollock Randall)","id":"a9fip2btl2zp","geo_precision":"zip","state":"MI"},"type":"Feature","geometry":{"type":"Point","coordinates":[-82.491538,42.78269]}},{"properties":{"city":"Milford,","country":"US","geo_score":0.857,"zip code":"48381","website":"www.lynchfuneraldirectors.com","funeral home:":"Lynch &amp; Son's Funeral Home - Milford Chapel- Tom Lynch","id":"a9fip2bfefyv","geo_precision":"zip","state":"MI"},"type":"Feature","geometry":{"type":"Point","coordinates":[-83.579098,42.554322]}},{"properties":{"city":"New Buffalo","country":"US","geo_score":0.857,"zip code":"49117","website":"www.Starks-Menchinger.com","funeral home:":"Sommerfeld-Smith Family Funeral Home/Starks-Menchinger","id":"a9fip26t3xfs","geo_precision":"zip","state":"MI"},"type":"Feature","geometry":{"type":"Point","coordinates":[-86.813362,41.764207]}},{"properties":{"city":"Niles","country":"US","geo_score":0.857,"zip code":"48120","website":"www.brownfuneralhomeniles.com","funeral home:":"Brown Funeral Home and Cremation","id":"a9fip26nnkqd","geo_precision":"zip","state":"MI"},"type":"Feature","geometry":{"type":"Point","coordinates":[-83.177625,42.310037]}},{"properties":{"city":"Norton Shores","country":"US","geo_score":0.857,"zip code":"49444","website":"www,sytsemafh.com","funeral home:":"Sytsema Funeral Home - The Lee Chapel","id":"a9fip212db4t","geo_precision":"zip","state":"MI"},"type":"Feature","geometry":{"type":"Point","coordinates":[-86.165333,43.190572]}},{"properties":{"city":"Novi","country":"US","geo_score":0.857,"zip code":"48375","website":"www.obriensullivanfuneralhome.com","funeral home:":"O'Brien/Sullivan Funeral Home","id":"a9fip26k73sl","geo_precision":"zip","state":"MI"},"type":"Feature","geometry":{"type":"Point","coordinates":[-83.46663,42.463569]}},{"properties":{"city":"Oxford","country":"US","geo_score":0.857,"zip code":"48371","website":"www.lynchfamilyfuneraldirectors.com","funeral home:":"Lynch &amp; Son's Funeral Home - Bossardet Chapel- Tim Lynch","id":"a9fip224dg4v","geo_precision":"zip","state":"MI"},"type":"Feature","geometry":{"type":"Point","coordinates":[-83.339754,42.772209]}},{"properties":{"city":"Plymouth","country":"US","geo_score":0.857,"zip code":"48170","website":"www.schrader-howell.com","funeral home:":"Schrader-Howell Chapel","id":"a9fip2b9824y","geo_precision":"zip","state":"MI"},"type":"Feature","geometry":{"type":"Point","coordinates":[-83.489679,42.366737]}},{"properties":{"city":"Royal Oak","country":"US","geo_score":0.857,"zip code":"48073","website":"www.desmondfuneralhome.com","funeral home:":"A.J.Desmond &amp; Sons Funeral Directors","id":"a9fip23je1yo","geo_precision":"zip","state":"MI"},"type":"Feature","geometry":{"type":"Point","coordinates":[-83.163477,42.5216]}},{"properties":{"city":"Shelby Township","country":"US","geo_score":0.857,"zip code":"48317","website":"www.gramerfuneralhome.com","funeral home:":"Gramer Funeral Homes","id":"a9fip22jzkxw","geo_precision":"zip","state":"MI"},"type":"Feature","geometry":{"type":"Point","coordinates":[-83.05043,42.641276]}},{"properties":{"city":"St. Joseph","country":"US","geo_score":0.857,"zip code":"49085","website":"www.Starks-Menchinger.com","funeral home:":"Starks &amp; Menchinger Chapel","id":"a9fip22ljnlp","geo_precision":"zip","state":"MI"},"type":"Feature","geometry":{"type":"Point","coordinates":[-86.435298,42.041987]}},{"properties":{"city":"Swartz Creek","country":"US","geo_score":0.857,"zip code":"48473","website":"www.sharpfuneralhomes.com","funeral home:":"Sharp Funeral Homes Miller Road Chapel","id":"a9fip1zcfr7n","geo_precision":"zip","state":"MI"},"type":"Feature","geometry":{"type":"Point","coordinates":[-83.90996,42.928085]}},{"properties":{"city":"Traverse City","country":"US","geo_score":0.857,"zip code":"49684","website":"www.reynolds-jonkhoff.com","funeral home:":"Reynolds Jonkhoff Funeral Home &amp; Cremation Services","id":"a9fip1ym8q40","geo_precision":"zip","state":"MI"},"type":"Feature","geometry":{"type":"Point","coordinates":[-85.647578,44.793612]}},{"properties":{"city":"Trenton","country":"US","geo_score":0.857,"zip code":"48183","website":"www.martenson.com","funeral home:":"Martenson Family Funeral Homes - Trenton Chapel","id":"a9fip2c8k04l","geo_precision":"zip","state":"MI"},"type":"Feature","geometry":{"type":"Point","coordinates":[-83.217937,42.138209]}},{"properties":{"city":"Troy","country":"US","geo_score":0.857,"zip code":"48084","website":"www.desmondfuneralhome.com","funeral home:":"A.J.Desmond &amp; Sons Funeral Directors","id":"a9fip29mqihc","geo_precision":"zip","state":"MI"},"type":"Feature","geometry":{"type":"Point","coordinates":[-83.17688,42.554751]}},{"properties":{"city":"Utica","country":"US","geo_score":0.857,"zip code":"48317","website":"www.sullivanfuneraldirectors.com","funeral home:":"Sullivan &amp; Son","id":"a9fip2bf5fzh","geo_precision":"zip","state":"MI"},"type":"Feature","geometry":{"type":"Point","coordinates":[-83.05043,42.641276]}},{"properties":{"city":"Walled Lake","country":"US","geo_score":0.857,"zip code":"48390","website":"www.lynchfamilyfuneraldirectors.com","funeral home:":"Lynch &amp; Son's Funeral Home - Walled Lake - Tim Lynch","id":"a9fip2cfg5dj","geo_precision":"zip","state":"MI"},"type":"Feature","geometry":{"type":"Point","coordinates":[-83.47726,42.558183]}},{"properties":{"city":"Wyandotte","country":"US","geo_score":0.857,"zip code":"48192","website":"www.nixonfuneralhome.com","funeral home:":"R.J.Nixon Funeral Home","id":"a9fip1y7uas3","geo_precision":"zip","state":"MI"},"type":"Feature","geometry":{"type":"Point","coordinates":[-83.17937,42.174207]}},{"properties":{"city":"Flint","country":"US","geo_score":0.714,"zip code":"48507","website":"www.sharpfuneralhomes.com","funeral home:":"Sharp Funeral Homes Flint Chapel","id":"a9fip25luigl","geo_precision":"zip","state":"MI"},"type":"Feature","geometry":{"type":"Point","coordinates":[-83.734004,42.982076]}},{"properties":{"city":"Royal Oak","country":"US","geo_score":0.714,"zip code":"48067","website":"www.sullivanfuneraldirectors.com","funeral home:":"Sullivan &amp; Son","id":"a9fip1zxhtl6","geo_precision":"zip","state":"MI"},"type":"Feature","geometry":{"type":"Point","coordinates":[-83.145375,42.492485]}},{"properties":{"city":"West Saint Paul","country":"US","geo_score":0.857,"zip code":"55118","website":"www.naturalburialandcremation.com","funeral home:":"Willwerscheid Natural Burial And Cremation","id":"a9fip1zbaara","geo_precision":"zip","state":"MN"},"type":"Feature","geometry":{"type":"Point","coordinates":[-93.126053,44.916077]}},{"properties":{"city":"O'Fallon","country":"US","geo_score":0.857,"zip code":"63366","website":"www.baue.com","funeral home:":"Baue O'Fallon","id":"a9fip22zim0j","geo_precision":"zip","state":"MO"},"type":"Feature","geometry":{"type":"Point","coordinates":[-90.729016,38.769497]}},{"properties":{"city":"St. Charles","country":"US","geo_score":0.857,"zip code":"63301","website":"www.baue.com","funeral home:":"Baue Funeral and Memorial Center","id":"a9fip24eewgv","geo_precision":"zip","state":"MO"},"type":"Feature","geometry":{"type":"Point","coordinates":[-90.523175,38.865328]}},{"properties":{"city":"St. Charles","country":"US","geo_score":0.857,"zip code":"63301","website":"www.baue.com","funeral home:":"Baue St. Charles","id":"a9fip28lhb2p","geo_precision":"zip","state":"MO"},"type":"Feature","geometry":{"type":"Point","coordinates":[-90.523175,38.865328]}},{"properties":{"city":"Bozeman","country":"US","geo_score":0.857,"zip code":"59715","website":"www.dokkennelson.com","funeral home:":"Dokken-Nelson Funeral Service and Crematory","id":"a9fip2898hqf","geo_precision":"zip","state":"MT"},"type":"Feature","geometry":{"type":"Point","coordinates":[-111.168212,45.809998]}},{"properties":{"city":"Bozeman","country":"US","geo_score":0.857,"zip code":"59715","website":"www.dahlcares.com","funeral home:":"Dahl Funeral Chapel of Bozeman","id":"a9fip280p3rg","geo_precision":"zip","state":"MT"},"type":"Feature","geometry":{"type":"Point","coordinates":[-111.168212,45.809998]}},{"properties":{"city":"Asheville","country":"US","geo_score":0.857,"zip code":"28806","website":"www.grocefuneralhome.com","funeral home:":"Groce Funeral Home &amp; Cremation Service","id":"a9fip2bduyzc","geo_precision":"zip","state":"NC"},"type":"Feature","geometry":{"type":"Point","coordinates":[-82.646797,35.640109]}},{"properties":{"city":"Candler","country":"US","geo_score":0.857,"zip code":"28715","website":"www.moorefh.net","funeral home:":"Moore Funeral Home at Forest Lawn","id":"a9fip2dj38bt","geo_precision":"zip","state":"NC"},"type":"Feature","geometry":{"type":"Point","coordinates":[-82.707353,35.565664]}},{"properties":{"city":"Carthage","country":"US","geo_score":0.857,"zip code":"28327","website":"http://www.pinesfunerals.com","funeral home:":"Pines Funerals - Fry-Prickett Funeral Home","id":"a9fip27dd24e","geo_precision":"zip","state":"NC"},"type":"Feature","geometry":{"type":"Point","coordinates":[-79.447807,35.245712]}},{"properties":{"city":"North Raleigh","country":"US","geo_score":0.857,"zip code":"27615","website":"www.rfhr.com","funeral home:":"Renaissance Funeral Home Inc","id":"a9fip2bg2gjm","geo_precision":"zip","state":"NC"},"type":"Feature","geometry":{"type":"Point","coordinates":[-78.627455,35.918893]}},{"properties":{"city":"Robbins","country":"US","geo_score":0.857,"zip code":"27325","website":"http://www.pinesfunerals.com","funeral home:":"Pines Funerals - Kennedy Funeral Home - Pines Funerals","id":"a9fip24q0f18","geo_precision":"zip","state":"NC"},"type":"Feature","geometry":{"type":"Point","coordinates":[-79.509192,35.464314]}},{"properties":{"city":"Southern Pines","country":"US","geo_score":0.857,"zip code":"28387","website":"http://www.pinesfunerals.com","funeral home:":"Pines Funerals - Powell Funeral Home - Pines Funerals","id":"a9fip20rdtvs","geo_precision":"zip","state":"NC"},"type":"Feature","geometry":{"type":"Point","coordinates":[-79.371697,35.185714]}},{"properties":{"city":"Wilmington","country":"US","geo_score":0.857,"zip code":"28406","website":"www.wilmingtoncares.com","funeral home:":"Wilmington Funeral and Cremation","id":"a9fip29w9dg1","geo_precision":"zip","state":"NC"},"type":"Feature","geometry":{"type":"Point","coordinates":[-77.852599,34.088079]}},{"properties":{"city":"Omaha","country":"US","geo_score":0.857,"zip code":"68114","website":"www.johnagentleman.com","funeral home:":"John A. Gentleman Mortuaries","id":"a9fip2bxbdwf","geo_precision":"zip","state":"NE"},"type":"Feature","geometry":{"type":"Point","coordinates":[-96.053634,41.263262]}},{"properties":{"city":"Boscawen","country":"US","geo_score":0.857,"zip code":"03303","website":"www.phaneuf.net","funeral home:":"Phaneuf Funeral Homes &amp; Crematoria","id":"a9fip1xgd798","geo_precision":"zip","state":"NH"},"type":"Feature","geometry":{"type":"Point","coordinates":[-71.619519,43.249246]}},{"properties":{"city":"Manchester","country":"US","geo_score":0.857,"zip code":"03104","website":"www.phaneuf.net","funeral home:":"Phaneuf Funeral Homes &amp; Crematoria","id":"a9fip24cwrzp","geo_precision":"zip","state":"NH"},"type":"Feature","geometry":{"type":"Point","coordinates":[-71.372208,42.897524]}},{"properties":{"city":"Manchester","country":"US","geo_score":0.857,"zip code":"03102","website":"www.phaneuf.net","funeral home:":"Phaneuf Funeral Homes &amp; Crematoria","id":"a9fip2dhw5qf","geo_precision":"zip","state":"NH"},"type":"Feature","geometry":{"type":"Point","coordinates":[-71.494561,43.007883]}},{"properties":{"city":"Gloucester City","country":"US","geo_score":0.857,"zip code":"08030","website":"www.mccannhealey.com","funeral home:":"McCann-Healey Funeral Home","id":"a9fip1xgcfgp","geo_precision":"zip","state":"NJ"},"type":"Feature","geometry":{"type":"Point","coordinates":[-75.112619,39.890413]}},{"properties":{"city":"Hillside","country":"US","geo_score":0.857,"zip code":"07205","website":"www.growneyfuneral.com","funeral home:":"Growney Funeral Home (Funeral Services)","id":"a9fip219oegs","geo_precision":"zip","state":"NJ"},"type":"Feature","geometry":{"type":"Point","coordinates":[-74.229889,40.693823]}},{"properties":{"city":"Hillside","country":"US","geo_score":0.857,"zip code":"07205","website":"www.funeralserviceofnewjersey.com","funeral home:":"Funeral Service of New Jersey/Growney F.H.","id":"a9fip2cmm50e","geo_precision":"zip","state":"NJ"},"type":"Feature","geometry":{"type":"Point","coordinates":[-74.229889,40.693823]}},{"properties":{"city":"Manasquan","country":"US","geo_score":0.857,"zip code":"08736","website":"www.neary-quinnfuneralhome.com","funeral home:":"Neary-Quinn Funeral Home","id":"a9fip2cku1da","geo_precision":"zip","state":"NJ"},"type":"Feature","geometry":{"type":"Point","coordinates":[-74.074583,40.100115]}},{"properties":{"city":"Mullica Hill","country":"US","geo_score":0.857,"zip code":"08062","website":"www.fertigfuneralhome.com","funeral home:":"Fertig Funeral Home","id":"a9fip2adf5ix","geo_precision":"zip","state":"NJ"},"type":"Feature","geometry":{"type":"Point","coordinates":[-75.211849,39.753725]}},{"properties":{"city":"Oakland","country":"US","geo_score":0.857,"zip code":"07436","website":"www.oaklandmemorialhome.com","funeral home:":"Oakland Memorial Home","id":"a9fip24gdkof","geo_precision":"zip","state":"NJ"},"type":"Feature","geometry":{"type":"Point","coordinates":[-74.212368,41.018986]}},{"properties":{"city":"Paramus","country":"US","geo_score":0.857,"zip code":"07652","website":"www.vanderplaat.com","funeral home:":"Vander Plaat Memorial Home","id":"a9fip20pomn3","geo_precision":"zip","state":"NJ"},"type":"Feature","geometry":{"type":"Point","coordinates":[-74.068964,40.944997]}},{"properties":{"city":"Runnemede","country":"US","geo_score":0.857,"zip code":"08078","website":"www.gardnerfuneralhome.com","funeral home:":"Gardner Fineral Home","id":"a9fip21to4wj","geo_precision":"zip","state":"NJ"},"type":"Feature","geometry":{"type":"Point","coordinates":[-75.070672,39.850163]}},{"properties":{"city":"Verona","country":"US","geo_score":0.857,"zip code":"07044","website":"www.proutfuneralhome.com","funeral home:":"Prout Funeral Home","id":"a9fip2c274vo","geo_precision":"zip","state":"NJ"},"type":"Feature","geometry":{"type":"Point","coordinates":[-74.243895,40.832849]}},{"properties":{"city":"Albuquerque","country":"US","geo_score":0.857,"zip code":"87121","website":"www.gabaldonmortuaryinc.com","funeral home:":"Gabaldon Mortuary","id":"a9fip28yg7lh","geo_precision":"zip","state":"NM"},"type":"Feature","geometry":{"type":"Point","coordinates":[-106.805535,35.059663]}},{"properties":{"city":"Albuquerque","country":"US","geo_score":0.857,"zip code":"87102","website":"www.frenchmortuary.com","funeral home:":"French Mortuary","id":"a9fip252ba44","geo_precision":"zip","state":"NM"},"type":"Feature","geometry":{"type":"Point","coordinates":[-106.678081,35.010049]}},{"properties":{"city":"Las Vegas","country":"US","geo_score":0.857,"zip code":"89147","website":"www.kraftsussman.com","funeral home:":"Kraft-Sussman Funeral Services","id":"a9fip23q5864","geo_precision":"zip","state":"NV"},"type":"Feature","geometry":{"type":"Point","coordinates":[-115.243814,36.159421]}},{"properties":{"city":"Reno","country":"US","geo_score":0.857,"zip code":"89511","website":"www.northernnevadacremation.com","funeral home:":"Northern Nevada Memorial, Cremation &amp; Burial Society","id":"a9fip22mmnl8","geo_precision":"zip","state":"NV"},"type":"Feature","geometry":{"type":"Point","coordinates":[-119.776019,39.352411]}},{"properties":{"city":"Brooklyn","country":"US","geo_score":0.857,"zip code":"11235","website":"www.EternalLightNewYork.com","funeral home:":"Eternal Light Funeral Directors of New York","id":"a9fip22siq33","geo_precision":"zip","state":"NY"},"type":"Feature","geometry":{"type":"Point","coordinates":[-73.948402,40.584455]}},{"properties":{"city":"Brooklyn","country":"US","geo_score":0.857,"zip code":"11232","website":"www.NYCGreenFunerals.com","funeral home:":"Greenwood Heights Funeral &amp; Cremation Services","id":"a9fip2c1zyio","geo_precision":"zip","state":"NY"},"type":"Feature","geometry":{"type":"Point","coordinates":[-73.971708,40.671186]}},{"properties":{"city":"Cambridge","country":"US","geo_score":0.857,"zip code":"12816","website":"www.ackleyrossfuneralhome.com","funeral home:":"Ackley &amp; Ross Funeral Home","id":"a9fip2cov9qe","geo_precision":"zip","state":"NY"},"type":"Feature","geometry":{"type":"Point","coordinates":[-73.455947,42.9948]}},{"properties":{"city":"Fairport","country":"US","geo_score":0.857,"zip code":"14450","website":"www.doserfuneralhome.com","funeral home:":"Doser Funeral Home","id":"a9fip20grq0f","geo_precision":"zip","state":"NY"},"type":"Feature","geometry":{"type":"Point","coordinates":[-77.428964,43.104287]}},{"properties":{"city":"Greece","country":"US","geo_score":0.857,"zip code":"14626","website":"www.bartolomeo.com","funeral home:":"Bartolomeo &amp; Perotto Funeral Home","id":"a9fip294wys7","geo_precision":"zip","state":"NY"},"type":"Feature","geometry":{"type":"Point","coordinates":[-77.73195,43.190895]}},{"properties":{"city":"Hilton","country":"US","geo_score":0.857,"zip code":"14468","website":"www.meesonfamily.com","funeral home:":"Vay-Schleich &amp; Meeson","id":"a9fip21h0e26","geo_precision":"zip","state":"NY"},"type":"Feature","geometry":{"type":"Point","coordinates":[-77.809177,43.341449]}},{"properties":{"city":"Lansing","country":"US","geo_score":0.857,"zip code":"14882","website":"www.lansingfuneralhome.com","funeral home:":"Lansing Funeral Home","id":"a9fip1x97503","geo_precision":"zip","state":"NY"},"type":"Feature","geometry":{"type":"Point","coordinates":[-76.538553,42.553683]}},{"properties":{"city":"Manhasset","country":"US","geo_score":0.857,"zip code":"11030","website":"www.fairchildsons.com","funeral home:":"Fairchild Sons, Inc","id":"a9fip27ed0rl","geo_precision":"zip","state":"NY"},"type":"Feature","geometry":{"type":"Point","coordinates":[-73.679852,40.798712]}},{"properties":{"city":"N. Tonawanda","country":"US","geo_score":0.857,"zip code":"14120","website":"www.wattengel.com","funeral home:":"Wattengel Funeral Home","id":"a9fip25du9yl","geo_precision":"zip","state":"NY"},"type":"Feature","geometry":{"type":"Point","coordinates":[-78.770589,43.071168]}},{"properties":{"city":"NY","country":"US","geo_score":0.857,"zip code":"10012","website":"www.greenwichvillagefuneralhome.com","funeral home:":"Greenwich Funeral Home","id":"a9fip2bj5uts","geo_precision":"zip","state":"NY"},"type":"Feature","geometry":{"type":"Point","coordinates":[-73.991582,40.729124]}},{"properties":{"city":"Rochester","country":"US","geo_score":0.857,"zip code":"14626","website":"www.meesonfamily.com","funeral home:":"Vay-Schleich &amp; Meeson","id":"a9fip26s4q4f","geo_precision":"zip","state":"NY"},"type":"Feature","geometry":{"type":"Point","coordinates":[-77.73195,43.190895]}},{"properties":{"city":"Rochester","country":"US","geo_score":0.857,"zip code":"14610","website":"www.CrawfordFuneralHome.com","funeral home:":"Crawford Funeral Home","id":"a9fip23ae9f2","geo_precision":"zip","state":"NY"},"type":"Feature","geometry":{"type":"Point","coordinates":[-77.557871,43.140163]}},{"properties":{"city":"Smithtown","country":"US","geo_score":0.857,"zip code":"11787","website":"www.branchfh.com","funeral home:":"The Branch Funeral Home","id":"a9fip21xob6g","geo_precision":"zip","state":"NY"},"type":"Feature","geometry":{"type":"Point","coordinates":[-73.208278,40.856793]}},{"properties":{"city":"Staten Island","country":"US","geo_score":0.857,"zip code":"10305","website":"www.azzarafuneralhome.com","funeral home:":"A.Azzara Funeral Home","id":"a9fip26nqk3a","geo_precision":"zip","state":"NY"},"type":"Feature","geometry":{"type":"Point","coordinates":[-74.077837,40.596828]}},{"properties":{"city":"White Plains","country":"US","geo_score":0.857,"zip code":"10605","website":"www.ballarddurand.com","funeral home:":"Ballard-Durand - 2 locations","id":"a9fip2dnlk3n","geo_precision":"zip","state":"NY"},"type":"Feature","geometry":{"type":"Point","coordinates":[-73.748575,41.007597]}},{"properties":{"city":"Avon","country":"US","geo_score":0.857,"zip code":"44011","website":"www.buschfuneral.com","funeral home:":"Busch Funeral &amp; Crematory Services","id":"a9fip27yc5ki","geo_precision":"zip","state":"OH"},"type":"Feature","geometry":{"type":"Point","coordinates":[-82.019866,41.448492]}},{"properties":{"city":"Avon Lake","country":"US","geo_score":0.857,"zip code":"44012","website":"www.buschfuneral.com","funeral home:":"Busch Funeral &amp; Crematory Services","id":"a9fip2822bzt","geo_precision":"zip","state":"OH"},"type":"Feature","geometry":{"type":"Point","coordinates":[-82.017527,41.49674]}},{"properties":{"city":"Belpre","country":"US","geo_score":0.857,"zip code":"45714","website":"http://LeavittFuneralHome.com","funeral home:":"Leavitt Funeral Services &amp; Crematory","id":"a9fip281zkox","geo_precision":"zip","state":"OH"},"type":"Feature","geometry":{"type":"Point","coordinates":[-81.559698,39.449988]}},{"properties":{"city":"Cleveland","country":"US","geo_score":0.857,"zip code":"44109","website":"www.buschfuneral.com","funeral home:":"Busch Funeral &amp; Crematory Services","id":"a9fip20qaxeb","geo_precision":"zip","state":"OH"},"type":"Feature","geometry":{"type":"Point","coordinates":[-81.698483,41.445963]}},{"properties":{"city":"Columbus","country":"US","geo_score":0.857,"zip code":"43215","website":"www.schoedinger.com","funeral home:":"Schoedinger Funeral Homes- Midtown Chapel","id":"a9fip26zcii5","geo_precision":"zip","state":"OH"},"type":"Feature","geometry":{"type":"Point","coordinates":[-82.877131,39.891745]}},{"properties":{"city":"Cridersville","country":"US","geo_score":0.857,"zip code":"45826","website":"www.bayliffandson.com","funeral home:":"Bayliff &amp; Son Funeral Home","id":"a9fip1xly8xa","geo_precision":"zip","state":"OH"},"type":"Feature","geometry":{"type":"Point","coordinates":[-84.633484,40.428177]}},{"properties":{"city":"Dover","country":"US","geo_score":0.857,"zip code":"44662","website":"http://tolandherzig.com","funeral home:":"Toland-Herzig Funeral Homes &amp; Crematory","id":"a9fip20q8bev","geo_precision":"zip","state":"OH"},"type":"Feature","geometry":{"type":"Point","coordinates":[-81.579012,40.704503]}},{"properties":{"city":"Elyria","country":"US","geo_score":0.857,"zip code":"44035","website":"www.buschfuneral.com","funeral home:":"Busch Funeral &amp; Crematory Services","id":"a9fip20w9h1s","geo_precision":"zip","state":"OH"},"type":"Feature","geometry":{"type":"Point","coordinates":[-82.115982,41.420321]}},{"properties":{"city":"Fairview Park","country":"US","geo_score":0.857,"zip code":"44116","website":"www.buschfuneral.com","funeral home:":"Busch Funeral &amp; Crematory Services","id":"a9fip1ymwnj2","geo_precision":"zip","state":"OH"},"type":"Feature","geometry":{"type":"Point","coordinates":[-81.849209,41.469497]}},{"properties":{"city":"Granville","country":"US","geo_score":0.857,"zip code":"43023","website":"www.mcpeekhoekstra.com","funeral home:":"McPEEK-HOEKSTRA FUNERAL HOME","id":"a9fip1xouqgt","geo_precision":"zip","state":"OH"},"type":"Feature","geometry":{"type":"Point","coordinates":[-82.539941,40.048971]}},{"properties":{"city":"Kent,","country":"US","geo_score":0.857,"zip code":"44240","website":"http://www.bisslerandsons.com","funeral home:":"Bissler &amp; Sons Funeral Home &amp; Crematory","id":"a9fip27554aq","geo_precision":"zip","state":"OH"},"type":"Feature","geometry":{"type":"Point","coordinates":[-81.346497,41.100057]}},{"properties":{"city":"Lowellville","country":"US","geo_score":0.857,"zip code":"44436","website":"http://beckerfuneralhomes.com","funeral home:":"Becker Funeral Homes","id":"a9fip23yauxu","geo_precision":"zip","state":"OH"},"type":"Feature","geometry":{"type":"Point","coordinates":[-80.549561,41.056428]}},{"properties":{"city":"Madison","country":"US","geo_score":0.857,"zip code":"44057","website":"www.behmfuneral.com","funeral home:":"Behm Funeral Home","id":"a9fip2aj5om2","geo_precision":"zip","state":"OH"},"type":"Feature","geometry":{"type":"Point","coordinates":[-81.050097,41.725331]}},{"properties":{"city":"North Olmstead","country":"US","geo_score":0.857,"zip code":"44070","website":"http://www.dostalfuneralservices.com/","funeral home:":"Dostal Bokas Funeral Services - Northstar","id":"a9fip29m1yv9","geo_precision":"zip","state":"OH"},"type":"Feature","geometry":{"type":"Point","coordinates":[-81.922461,41.417347]}},{"properties":{"city":"Parma","country":"US","geo_score":0.857,"zip code":"44129","website":"www.buschfuneral.com","funeral home:":"Busch Funeral &amp; Crematory Services","id":"a9fip2d39kgj","geo_precision":"zip","state":"OH"},"type":"Feature","geometry":{"type":"Point","coordinates":[-81.722909,41.404774]}},{"properties":{"city":"Poland","country":"US","geo_score":0.857,"zip code":"44514","website":"http://beckerfuneralhomes.com","funeral home:":"Becker Funeral Homes","id":"a9fip2454t3r","geo_precision":"zip","state":"OH"},"type":"Feature","geometry":{"type":"Point","coordinates":[-80.614795,41.024226]}},{"properties":{"city":"Struthers","country":"US","geo_score":0.857,"zip code":"44471","website":"http://beckerfuneralhomes.com","funeral home:":"Becker Funeral Homes","id":"a9fip1ytmvul","geo_precision":"zip","state":"OH"},"type":"Feature","geometry":{"type":"Point","coordinates":[-80.591298,41.050058]}},{"properties":{"city":"Twinsburg","country":"US","geo_score":0.857,"zip code":"44087","website":"www.blessingfh.com","funeral home:":"Blessing Funeral Home","id":"a9fip2bqbu2d","geo_precision":"zip","state":"OH"},"type":"Feature","geometry":{"type":"Point","coordinates":[-81.440435,41.313304]}},{"properties":{"city":"Youngstown","country":"US","geo_score":0.857,"zip code":"44515","website":"www.lanefuneralhomes.com/","funeral home:":"Lane Funeral Homes","id":"a9fip2bx2qfn","geo_precision":"zip","state":"OH"},"type":"Feature","geometry":{"type":"Point","coordinates":[-80.793137,41.09978]}},{"properties":{"city":"Broken Arrow","country":"US","geo_score":0.857,"zip code":"74012","website":"www.funeralplan.com/christian-gavlik","funeral home:":"Christian - Gavlik Funeral Home - Stumpff","id":"a9fip28amn4v","geo_precision":"zip","state":"OK"},"type":"Feature","geometry":{"type":"Point","coordinates":[-95.708038,36.01899]}},{"properties":{"city":"Broken Arrow","country":"US","geo_score":0.857,"zip code":"74012","website":"www.floralhaven.com","funeral home:":"Floral Haven Funeral Home - NorthStar","id":"a9fip2dfoyf8","geo_precision":"zip","state":"OK"},"type":"Feature","geometry":{"type":"Point","coordinates":[-95.708038,36.01899]}},{"properties":{"city":"Skiatook,","country":"US","geo_score":0.857,"zip code":"74070","website":"www.Butler-Stumpff.com","funeral home:":"Peters-Stumpff","id":"a9fip27zaxe9","geo_precision":"zip","state":"OK"},"type":"Feature","geometry":{"type":"Point","coordinates":[-96.168498,36.413662]}},{"properties":{"city":"Tulsa","country":"US","geo_score":0.714,"zip code":"&amp;4104","website":"www.Butler-Stumpff.com","funeral home:":"Butler-Stumpff","id":"a9fip23k7bs5","geo_precision":"city","state":"OK"},"type":"Feature","geometry":{"type":"Point","coordinates":[-95.868667,36.039147]}},{"properties":{"city":"Tulsa","country":"US","geo_score":0.857,"zip code":"74120","website":"www.kennedycares.com","funeral home:":"Kennedy Funeral &amp; Cremation","id":"a9fip21onnju","geo_precision":"zip","state":"OK"},"type":"Feature","geometry":{"type":"Point","coordinates":[-95.979824,36.148593]}},{"properties":{"city":"Ashland","country":"US","geo_score":0.857,"zip code":"97520","website":"www.litwillersimonsen.com","funeral home:":"Litwiller-Simonsen Funeral Home","id":"a9fip22kprch","geo_precision":"zip","state":"OR"},"type":"Feature","geometry":{"type":"Point","coordinates":[-122.403078,42.10875]}},{"properties":{"city":"Beaverton","country":"US","geo_score":0.857,"zip code":"97005","website":"www.peggpaxonspringerfuneralhome.com","funeral home:":"Pegg, Paxon and Springer Funeral Chapel - SCI","id":"a9fip24y7giq","geo_precision":"zip","state":"OR"},"type":"Feature","geometry":{"type":"Point","coordinates":[-122.902324,45.497617]}},{"properties":{"city":"Boring","country":"US","geo_score":0.857,"zip code":"97009","website":"www.","funeral home:":"Cornerstone Funeral Services and Cremation","id":"a9fip2b1ljuw","geo_precision":"zip","state":"OR"},"type":"Feature","geometry":{"type":"Point","coordinates":[-122.407033,45.38901]}},{"properties":{"city":"Grants Pass","country":"US","geo_score":0.857,"zip code":"97526","website":"www.since1928hull.com","funeral home:":"Hull &amp; Hull Funeral Home","id":"a9fip2cgt54u","geo_precision":"zip","state":"OR"},"type":"Feature","geometry":{"type":"Point","coordinates":[-123.402563,42.584561]}},{"properties":{"city":"Gresham","country":"US","geo_score":0.857,"zip code":"97080","website":"www.greshamfuneral.com","funeral home:":"Gresham Memorial Chapel","id":"a9fip202086g","geo_precision":"zip","state":"OR"},"type":"Feature","geometry":{"type":"Point","coordinates":[-122.38675,45.481252]}},{"properties":{"city":"Gresham","country":"US","geo_score":0.857,"zip code":"97030","website":"www.batemancarrollfuneralhome.com","funeral home:":"Bateman Carroll Funeral Home -SCI","id":"a9fip1yxjk76","geo_precision":"zip","state":"OR"},"type":"Feature","geometry":{"type":"Point","coordinates":[-122.336479,45.46401]}},{"properties":{"city":"Hillsboro","country":"US","geo_score":0.857,"zip code":"97123","website":"www.valleymemorialoregon.com","funeral home:":"Valley Memorial Park Funeral Home","id":"a9fip26q1c36","geo_precision":"zip","state":"OR"},"type":"Feature","geometry":{"type":"Point","coordinates":[-122.99177,45.41845]}},{"properties":{"city":"Portland","country":"US","geo_score":0.857,"zip code":"97220","website":"www.gatewaylittlechapel.com","funeral home:":"Gateway Little Chapel of the Chimes-SCI","id":"a9fip21tzgcu","geo_precision":"zip","state":"OR"},"type":"Feature","geometry":{"type":"Point","coordinates":[-122.560371,45.552897]}},{"properties":{"city":"Portland","country":"US","geo_score":0.857,"zip code":"97213","website":"www.rosshollywoodfuneralchapel.com","funeral home:":"Ross Hollywood Chapel and Killingsworth St. John's Lombard Little Chapel of the Chimes- SCI","id":"a9fip284eocr","geo_precision":"zip","state":"OR"},"type":"Feature","geometry":{"type":"Point","coordinates":[-122.599751,45.53909]}},{"properties":{"city":"Portland","country":"US","geo_score":0.857,"zip code":"97229","website":"www.skylinememorialardens.com","funeral home:":"Skyline Memorial Gardens Funeral Home - SCI","id":"a9fip2bmmwtg","geo_precision":"zip","state":"OR"},"type":"Feature","geometry":{"type":"Point","coordinates":[-122.769543,45.517618]}},{"properties":{"city":"Portland","country":"US","geo_score":0.857,"zip code":"97219","website":"http://riverviewcemeteryfuneralhome.com","funeral home:":"Riverview Cemetery Funeral Home","id":"a9fip29njnb8","geo_precision":"zip","state":"OR"},"type":"Feature","geometry":{"type":"Point","coordinates":[-122.730097,45.469841]}},{"properties":{"city":"Portland","country":"US","geo_score":0.857,"zip code":"97232","website":"www.caldwellsfuneralhome.com","funeral home:":"Caldwell's, Hennessey, Goetsch &amp; McGee Funeral Home - SCI","id":"a9fip27olnpl","geo_precision":"zip","state":"OR"},"type":"Feature","geometry":{"type":"Point","coordinates":[-122.642655,45.52369]}},{"properties":{"city":"Salem","country":"US","geo_score":0.857,"zip code":"97302","website":"www.hed-fh.com","funeral home:":"Howell, Edwards, Doerksen with Rigdon-Ramsom Funeral Directors - SCI","id":"a9fip2ayz15j","geo_precision":"zip","state":"OR"},"type":"Feature","geometry":{"type":"Point","coordinates":[-123.082192,44.890486]}},{"properties":{"city":"Salem","country":"US","geo_score":0.857,"zip code":"97301","website":"http://www.vtgolden.com","funeral home:":"Virgil T Golden Funeral Service","id":"a9fip20zriof","geo_precision":"zip","state":"OR"},"type":"Feature","geometry":{"type":"Point","coordinates":[-122.887314,44.907899]}},{"properties":{"city":"Tigard","country":"US","geo_score":0.857,"zip code":"97223","website":"www.youngsfuneralhome.org","funeral home:":"Young's Funeral Home - SCI","id":"a9fip26z9zka","geo_precision":"zip","state":"OR"},"type":"Feature","geometry":{"type":"Point","coordinates":[-122.753431,45.465951]}},{"properties":{"city":"Aliquippa","country":"US","geo_score":0.857,"zip code":"15001","website":"www.darrochfuneralhome.com","funeral home:":"Darroch Memorial Chapel, Inc","id":"a9fip1xku1ej","geo_precision":"zip","state":"PA"},"type":"Feature","geometry":{"type":"Point","coordinates":[-80.246172,40.617845]}},{"properties":{"city":"Ambridge","country":"US","geo_score":0.857,"zip code":"15003","website":"www.bohn-matich.com","funeral home:":"Bohn-Matich Funeral Home","id":"a9fip268u1b3","geo_precision":"zip","state":"PA"},"type":"Feature","geometry":{"type":"Point","coordinates":[-80.224782,40.600067]}},{"properties":{"city":"Bala Cynwyd","country":"US","geo_score":0.857,"zip code":"19004","website":"www.forever-care.com","funeral home:":"Bringhurst Funeral Home at West Laurel Hill Cemetery","id":"a9fip28ac01o","geo_precision":"zip","state":"PA"},"type":"Feature","geometry":{"type":"Point","coordinates":[-75.242959,40.00289]}},{"properties":{"city":"Bethel Park","country":"US","geo_score":0.857,"zip code":"15102","website":"www.henneyfuneralhome.com","funeral home:":"Paul L. Henney Memorial Chapel","id":"a9fip22bz8yy","geo_precision":"zip","state":"PA"},"type":"Feature","geometry":{"type":"Point","coordinates":[-80.065332,40.311459]}},{"properties":{"city":"Doylestown","country":"US","geo_score":0.857,"zip code":"18901","website":"www.varcoefh.com","funeral home:":"Varcoe-Thomas Funeral Home of Doylestown","id":"a9fip23l1ae8","geo_precision":"zip","state":"PA"},"type":"Feature","geometry":{"type":"Point","coordinates":[-75.105449,40.313717]}},{"properties":{"city":"Lancaster","country":"US","geo_score":0.857,"zip code":"17602","website":"www.snyderfuneralhome.com","funeral home:":"Charles F. Snyder Funeral Home","id":"a9fip29i000b","geo_precision":"zip","state":"PA"},"type":"Feature","geometry":{"type":"Point","coordinates":[-76.254402,40.035376]}},{"properties":{"city":"New Castle","country":"US","geo_score":0.857,"zip code":"16101","website":"www.mcgoniglefuneralhomeandcrematory.com/","funeral home:":"J. Bradley McGonigle Funeral Home and Crematory","id":"a9fip23dyecs","geo_precision":"zip","state":"PA"},"type":"Feature","geometry":{"type":"Point","coordinates":[-80.382843,40.953395]}},{"properties":{"city":"Philadelphia","country":"US","geo_score":0.857,"zip code":"19135","website":"www.mccaffertysweeneyfuneralhome.com","funeral home:":"McCafferty-Sweeney Funeral Home","id":"a9fip25okhy8","geo_precision":"zip","state":"PA"},"type":"Feature","geometry":{"type":"Point","coordinates":[-75.063228,40.022334]}},{"properties":{"city":"Philadelphia","country":"US","geo_score":0.857,"zip code":"19137","website":"www.slabinskifuneralhome.com","funeral home:":"Slabinski Funeral Home","id":"a9fip20z3ybi","geo_precision":"zip","state":"PA"},"type":"Feature","geometry":{"type":"Point","coordinates":[-75.069618,40.00039]}},{"properties":{"city":"Pittsburgh","country":"US","geo_score":0.857,"zip code":"15223","website":"www.frankrpermanfuneralhome.com","funeral home:":"Frank R. Perman Funeral Home","id":"a9fip2dps7i2","geo_precision":"zip","state":"PA"},"type":"Feature","geometry":{"type":"Point","coordinates":[-80.044926,40.457418]}},{"properties":{"city":"Pittsburgh","country":"US","geo_score":0.857,"zip code":"15212","website":"www.stephensfuneralhome.com","funeral home:":"Stephens Memorial Chapel","id":"a9fip22621ed","geo_precision":"zip","state":"PA"},"type":"Feature","geometry":{"type":"Point","coordinates":[-79.989104,40.48529]}},{"properties":{"city":"Pittsburgh","country":"US","geo_score":0.857,"zip code":"15235","website":"www.rappfuneralhome.com","funeral home:":"Rapp Funeral Home","id":"a9fip23m7z0w","geo_precision":"zip","state":"PA"},"type":"Feature","geometry":{"type":"Point","coordinates":[-79.79727,40.493401]}},{"properties":{"city":"Pittsburgh","country":"US","geo_score":0.857,"zip code":"15216","website":"-","funeral home:":"Laughlin Memorial Chapel, Inc.","id":"a9fip2awe4jd","geo_precision":"zip","state":"PA"},"type":"Feature","geometry":{"type":"Point","coordinates":[-80.037554,40.392014]}},{"properties":{"city":"Pittsburgh","country":"US","geo_score":0.857,"zip code":"15201","website":"www.dalessandroltd.com","funeral home:":"D'Alessandro Funeral Home and Crematory","id":"a9fip1xu0z2q","geo_precision":"zip","state":"PA"},"type":"Feature","geometry":{"type":"Point","coordinates":[-80.024817,40.434436]}},{"properties":{"city":"Pittsburgh","country":"US","geo_score":0.857,"zip code":"15238","website":"-","funeral home:":"Thomas M. Smith Funeral Home and Crematory- D'Alessandro","id":"a9fip28q3o6t","geo_precision":"zip","state":"PA"},"type":"Feature","geometry":{"type":"Point","coordinates":[-79.888663,40.577012]}},{"properties":{"city":"Sharon","country":"US","geo_score":0.857,"zip code":"16146","website":"www.mcgoniglefuneralhomeandcrematory.com/","funeral home:":"J. Bradley McGonigle Funeral Home and Crematory","id":"a9fip1x8zsmu","geo_precision":"zip","state":"PA"},"type":"Feature","geometry":{"type":"Point","coordinates":[-80.455347,41.23339]}},{"properties":{"city":"Trevose","country":"US","geo_score":0.857,"zip code":"19053","website":"www.stillmansfuneral.com","funeral home:":"Stillman's  memorial Chapel, Inc","id":"a9fip26duugr","geo_precision":"zip","state":"PA"},"type":"Feature","geometry":{"type":"Point","coordinates":[-74.828775,40.15511]}},{"properties":{"city":"Charleson","country":"US","geo_score":0.857,"zip code":"29401","website":"www.jhenrystuhr.com","funeral home:":"J. Henry Stuhr, Inc.","id":"a9fip1zrl8qw","geo_precision":"zip","state":"SC"},"type":"Feature","geometry":{"type":"Point","coordinates":[-79.940844,32.780326]}},{"properties":{"city":"Charleson","country":"US","geo_score":0.857,"zip code":"29414","website":"www.jhenrystuhr.com","funeral home:":"J. Henry Stuhr, Inc.","id":"a9fip20uyu4o","geo_precision":"zip","state":"SC"},"type":"Feature","geometry":{"type":"Point","coordinates":[-80.025928,32.810035]}},{"properties":{"city":"Mt. Pleasant","country":"US","geo_score":0.857,"zip code":"29464","website":"www.jhenrystuhr.com","funeral home:":"J. Henry Stuhr, Inc.","id":"a9fip1za5456","geo_precision":"zip","state":"SC"},"type":"Feature","geometry":{"type":"Point","coordinates":[-79.884253,32.802676]}},{"properties":{"city":"North Charleson","country":"US","geo_score":0.857,"zip code":"29405","website":"www.jhenrystuhr.com","funeral home:":"J. Henry Stuhr, Inc.","id":"a9fip21yhdu3","geo_precision":"zip","state":"SC"},"type":"Feature","geometry":{"type":"Point","coordinates":[-79.987033,32.862397]}},{"properties":{"city":"North Charleson","country":"US","geo_score":0.857,"zip code":"29406","website":"www.jhenrystuhr.com","funeral home:":"J. Henry Stuhr, Inc.","id":"a9fip2a20yl8","geo_precision":"zip","state":"SC"},"type":"Feature","geometry":{"type":"Point","coordinates":[-79.97481,32.85462]}},{"properties":{"city":"Kingston","country":"US","geo_score":0.857,"zip code":"37763","website":"www.frakerfuneralhome.net","funeral home:":"Fraker Funeral Home","id":"a9fip1xahatx","geo_precision":"zip","state":"TN"},"type":"Feature","geometry":{"type":"Point","coordinates":[-84.415206,35.874243]}},{"properties":{"city":"Knoxville","country":"US","geo_score":0.857,"zip code":"37934","website":"www.clickfuneralhome.com","funeral home:":"Click Funeral Home Farragut Chapel","id":"a9fip26vamhg","geo_precision":"zip","state":"TN"},"type":"Feature","geometry":{"type":"Point","coordinates":[-83.920739,35.960638]}},{"properties":{"city":"Mamphis","country":"US","geo_score":0.857,"zip code":"38122","website":"www.highpointchapel.com","funeral home:":"High Point Funeral Home and Crematory","id":"a9fip217yf9m","geo_precision":"zip","state":"TN"},"type":"Feature","geometry":{"type":"Point","coordinates":[-89.918514,35.157958]}},{"properties":{"city":"Maryville","country":"US","geo_score":0.857,"zip code":"37804","website":"-","funeral home:":"Dotson Funeral Home","id":"a9fip1z1ooan","geo_precision":"zip","state":"TN"},"type":"Feature","geometry":{"type":"Point","coordinates":[-83.885212,35.799053]}},{"properties":{"city":"Memphis","country":"US","geo_score":0.857,"zip code":"38119","website":"www.memorialparkfuneralandcemetery.com","funeral home:":"Memorial Park Funeral Home - NorthStar","id":"a9fip26jyzq7","geo_precision":"zip","state":"TN"},"type":"Feature","geometry":{"type":"Point","coordinates":[-89.907866,35.148701]}},{"properties":{"city":"Austin","country":"US","geo_score":0.857,"zip code":"78705","website":"www.wcfish.com","funeral home:":"Weed-Corley-Fish North","id":"a9fip205e4u0","geo_precision":"zip","state":"TX"},"type":"Feature","geometry":{"type":"Point","coordinates":[-97.736932,30.293057]}},{"properties":{"city":"Austin","country":"US","geo_score":0.857,"zip code":"78704","website":"www.wcfish.com","funeral home:":"Weed-Corley-Fish South","id":"a9fip28awd2n","geo_precision":"zip","state":"TX"},"type":"Feature","geometry":{"type":"Point","coordinates":[-97.768832,30.240685]}},{"properties":{"city":"El Paso","country":"US","geo_score":0.857,"zip code":"79936","website":"www.mtcarmelfuneralhomes.com","funeral home:":"Mt. Carmel Funeral Home","id":"a9fip2147a53","geo_precision":"zip","state":"TX"},"type":"Feature","geometry":{"type":"Point","coordinates":[-106.243004,31.711209]}},{"properties":{"city":"Lakeway","country":"US","geo_score":0.857,"zip code":"78734","website":"www.wcfish.com","funeral home:":"Weed-Corley-Fish Lake Travis","id":"a9fip26km7vh","geo_precision":"zip","state":"TX"},"type":"Feature","geometry":{"type":"Point","coordinates":[-97.942721,30.370457]}},{"properties":{"city":"San Antonio","country":"US","geo_score":0.857,"zip code":"78212","website":"www.porterloring.com","funeral home:":"Porter Loring Mortuaries","id":"a9fip293mqmv","geo_precision":"zip","state":"TX"},"type":"Feature","geometry":{"type":"Point","coordinates":[-98.493494,29.438782]}},{"properties":{"city":"San Antonio","country":"US","geo_score":0.857,"zip code":"78232","website":"www.porterloring.com","funeral home:":"Porter Loring Mortuaries","id":"a9fip1xhde4j","geo_precision":"zip","state":"TX"},"type":"Feature","geometry":{"type":"Point","coordinates":[-98.461582,29.437532]}},{"properties":{"city":"Bountiful","country":"US","geo_score":0.714,"zip code":"-","website":"www.memorialutah.com","funeral home:":"Lakeview Memorial Mortuary &amp; Cemetery - Memorial Mortuaries","id":"a9fip232w0w6","geo_precision":"city","state":"UT"},"type":"Feature","geometry":{"type":"Point","coordinates":[-111.870994,40.874038]}},{"properties":{"city":"Holladay","country":"US","geo_score":0.857,"zip code":"84117","website":"www.securitynational.com","funeral home:":"Holladay Cottonwood Mortuary - Memorial Mortuaries","id":"a9fip22fo5cx","geo_precision":"zip","state":"UT"},"type":"Feature","geometry":{"type":"Point","coordinates":[-111.81021,40.61967]}},{"properties":{"city":"Salt Lake City","country":"US","geo_score":0.714,"zip code":"-","website":"www.memorialutah.com","funeral home:":"Redwood Memorial Mortuary &amp; Cemetery - Memorial Mortuaries","id":"a9fip2bsog6s","geo_precision":"city","state":"UT"},"type":"Feature","geometry":{"type":"Point","coordinates":[-111.900719,40.756095]}},{"properties":{"city":"Salt Lake City","country":"US","geo_score":0.714,"zip code":"-","website":"www.memorialutah.com","funeral home:":"Mountain View Memorial Mortuary &amp; Cemetery - Memorial Mortuaries","id":"a9fip29525sq","geo_precision":"city","state":"UT"},"type":"Feature","geometry":{"type":"Point","coordinates":[-111.900719,40.756095]}},{"properties":{"city":"Salt Lake City","country":"US","geo_score":0.857,"zip code":"84111","website":"www.memorialutah.com","funeral home:":"Murray Memorial Mortuary - Memorial Mortuaries","id":"a9fip23ihny6","geo_precision":"zip","state":"UT"},"type":"Feature","geometry":{"type":"Point","coordinates":[-111.883718,40.755596]}},{"properties":{"city":"Salt Lake City","country":"US","geo_score":0.857,"zip code":"84111","website":"www.memorialutah.com","funeral home:":"Deseret Memorial Mortuary - Memorial Mortuaries","id":"a9fip20qvtbx","geo_precision":"zip","state":"UT"},"type":"Feature","geometry":{"type":"Point","coordinates":[-111.883718,40.755596]}},{"properties":{"city":"Sandy","country":"US","geo_score":0.857,"zip code":"84070","website":"www.memorialutah.com","funeral home:":"Lake Hills Mortuary - Memorial mortuaries","id":"a9fip26giwax","geo_precision":"zip","state":"UT"},"type":"Feature","geometry":{"type":"Point","coordinates":[-111.806043,40.573004]}},{"properties":{"city":"Abingdon","country":"US","geo_score":0.857,"zip code":"24211","website":"http://www.farrisfuneralservice.com","funeral home:":"Farris Funeral Service","id":"a9fip271jnnr","geo_precision":"zip","state":"VA"},"type":"Feature","geometry":{"type":"Point","coordinates":[-81.964801,36.66726]}},{"properties":{"city":"Charlottesville","country":"US","geo_score":0.857,"zip code":"22902","website":"www.hillandwood.com","funeral home:":"Hill and Wood Funeral Home","id":"a9fip2901ocf","geo_precision":"zip","state":"VA"},"type":"Feature","geometry":{"type":"Point","coordinates":[-78.48045,38.026588]}},{"properties":{"city":"Clarkesville","country":"US","geo_score":0.857,"zip code":"23927","website":"http://www.wclfh.com","funeral home:":"Watkins Cooper Lyon Funeral Home","id":"a9fip28o5y3b","geo_precision":"zip","state":"VA"},"type":"Feature","geometry":{"type":"Point","coordinates":[-78.492221,36.652363]}},{"properties":{"city":"Harrisonburg","country":"US","geo_score":0.857,"zip code":"22801","website":"www.kygers.com","funeral home:":"Kyger Funeral Homes and Crematory","id":"a9fip2bwda5k","geo_precision":"zip","state":"VA"},"type":"Feature","geometry":{"type":"Point","coordinates":[-78.959752,38.486235]}},{"properties":{"city":"Richmond","country":"US","geo_score":0.857,"zip code":"23231","website":"http://www.nelsenfh.com","funeral home:":"Nelsen Funeral Home &amp; Crematory","id":"a9fip2a7ktsa","geo_precision":"zip","state":"VA"},"type":"Feature","geometry":{"type":"Point","coordinates":[-77.34498,37.449592]}},{"properties":{"city":"Bellingham","country":"US","geo_score":0.857,"zip code":"98230","website":"http://jernsfuneralchapel.net","funeral home:":"Jerns Funeral Chapel","id":"a9fip24i1wxz","geo_precision":"zip","state":"WA"},"type":"Feature","geometry":{"type":"Point","coordinates":[-122.366448,48.935767]}},{"properties":{"city":"Everett","country":"US","geo_score":0.857,"zip code":"98208","website":"www.asacredmoment.com","funeral home:":"A Sacred Moment, Inc.","id":"a9fip237csdc","geo_precision":"zip","state":"WA"},"type":"Feature","geometry":{"type":"Point","coordinates":[-122.190392,47.897284]}},{"properties":{"city":"Ferndale","country":"US","geo_score":0.857,"zip code":"98248","website":"www.molesfuneralhomes.com","funeral home:":"Moles Greenacres Chapel","id":"a9fip24mxcpt","geo_precision":"zip","state":"WA"},"type":"Feature","geometry":{"type":"Point","coordinates":[-122.671288,48.848165]}},{"properties":{"city":"Lakewood","country":"US","geo_score":0.857,"zip code":"98499","website":"www.mountainviewtacoma.com","funeral home:":"Mountain View Funeral Home - NorthStar","id":"a9fip24vumcu","geo_precision":"zip","state":"WA"},"type":"Feature","geometry":{"type":"Point","coordinates":[-122.483735,47.180932]}},{"properties":{"city":"Seattle","country":"US","geo_score":0.857,"zip code":"98122","website":"www.funerals.coop","funeral home:":"People's Memorial Funeral Cooperative","id":"a9fip21u64wl","geo_precision":"zip","state":"WA"},"type":"Feature","geometry":{"type":"Point","coordinates":[-121.803388,47.432251]}},{"properties":{"city":"Seattle","country":"US","geo_score":0.857,"zip code":"98168","website":"http://www.elementalnw.com/","funeral home:":"Elemental Cremation &amp; Burial","id":"a9fip28aca8u","geo_precision":"zip","state":"WA"},"type":"Feature","geometry":{"type":"Point","coordinates":[-121.803388,47.432251]}},{"properties":{"city":"Vancouver","country":"US","geo_score":0.857,"zip code":"98660","website":"www.vancouverfuneralchapel.net","funeral home:":"Vancouver Funeral Chapel - SCI","id":"a9fip2109apu","geo_precision":"zip","state":"WA"},"type":"Feature","geometry":{"type":"Point","coordinates":[-122.713366,45.74327]}},{"properties":{"city":"Green Bay","country":"US","geo_score":0.857,"zip code":"54304","website":"www.lyndahl.com","funeral home:":"Lyndahl Funeral Home and Cremation Services","id":"a9fip1zffpgu","geo_precision":"zip","state":"WI"},"type":"Feature","geometry":{"type":"Point","coordinates":[-88.032443,44.497541]}},{"properties":{"city":"Madison","country":"US","geo_score":0.857,"zip code":"53705","website":"www.cressfuneralservice.com","funeral home:":"Cress Funeral and Cremation Service","id":"a9fip29d38ur","geo_precision":"zip","state":"WI"},"type":"Feature","geometry":{"type":"Point","coordinates":[-89.445676,43.077496]}},{"properties":{"city":"Milwaukee","country":"US","geo_score":0.857,"zip code":"53221","website":"http://www.pkfuneralhomes.com/","funeral home:":"Prasser-Kleczka Funeral Homes - South Suburban Chapel","id":"a9fip2ddehcu","geo_precision":"zip","state":"WI"},"type":"Feature","geometry":{"type":"Point","coordinates":[-87.987933,42.950565]}},{"properties":{"city":"Milwaukee","country":"US","geo_score":0.857,"zip code":"53207","website":"http://www.pkfuneralhomes.com/","funeral home:":"Prasser-Kleczka Funeral Homes - Bay View Chapel","id":"a9fip247255b","geo_precision":"zip","state":"WI"},"type":"Feature","geometry":{"type":"Point","coordinates":[-87.894682,42.975115]}},{"properties":{"city":"Stoughton","country":"US","geo_score":0.857,"zip code":"53589","website":"www.cressfuneralservice.com","funeral home:":"Cress Funeral and Cremation Service","id":"a9fip27eb4hs","geo_precision":"zip","state":"WI"},"type":"Feature","geometry":{"type":"Point","coordinates":[-89.122058,42.965557]}},{"properties":{"city":"Waukesha","country":"US","geo_score":0.857,"zip code":"53186","website":"www.waukeshanaturalburial.com","funeral home:":"Randle-Dable Funeral Home","id":"a9fip22u9u1z","geo_precision":"zip","state":"WI"},"type":"Feature","geometry":{"type":"Point","coordinates":[-88.217715,42.987835]}},{"properties":{"city":"Huntington","country":"US","geo_score":0.857,"zip code":"25702","website":"www.beardmortuary.com","funeral home:":"Beard Mortuary","id":"a9fip26utqn1","geo_precision":"zip","state":"WV"},"type":"Feature","geometry":{"type":"Point","coordinates":[-82.34872,38.444067]}},{"properties":{"city":"Parkersburg","country":"US","geo_score":0.857,"zip code":"26101","website":"http://LeavittFuneralHome.com","funeral home:":"Leavitt Funeral Services &amp; Crematory","id":"a9fip22e2pyo","geo_precision":"zip","state":"WV"},"type":"Feature","geometry":{"type":"Point","coordinates":[-81.506511,39.227853]}},{"properties":{"city":"Buchanan","country":"US","geo_score":0.857,"zip code":"49107","website":"www.Starks-Menchinger.com","funeral home:":"Swem Funeral Home","id":"a9fip21xmfpl","geo_precision":"zip","state":"MI"},"type":"Feature","geometry":{"type":"Point","coordinates":[-86.390848,41.805046]}},{"properties":{"city":"Port Huron","country":"US","geo_score":0.857,"zip code":"48060","website":"www.pollockrandallfuneralhome.com","funeral home:":"Pollock Randall Funeral Home","id":"a9fip2d0sgp6","geo_precision":"zip","state":"MI"},"type":"Feature","geometry":{"type":"Point","coordinates":[-82.456304,42.942808]}},{"properties":{"city":"Portland","country":"US","geo_score":0.714,"zip code":"97086","website":"www.lincolnmemorialpark.com","funeral home:":"Lincoln Memorial Park &amp; Funeral Home - SCI","id":"a9fip264d1k6","geo_precision":"city","state":"OR"},"type":"Feature","geometry":{"type":"Point","coordinates":[-122.693157,45.498931]}}],"is_temporal":false,"author":{"url":"","metadata":"","contact_name":"","contact_address":"","source":"","contact_phone":""},"source":"","pagination":{"sort":null,"start":0,"total":232,"limit":1000000},"state":"complete","tags":"","published":"2014-08-14T21:56:29-04:00","id":285505}