{"type":"FeatureCollection","data_type":"Dataset","url_type":null,"permissions":[{"permissions":{"download":true,"view":true},"group_id":"everyone"}],"classification":null,"title":"BK HeatMap 20121021 GeoMapping","count":88,"stream_id":285607,"contributor":{"url":"http://geocommons.com/users/54017","name":"sajeel"},"data_attributes":null,"calculation_params":null,"icon_link":null,"link":"http://geocommons.com/overlays/285607.json","extent":[-123.393,28.0853,-71.1037,47.4323],"geometry_types":["point"],"unique_name":null,"name":"BK HeatMap 20121021 GeoMapping","feature_count":88,"description":"","next_feature":null,"is_raster":false,"short_classification":"Y","stats":{},"features":[{"properties":{"city":"Seattle","geo_score":0.714,"id":"a9gxc4nnw80g","geo_precision":"city","state":"WA"},"type":"Feature","geometry":{"type":"Point","coordinates":[-121.803388,47.432251]}},{"properties":{"city":"San Francisco","geo_score":0.714,"id":"a9gxc4gkvl49","geo_precision":"city","state":"CA"},"type":"Feature","geometry":{"type":"Point","coordinates":[-118.298662,33.786594]}},{"properties":{"city":"Morgan Hill","geo_score":0.714,"id":"a9gxc4ae9jax","geo_precision":"city","state":"CA"},"type":"Feature","geometry":{"type":"Point","coordinates":[-121.681557,37.130238]}},{"properties":{"city":"Emeryville","geo_score":0.714,"id":"a9gxc4l2ene1","geo_precision":"city","state":"CA"},"type":"Feature","geometry":{"type":"Point","coordinates":[-122.29548,37.833876]}},{"properties":{"city":"Fremont","geo_score":0.714,"id":"a9gxc4dz2rwc","geo_precision":"city","state":"CA"},"type":"Feature","geometry":{"type":"Point","coordinates":[-118.424803,34.734705]}},{"properties":{"city":"Hayward","geo_score":0.714,"id":"a9gxc4f44t5q","geo_precision":"city","state":"CA"},"type":"Feature","geometry":{"type":"Point","coordinates":[-121.921498,37.680181]}},{"properties":{"city":"Fremont","geo_score":0.714,"id":"a9gxc4nb27jp","geo_precision":"city","state":"CA"},"type":"Feature","geometry":{"type":"Point","coordinates":[-118.424803,34.734705]}},{"properties":{"city":"Encino","geo_score":0.714,"id":"a9gxc4h8t9cz","geo_precision":"city","state":"CA"},"type":"Feature","geometry":{"type":"Point","coordinates":[-118.298662,33.786594]}},{"properties":{"city":"Berkeley","geo_score":0.714,"id":"a9gxc4hj2f0a","geo_precision":"city","state":"CA"},"type":"Feature","geometry":{"type":"Point","coordinates":[-122.29673,37.860576]}},{"properties":{"city":"Richmond","geo_score":0.714,"id":"a9gxc4nl1n31","geo_precision":"city","state":"CA"},"type":"Feature","geometry":{"type":"Point","coordinates":[-122.384032,37.947523]}},{"properties":{"city":"Mountain View","geo_score":0.714,"id":"a9gxc4b1njgh","geo_precision":"city","state":"CA"},"type":"Feature","geometry":{"type":"Point","coordinates":[-121.705327,37.189396]}},{"properties":{"city":"Alameda","geo_score":0.714,"id":"a9gxc4lipgiv","geo_precision":"city","state":"CA"},"type":"Feature","geometry":{"type":"Point","coordinates":[-122.264779,37.770563]}},{"properties":{"city":"Cambridge","geo_score":0.571,"id":"a9gxc4kmeffq","geo_precision":"city","state":"CB22 3AT"},"type":"Feature","geometry":{"type":"Point","coordinates":[-92.948802,39.257805]}},{"properties":{"city":"Hayward","geo_score":0.714,"id":"a9gxc4adhla2","geo_precision":"city","state":"CA"},"type":"Feature","geometry":{"type":"Point","coordinates":[-121.921498,37.680181]}},{"properties":{"city":"Pleasanton","geo_score":0.714,"id":"a9gxc4mna1l0","geo_precision":"city","state":"CA"},"type":"Feature","geometry":{"type":"Point","coordinates":[-120.662985,38.68296]}},{"properties":{"city":"Emeryville","geo_score":0.714,"id":"a9gxc4o0oiu0","geo_precision":"city","state":"CA"},"type":"Feature","geometry":{"type":"Point","coordinates":[-122.29548,37.833876]}},{"properties":{"city":"Cambridge","geo_score":0.571,"id":"a9gxc4j77vzz","geo_precision":"city","state":"Cambridgeshire"},"type":"Feature","geometry":{"type":"Point","coordinates":[-92.948802,39.257805]}},{"properties":{"city":"Albany","geo_score":0.714,"id":"a9gxc4htr1sc","geo_precision":"city","state":"CA"},"type":"Feature","geometry":{"type":"Point","coordinates":[-123.393401,39.168027]}},{"properties":{"city":"Berkeley","geo_score":0.714,"id":"a9gxc4patgih","geo_precision":"city","state":"CA"},"type":"Feature","geometry":{"type":"Point","coordinates":[-122.29673,37.860576]}},{"properties":{"city":"Road Town","geo_score":0.571,"id":"a9gxc4h6a5mf","geo_precision":"city","state":"Tortola"},"type":"Feature","geometry":{"type":"Point","coordinates":[-82.84713,41.151999]}},{"properties":{"city":"Sacramento","geo_score":0.714,"id":"a9gxc4f1dsn1","geo_precision":"city","state":"CA"},"type":"Feature","geometry":{"type":"Point","coordinates":[-121.555406,38.380456]}},{"properties":{"city":"Stow","geo_score":0.714,"id":"a9gxc4asat85","geo_precision":"city","state":"MA"},"type":"Feature","geometry":{"type":"Point","coordinates":[-71.459405,42.446396]}},{"properties":{"city":"San Jose","geo_score":0.714,"id":"a9gxc4dmhvks","geo_precision":"city","state":"CA"},"type":"Feature","geometry":{"type":"Point","coordinates":[-121.705327,37.189396]}},{"properties":{"city":"Fremont","geo_score":0.714,"id":"a9gxc4g9jge0","geo_precision":"city","state":"CA"},"type":"Feature","geometry":{"type":"Point","coordinates":[-118.424803,34.734705]}},{"properties":{"city":"Melbourne","geo_score":0.714,"id":"a9gxc4az1xkx","geo_precision":"city","state":"FL"},"type":"Feature","geometry":{"type":"Point","coordinates":[-80.666444,28.085294]}},{"properties":{"city":"Berkeley","geo_score":0.714,"id":"a9gxc4pk0xvi","geo_precision":"city","state":"CA"},"type":"Feature","geometry":{"type":"Point","coordinates":[-122.29673,37.860576]}},{"properties":{"city":"N/A","geo_score":0.571,"id":"a9gxc4l62gfx","geo_precision":"city","state":"N/A"},"type":"Feature","geometry":{"type":"Point","coordinates":[-90.798946,35.274844]}},{"properties":{"city":"Menlo Park","geo_score":0.714,"id":"a9gxc4pdx0mq","geo_precision":"city","state":"CA"},"type":"Feature","geometry":{"type":"Point","coordinates":[-122.186373,37.439616]}},{"properties":{"city":"Menlo Park","geo_score":0.714,"id":"a9gxc4h1ot7w","geo_precision":"city","state":"CA"},"type":"Feature","geometry":{"type":"Point","coordinates":[-122.186373,37.439616]}},{"properties":{"city":"El Cerrito","geo_score":0.714,"id":"a9gxc4h3fl1p","geo_precision":"city","state":"CA"},"type":"Feature","geometry":{"type":"Point","coordinates":[-117.522825,33.840572]}},{"properties":{"city":"South San Francisco","geo_score":0.714,"id":"a9gxc4jwv62j","geo_precision":"city","state":"CA"},"type":"Feature","geometry":{"type":"Point","coordinates":[-118.298662,33.786594]}},{"properties":{"city":"Cambridge","geo_score":0.714,"id":"a9gxc4kzucxg","geo_precision":"city","state":"MA"},"type":"Feature","geometry":{"type":"Point","coordinates":[-71.103663,42.358431]}},{"properties":{"city":"San Francisco","geo_score":0.714,"id":"a9gxc4hu9rdw","geo_precision":"city","state":"CA"},"type":"Feature","geometry":{"type":"Point","coordinates":[-118.298662,33.786594]}},{"properties":{"city":"Berkeley","geo_score":0.714,"id":"a9gxc4icygqb","geo_precision":"city","state":"CA"},"type":"Feature","geometry":{"type":"Point","coordinates":[-122.29673,37.860576]}},{"properties":{"city":"Livermore","geo_score":0.714,"id":"a9gxc4h9bj38","geo_precision":"city","state":"CA"},"type":"Feature","geometry":{"type":"Point","coordinates":[-121.91605,37.676781]}},{"properties":{"city":"Foster City","geo_score":0.714,"id":"a9gxc4q56mma","geo_precision":"city","state":"CA"},"type":"Feature","geometry":{"type":"Point","coordinates":[-122.271079,37.558547]}},{"properties":{"city":"Foster City","geo_score":0.714,"id":"a9gxc4jek2my","geo_precision":"city","state":"CA"},"type":"Feature","geometry":{"type":"Point","coordinates":[-122.271079,37.558547]}},{"properties":{"city":"Alameda","geo_score":0.714,"id":"a9gxc4ple2k0","geo_precision":"city","state":"CA"},"type":"Feature","geometry":{"type":"Point","coordinates":[-122.264779,37.770563]}},{"properties":{"city":"Pleasanton","geo_score":0.714,"id":"a9gxc4a9rpg1","geo_precision":"city","state":"CA"},"type":"Feature","geometry":{"type":"Point","coordinates":[-120.662985,38.68296]}},{"properties":{"city":"Atlanta","geo_score":0.714,"id":"a9gxc4c9h95k","geo_precision":"city","state":"GA"},"type":"Feature","geometry":{"type":"Point","coordinates":[-84.47405,33.844371]}},{"properties":{"city":"Menlo Park","geo_score":0.714,"id":"a9gxc4lr1vxk","geo_precision":"city","state":"CA"},"type":"Feature","geometry":{"type":"Point","coordinates":[-122.186373,37.439616]}},{"properties":{"city":"Incline Village","geo_score":0.714,"id":"a9gxc4bczovn","geo_precision":"city","state":"NV"},"type":"Feature","geometry":{"type":"Point","coordinates":[-119.95087,39.228206]}},{"properties":{"city":"Sunnyvale","geo_score":0.714,"id":"a9gxc4bfhm7a","geo_precision":"city","state":"CA"},"type":"Feature","geometry":{"type":"Point","coordinates":[-118.298662,33.786594]}},{"properties":{"city":"Richmond","geo_score":0.714,"id":"a9gxc4icxbvs","geo_precision":"city","state":"CA"},"type":"Feature","geometry":{"type":"Point","coordinates":[-122.384032,37.947523]}},{"properties":{"city":"Emeryville","geo_score":0.714,"id":"a9gxc4pqlny5","geo_precision":"city","state":"CA"},"type":"Feature","geometry":{"type":"Point","coordinates":[-122.29548,37.833876]}},{"properties":{"city":"San Jose","geo_score":0.714,"id":"a9gxc4egnqfu","geo_precision":"city","state":"CA"},"type":"Feature","geometry":{"type":"Point","coordinates":[-121.705327,37.189396]}},{"properties":{"city":"Richmond","geo_score":0.714,"id":"a9gxc4nog4pn","geo_precision":"city","state":"CA"},"type":"Feature","geometry":{"type":"Point","coordinates":[-122.384032,37.947523]}},{"properties":{"city":"Hayward","geo_score":0.714,"id":"a9gxc4g01ow7","geo_precision":"city","state":"CA"},"type":"Feature","geometry":{"type":"Point","coordinates":[-121.921498,37.680181]}},{"properties":{"city":"San Leandro","geo_score":0.714,"id":"a9gxc4elyygn","geo_precision":"city","state":"CA"},"type":"Feature","geometry":{"type":"Point","coordinates":[-122.158621,37.715629]}},{"properties":{"city":"Berkeley","geo_score":0.714,"id":"a9gxc4jmwqzu","geo_precision":"city","state":"CA"},"type":"Feature","geometry":{"type":"Point","coordinates":[-122.29673,37.860576]}},{"properties":{"city":"San Francisco","geo_score":0.714,"id":"a9gxc4jatg7c","geo_precision":"city","state":"CA"},"type":"Feature","geometry":{"type":"Point","coordinates":[-118.298662,33.786594]}},{"properties":{"city":"Pittsburgh","geo_score":0.714,"id":"a9gxc4f07z4s","geo_precision":"city","state":"PA"},"type":"Feature","geometry":{"type":"Point","coordinates":[-80.024817,40.434436]}},{"properties":{"city":"Berkeley","geo_score":0.714,"id":"a9gxc4esbrww","geo_precision":"city","state":"CA"},"type":"Feature","geometry":{"type":"Point","coordinates":[-122.29673,37.860576]}},{"properties":{"city":"Alameda","geo_score":0.714,"id":"a9gxc4q9x7id","geo_precision":"city","state":"CA"},"type":"Feature","geometry":{"type":"Point","coordinates":[-122.264779,37.770563]}},{"properties":{"city":"Emeryville","geo_score":0.714,"id":"a9gxc4ekerdr","geo_precision":"city","state":"CA"},"type":"Feature","geometry":{"type":"Point","coordinates":[-122.29548,37.833876]}},{"properties":{"city":"Berkeley","geo_score":0.714,"id":"a9gxc4j7z39g","geo_precision":"city","state":"CA"},"type":"Feature","geometry":{"type":"Point","coordinates":[-122.29673,37.860576]}},{"properties":{"city":"San Francisco","geo_score":0.714,"id":"a9gxc4awl5l0","geo_precision":"city","state":"CA"},"type":"Feature","geometry":{"type":"Point","coordinates":[-118.298662,33.786594]}},{"properties":{"city":"Irvine","geo_score":0.714,"id":"a9gxc4bh2oqj","geo_precision":"city","state":"CA"},"type":"Feature","geometry":{"type":"Point","coordinates":[-117.72222,33.718018]}},{"properties":{"city":"Richmond","geo_score":0.714,"id":"a9gxc4in5we9","geo_precision":"city","state":"CA"},"type":"Feature","geometry":{"type":"Point","coordinates":[-122.384032,37.947523]}},{"properties":{"city":"Menlo Park","geo_score":0.714,"id":"a9gxc4jfblzb","geo_precision":"city","state":"CA"},"type":"Feature","geometry":{"type":"Point","coordinates":[-122.186373,37.439616]}},{"properties":{"city":"San Francisco","geo_score":0.714,"id":"a9gxc4c7e2l9","geo_precision":"city","state":"CA"},"type":"Feature","geometry":{"type":"Point","coordinates":[-118.298662,33.786594]}},{"properties":{"city":"Walnut Creek","geo_score":0.714,"id":"a9gxc4c02h3z","geo_precision":"city","state":"CA"},"type":"Feature","geometry":{"type":"Point","coordinates":[-122.481647,38.517964]}},{"properties":{"city":"Mountain View","geo_score":0.714,"id":"a9gxc4g0euxa","geo_precision":"city","state":"CA"},"type":"Feature","geometry":{"type":"Point","coordinates":[-121.705327,37.189396]}},{"properties":{"city":"Emeryville","geo_score":0.714,"id":"a9gxc4ifw5lw","geo_precision":"city","state":"CA"},"type":"Feature","geometry":{"type":"Point","coordinates":[-122.29548,37.833876]}},{"properties":{"city":"South San Francisco","geo_score":0.714,"id":"a9gxc4pjo0vu","geo_precision":"city","state":"CA"},"type":"Feature","geometry":{"type":"Point","coordinates":[-118.298662,33.786594]}},{"properties":{"city":"El Cerrito","geo_score":0.714,"id":"a9gxc4g0dg2z","geo_precision":"city","state":"CA"},"type":"Feature","geometry":{"type":"Point","coordinates":[-117.522825,33.840572]}},{"properties":{"city":"Bristol","geo_score":0.571,"id":"a9gxc4jdo211","geo_precision":"city","state":"Avon"},"type":"Feature","geometry":{"type":"Point","coordinates":[-76.66802,38.792337]}},{"properties":{"city":"Palo Alto","geo_score":0.714,"id":"a9gxc4ni4wer","geo_precision":"city","state":"CA"},"type":"Feature","geometry":{"type":"Point","coordinates":[-116.846046,33.016928]}},{"properties":{"city":"Sunnyvale","geo_score":0.714,"id":"a9gxc4cpsi10","geo_precision":"city","state":"CA"},"type":"Feature","geometry":{"type":"Point","coordinates":[-118.298662,33.786594]}},{"properties":{"city":"San Jose","geo_score":0.714,"id":"a9gxc4lll1kn","geo_precision":"city","state":"CA"},"type":"Feature","geometry":{"type":"Point","coordinates":[-121.705327,37.189396]}},{"properties":{"city":"Sunnyvale","geo_score":0.714,"id":"a9gxc4n1jqgr","geo_precision":"city","state":"CA"},"type":"Feature","geometry":{"type":"Point","coordinates":[-118.298662,33.786594]}},{"properties":{"city":"Stanford","geo_score":0.714,"id":"a9gxc4jnexma","geo_precision":"city","state":"CA"},"type":"Feature","geometry":{"type":"Point","coordinates":[-122.431045,39.28207]}},{"properties":{"city":"San Francisco","geo_score":0.714,"id":"a9gxc4npnnw7","geo_precision":"city","state":"CA"},"type":"Feature","geometry":{"type":"Point","coordinates":[-118.298662,33.786594]}},{"properties":{"city":"San Francisco","geo_score":0.714,"id":"a9gxc4g4bhri","geo_precision":"city","state":"CA"},"type":"Feature","geometry":{"type":"Point","coordinates":[-118.298662,33.786594]}},{"properties":{"city":"Berkeley","geo_score":0.714,"id":"a9gxc4fgcwk0","geo_precision":"city","state":"CA"},"type":"Feature","geometry":{"type":"Point","coordinates":[-122.29673,37.860576]}},{"properties":{"city":"San Francisco","geo_score":0.714,"id":"a9gxc4c5wsmw","geo_precision":"city","state":"CA"},"type":"Feature","geometry":{"type":"Point","coordinates":[-118.298662,33.786594]}},{"properties":{"city":"South San Francisco","geo_score":0.714,"id":"a9gxc4qflg4m","geo_precision":"city","state":"CA"},"type":"Feature","geometry":{"type":"Point","coordinates":[-118.298662,33.786594]}},{"properties":{"city":"Berkeley","geo_score":0.714,"id":"a9gxc4dvgge9","geo_precision":"city","state":"CA"},"type":"Feature","geometry":{"type":"Point","coordinates":[-122.29673,37.860576]}},{"properties":{"city":"Austin","geo_score":0.714,"id":"a9gxc4cjcqi7","geo_precision":"city","state":"TX"},"type":"Feature","geometry":{"type":"Point","coordinates":[-97.771258,30.326374]}},{"properties":{"city":"Berkeley","geo_score":0.714,"id":"a9gxc4hcaeqv","geo_precision":"city","state":"CA"},"type":"Feature","geometry":{"type":"Point","coordinates":[-122.29673,37.860576]}},{"properties":{"city":"Berkeley","geo_score":0.714,"id":"a9gxc4cxj9sl","geo_precision":"city","state":"CA"},"type":"Feature","geometry":{"type":"Point","coordinates":[-122.29673,37.860576]}},{"properties":{"city":"Pleasant Hill","geo_score":0.714,"id":"a9gxc4lsj6jg","geo_precision":"city","state":"CA"},"type":"Feature","geometry":{"type":"Point","coordinates":[-120.662985,38.68296]}},{"properties":{"city":"South San Francisco","geo_score":0.714,"id":"a9gxc4maht6b","geo_precision":"city","state":"CA"},"type":"Feature","geometry":{"type":"Point","coordinates":[-118.298662,33.786594]}},{"properties":{"city":"Berkeley","geo_score":0.714,"id":"a9gxc4mqcl5n","geo_precision":"city","state":"CA"},"type":"Feature","geometry":{"type":"Point","coordinates":[-122.29673,37.860576]}},{"properties":{"city":"Walnut Creek","geo_score":0.714,"id":"a9gxc4ju3c69","geo_precision":"city","state":"CA"},"type":"Feature","geometry":{"type":"Point","coordinates":[-122.481647,38.517964]}},{"properties":{"city":"Palo Alto","geo_score":0.714,"id":"a9gxc4e6w6cx","geo_precision":"city","state":"CA"},"type":"Feature","geometry":{"type":"Point","coordinates":[-116.846046,33.016928]}},{"properties":{"city":"Foster City","geo_score":0.714,"id":"a9gxc4jpvcdk","geo_precision":"city","state":"CA"},"type":"Feature","geometry":{"type":"Point","coordinates":[-122.271079,37.558547]}},{"properties":{"city":"Boulder","geo_score":0.714,"id":"a9gxc4ctact7","geo_precision":"city","state":"CO"},"type":"Feature","geometry":{"type":"Point","coordinates":[-105.278083,40.094787]}}],"is_temporal":false,"author":{"url":"","metadata":"","contact_name":"","contact_address":"","source":"","contact_phone":""},"source":"","pagination":{"sort":null,"start":0,"total":88,"limit":1000000},"state":"complete","tags":"","published":"2014-08-14T22:02:35-04:00","id":285607}