{"type":"FeatureCollection","data_type":"Dataset","url_type":null,"permissions":[{"permissions":{"download":true,"edit":true,"view":true},"group_id":42518},{"permissions":{"download":true,"view":true},"group_id":"everyone"}],"classification":null,"title":"REO Dist FNMA MTD Oct 22","count":147,"stream_id":285853,"contributor":{"url":"http://geocommons.com/users/39447","name":"sam.felipe"},"data_attributes":null,"calculation_params":null,"icon_link":null,"link":"http://geocommons.com/overlays/285853.json","extent":[-123.227,32.6283,-80.0895,41.7319],"geometry_types":["point"],"unique_name":null,"name":"REO Dist FNMA MTD Oct 22","feature_count":147,"description":"","next_feature":null,"is_raster":false,"short_classification":"Y","stats":{"id":{"max":18118,"variance":11534714.5371354,"mean":15569.3741496599,"stdev":3396.27951398812,"min":365,"median":16512}},"features":[{"properties":{"city":"Tehachapi","createddate":"11/19/2011 15:09","iscurativefile":"TRUE","zip":"93561","openeddate":"6/30/2011 0:00","referringcustomerfilenumber":"L110Y30","outofstatestatus":"Not Applicable","task completed date":"10/12/2012","region":"#N/A","countyname":"Kern","closeddate":"11/16/2012 0:00","isclosed":"FALSE","geo_score":0.902,"id":"a9hs85kela32","filenumber":"394469","filetransactiontype":"Title &amp; Escrow","escrowofficername":"Non-Stewart","titleunit":"CA CPU Title-Kevin","referringcustomer":"FNMA","primarycurativetech":"Anthony Martinez","contract in task":"Contract In Tasks","secondarycurativetech":"Jenny Martinez","branchoffice":"Non_Stewart","isescalated":"FALSE","address":"24301 Peso Court","propertyaddressline2":null,"filenotes":"Buyers Choice is Chicago Title","geo_precision":"range","state":"California"},"type":"Feature","geometry":{"type":"Point","coordinates":[-118.668534,35.172019]}},{"properties":{"city":"Butte County","createddate":"11/22/2011 11:15","iscurativefile":"TRUE","zip":"95969","openeddate":"10/4/2011 0:00","referringcustomerfilenumber":"L111C54","outofstatestatus":"Not Applicable","task completed date":"10/5/2012","region":"South Northern California","countyname":"Butte","closeddate":"11/16/2012 0:00","isclosed":"FALSE","geo_score":0.805,"id":"a9hs85k1iyx1","filenumber":"417013","filetransactiontype":"Title &amp; Escrow","escrowofficername":"Heather Walker","titleunit":"CA CPU Title-Kevin","referringcustomer":"FNMA","primarycurativetech":"Jenny Martinez","contract in task":"Contract In Tasks","secondarycurativetech":"Rose Digdigan","branchoffice":"Turlock","isescalated":"FALSE","address":"6263  OAK WAY","propertyaddressline2":null,"filenotes":null,"geo_precision":"range","state":"California"},"type":"Feature","geometry":{"type":"Point","coordinates":[-121.603128,39.775391]}},{"properties":{"city":"EMERYVILLE","createddate":"12/16/2011 12:11","iscurativefile":"FALSE","zip":"94608","openeddate":"2/17/2011 0:00","referringcustomerfilenumber":"L11061V","outofstatestatus":"Not Applicable","task completed date":"10/1/2012","region":"South Northern California","countyname":"Alameda","closeddate":"10/31/2012 0:00","isclosed":"FALSE","geo_score":0.902,"id":"a9hs85n4urks","filenumber":"367879","filetransactiontype":"Title &amp; Escrow","escrowofficername":"Vicki Gardea","titleunit":"CA CPU Title-Kevin","referringcustomer":"FNMA","primarycurativetech":"Paula Finley","contract in task":"Contract In Tasks","secondarycurativetech":"Anthony Martinez","branchoffice":"Modesto","isescalated":"FALSE","address":"4115 ADELINE STREET","propertyaddressline2":null,"filenotes":null,"geo_precision":"range","state":"California"},"type":"Feature","geometry":{"type":"Point","coordinates":[-122.277924,37.832534]}},{"properties":{"city":"Paramount","createddate":"12/22/2011 16:22","iscurativefile":"FALSE","zip":"90723","openeddate":"7/15/2011 0:00","referringcustomerfilenumber":"L110Z53","outofstatestatus":"Not Applicable","task completed date":"10/2/2012","region":"Los Angeles - Ventura California","countyname":"Los Angeles","closeddate":"12/22/2012 0:00","isclosed":"FALSE","geo_score":0.902,"id":"a9hs85mmorf4","filenumber":"397205","filetransactiontype":"Title &amp; Escrow","escrowofficername":"Adriana Ponce","titleunit":"CA CPU Title-Kevin","referringcustomer":"FNMA","primarycurativetech":"Anthony Martinez","contract in task":"Contract In Tasks","secondarycurativetech":"Jenny Martinez","branchoffice":"City of Industry","isescalated":"FALSE","address":"8333 Wilbarn St","propertyaddressline2":null,"filenotes":null,"geo_precision":"range","state":"California"},"type":"Feature","geometry":{"type":"Point","coordinates":[-118.153066,33.904431]}},{"properties":{"city":"Mountain House","createddate":"12/23/2011 10:45","iscurativefile":"TRUE","zip":"95391","openeddate":"12/23/2011 0:00","referringcustomerfilenumber":"L111PWM","outofstatestatus":"Not Applicable","task completed date":"10/1/2012","region":"North Northern California","countyname":"San Joaquin","closeddate":"10/26/2012 0:00","isclosed":"FALSE","geo_score":0.39,"id":"a9hs85oc25hr","filenumber":"432948","filetransactiontype":"Title &amp; Escrow","escrowofficername":"Rheanna Gieseking","titleunit":"CA CPU Title-Kevin","referringcustomer":"FNMA","primarycurativetech":"Kim Brown","contract in task":"Contract In Tasks","secondarycurativetech":"Anthony Martinez","branchoffice":"Danville","isescalated":"FALSE","address":"154 West Erics Way","propertyaddressline2":null,"filenotes":null,"geo_precision":"city","state":"California"},"type":"Feature","geometry":{"type":"Point","coordinates":[-80.089499,40.232293]}},{"properties":{"city":"CALEXICO","createddate":"1/5/2012 15:04","iscurativefile":"FALSE","zip":"92231","openeddate":"6/3/2011 0:00","referringcustomerfilenumber":"F0910FB","outofstatestatus":"Not Applicable","task completed date":"10/18/2012","region":"Inland Empire","countyname":"Imperial","closeddate":"11/19/2012 0:00","isclosed":"FALSE","geo_score":0.854,"id":"a9hs85gse78z","filenumber":"388679","filetransactiontype":"Title &amp; Escrow","escrowofficername":"Colleen Yost","titleunit":"CA CPU Title-Kevin","referringcustomer":"FNMA","primarycurativetech":"Anthony Martinez","contract in task":"Contract In Tasks","secondarycurativetech":"Kim Brown","branchoffice":"El Centro","isescalated":"FALSE","address":"1248 PRIMAVERA COURT","propertyaddressline2":null,"filenotes":null,"geo_precision":"range","state":"California"},"type":"Feature","geometry":{"type":"Point","coordinates":[-115.487045,32.684132]}},{"properties":{"city":"TRACY","createddate":"1/5/2012 16:31","iscurativefile":"FALSE","zip":"95377","openeddate":"6/3/2011 0:00","referringcustomerfilenumber":"L1001F7","outofstatestatus":"Not Applicable","task completed date":"10/1/2012","region":"North Northern California","countyname":"San Joaquin","closeddate":"11/30/2012 0:00","isclosed":"FALSE","geo_score":0.902,"id":"a9hs85f83kcs","filenumber":"388706","filetransactiontype":"Title &amp; Escrow","escrowofficername":"Rheanna Gieseking","titleunit":"CA CPU Title-Kevin","referringcustomer":"FNMA","primarycurativetech":"Paula Finley","contract in task":"Contract In Tasks","secondarycurativetech":"Anthony Martinez","branchoffice":"Danville","isescalated":"FALSE","address":"2487 GREYSTONE DRIVE","propertyaddressline2":null,"filenotes":null,"geo_precision":"range","state":"California"},"type":"Feature","geometry":{"type":"Point","coordinates":[-121.464156,37.734058]}},{"properties":{"city":"FRESNO","createddate":"1/10/2012 17:40","iscurativefile":"FALSE","zip":"93722","openeddate":"6/30/2011 0:00","referringcustomerfilenumber":"AUSTIN WORD","outofstatestatus":"Not Applicable","task completed date":"10/17/2012","region":"Central California","countyname":"Fresno","closeddate":"11/9/2012 0:00","isclosed":"FALSE","geo_score":0.902,"id":"a9hs85fkkkbj","filenumber":"394468","filetransactiontype":"Title &amp; Escrow","escrowofficername":"Claudia Froelich","titleunit":"CA CPU Title-Kevin","referringcustomer":"FNMA","primarycurativetech":"Paula Finley","contract in task":"Contract In Tasks","secondarycurativetech":"Anthony Martinez","branchoffice":"Fresno","isescalated":"FALSE","address":"4671 WEST MORRIS AVENUE","propertyaddressline2":null,"filenotes":null,"geo_precision":"range","state":"California"},"type":"Feature","geometry":{"type":"Point","coordinates":[-119.880919,36.821154]}},{"properties":{"city":"Apple Valley","createddate":"2/22/2012 14:03","iscurativefile":"TRUE","zip":"92307","openeddate":"2/22/2012 0:00","referringcustomerfilenumber":"L1202DR","outofstatestatus":"Not Applicable","task completed date":"10/10/2012","region":"Inland Empire","countyname":"San Bernardino","closeddate":"10/18/2012 0:00","isclosed":"FALSE","geo_score":0.707,"id":"a9hs85kvl8zt","filenumber":"447575","filetransactiontype":"Title &amp; Escrow","escrowofficername":"Diana Price","titleunit":"CA CPU Title-Kevin","referringcustomer":"FNMA","primarycurativetech":"Jenny Martinez","contract in task":"Contract In Tasks","secondarycurativetech":"Kim Brown","branchoffice":"Victorville","isescalated":"FALSE","address":"19019 Llanto Road","propertyaddressline2":null,"filenotes":null,"geo_precision":"street","state":"California"},"type":"Feature","geometry":{"type":"Point","coordinates":[-117.164921,34.560337]}},{"properties":{"city":"Santa Rosa","createddate":"4/2/2012 11:38","iscurativefile":"TRUE","zip":"95403","openeddate":"4/2/2012 0:00","referringcustomerfilenumber":"L111KD7","outofstatestatus":"Not Applicable","task completed date":"10/15/2012","region":"North Northern California","countyname":"Sonoma","closeddate":"11/25/2012 0:00","isclosed":"FALSE","geo_score":0.902,"id":"a9hs85hio56u","filenumber":"457326","filetransactiontype":"Title &amp; Escrow","escrowofficername":"Margaret Basques","titleunit":"CA CPU Title-Kevin","referringcustomer":"FNMA","primarycurativetech":"Rose Digdigan","contract in task":"Contract In Tasks","secondarycurativetech":"Paula Finley","branchoffice":"Santa Rosa","isescalated":"FALSE","address":"2064 Dennis Lane","propertyaddressline2":null,"filenotes":null,"geo_precision":"range","state":"California"},"type":"Feature","geometry":{"type":"Point","coordinates":[-122.751018,38.482805]}},{"properties":{"city":"Citrus Heights","createddate":"4/9/2012 11:20","iscurativefile":"TRUE","zip":"95621","openeddate":"4/9/2012 0:00","referringcustomerfilenumber":"L111Q85","outofstatestatus":"Not Applicable","task completed date":"10/5/2012","region":"South Northern California","countyname":"Sacramento","closeddate":"11/16/2012 0:00","isclosed":"FALSE","geo_score":0.857,"id":"a9hs85itx53j","filenumber":"458867","filetransactiontype":"Title &amp; Escrow","escrowofficername":"Denise Fall","titleunit":"CA CPU Title-Kevin","referringcustomer":"FNMA","primarycurativetech":"Paula Finley","contract in task":"Contract In Tasks","secondarycurativetech":"Rose Digdigan","branchoffice":"Modesto","isescalated":"FALSE","address":"5901 Twin Creeks Circle","propertyaddressline2":null,"filenotes":null,"geo_precision":"range","state":"California"},"type":"Feature","geometry":{"type":"Point","coordinates":[-121.315047,38.674]}},{"properties":{"city":"Long Beach","createddate":"4/10/2012 10:22","iscurativefile":"TRUE","zip":"90805","openeddate":"4/10/2012 0:00","referringcustomerfilenumber":"L100TB1","outofstatestatus":"Not Applicable","task completed date":"10/15/2012","region":"Los Angeles - Ventura California","countyname":"Los Angeles","closeddate":"11/26/2012 0:00","isclosed":"FALSE","geo_score":0.849,"id":"a9hs85ctbbjc","filenumber":"459385","filetransactiontype":"Title &amp; Escrow","escrowofficername":"Julie Mayorga","titleunit":"CA CPU Title-Kevin","referringcustomer":"FNMA","primarycurativetech":"Rose Digdigan","contract in task":"Contract In Tasks","secondarycurativetech":"Jenny Martinez","branchoffice":"City of Industry","isescalated":"FALSE","address":"3230 Janice Street","propertyaddressline2":null,"filenotes":null,"geo_precision":"range","state":"California"},"type":"Feature","geometry":{"type":"Point","coordinates":[-118.151592,33.867109]}},{"properties":{"city":"Crestline","createddate":"4/19/2012 11:54","iscurativefile":"TRUE","zip":"92325","openeddate":"4/19/2012 0:00","referringcustomerfilenumber":"L120686","outofstatestatus":"Not Applicable","task completed date":"10/17/2012","region":"Inland Empire","countyname":"San Bernardino","closeddate":"10/31/2012 0:00","isclosed":"FALSE","geo_score":0.902,"id":"a9hs85bhi2j5","filenumber":"461716","filetransactiontype":"Title &amp; Escrow","escrowofficername":"Pamela San Millan","titleunit":"CA CPU Title-Kevin","referringcustomer":"FNMA","primarycurativetech":"Anthony Martinez","contract in task":"Contract In Tasks","secondarycurativetech":"Jenny Martinez","branchoffice":"Victorville","isescalated":"FALSE","address":"909 Nesthorn Dr","propertyaddressline2":null,"filenotes":null,"geo_precision":"range","state":"California"},"type":"Feature","geometry":{"type":"Point","coordinates":[-117.264758,34.235037]}},{"properties":{"city":"Applegate","createddate":"4/27/2012 10:33","iscurativefile":"TRUE","zip":"95703","openeddate":"4/27/2012 0:00","referringcustomerfilenumber":"L1207JM","outofstatestatus":"Not Applicable","task completed date":"10/9/2012","region":"South Northern California","countyname":"Placer","closeddate":"11/9/2012 0:00","isclosed":"FALSE","geo_score":0.884,"id":"a9hs85e3r9lf","filenumber":"463622","filetransactiontype":"Title &amp; Escrow","escrowofficername":"Denise Fall","titleunit":"CA CPU Title-Kevin","referringcustomer":"FNMA","primarycurativetech":"Rose Digdigan","contract in task":"Contract In Tasks","secondarycurativetech":"Anthony Martinez","branchoffice":"Modesto","isescalated":"FALSE","address":"115 Diamond Crest Lane","propertyaddressline2":null,"filenotes":null,"geo_precision":"range","state":"California"},"type":"Feature","geometry":{"type":"Point","coordinates":[-120.988967,39.004832]}},{"properties":{"city":"La Mirada","createddate":"5/4/2012 12:36","iscurativefile":"TRUE","zip":"90638","openeddate":"5/4/2012 0:00","referringcustomerfilenumber":"L111NT5","outofstatestatus":"Not Applicable","task completed date":"10/4/2012","region":"Los Angeles - Ventura California","countyname":"Los Angeles","closeddate":"11/19/2012 0:00","isclosed":"FALSE","geo_score":0.902,"id":"a9hs85hsrpbo","filenumber":"465373","filetransactiontype":"Title &amp; Escrow","escrowofficername":"Mary Sehenuk","titleunit":"CA CPU Title-Kevin","referringcustomer":"FNMA","primarycurativetech":"Paula Finley","contract in task":"Contract In Tasks","secondarycurativetech":"Anthony Martinez","branchoffice":"Glendale","isescalated":"FALSE","address":"13978 Ramhurst Drive","propertyaddressline2":null,"filenotes":null,"geo_precision":"range","state":"California"},"type":"Feature","geometry":{"type":"Point","coordinates":[-118.035004,33.915857]}},{"properties":{"city":"Simi Valley","createddate":"5/7/2012 9:44","iscurativefile":"TRUE","zip":"93063","openeddate":"5/7/2012 0:00","referringcustomerfilenumber":"L1209H0","outofstatestatus":"Not Applicable","task completed date":"10/15/2012","region":"#N/A","countyname":"Ventura","closeddate":"11/9/2012 0:00","isclosed":"FALSE","geo_score":0.902,"id":"a9hs85ig8e9c","filenumber":"465610","filetransactiontype":"Title &amp; Escrow","escrowofficername":"Non-Stewart","titleunit":"CA CPU Title-Kevin","referringcustomer":"FNMA","primarycurativetech":"Kim Brown","contract in task":"Contract In Tasks","secondarycurativetech":"Rose Digdigan","branchoffice":"Non_Stewart","isescalated":"FALSE","address":"1626 Moreno Drive","propertyaddressline2":null,"filenotes":null,"geo_precision":"range","state":"California"},"type":"Feature","geometry":{"type":"Point","coordinates":[-118.72981,34.270187]}},{"properties":{"city":"Tracy","createddate":"5/7/2012 14:38","iscurativefile":"TRUE","zip":"95376","openeddate":"5/7/2012 0:00","referringcustomerfilenumber":"L12062S","outofstatestatus":"Not Applicable","task completed date":"10/19/2012","region":"South Northern California","countyname":"San Joaquin","closeddate":"11/29/2012 0:00","isclosed":"FALSE","geo_score":0.902,"id":"a9hs85efd4w0","filenumber":"465679","filetransactiontype":"Title &amp; Escrow","escrowofficername":"Heather Walker","titleunit":"CA CPU Title-Kevin","referringcustomer":"FNMA","primarycurativetech":"Paula Finley","contract in task":"Contract In Tasks","secondarycurativetech":"Anthony Martinez","branchoffice":"Turlock","isescalated":"FALSE","address":"162 Edward Court","propertyaddressline2":null,"filenotes":null,"geo_precision":"range","state":"California"},"type":"Feature","geometry":{"type":"Point","coordinates":[-121.429167,37.721746]}},{"properties":{"city":"Yreka","createddate":"5/14/2012 12:17","iscurativefile":"TRUE","zip":"96097","openeddate":"5/14/2012 0:00","referringcustomerfilenumber":"L1209MH","outofstatestatus":"Not Applicable","task completed date":"10/18/2012","region":"South Northern California","countyname":"Siskiyou","closeddate":"11/16/2012 0:00","isclosed":"FALSE","geo_score":0.819,"id":"a9hs85kfwqkf","filenumber":"467389","filetransactiontype":"Title &amp; Escrow","escrowofficername":"Holly Weston","titleunit":"CA CPU Title-Kevin","referringcustomer":"FNMA","primarycurativetech":"Jenny Martinez","contract in task":"Contract In Tasks","secondarycurativetech":"Rose Digdigan","branchoffice":"Turlock","isescalated":"FALSE","address":"602 Lane Street","propertyaddressline2":null,"filenotes":null,"geo_precision":"range","state":"California"},"type":"Feature","geometry":{"type":"Point","coordinates":[-122.643921,41.731852]}},{"properties":{"city":"Antioch","createddate":"5/21/2012 12:30","iscurativefile":"TRUE","zip":"94531","openeddate":"5/21/2012 0:00","referringcustomerfilenumber":"L12091R","outofstatestatus":"Not Applicable","task completed date":"10/4/2012","region":"North Northern California","countyname":"Contra Costa","closeddate":"11/9/2012 0:00","isclosed":"FALSE","geo_score":0.89,"id":"a9hs85laetzd","filenumber":"469294","filetransactiontype":"Title &amp; Escrow","escrowofficername":"Rheanna Gieseking","titleunit":"CA CPU Title-Kevin","referringcustomer":"FNMA","primarycurativetech":"Anthony Martinez","contract in task":"Contract In Tasks","secondarycurativetech":"Rose Digdigan","branchoffice":"Danville","isescalated":"FALSE","address":"3213 Islewood Court","propertyaddressline2":null,"filenotes":null,"geo_precision":"range","state":"California"},"type":"Feature","geometry":{"type":"Point","coordinates":[-121.773397,37.986922]}},{"properties":{"city":"Fair Oaks","createddate":"5/23/2012 10:15","iscurativefile":"TRUE","zip":"95628","openeddate":"5/23/2012 0:00","referringcustomerfilenumber":"L1208DL","outofstatestatus":"Not Applicable","task completed date":"10/4/2012","region":"South Northern California","countyname":"Sacramento","closeddate":"11/11/2012 0:00","isclosed":"FALSE","geo_score":0.893,"id":"a9hs85a58amt","filenumber":"469892","filetransactiontype":"Title &amp; Escrow","escrowofficername":"Diane Oliveira-Medina","titleunit":"CA CPU Title-Kevin","referringcustomer":"FNMA","primarycurativetech":"Jenny Martinez","contract in task":"Contract In Tasks","secondarycurativetech":"Anthony Martinez","branchoffice":"Turlock","isescalated":"FALSE","address":"6770 Judistine Drive","propertyaddressline2":null,"filenotes":null,"geo_precision":"range","state":"California"},"type":"Feature","geometry":{"type":"Point","coordinates":[-121.307314,38.670213]}},{"properties":{"city":"Fresno","createddate":"5/30/2012 10:33","iscurativefile":"TRUE","zip":"93711","openeddate":"5/30/2012 0:00","referringcustomerfilenumber":"L120C6X","outofstatestatus":"Not Applicable","task completed date":"10/10/2012","region":"Central California","countyname":"Fresno","closeddate":"11/16/2012 0:00","isclosed":"FALSE","geo_score":0.902,"id":"a9hs85hhuhw6","filenumber":"471209","filetransactiontype":"Title &amp; Escrow","escrowofficername":"Stacey Giguiere","titleunit":"CA CPU Title-Kevin","referringcustomer":"FNMA","primarycurativetech":"Kim Brown","contract in task":"Contract In Tasks","secondarycurativetech":"Jenny Martinez","branchoffice":"Fresno","isescalated":"FALSE","address":"3437 West Menlo Avenue","propertyaddressline2":null,"filenotes":null,"geo_precision":"range","state":"California"},"type":"Feature","geometry":{"type":"Point","coordinates":[-119.853532,36.830725]}},{"properties":{"city":"Mount Shasta","createddate":"5/30/2012 10:37","iscurativefile":"TRUE","zip":"96067","openeddate":"5/30/2012 0:00","referringcustomerfilenumber":"L120C40","outofstatestatus":"Not Applicable","task completed date":"10/10/2012","region":"#N/A","countyname":"Siskiyou","closeddate":"10/25/2012 0:00","isclosed":"FALSE","geo_score":0.895,"id":"a9hs85hskkiq","filenumber":"471211","filetransactiontype":"Title &amp; Escrow","escrowofficername":"Non-Stewart","titleunit":"CA CPU Title-Kevin","referringcustomer":"FNMA","primarycurativetech":"Kim Brown","contract in task":"Contract In Tasks","secondarycurativetech":"Rose Digdigan","branchoffice":"Non_Stewart","isescalated":"FALSE","address":"608 Big Canyon Drive","propertyaddressline2":null,"filenotes":"Buyers Choice","geo_precision":"range","state":"California"},"type":"Feature","geometry":{"type":"Point","coordinates":[-122.290388,41.27915]}},{"properties":{"city":"Poterville","createddate":"5/31/2012 12:05","iscurativefile":"TRUE","zip":"93257","openeddate":"5/31/2012 0:00","referringcustomerfilenumber":"L120C09","outofstatestatus":"Not Applicable","task completed date":"10/16/2012","region":"Central California","countyname":"Tulare","closeddate":"11/23/2012 0:00","isclosed":"FALSE","geo_score":0.894,"id":"a9hs85ek735y","filenumber":"471567","filetransactiontype":"Title &amp; Escrow","escrowofficername":"Judy Loflin","titleunit":"CA CPU Title-Kevin","referringcustomer":"FNMA","primarycurativetech":"Kim Brown","contract in task":"Contract In Tasks","secondarycurativetech":"Rose Digdigan","branchoffice":"Porterville","isescalated":"FALSE","address":"463 West Mulberry Avenue","propertyaddressline2":null,"filenotes":null,"geo_precision":"range","state":"California"},"type":"Feature","geometry":{"type":"Point","coordinates":[-119.029059,36.083845]}},{"properties":{"city":"Chino Hills","createddate":"5/31/2012 12:21","iscurativefile":"TRUE","zip":"91709","openeddate":"5/31/2012 0:00","referringcustomerfilenumber":"L120C1F","outofstatestatus":"Not Applicable","task completed date":"10/4/2012","region":"Inland Empire","countyname":"San Bernardino","closeddate":"11/9/2012 0:00","isclosed":"FALSE","geo_score":0.894,"id":"a9hs859xicjg","filenumber":"471570","filetransactiontype":"Title &amp; Escrow","escrowofficername":"Patti Black","titleunit":"CA CPU Title-Kevin","referringcustomer":"FNMA","primarycurativetech":"Kim Brown","contract in task":"Contract In Tasks","secondarycurativetech":"Rose Digdigan","branchoffice":"Redlands","isescalated":"FALSE","address":"15909 Winbrook Drive","propertyaddressline2":null,"filenotes":null,"geo_precision":"range","state":"California"},"type":"Feature","geometry":{"type":"Point","coordinates":[-117.732726,33.964493]}},{"properties":{"city":"Indio","createddate":"6/5/2012 10:50","iscurativefile":"TRUE","zip":"92203","openeddate":"6/5/2012 0:00","referringcustomerfilenumber":"L120CSF","outofstatestatus":"Not Applicable","task completed date":"10/8/2012","region":"Inland Empire","countyname":"Riverside","closeddate":"11/16/2012 0:00","isclosed":"FALSE","geo_score":0.532,"id":"a9hs85fa1u2e","filenumber":"472636","filetransactiontype":"Title &amp; Escrow","escrowofficername":"Nyna Ensign","titleunit":"CA CPU Title-Kevin","referringcustomer":"FNMA","primarycurativetech":"Kim Brown","contract in task":"Contract In Tasks","secondarycurativetech":"Rose Digdigan","branchoffice":"Riverside","isescalated":"FALSE","address":"80554 Avenida Santa Eugen","propertyaddressline2":null,"filenotes":null,"geo_precision":"street","state":"California"},"type":"Feature","geometry":{"type":"Point","coordinates":[-116.518327,33.847132]}},{"properties":{"city":"Manteca","createddate":"6/6/2012 10:57","iscurativefile":"TRUE","zip":"95336","openeddate":"6/6/2012 0:00","referringcustomerfilenumber":"L120CMP","outofstatestatus":"Not Applicable","task completed date":"10/12/2012","region":"South Northern California","countyname":"San Joaquin","closeddate":"11/16/2012 0:00","isclosed":"FALSE","geo_score":0.89,"id":"a9hs85lsu1q3","filenumber":"473044","filetransactiontype":"Title &amp; Escrow","escrowofficername":"Holly Weston","titleunit":"CA CPU Title-Kevin","referringcustomer":"FNMA","primarycurativetech":"Rose Digdigan","contract in task":"Contract In Tasks","secondarycurativetech":"Kim Brown","branchoffice":"Turlock","isescalated":"FALSE","address":"450 Elm Avenue","propertyaddressline2":null,"filenotes":null,"geo_precision":"range","state":"California"},"type":"Feature","geometry":{"type":"Point","coordinates":[-121.22303,37.803508]}},{"properties":{"city":"irvine","createddate":"6/11/2012 12:16","iscurativefile":"TRUE","zip":"92618","openeddate":"6/11/2012 0:00","referringcustomerfilenumber":"L120CSS","outofstatestatus":"Not Applicable","task completed date":"10/9/2012","region":"So. California","countyname":"Orange","closeddate":"11/16/2012 0:00","isclosed":"FALSE","geo_score":0.62,"id":"a9hs85hc1q7l","filenumber":"474206","filetransactiontype":"Title &amp; Escrow","escrowofficername":"Michelle Huynh","titleunit":"CA CPU Title-Kevin","referringcustomer":"FNMA","primarycurativetech":"Kim Brown","contract in task":"Contract In Tasks","secondarycurativetech":"Paula Finley","branchoffice":"Irvine","isescalated":"FALSE","address":"40 Cienega","propertyaddressline2":null,"filenotes":null,"geo_precision":"street","state":"California"},"type":"Feature","geometry":{"type":"Point","coordinates":[-117.66867,33.60111]}},{"properties":{"city":"Rio Vista","createddate":"6/12/2012 10:32","iscurativefile":"TRUE","zip":"94571","openeddate":"6/12/2012 0:00","referringcustomerfilenumber":"L120DD8","outofstatestatus":"Not Applicable","task completed date":"10/18/2012","region":"North Northern California","countyname":"Solano","closeddate":"11/20/2012 0:00","isclosed":"FALSE","geo_score":0.595,"id":"a9hs85kh3qfq","filenumber":"474548","filetransactiontype":"Title &amp; Escrow","escrowofficername":"Rheanna Gieseking","titleunit":"CA CPU Title-Kevin","referringcustomer":"FNMA","primarycurativetech":"Paula Finley","contract in task":"Contract In Tasks","secondarycurativetech":"Anthony Martinez","branchoffice":"Danville","isescalated":"FALSE","address":"235 Rivercliff Drive","propertyaddressline2":null,"filenotes":null,"geo_precision":"street","state":"California"},"type":"Feature","geometry":{"type":"Point","coordinates":[-122.283345,38.318148]}},{"properties":{"city":"La Quinta","createddate":"6/13/2012 10:10","iscurativefile":"TRUE","zip":"92253","openeddate":"6/13/2012 0:00","referringcustomerfilenumber":"L120DC2","outofstatestatus":"Not Applicable","task completed date":"10/10/2012","region":"Inland Empire","countyname":"Riverside","closeddate":"10/31/2012 0:00","isclosed":"FALSE","geo_score":0.902,"id":"a9hs85blg1h2","filenumber":"474927","filetransactiontype":"Title &amp; Escrow","escrowofficername":"Colleen Yost","titleunit":"CA CPU Title-Kevin","referringcustomer":"FNMA","primarycurativetech":"Jenny Martinez","contract in task":"Contract In Tasks","secondarycurativetech":"Kim Brown","branchoffice":"Palm Desert","isescalated":"FALSE","address":"45055 Coldbrook Lane","propertyaddressline2":null,"filenotes":null,"geo_precision":"range","state":"California"},"type":"Feature","geometry":{"type":"Point","coordinates":[-116.289495,33.720938]}},{"properties":{"city":"Cedarpines park","createddate":"6/15/2012 9:58","iscurativefile":"TRUE","zip":"92322","openeddate":"6/15/2012 0:00","referringcustomerfilenumber":"L120DB2","outofstatestatus":"Not Applicable","task completed date":"10/15/2012","region":"Inland Empire","countyname":"San Bernardino","closeddate":"10/19/2012 0:00","isclosed":"FALSE","geo_score":0.634,"id":"a9hs8592ow48","filenumber":"475587","filetransactiontype":"Title &amp; Escrow","escrowofficername":"Patti Black","titleunit":"CA CPU Title-Kevin","referringcustomer":"FNMA","primarycurativetech":"Jenny Martinez","contract in task":"Contract In Tasks","secondarycurativetech":"Rose Digdigan","branchoffice":"Redlands","isescalated":"FALSE","address":"22253 Pine Drive","propertyaddressline2":null,"filenotes":null,"geo_precision":"street","state":"California"},"type":"Feature","geometry":{"type":"Point","coordinates":[-117.317345,34.243555]}},{"properties":{"city":"Hughson","createddate":"6/19/2012 10:47","iscurativefile":"TRUE","zip":"95326","openeddate":"6/19/2012 0:00","referringcustomerfilenumber":"L120CMJ","outofstatestatus":"Not Applicable","task completed date":"10/18/2012","region":"South Northern California","countyname":"Stanislaus","closeddate":"12/14/2012 0:00","isclosed":"FALSE","geo_score":0.805,"id":"a9hs85eiynvw","filenumber":"476280","filetransactiontype":"Title &amp; Escrow","escrowofficername":"Debra Greene","titleunit":"CA CPU Title-Kevin","referringcustomer":"FNMA","primarycurativetech":"Kim Brown","contract in task":"Contract In Tasks","secondarycurativetech":"Rose Digdigan","branchoffice":"Modesto","isescalated":"FALSE","address":"2904 Fifth Street","propertyaddressline2":null,"filenotes":null,"geo_precision":"range","state":"California"},"type":"Feature","geometry":{"type":"Point","coordinates":[-120.860989,37.590823]}},{"properties":{"city":"Apple Valley","createddate":"6/19/2012 11:52","iscurativefile":"TRUE","zip":"92308","openeddate":"6/19/2012 0:00","referringcustomerfilenumber":"L120F08","outofstatestatus":"Not Applicable","task completed date":"10/16/2012","region":"Inland Empire","countyname":"San Bernardino","closeddate":"11/30/2012 0:00","isclosed":"FALSE","geo_score":0.902,"id":"a9hs85gilw88","filenumber":"476291","filetransactiontype":"Title &amp; Escrow","escrowofficername":"Julie Kruger","titleunit":"CA CPU Title-Kevin","referringcustomer":"FNMA","primarycurativetech":"Rose Digdigan","contract in task":"Contract In Tasks","secondarycurativetech":"Jenny Martinez","branchoffice":"Victorville","isescalated":"FALSE","address":"11054 Moki Road","propertyaddressline2":null,"filenotes":null,"geo_precision":"range","state":"California"},"type":"Feature","geometry":{"type":"Point","coordinates":[-117.203063,34.45201]}},{"properties":{"city":"Modesto","createddate":"6/19/2012 13:04","iscurativefile":"TRUE","zip":"95356","openeddate":"6/19/2012 0:00","referringcustomerfilenumber":"L120D9F","outofstatestatus":"Not Applicable","task completed date":"10/4/2012","region":"South Northern California","countyname":"Out of State","closeddate":"10/12/2012 0:00","isclosed":"FALSE","geo_score":0.78,"id":"a9hs85lmxb98","filenumber":"476359","filetransactiontype":"Title &amp; Escrow","escrowofficername":"Patti Atkinson-Utz","titleunit":"CA CPU Title-Kevin","referringcustomer":"FNMA","primarycurativetech":"Rose Digdigan","contract in task":"Contract In Tasks","secondarycurativetech":"Anthony Martinez","branchoffice":"Turlock","isescalated":"FALSE","address":"3604 Veneman Ave","propertyaddressline2":null,"filenotes":null,"geo_precision":"range","state":"California"},"type":"Feature","geometry":{"type":"Point","coordinates":[-121.03619,37.689603]}},{"properties":{"city":"Woodland","createddate":"6/25/2012 12:24","iscurativefile":"TRUE","zip":"95695","openeddate":"6/25/2012 0:00","referringcustomerfilenumber":"L120BCJ","outofstatestatus":"Not Applicable","task completed date":"10/18/2012","region":"South Northern California","countyname":"Yolo","closeddate":"11/27/2012 0:00","isclosed":"FALSE","geo_score":0.902,"id":"a9hs85ij43te","filenumber":"477955","filetransactiontype":"Title &amp; Escrow","escrowofficername":"Patti Atkinson-Utz","titleunit":"CA CPU Title-Kevin","referringcustomer":"FNMA","primarycurativetech":"Jenny Martinez","contract in task":"Contract In Tasks","secondarycurativetech":"Anthony Martinez","branchoffice":"Turlock","isescalated":"FALSE","address":"95 Utah Ave","propertyaddressline2":null,"filenotes":null,"geo_precision":"range","state":"California"},"type":"Feature","geometry":{"type":"Point","coordinates":[-121.785031,38.689088]}},{"properties":{"city":"Modesto","createddate":"6/26/2012 12:42","iscurativefile":"TRUE","zip":"95354","openeddate":"6/26/2012 0:00","referringcustomerfilenumber":"L120F22","outofstatestatus":"Not Applicable","task completed date":"10/17/2012","region":"South Northern California","countyname":"Stanislaus","closeddate":"10/19/2012 0:00","isclosed":"FALSE","geo_score":0.902,"id":"a9hs85garvhj","filenumber":"478359","filetransactiontype":"Title &amp; Escrow","escrowofficername":"Heather Walker","titleunit":"CA CPU Title-Kevin","referringcustomer":"FNMA","primarycurativetech":"Anthony Martinez","contract in task":"Contract In Tasks","secondarycurativetech":"Kim Brown","branchoffice":"Turlock","isescalated":"FALSE","address":"925 Ila Way","propertyaddressline2":null,"filenotes":null,"geo_precision":"range","state":"California"},"type":"Feature","geometry":{"type":"Point","coordinates":[-120.991221,37.656924]}},{"properties":{"city":"Simi Valley","createddate":"6/26/2012 12:53","iscurativefile":"TRUE","zip":"93065","openeddate":"6/26/2012 0:00","referringcustomerfilenumber":"L1206ZS","outofstatestatus":"Not Applicable","task completed date":"10/9/2012","region":"Los Angeles - Ventura California","countyname":"Ventura","closeddate":"11/9/2012 0:00","isclosed":"FALSE","geo_score":0.819,"id":"a9hs85k3fgo0","filenumber":"478361","filetransactiontype":"Title &amp; Escrow","escrowofficername":"Araceli De Lara-Michel","titleunit":"CA CPU Title-Kevin","referringcustomer":"FNMA","primarycurativetech":"Paula Finley","contract in task":"Contract In Tasks","secondarycurativetech":"Jenny Martinez","branchoffice":"Ventura","isescalated":"FALSE","address":"1772 Sinaloa Road 188","propertyaddressline2":null,"filenotes":null,"geo_precision":"range","state":"California"},"type":"Feature","geometry":{"type":"Point","coordinates":[-118.787527,34.271651]}},{"properties":{"city":"Hanford","createddate":"6/27/2012 15:22","iscurativefile":"TRUE","zip":"93230","openeddate":"6/27/2012 0:00","referringcustomerfilenumber":"L1209N8","outofstatestatus":"Not Applicable","task completed date":"10/9/2012","region":"Central California","countyname":"Kings","closeddate":"12/7/2012 0:00","isclosed":"FALSE","geo_score":0.89,"id":"a9hs85d5d273","filenumber":"478787","filetransactiontype":"Title &amp; Escrow","escrowofficername":"Virgina Luna","titleunit":"CA CPU Title-Kevin","referringcustomer":"FNMA","primarycurativetech":"Rose Digdigan","contract in task":"Contract In Tasks","secondarycurativetech":"Kim Brown","branchoffice":"Hanford","isescalated":"FALSE","address":"1077 West Sandstone Drive","propertyaddressline2":null,"filenotes":null,"geo_precision":"range","state":"California"},"type":"Feature","geometry":{"type":"Point","coordinates":[-119.661562,36.36165]}},{"properties":{"city":"Santa Maria","createddate":"6/29/2012 12:37","iscurativefile":"TRUE","zip":"93455","openeddate":"6/29/2012 0:00","referringcustomerfilenumber":"L1209M8","outofstatestatus":"Not Applicable","task completed date":"10/4/2012","region":"#N/A","countyname":"Santa Barbara","closeddate":"11/16/2012 0:00","isclosed":"FALSE","geo_score":0.714,"id":"a9hs85l38mru","filenumber":"479336","filetransactiontype":"Buyers Choice","escrowofficername":"Non-Stewart","titleunit":"CA CPU Title-Kevin","referringcustomer":"FNMA","primarycurativetech":"Paula Finley","contract in task":"Contract In Tasks","secondarycurativetech":"Jenny Martinez","branchoffice":"Non_Stewart","isescalated":"FALSE","address":"860 E. Mccloud St","propertyaddressline2":null,"filenotes":"Buyers Choice","geo_precision":"zip","state":"California"},"type":"Feature","geometry":{"type":"Point","coordinates":[-120.31488,34.88859]}},{"properties":{"city":"Anderson","createddate":"7/3/2012 12:23","iscurativefile":"TRUE","zip":"96007","openeddate":"7/3/2012 0:00","referringcustomerfilenumber":"L120BRJ","outofstatestatus":"Not Applicable","task completed date":"10/15/2012","region":"#N/A","countyname":"Shasta","closeddate":"11/5/2012 0:00","isclosed":"FALSE","geo_score":0.62,"id":"a9hs85822n2x","filenumber":"479981","filetransactiontype":"Title &amp; Escrow","escrowofficername":"Non-Stewart","titleunit":"CA CPU Title-Kevin","referringcustomer":"FNMA","primarycurativetech":"Kim Brown","contract in task":"Contract In Tasks","secondarycurativetech":"Jenny Martinez","branchoffice":"Non_Stewart","isescalated":"FALSE","address":"3339 Nathan Drive","propertyaddressline2":null,"filenotes":null,"geo_precision":"street","state":"California"},"type":"Feature","geometry":{"type":"Point","coordinates":[-122.349847,40.627469]}},{"properties":{"city":"Galt","createddate":"7/3/2012 12:29","iscurativefile":"TRUE","zip":"95632","openeddate":"7/3/2012 0:00","referringcustomerfilenumber":"L120BF","outofstatestatus":"Not Applicable","task completed date":"10/3/2012","region":"South Northern California","countyname":"Sacramento","closeddate":"10/29/2012 0:00","isclosed":"FALSE","geo_score":0.902,"id":"a9hs85n2em6v","filenumber":"479983","filetransactiontype":"Title &amp; Escrow","escrowofficername":"Heather Walker","titleunit":"CA CPU Title-Kevin","referringcustomer":"FNMA","primarycurativetech":"Jenny Martinez","contract in task":"Contract In Tasks","secondarycurativetech":"Anthony Martinez","branchoffice":"Turlock","isescalated":"FALSE","address":"1108 Creekside Way","propertyaddressline2":null,"filenotes":null,"geo_precision":"range","state":"California"},"type":"Feature","geometry":{"type":"Point","coordinates":[-121.312207,38.241628]}},{"properties":{"city":"Yuba City","createddate":"7/3/2012 12:35","iscurativefile":"TRUE","zip":"95991","openeddate":"7/3/2012 0:00","referringcustomerfilenumber":"L120C9P","outofstatestatus":"Not Applicable","task completed date":"10/19/2012","region":"#N/A","countyname":"Sutter","closeddate":"12/7/2012 0:00","isclosed":"FALSE","geo_score":0.893,"id":"a9hs85h6ilfy","filenumber":"479985","filetransactiontype":"Title &amp; Escrow","escrowofficername":"Non-Stewart","titleunit":"CA CPU Title-Kevin","referringcustomer":"FNMA","primarycurativetech":"Anthony Martinez","contract in task":"Contract In Tasks","secondarycurativetech":"Jenny Martinez","branchoffice":"Non_Stewart","isescalated":"FALSE","address":"1349 Eastwind Drive","propertyaddressline2":null,"filenotes":null,"geo_precision":"range","state":"California"},"type":"Feature","geometry":{"type":"Point","coordinates":[-121.617568,39.108947]}},{"properties":{"city":"Ontario","createddate":"7/6/2012 10:22","iscurativefile":"TRUE","zip":"91764","openeddate":"7/6/2012 0:00","referringcustomerfilenumber":"L120D9X","outofstatestatus":"Not Applicable","task completed date":"10/2/2012","region":"Inland Empire","countyname":"San Bernardino","closeddate":"10/26/2012 0:00","isclosed":"FALSE","geo_score":0.89,"id":"a9hs85bvyjec","filenumber":"480537","filetransactiontype":"Title &amp; Escrow","escrowofficername":"Pamela San Millan","titleunit":"CA CPU Title-Kevin","referringcustomer":"FNMA","primarycurativetech":"Rose Digdigan","contract in task":"Contract In Tasks","secondarycurativetech":"Anthony Martinez","branchoffice":"Victorville","isescalated":"FALSE","address":"655 East El Morado Court","propertyaddressline2":null,"filenotes":null,"geo_precision":"range","state":"California"},"type":"Feature","geometry":{"type":"Point","coordinates":[-117.642573,34.071671]}},{"properties":{"city":"Pomona","createddate":"7/6/2012 10:49","iscurativefile":"TRUE","zip":"91766","openeddate":"7/6/2012 0:00","referringcustomerfilenumber":"L120D80","outofstatestatus":"Not Applicable","task completed date":"10/4/2012","region":"Los Angeles - Ventura California","countyname":"Los Angeles","closeddate":"10/29/2012 0:00","isclosed":"FALSE","geo_score":0.889,"id":"a9hs85bbo2xm","filenumber":"480544","filetransactiontype":"Title &amp; Escrow","escrowofficername":"Angela Hum","titleunit":"CA CPU Title-Kevin","referringcustomer":"FNMA","primarycurativetech":"Paula Finley","contract in task":"Contract In Tasks","secondarycurativetech":"Rose Digdigan","branchoffice":"Glendale","isescalated":"FALSE","address":"44 Village Loop Road","propertyaddressline2":null,"filenotes":null,"geo_precision":"range","state":"California"},"type":"Feature","geometry":{"type":"Point","coordinates":[-117.77282,34.038254]}},{"properties":{"city":"Oxnard","createddate":"7/6/2012 11:03","iscurativefile":"TRUE","zip":"93035","openeddate":"7/6/2012 0:00","referringcustomerfilenumber":"L1202Y2","outofstatestatus":"Not Applicable","task completed date":"10/11/2012","region":"Los Angeles - Ventura California","countyname":"Ventura","closeddate":"11/14/2012 0:00","isclosed":"FALSE","geo_score":0.902,"id":"a9hs85liqja9","filenumber":"480548","filetransactiontype":"Title &amp; Escrow","escrowofficername":"Araceli De Lara-Michel","titleunit":"CA CPU Title-Kevin","referringcustomer":"FNMA","primarycurativetech":"Paula Finley","contract in task":"Contract In Tasks","secondarycurativetech":"Rose Digdigan","branchoffice":"Ventura","isescalated":"FALSE","address":"1741 Lookout Drive","propertyaddressline2":null,"filenotes":null,"geo_precision":"range","state":"California"},"type":"Feature","geometry":{"type":"Point","coordinates":[-119.212417,34.184598]}},{"properties":{"city":"Los Angeles","createddate":"7/6/2012 11:05","iscurativefile":"TRUE","zip":"90002","openeddate":"7/6/2012 0:00","referringcustomerfilenumber":"L120FRQ","outofstatestatus":"Not Applicable","task completed date":"10/19/2012","region":"Los Angeles - Ventura California","countyname":"Los Angeles","closeddate":"11/20/2012 0:00","isclosed":"FALSE","geo_score":0.902,"id":"a9hs85e6c6ru","filenumber":"480549","filetransactiontype":"Title &amp; Escrow","escrowofficername":"Angela Hum","titleunit":"CA CPU Title-Kevin","referringcustomer":"FNMA","primarycurativetech":"Paula Finley","contract in task":"Contract In Tasks","secondarycurativetech":"Rose Digdigan","branchoffice":"Glendale","isescalated":"FALSE","address":"9403 Croesus Avenue","propertyaddressline2":null,"filenotes":null,"geo_precision":"range","state":"California"},"type":"Feature","geometry":{"type":"Point","coordinates":[-118.23408,33.951881]}},{"properties":{"city":"Ukiah","createddate":"7/6/2012 11:13","iscurativefile":"TRUE","zip":"95482","openeddate":"7/6/2012 0:00","referringcustomerfilenumber":"L120FNK","outofstatestatus":"Not Applicable","task completed date":"10/5/2012","region":"North Northern California","countyname":"Mendocino","closeddate":"11/9/2012 0:00","isclosed":"FALSE","geo_score":0.666,"id":"a9hs85kcr0f9","filenumber":"480552","filetransactiontype":"Title &amp; Escrow","escrowofficername":"Arlene VanCraeynest","titleunit":"CA CPU Title-Kevin","referringcustomer":"FNMA","primarycurativetech":"Paula Finley","contract in task":"Contract In Tasks","secondarycurativetech":"Anthony Martinez","branchoffice":"Mill Valley","isescalated":"FALSE","address":"8894 Valley View Drive","propertyaddressline2":null,"filenotes":null,"geo_precision":"street","state":"California"},"type":"Feature","geometry":{"type":"Point","coordinates":[-123.227198,39.158414]}},{"properties":{"city":"Patterson","createddate":"7/6/2012 11:16","iscurativefile":"TRUE","zip":"95363","openeddate":"7/6/2012 0:00","referringcustomerfilenumber":"L120FMX","outofstatestatus":"Not Applicable","task completed date":"10/4/2012","region":"South Northern California","countyname":"Stanislaus","closeddate":"11/30/2012 0:00","isclosed":"FALSE","geo_score":0.585,"id":"a9hs85duc6ld","filenumber":"480553","filetransactiontype":"Title &amp; Escrow","escrowofficername":"Heather Walker","titleunit":"CA CPU Title-Kevin","referringcustomer":"FNMA","primarycurativetech":"Paula Finley","contract in task":"Contract In Tasks","secondarycurativetech":"Rose Digdigan","branchoffice":"Turlock","isescalated":"FALSE","address":"8970 Sand Trap Court","propertyaddressline2":null,"filenotes":null,"geo_precision":"street","state":"California"},"type":"Feature","geometry":{"type":"Point","coordinates":[-120.591845,37.326332]}},{"properties":{"city":"Carmichael","createddate":"7/6/2012 11:27","iscurativefile":"TRUE","zip":"95608","openeddate":"7/6/2012 0:00","referringcustomerfilenumber":"L120FZN","outofstatestatus":"Not Applicable","task completed date":"10/3/2012","region":"South Northern California","countyname":"Sacramento","closeddate":"11/12/2012 0:00","isclosed":"FALSE","geo_score":0.894,"id":"a9hs85k47y1h","filenumber":"480559","filetransactiontype":"Title &amp; Escrow","escrowofficername":"Holly Weston","titleunit":"CA CPU Title-Kevin","referringcustomer":"FNMA","primarycurativetech":"Paula Finley","contract in task":"Contract In Tasks","secondarycurativetech":"Anthony Martinez","branchoffice":"Turlock","isescalated":"FALSE","address":"5317 Sandstone Street","propertyaddressline2":null,"filenotes":null,"geo_precision":"range","state":"California"},"type":"Feature","geometry":{"type":"Point","coordinates":[-121.313934,38.662991]}},{"properties":{"city":"Victorville","createddate":"7/9/2012 13:03","iscurativefile":"TRUE","zip":"92395","openeddate":"7/9/2012 0:00","referringcustomerfilenumber":"L120CZ5","outofstatestatus":"Not Applicable","task completed date":"10/10/2012","region":"Inland Empire","countyname":"San Bernardino","closeddate":"11/21/2012 0:00","isclosed":"FALSE","geo_score":0.797,"id":"a9hs85gbcmx0","filenumber":"480997","filetransactiontype":"Title &amp; Escrow","escrowofficername":"Pamela San Millan","titleunit":"CA CPU Title-Kevin","referringcustomer":"FNMA","primarycurativetech":"Paula Finley","contract in task":"Contract In Tasks","secondarycurativetech":"Rose Digdigan","branchoffice":"Victorville","isescalated":"FALSE","address":"17760 Cresta Blanca Lane","propertyaddressline2":null,"filenotes":null,"geo_precision":"range","state":"California"},"type":"Feature","geometry":{"type":"Point","coordinates":[-117.275425,34.501525]}},{"properties":{"city":"Chula Vista","createddate":"7/11/2012 10:23","iscurativefile":"FALSE","zip":"91913","openeddate":"7/11/2012 0:00","referringcustomerfilenumber":"L120BTR","outofstatestatus":"Not Applicable","task completed date":"10/3/2012","region":"So. California","countyname":"San Diego","closeddate":"10/31/2012 0:00","isclosed":"FALSE","geo_score":0.902,"id":"a9hs85k1ancu","filenumber":"481661","filetransactiontype":"Escrow Only","escrowofficername":"Christine Waider","titleunit":"Non-Stewart","referringcustomer":"FNMA","primarycurativetech":"Paula Finley","contract in task":"Contract In Tasks","secondarycurativetech":"Rose Digdigan","branchoffice":"Mission Valley","isescalated":"FALSE","address":"1276 Santa Lucia Road","propertyaddressline2":null,"filenotes":null,"geo_precision":"range","state":"California"},"type":"Feature","geometry":{"type":"Point","coordinates":[-116.993537,32.628295]}},{"properties":{"city":"Turlock","createddate":"7/12/2012 10:22","iscurativefile":"TRUE","zip":"95380","openeddate":"7/12/2012 0:00","referringcustomerfilenumber":"L120DVL","outofstatestatus":"Not Applicable","task completed date":"10/2/2012","region":"South Northern California","countyname":"Stanislaus","closeddate":"10/11/2012 0:00","isclosed":"TRUE","geo_score":0.902,"id":"a9hs857zdi7k","filenumber":"482052","filetransactiontype":"Title &amp; Escrow","escrowofficername":"Debbi Johnson (Apodaca)","titleunit":"CA CPU Title-Kevin","referringcustomer":"FNMA","primarycurativetech":"Kim Brown","contract in task":"Contract In Tasks","secondarycurativetech":"Paula Finley","branchoffice":"Modesto","isescalated":"FALSE","address":"525 West Olive Avenue","propertyaddressline2":null,"filenotes":null,"geo_precision":"range","state":"California"},"type":"Feature","geometry":{"type":"Point","coordinates":[-120.854273,37.493821]}},{"properties":{"city":"San Diego","createddate":"7/12/2012 10:24","iscurativefile":"TRUE","zip":"92114","openeddate":"7/12/2012 0:00","referringcustomerfilenumber":"L120F2G","outofstatestatus":"Not Applicable","task completed date":"10/9/2012","region":"So. California","countyname":"San Diego","closeddate":"11/6/2012 0:00","isclosed":"FALSE","geo_score":0.698,"id":"a9hs85aqmvjf","filenumber":"482053","filetransactiontype":"Title &amp; Escrow","escrowofficername":"(Cindy) Cynthia (Furphy) Dawson","titleunit":"CA CPU Title-Kevin","referringcustomer":"FNMA","primarycurativetech":"Kim Brown","contract in task":"Contract In Tasks","secondarycurativetech":"Rose Digdigan","branchoffice":"La Mesa","isescalated":"FALSE","address":"520 65th Street 105","propertyaddressline2":null,"filenotes":null,"geo_precision":"range","state":"California"},"type":"Feature","geometry":{"type":"Point","coordinates":[-117.058033,32.708922]}},{"properties":{"city":"Vista","createddate":"7/13/2012 9:48","iscurativefile":"TRUE","zip":"92084","openeddate":"7/13/2012 0:00","referringcustomerfilenumber":"L120D1X","outofstatestatus":"Not Applicable","task completed date":"10/5/2012","region":"So. California","countyname":"San Diego","closeddate":"11/9/2012 0:00","isclosed":"FALSE","geo_score":0.886,"id":"a9hs85940bj4","filenumber":"482393","filetransactiontype":"Title &amp; Escrow","escrowofficername":"Irene Casey","titleunit":"CA CPU Title-Kevin","referringcustomer":"FNMA","primarycurativetech":"Kim Brown","contract in task":"Contract In Tasks","secondarycurativetech":"Paula Finley","branchoffice":"Carlsbad","isescalated":"FALSE","address":"1295 Cypress Drive","propertyaddressline2":null,"filenotes":null,"geo_precision":"range","state":"California"},"type":"Feature","geometry":{"type":"Point","coordinates":[-117.223012,33.187106]}},{"properties":{"city":"Santa Maria","createddate":"7/16/2012 11:01","iscurativefile":"TRUE","zip":"93455","openeddate":"7/16/2012 0:00","referringcustomerfilenumber":"L120BNF","outofstatestatus":"Not Applicable","task completed date":"10/16/2012","region":"#N/A","countyname":"Santa Barbara","closeddate":"11/22/2012 0:00","isclosed":"FALSE","geo_score":0.902,"id":"a9hs85nox549","filenumber":"482743","filetransactiontype":"Title &amp; Escrow","escrowofficername":"Non-Stewart","titleunit":"CA CPU Title-Kevin","referringcustomer":"FNMA","primarycurativetech":"Jenny Martinez","contract in task":"Contract In Tasks","secondarycurativetech":"Kim Brown","branchoffice":"Non_Stewart","isescalated":"FALSE","address":"1417 Shetland Court","propertyaddressline2":null,"filenotes":null,"geo_precision":"range","state":"California"},"type":"Feature","geometry":{"type":"Point","coordinates":[-120.409261,34.875446]}},{"properties":{"city":"Aliso Viejo","createddate":"7/16/2012 11:03","iscurativefile":"TRUE","zip":"92656","openeddate":"7/16/2012 0:00","referringcustomerfilenumber":"L1209YK","outofstatestatus":"Not Applicable","task completed date":"10/9/2012","region":"So. California","countyname":"Orange","closeddate":"10/31/2012 0:00","isclosed":"FALSE","geo_score":0.902,"id":"a9hs85k4d5qq","filenumber":"482744","filetransactiontype":"Title &amp; Escrow","escrowofficername":"Michelle Huynh","titleunit":"CA CPU Title-Kevin","referringcustomer":"FNMA","primarycurativetech":"Jenny Martinez","contract in task":"Contract In Tasks","secondarycurativetech":"Kim Brown","branchoffice":"Irvine","isescalated":"FALSE","address":"11 Silveroak","propertyaddressline2":null,"filenotes":null,"geo_precision":"range","state":"California"},"type":"Feature","geometry":{"type":"Point","coordinates":[-117.718143,33.591981]}},{"properties":{"city":"Oxnard","createddate":"7/16/2012 11:31","iscurativefile":"TRUE","zip":"93030","openeddate":"7/16/2012 0:00","referringcustomerfilenumber":"L1208RQ","outofstatestatus":"Not Applicable","task completed date":"10/3/2012","region":"Los Angeles - Ventura California","countyname":"Ventura","closeddate":"11/13/2012 0:00","isclosed":"FALSE","geo_score":0.902,"id":"a9hs85fwhpjw","filenumber":"482751","filetransactiontype":"Title &amp; Escrow","escrowofficername":"Araceli De Lara-Michel","titleunit":"CA CPU Title-Kevin","referringcustomer":"FNMA","primarycurativetech":"Jenny Martinez","contract in task":"Contract In Tasks","secondarycurativetech":"Kim Brown","branchoffice":"Ventura","isescalated":"FALSE","address":"3311 Sutter Drive","propertyaddressline2":null,"filenotes":null,"geo_precision":"range","state":"California"},"type":"Feature","geometry":{"type":"Point","coordinates":[-119.150926,34.170065]}},{"properties":{"city":"Loomis","createddate":"7/16/2012 11:50","iscurativefile":"TRUE","zip":"95650","openeddate":"7/16/2012 0:00","referringcustomerfilenumber":"L120DB8","outofstatestatus":"Not Applicable","task completed date":"10/3/2012","region":"South Northern California","countyname":"Placer","closeddate":"11/23/2012 0:00","isclosed":"FALSE","geo_score":0.791,"id":"a9hs85bczhid","filenumber":"482766","filetransactiontype":"Title &amp; Escrow","escrowofficername":"Vicki Gardea","titleunit":"CA CPU Title-Kevin","referringcustomer":"FNMA","primarycurativetech":"Jenny Martinez","contract in task":"Contract In Tasks","secondarycurativetech":"Rose Digdigan","branchoffice":"Modesto","isescalated":"FALSE","address":"3900 Circle Drive","propertyaddressline2":null,"filenotes":null,"geo_precision":"range","state":"California"},"type":"Feature","geometry":{"type":"Point","coordinates":[-121.19571,38.816676]}},{"properties":{"city":"Modesto","createddate":"7/17/2012 10:15","iscurativefile":"TRUE","zip":"95355","openeddate":"7/17/2012 0:00","referringcustomerfilenumber":"L12063Y","outofstatestatus":"Not Applicable","task completed date":"10/2/2012","region":"South Northern California","countyname":"Stanislaus","closeddate":"11/23/2012 0:00","isclosed":"FALSE","geo_score":0.902,"id":"a9hs85a2b6d8","filenumber":"483093","filetransactiontype":"Title &amp; Escrow","escrowofficername":"Patti Atkinson-Utz","titleunit":"CA CPU Title-Kevin","referringcustomer":"FNMA","primarycurativetech":"Kim Brown","contract in task":"Contract In Tasks","secondarycurativetech":"Paula Finley","branchoffice":"Turlock","isescalated":"FALSE","address":"2513 Pescadero Place","propertyaddressline2":null,"filenotes":null,"geo_precision":"range","state":"California"},"type":"Feature","geometry":{"type":"Point","coordinates":[-120.946841,37.665916]}},{"properties":{"city":"La Quinta","createddate":"7/18/2012 10:06","iscurativefile":"TRUE","zip":"92253","openeddate":"7/18/2012 0:00","referringcustomerfilenumber":"L1208WZ","outofstatestatus":"Not Applicable","task completed date":"10/1/2012","region":"Inland Empire","countyname":"Riverside","closeddate":"10/19/2012 0:00","isclosed":"TRUE","geo_score":0.902,"id":"a9hs85adb7cq","filenumber":"483469","filetransactiontype":"Title &amp; Escrow","escrowofficername":"Nyna Ensign","titleunit":"CA CPU Title-Kevin","referringcustomer":"FNMA","primarycurativetech":"Paula Finley","contract in task":"Contract In Tasks","secondarycurativetech":"Kim Brown","branchoffice":"Riverside","isescalated":"FALSE","address":"79830 Dandelion Drive","propertyaddressline2":null,"filenotes":null,"geo_precision":"range","state":"California"},"type":"Feature","geometry":{"type":"Point","coordinates":[-116.269862,33.722606]}},{"properties":{"city":"Visalia","createddate":"7/18/2012 10:08","iscurativefile":"TRUE","zip":"93277","openeddate":"7/18/2012 0:00","referringcustomerfilenumber":"L120CHP","outofstatestatus":"Not Applicable","task completed date":"10/2/2012","region":"Central California","countyname":"Tulare","closeddate":"10/18/2012 0:00","isclosed":"FALSE","geo_score":0.902,"id":"a9hs85frpha3","filenumber":"483470","filetransactiontype":"Title &amp; Escrow","escrowofficername":"Karen Sigda","titleunit":"CA CPU Title-Kevin","referringcustomer":"FNMA","primarycurativetech":"Rose Digdigan","contract in task":"Contract In Tasks","secondarycurativetech":"Paula Finley","branchoffice":"Visalia","isescalated":"FALSE","address":"2843 South Kent Court","propertyaddressline2":null,"filenotes":null,"geo_precision":"range","state":"California"},"type":"Feature","geometry":{"type":"Point","coordinates":[-119.342248,36.304483]}},{"properties":{"city":"Riverside","createddate":"7/19/2012 9:53","iscurativefile":"TRUE","zip":"92506","openeddate":"7/19/2012 0:00","referringcustomerfilenumber":"L120FM4","outofstatestatus":"Not Applicable","task completed date":"10/2/2012","region":"Inland Empire","countyname":"Riverside","closeddate":"11/15/2012 0:00","isclosed":"FALSE","geo_score":0.893,"id":"a9hs85fgy3os","filenumber":"483811","filetransactiontype":"Title &amp; Escrow","escrowofficername":"Nicoloa Ames","titleunit":"CA CPU Title-Kevin","referringcustomer":"FNMA","primarycurativetech":"Anthony Martinez","contract in task":"Contract In Tasks","secondarycurativetech":"Jenny Martinez","branchoffice":"Riverside","isescalated":"FALSE","address":"3920 Bandini Avenue","propertyaddressline2":null,"filenotes":null,"geo_precision":"range","state":"California"},"type":"Feature","geometry":{"type":"Point","coordinates":[-117.390724,33.967128]}},{"properties":{"city":"Bakersfield","createddate":"7/19/2012 9:57","iscurativefile":"TRUE","zip":"93308","openeddate":"7/19/2012 0:00","referringcustomerfilenumber":"L120F9H","outofstatestatus":"Not Applicable","task completed date":"10/2/2012","region":"Central California","countyname":"Kern","closeddate":"10/20/2012 0:00","isclosed":"FALSE","geo_score":0.902,"id":"a9hs85aoil34","filenumber":"483812","filetransactiontype":"Title &amp; Escrow","escrowofficername":"Connie Porter","titleunit":"CA CPU Title-Kevin","referringcustomer":"FNMA","primarycurativetech":"Jenny Martinez","contract in task":"Contract In Tasks","secondarycurativetech":"Kim Brown","branchoffice":"Bakersfield","isescalated":"FALSE","address":"121 South Regal Street","propertyaddressline2":null,"filenotes":null,"geo_precision":"range","state":"California"},"type":"Feature","geometry":{"type":"Point","coordinates":[-119.032445,35.403532]}},{"properties":{"city":"Modesto","createddate":"7/19/2012 10:06","iscurativefile":"TRUE","zip":"95354","openeddate":"7/19/2012 0:00","referringcustomerfilenumber":"L120FSH","outofstatestatus":"Not Applicable","task completed date":"10/1/2012","region":"South Northern California","countyname":"Stanislaus","closeddate":"11/9/2012 0:00","isclosed":"FALSE","geo_score":0.902,"id":"a9hs85lke8ie","filenumber":"483814","filetransactiontype":"Title &amp; Escrow","escrowofficername":"Debbi Johnson (Apodaca)","titleunit":"CA CPU Title-Kevin","referringcustomer":"FNMA","primarycurativetech":"Kim Brown","contract in task":"Contract In Tasks","secondarycurativetech":"Rose Digdigan","branchoffice":"Modesto","isescalated":"FALSE","address":"2232 Pacific Avenue","propertyaddressline2":null,"filenotes":null,"geo_precision":"range","state":"California"},"type":"Feature","geometry":{"type":"Point","coordinates":[-120.955704,37.649704]}},{"properties":{"city":"Sacramento","createddate":"7/19/2012 10:12","iscurativefile":"TRUE","zip":"95823","openeddate":"7/19/2012 0:00","referringcustomerfilenumber":"L120F52","outofstatestatus":"Not Applicable","task completed date":"10/12/2012","region":"#N/A","countyname":"Sacramento","closeddate":"10/29/2012 0:00","isclosed":"FALSE","geo_score":0.518,"id":"a9hs85gchlfx","filenumber":"483816","filetransactiontype":"Title &amp; Escrow","escrowofficername":"Non-Stewart","titleunit":"CA CPU Title-Kevin","referringcustomer":"FNMA","primarycurativetech":"Kim Brown","contract in task":"Contract In Tasks","secondarycurativetech":"Paula Finley","branchoffice":"Non_Stewart","isescalated":"FALSE","address":"110 Summer Stroll Circle","propertyaddressline2":null,"filenotes":null,"geo_precision":"street","state":"California"},"type":"Feature","geometry":{"type":"Point","coordinates":[-121.389248,38.591314]}},{"properties":{"city":"Cobb","createddate":"7/19/2012 10:21","iscurativefile":"TRUE","zip":"95426","openeddate":"7/19/2012 0:00","referringcustomerfilenumber":"L120GJ2","outofstatestatus":"Not Applicable","task completed date":"10/9/2012","region":"North Northern California","countyname":"Lake","closeddate":"10/19/2012 0:00","isclosed":"FALSE","geo_score":0.902,"id":"a9hs85dbcp39","filenumber":"483818","filetransactiontype":"Title &amp; Escrow","escrowofficername":"Margaret Basques","titleunit":"CA CPU Title-Kevin","referringcustomer":"FNMA","primarycurativetech":"Jenny Martinez","contract in task":"Contract In Tasks","secondarycurativetech":"Paula Finley","branchoffice":"Santa Rosa","isescalated":"FALSE","address":"11188 Pine Summit Drive","propertyaddressline2":null,"filenotes":null,"geo_precision":"range","state":"California"},"type":"Feature","geometry":{"type":"Point","coordinates":[-122.696453,38.814948]}},{"properties":{"city":"Reseda","createddate":"7/20/2012 10:40","iscurativefile":"TRUE","zip":"91335","openeddate":"7/20/2012 0:00","referringcustomerfilenumber":"L1208ZH","outofstatestatus":"Not Applicable","task completed date":"10/9/2012","region":"Los Angeles - Ventura California","countyname":"Los Angeles","closeddate":"11/6/2012 0:00","isclosed":"FALSE","geo_score":0.777,"id":"a9hs85nok8ho","filenumber":"484158","filetransactiontype":"Title &amp; Escrow","escrowofficername":"Mary Sehenuk","titleunit":"CA CPU Title-Kevin","referringcustomer":"FNMA","primarycurativetech":"Jenny Martinez","contract in task":"Contract In Tasks","secondarycurativetech":"Paula Finley","branchoffice":"Glendale","isescalated":"FALSE","address":"19540 Hart","propertyaddressline2":null,"filenotes":null,"geo_precision":"range","state":"California"},"type":"Feature","geometry":{"type":"Point","coordinates":[-118.560387,34.197373]}},{"properties":{"city":"Covina","createddate":"7/20/2012 10:45","iscurativefile":"TRUE","zip":"91722","openeddate":"7/20/2012 0:00","referringcustomerfilenumber":"L120DH0","outofstatestatus":"Not Applicable","task completed date":"10/9/2012","region":"Los Angeles - Ventura California","countyname":"Los Angeles","closeddate":"11/21/2012 0:00","isclosed":"FALSE","geo_score":0.708,"id":"a9hs85lc3uiw","filenumber":"484160","filetransactiontype":"Title &amp; Escrow","escrowofficername":"Angela Hum","titleunit":"CA CPU Title-Kevin","referringcustomer":"FNMA","primarycurativetech":"Jenny Martinez","contract in task":"Contract In Tasks","secondarycurativetech":"Paula Finley","branchoffice":"Glendale","isescalated":"FALSE","address":"16308 East Clovermead Street","propertyaddressline2":null,"filenotes":null,"geo_precision":"street","state":"California"},"type":"Feature","geometry":{"type":"Point","coordinates":[-117.919874,34.094986]}},{"properties":{"city":"Antelope","createddate":"7/23/2012 9:30","iscurativefile":"TRUE","zip":"95843","openeddate":"7/23/2012 0:00","referringcustomerfilenumber":"L120GSX","outofstatestatus":"Not Applicable","task completed date":"10/9/2012","region":"South Northern California","countyname":"Sacramento","closeddate":"11/16/2012 0:00","isclosed":"FALSE","geo_score":0.707,"id":"a9hs85k93nbe","filenumber":"484409","filetransactiontype":"Title &amp; Escrow","escrowofficername":"Vicki Gardea","titleunit":"CA CPU Title-Kevin","referringcustomer":"FNMA","primarycurativetech":"Kim Brown","contract in task":"Contract In Tasks","secondarycurativetech":"Paula Finley","branchoffice":"Modesto","isescalated":"FALSE","address":"30608 North Country Drive","propertyaddressline2":null,"filenotes":null,"geo_precision":"street","state":"California"},"type":"Feature","geometry":{"type":"Point","coordinates":[-121.373659,38.705076]}},{"properties":{"city":"Tehachapi","createddate":"7/23/2012 10:00","iscurativefile":"TRUE","zip":"93561","openeddate":"7/23/2012 0:00","referringcustomerfilenumber":"L120FMV","outofstatestatus":"Not Applicable","task completed date":"10/2/2012","region":"Central California","countyname":"Kern","closeddate":"11/9/2012 0:00","isclosed":"FALSE","geo_score":0.902,"id":"a9hs85e5cdar","filenumber":"484460","filetransactiontype":"Title &amp; Escrow","escrowofficername":"Jennifer Navarro","titleunit":"CA CPU Title-Kevin","referringcustomer":"FNMA","primarycurativetech":"Jenny Martinez","contract in task":"Contract In Tasks","secondarycurativetech":"Anthony Martinez","branchoffice":"Bakersfield","isescalated":"FALSE","address":"21721 Verde Street","propertyaddressline2":null,"filenotes":null,"geo_precision":"range","state":"California"},"type":"Feature","geometry":{"type":"Point","coordinates":[-118.486374,35.135694]}},{"properties":{"city":"Huntington Park","createddate":"7/25/2012 11:16","iscurativefile":"TRUE","zip":"90255","openeddate":"7/25/2012 0:00","referringcustomerfilenumber":"L1206w7","outofstatestatus":"Not Applicable","task completed date":"10/1/2012","region":"Los Angeles - Ventura California","countyname":"Los Angeles","closeddate":"11/7/2012 0:00","isclosed":"FALSE","geo_score":0.866,"id":"a9hs85jgl7q4","filenumber":"485150","filetransactiontype":"Title &amp; Escrow","escrowofficername":"Angela Hum","titleunit":"CA CPU Title-Kevin","referringcustomer":"FNMA","primarycurativetech":"Jenny Martinez","contract in task":"Contract In Tasks","secondarycurativetech":"Kim Brown","branchoffice":"Glendale","isescalated":"FALSE","address":"7801 California Ave B","propertyaddressline2":null,"filenotes":null,"geo_precision":"range","state":"California"},"type":"Feature","geometry":{"type":"Point","coordinates":[-118.204375,33.965353]}},{"properties":{"city":"Tracy","createddate":"7/25/2012 11:22","iscurativefile":"TRUE","zip":"95377","openeddate":"7/25/2012 0:00","referringcustomerfilenumber":"L120gw3","outofstatestatus":"Not Applicable","task completed date":"10/5/2012","region":"South Northern California","countyname":"San Joaquin","closeddate":"11/28/2012 0:00","isclosed":"FALSE","geo_score":0.902,"id":"a9hs85ijgnmf","filenumber":"485152","filetransactiontype":"Title &amp; Escrow","escrowofficername":"Holly Weston","titleunit":"CA CPU Title-Kevin","referringcustomer":"FNMA","primarycurativetech":"Kim Brown","contract in task":"Contract In Tasks","secondarycurativetech":"Paula Finley","branchoffice":"Turlock","isescalated":"FALSE","address":"2367 La Mesa Dr","propertyaddressline2":null,"filenotes":null,"geo_precision":"range","state":"California"},"type":"Feature","geometry":{"type":"Point","coordinates":[-121.459589,37.750586]}},{"properties":{"city":"Escondido","createddate":"7/26/2012 10:30","iscurativefile":"TRUE","zip":"92027","openeddate":"7/26/2012 0:00","referringcustomerfilenumber":"L120cmz","outofstatestatus":"Not Applicable","task completed date":"10/16/2012","region":"So. California","countyname":"San Diego","closeddate":"11/7/2012 0:00","isclosed":"FALSE","geo_score":0.902,"id":"a9hs858gqiix","filenumber":"485518","filetransactiontype":"Title &amp; Escrow","escrowofficername":"Irene Casey","titleunit":"CA CPU Title-Kevin","referringcustomer":"FNMA","primarycurativetech":"Paula Finley","contract in task":"Contract In Tasks","secondarycurativetech":"Rebecca Kepple","branchoffice":"Carlsbad","isescalated":"FALSE","address":"520 El Rancho Ln","propertyaddressline2":null,"filenotes":null,"geo_precision":"range","state":"California"},"type":"Feature","geometry":{"type":"Point","coordinates":[-117.06289,33.135976]}},{"properties":{"city":"Chino Hills","createddate":"7/26/2012 10:33","iscurativefile":"TRUE","zip":"91709","openeddate":"7/26/2012 0:00","referringcustomerfilenumber":"L120h9x","outofstatestatus":"Not Applicable","task completed date":"10/1/2012","region":"Inland Empire","countyname":"San Bernardino","closeddate":"11/9/2012 0:00","isclosed":"FALSE","geo_score":0.902,"id":"a9hs85liqruu","filenumber":"485520","filetransactiontype":"Title &amp; Escrow","escrowofficername":"Julie Kruger","titleunit":"CA CPU Title-Kevin","referringcustomer":"FNMA","primarycurativetech":"Anthony Martinez","contract in task":"Contract In Tasks","secondarycurativetech":"Rose Digdigan","branchoffice":"Victorville","isescalated":"FALSE","address":"3374 Whirlaway Ln","propertyaddressline2":null,"filenotes":null,"geo_precision":"range","state":"California"},"type":"Feature","geometry":{"type":"Point","coordinates":[-117.722756,33.982616]}},{"properties":{"city":"La Quinta","createddate":"7/26/2012 10:35","iscurativefile":"TRUE","zip":"92253","openeddate":"7/26/2012 0:00","referringcustomerfilenumber":"L120hcj","outofstatestatus":"Not Applicable","task completed date":"10/12/2012","region":"Inland Empire","countyname":"Riverside","closeddate":"11/22/2012 0:00","isclosed":"FALSE","geo_score":0.902,"id":"a9hs85m0pkcp","filenumber":"485521","filetransactiontype":"Title &amp; Escrow","escrowofficername":"Nyna Ensign","titleunit":"CA CPU Title-Kevin","referringcustomer":"FNMA","primarycurativetech":"Rose Digdigan","contract in task":"Contract In Tasks","secondarycurativetech":"Paula Finley","branchoffice":"Riverside","isescalated":"FALSE","address":"47935 Via Jardin","propertyaddressline2":null,"filenotes":null,"geo_precision":"range","state":"California"},"type":"Feature","geometry":{"type":"Point","coordinates":[-116.290628,33.701549]}},{"properties":{"city":"Modesto","createddate":"7/26/2012 10:43","iscurativefile":"TRUE","zip":"95355","openeddate":"7/26/2012 0:00","referringcustomerfilenumber":"L120h77","outofstatestatus":"Not Applicable","task completed date":"10/1/2012","region":"South Northern California","countyname":"Stanislaus","closeddate":"11/15/2012 0:00","isclosed":"FALSE","geo_score":0.902,"id":"a9hs85bkb41s","filenumber":"485524","filetransactiontype":"Title &amp; Escrow","escrowofficername":"Denise Fall","titleunit":"CA CPU Title-Kevin","referringcustomer":"FNMA","primarycurativetech":"Kim Brown","contract in task":"Contract In Tasks","secondarycurativetech":"Paula Finley","branchoffice":"Modesto","isescalated":"FALSE","address":"1612 Shadewood Dr","propertyaddressline2":null,"filenotes":null,"geo_precision":"range","state":"California"},"type":"Feature","geometry":{"type":"Point","coordinates":[-120.948841,37.668266]}},{"properties":{"city":"Yucaipa","createddate":"7/27/2012 10:23","iscurativefile":"TRUE","zip":"92399","openeddate":"7/27/2012 0:00","referringcustomerfilenumber":"L120fy2","outofstatestatus":"Not Applicable","task completed date":"10/10/2012","region":"Inland Empire","countyname":"San Bernardino","closeddate":"11/9/2012 0:00","isclosed":"FALSE","geo_score":0.902,"id":"a9hs85a34ahg","filenumber":"485801","filetransactiontype":"Title &amp; Escrow","escrowofficername":"Patti Black","titleunit":"CA CPU Title-Kevin","referringcustomer":"FNMA","primarycurativetech":"Kim Brown","contract in task":"Contract In Tasks","secondarycurativetech":"Paula Finley","branchoffice":"Redlands","isescalated":"FALSE","address":"35394 Bonita Dr","propertyaddressline2":null,"filenotes":null,"geo_precision":"range","state":"California"},"type":"Feature","geometry":{"type":"Point","coordinates":[-117.033615,34.005448]}},{"properties":{"city":"Bakersfield","createddate":"7/27/2012 16:58","iscurativefile":"TRUE","zip":"93306","openeddate":"7/27/2012 0:00","referringcustomerfilenumber":"L120G76","outofstatestatus":"Not Applicable","task completed date":"10/1/2012","region":"Central California","countyname":"Kern","closeddate":"10/26/2012 0:00","isclosed":"FALSE","geo_score":0.902,"id":"a9hs858md89f","filenumber":"485969","filetransactiontype":"Title &amp; Escrow","escrowofficername":"Connie Porter","titleunit":"CA CPU Title-Kevin","referringcustomer":"FNMA","primarycurativetech":"Kim Brown","contract in task":"Contract In Tasks","secondarycurativetech":"Rose Digdigan","branchoffice":"Bakersfield","isescalated":"FALSE","address":"728 Ocotillo Dr","propertyaddressline2":null,"filenotes":null,"geo_precision":"range","state":"California"},"type":"Feature","geometry":{"type":"Point","coordinates":[-118.898472,35.360484]}},{"properties":{"city":"Lake Elsinore","createddate":"7/27/2012 17:07","iscurativefile":"TRUE","zip":"92530","openeddate":"7/27/2012 0:00","referringcustomerfilenumber":"L120G30","outofstatestatus":"Not Applicable","task completed date":"10/10/2012","region":"Inland Empire","countyname":"Riverside","closeddate":"11/23/2012 0:00","isclosed":"FALSE","geo_score":0.902,"id":"a9hs85e1y4pw","filenumber":"485971","filetransactiontype":"Title &amp; Escrow","escrowofficername":"(Beth) Elizabeth D'Andrea","titleunit":"CA CPU Title-Kevin","referringcustomer":"FNMA","primarycurativetech":"Paula Finley","contract in task":"Contract In Tasks","secondarycurativetech":"Kim Brown","branchoffice":"Murrieta","isescalated":"FALSE","address":"32470 Somerset Dr","propertyaddressline2":null,"filenotes":null,"geo_precision":"range","state":"California"},"type":"Feature","geometry":{"type":"Point","coordinates":[-117.302806,33.621593]}},{"properties":{"city":"Santa Maria","createddate":"7/31/2012 12:00","iscurativefile":"TRUE","zip":"93458","openeddate":"7/31/2012 0:00","referringcustomerfilenumber":"L111PZ2","outofstatestatus":"Not Applicable","task completed date":"10/22/2012","region":"Central California","countyname":"Santa Barbara","closeddate":"11/26/2012 0:00","isclosed":"FALSE","geo_score":0.902,"id":"a9hs8592yphy","filenumber":"486550","filetransactiontype":"Title &amp; Escrow","escrowofficername":"Connie Porter","titleunit":"CA CPU Title-Kevin","referringcustomer":"FNMA","primarycurativetech":"Jenny Martinez","contract in task":"Contract In Tasks","secondarycurativetech":"Anthony Martinez","branchoffice":"Bakersfield","isescalated":"FALSE","address":"1006 North Western Ave","propertyaddressline2":null,"filenotes":null,"geo_precision":"range","state":"California"},"type":"Feature","geometry":{"type":"Point","coordinates":[-120.449852,34.962805]}},{"properties":{"city":"Stockton","createddate":"7/31/2012 12:40","iscurativefile":"TRUE","zip":"95210","openeddate":"7/31/2012 0:00","referringcustomerfilenumber":"L120GGH","outofstatestatus":"Not Applicable","task completed date":"10/17/2012","region":"South Northern California","countyname":"San Joaquin","closeddate":"10/26/2012 0:00","isclosed":"FALSE","geo_score":0.902,"id":"a9hs85m8kksf","filenumber":"486552","filetransactiontype":"Title &amp; Escrow","escrowofficername":"Holly Weston","titleunit":"CA CPU Title-Kevin","referringcustomer":"FNMA","primarycurativetech":"Anthony Martinez","contract in task":"Contract In Tasks","secondarycurativetech":"Rose Digdigan","branchoffice":"Turlock","isescalated":"FALSE","address":"9310 Cherbourg Way","propertyaddressline2":null,"filenotes":null,"geo_precision":"range","state":"California"},"type":"Feature","geometry":{"type":"Point","coordinates":[-121.284985,38.033853]}},{"properties":{"city":"Vacaville","createddate":"7/31/2012 12:46","iscurativefile":"TRUE","zip":"95688","openeddate":"7/31/2012 0:00","referringcustomerfilenumber":"L1204X2","outofstatestatus":"Not Applicable","task completed date":"10/10/2012","region":"North Northern California","countyname":"Solano","closeddate":"11/26/2012 0:00","isclosed":"FALSE","geo_score":0.805,"id":"a9hs85itj9qs","filenumber":"01180-6154","filetransactiontype":"Title &amp; Escrow","escrowofficername":"Rheanna Gieseking","titleunit":"CA CPU Title-Kevin","referringcustomer":"FNMA","primarycurativetech":"Rose Digdigan","contract in task":"Contract In Tasks","secondarycurativetech":"Paula Finley","branchoffice":"Danville","isescalated":"FALSE","address":"147 North West Street","propertyaddressline2":null,"filenotes":null,"geo_precision":"range","state":"California"},"type":"Feature","geometry":{"type":"Point","coordinates":[-121.991969,38.360634]}},{"properties":{"city":"Pinole","createddate":"7/31/2012 12:48","iscurativefile":"TRUE","zip":"94564","openeddate":"7/31/2012 0:00","referringcustomerfilenumber":"L1206KC","outofstatestatus":"Not Applicable","task completed date":"10/1/2012","region":"South Northern California","countyname":"Contra Costa","closeddate":"11/16/2012 0:00","isclosed":"FALSE","geo_score":0.861,"id":"a9hs85banp9o","filenumber":"486557","filetransactiontype":"Title &amp; Escrow","escrowofficername":"Heather Walker","titleunit":"CA CPU Title-Kevin","referringcustomer":"FNMA","primarycurativetech":"Paula Finley","contract in task":"Contract In Tasks","secondarycurativetech":"Kim Brown","branchoffice":"Turlock","isescalated":"FALSE","address":"201 Buena Vista Dr","propertyaddressline2":null,"filenotes":null,"geo_precision":"range","state":"California"},"type":"Feature","geometry":{"type":"Point","coordinates":[-122.29359,38.007211]}},{"properties":{"city":"North Highlands","createddate":"7/31/2012 12:54","iscurativefile":"TRUE","zip":"95660","openeddate":"7/31/2012 0:00","referringcustomerfilenumber":"L120HGN","outofstatestatus":"Not Applicable","task completed date":"10/8/2012","region":"South Northern California","countyname":"Sacramento","closeddate":"11/16/2012 0:00","isclosed":"FALSE","geo_score":0.902,"id":"a9hs85hi0ajy","filenumber":"486560","filetransactiontype":"Title &amp; Escrow","escrowofficername":"Debbi Johnson (Apodaca)","titleunit":"CA CPU Title-Kevin","referringcustomer":"FNMA","primarycurativetech":"Kim Brown","contract in task":"Contract In Tasks","secondarycurativetech":"Jenny Martinez","branchoffice":"Modesto","isescalated":"FALSE","address":"6304 Melrose Dr","propertyaddressline2":null,"filenotes":null,"geo_precision":"range","state":"California"},"type":"Feature","geometry":{"type":"Point","coordinates":[-121.380055,38.680499]}},{"properties":{"city":"Lancaster","createddate":"8/1/2012 11:17","iscurativefile":"TRUE","zip":"93535","openeddate":"8/1/2012 0:00","referringcustomerfilenumber":"L120HV6","outofstatestatus":"Not Applicable","task completed date":"10/16/2012","region":"Los Angeles - Ventura California","countyname":"Los Angeles","closeddate":"12/10/2012 0:00","isclosed":"FALSE","geo_score":0.468,"id":"a9hs85nld819","filenumber":"486820","filetransactiontype":"Title &amp; Escrow","escrowofficername":"Julie Mayorga","titleunit":"CA CPU Title-Kevin","referringcustomer":"FNMA","primarycurativetech":"Kim Brown","contract in task":"Contract In Tasks","secondarycurativetech":"Paula Finley","branchoffice":"City of Industry","isescalated":"FALSE","address":"44333 Raysack Ave","propertyaddressline2":null,"filenotes":null,"geo_precision":"street","state":"California"},"type":"Feature","geometry":{"type":"Point","coordinates":[-117.868455,35.666224]}},{"properties":{"city":"Orange","createddate":"8/2/2012 14:12","iscurativefile":"TRUE","zip":"92869","openeddate":"8/2/2012 0:00","referringcustomerfilenumber":"L120HNB","outofstatestatus":"Not Applicable","task completed date":"10/1/2012","region":"So. California","countyname":"Orange","closeddate":"11/9/2012 0:00","isclosed":"FALSE","geo_score":0.833,"id":"a9hs85cexrpa","filenumber":"487267","filetransactiontype":"Title &amp; Escrow","escrowofficername":"Michelle Huynh","titleunit":"CA CPU Title-Kevin","referringcustomer":"FNMA","primarycurativetech":"Anthony Martinez","contract in task":"Contract In Tasks","secondarycurativetech":"Rose Digdigan","branchoffice":"Irvine","isescalated":"FALSE","address":"215 S Cross Creek Rd Unit#","propertyaddressline2":null,"filenotes":null,"geo_precision":"range","state":"California"},"type":"Feature","geometry":{"type":"Point","coordinates":[-117.760739,33.787409]}},{"properties":{"city":"Fresno","createddate":"8/3/2012 12:05","iscurativefile":"TRUE","zip":"93705","openeddate":"8/3/2012 0:00","referringcustomerfilenumber":"L120FGX","outofstatestatus":"Not Applicable","task completed date":"10/4/2012","region":"Central California","countyname":"Fresno","closeddate":"11/11/2012 0:00","isclosed":"FALSE","geo_score":0.902,"id":"a9hs85a4wk30","filenumber":"487548","filetransactiontype":"Title &amp; Escrow","escrowofficername":"Claudia Froelich","titleunit":"CA CPU Title-Kevin","referringcustomer":"FNMA","primarycurativetech":"Kim Brown","contract in task":"Contract In Tasks","secondarycurativetech":"Jenny Martinez","branchoffice":"Fresno","isescalated":"FALSE","address":"632 W Harvard Ave","propertyaddressline2":null,"filenotes":null,"geo_precision":"range","state":"California"},"type":"Feature","geometry":{"type":"Point","coordinates":[-119.818563,36.773995]}},{"properties":{"city":"Bonsall","createddate":"8/3/2012 12:29","iscurativefile":"TRUE","zip":"92003","openeddate":"8/3/2012 0:00","referringcustomerfilenumber":"L120HMP","outofstatestatus":"Not Applicable","task completed date":"10/1/2012","region":"So. California","countyname":"San Diego","closeddate":"10/30/2012 0:00","isclosed":"FALSE","geo_score":0.415,"id":"a9hs85ha3j14","filenumber":"487550","filetransactiontype":"Title &amp; Escrow","escrowofficername":"(Cindy) Cynthia (Furphy) Dawson","titleunit":"CA CPU Title-Kevin","referringcustomer":"FNMA","primarycurativetech":"Paula Finley","contract in task":"Contract In Tasks","secondarycurativetech":"Jenny Martinez","branchoffice":"La Mesa","isescalated":"FALSE","address":"32024 Del Cielo Oeste # 19","propertyaddressline2":null,"filenotes":null,"geo_precision":"street","state":"California"},"type":"Feature","geometry":{"type":"Point","coordinates":[-117.252445,33.287084]}},{"properties":{"city":"Rialto","createddate":"8/6/2012 16:08","iscurativefile":"TRUE","zip":"92377","openeddate":"8/6/2012 0:00","referringcustomerfilenumber":"L120FF7","outofstatestatus":"Not Applicable","task completed date":"10/15/2012","region":"Inland Empire","countyname":"San Bernardino","closeddate":"10/16/2012 0:00","isclosed":"FALSE","geo_score":0.902,"id":"a9hs85ejskbd","filenumber":"487969","filetransactiontype":"Title &amp; Escrow","escrowofficername":"Patti Black","titleunit":"CA CPU Title-Kevin","referringcustomer":"FNMA","primarycurativetech":"Kim Brown","contract in task":"Contract In Tasks","secondarycurativetech":"Paula Finley","branchoffice":"Redlands","isescalated":"FALSE","address":"2840 West Dawnview Drive","propertyaddressline2":null,"filenotes":"Created by: Rebecca Kepple\r\nFNMA","geo_precision":"range","state":"California"},"type":"Feature","geometry":{"type":"Point","coordinates":[-117.430785,34.159946]}},{"properties":{"city":"Los Angeles","createddate":"8/6/2012 16:15","iscurativefile":"TRUE","zip":"90037","openeddate":"8/6/2012 0:00","referringcustomerfilenumber":"l120HXW","outofstatestatus":"Not Applicable","task completed date":"10/11/2012","region":"Los Angeles - Ventura California","countyname":"Los Angeles","closeddate":"12/7/2012 0:00","isclosed":"FALSE","geo_score":0.902,"id":"a9hs85k4wtnw","filenumber":"487973","filetransactiontype":"Title &amp; Escrow","escrowofficername":"Angela Hum","titleunit":"CA CPU Title-Kevin","referringcustomer":"FNMA","primarycurativetech":"Paula Finley","contract in task":"Contract In Tasks","secondarycurativetech":"Anthony Martinez","branchoffice":"Glendale","isescalated":"FALSE","address":"3911 South Hill Street","propertyaddressline2":null,"filenotes":"Created By: Rebecca Kepple\r\nFNMA","geo_precision":"range","state":"California"},"type":"Feature","geometry":{"type":"Point","coordinates":[-118.279948,34.011991]}},{"properties":{"city":"Barstow","createddate":"8/7/2012 11:46","iscurativefile":"TRUE","zip":"92311","openeddate":"8/7/2012 0:00","referringcustomerfilenumber":"L120J0H","outofstatestatus":"Not Applicable","task completed date":"10/4/2012","region":"Inland Empire","countyname":"San Bernardino","closeddate":"10/11/2012 0:00","isclosed":"TRUE","geo_score":0.902,"id":"a9hs85b12zhz","filenumber":"488191","filetransactiontype":"Title &amp; Escrow","escrowofficername":"Pamela San Millan","titleunit":"CA CPU Title-Kevin","referringcustomer":"FNMA","primarycurativetech":"Paula Finley","contract in task":"Contract In Tasks","secondarycurativetech":"Rose Digdigan","branchoffice":"Victorville","isescalated":"FALSE","address":"521 Kathleen Dr","propertyaddressline2":null,"filenotes":null,"geo_precision":"range","state":"California"},"type":"Feature","geometry":{"type":"Point","coordinates":[-117.013899,34.894288]}},{"properties":{"city":"Lytle Creek","createddate":"8/8/2012 12:02","iscurativefile":"TRUE","zip":"92358","openeddate":"8/8/2012 0:00","referringcustomerfilenumber":"L120J0C","outofstatestatus":"Not Applicable","task completed date":"10/19/2012","region":"Inland Empire","countyname":"San Bernardino","closeddate":"10/31/2012 0:00","isclosed":"FALSE","geo_score":0.902,"id":"a9hs85mz5vr6","filenumber":"488460","filetransactiontype":"Title &amp; Escrow","escrowofficername":"Patti Black","titleunit":"CA CPU Title-Kevin","referringcustomer":"FNMA","primarycurativetech":"Anthony Martinez","contract in task":"Contract In Tasks","secondarycurativetech":"Jenny Martinez","branchoffice":"Redlands","isescalated":"FALSE","address":"13885 Pollard Dr","propertyaddressline2":null,"filenotes":null,"geo_precision":"range","state":"California"},"type":"Feature","geometry":{"type":"Point","coordinates":[-117.50026,34.259634]}},{"properties":{"city":"Riverside","createddate":"8/9/2012 11:11","iscurativefile":"TRUE","zip":"92503","openeddate":"8/9/2012 0:00","referringcustomerfilenumber":"L120JBD","outofstatestatus":"Not Applicable","task completed date":"10/10/2012","region":"Inland Empire","countyname":"Riverside","closeddate":"11/16/2012 0:00","isclosed":"FALSE","geo_score":0.902,"id":"a9hs85h81rdj","filenumber":"488832","filetransactiontype":"Title &amp; Escrow","escrowofficername":"Mary Hudson","titleunit":"CA CPU Title-Kevin","referringcustomer":"FNMA","primarycurativetech":"Paula Finley","contract in task":"Contract In Tasks","secondarycurativetech":"Rose Digdigan","branchoffice":"Riverside","isescalated":"FALSE","address":"10088 Keller Avenue","propertyaddressline2":null,"filenotes":"Created by: Rebecca Kepple","geo_precision":"range","state":"California"},"type":"Feature","geometry":{"type":"Point","coordinates":[-117.473359,33.935016]}},{"properties":{"city":"Los Angeles","createddate":"8/9/2012 13:17","iscurativefile":"TRUE","zip":"90035","openeddate":"8/9/2012 0:00","referringcustomerfilenumber":"L120J5W","outofstatestatus":"Not Applicable","task completed date":"10/18/2012","region":"Los Angeles - Ventura California","countyname":"Los Angeles","closeddate":"11/22/2012 0:00","isclosed":"FALSE","geo_score":0.415,"id":"a9hs85lqf0uj","filenumber":"488911","filetransactiontype":"Title &amp; Escrow","escrowofficername":"Mary Sehenuk","titleunit":"CA CPU Title-Kevin","referringcustomer":"FNMA","primarycurativetech":"Paula Finley","contract in task":"Contract In Tasks","secondarycurativetech":"Rose Digdigan","branchoffice":"Glendale","isescalated":"FALSE","address":"1115 South Elm Dr # 309","propertyaddressline2":null,"filenotes":null,"geo_precision":"street","state":"California"},"type":"Feature","geometry":{"type":"Point","coordinates":[-118.394894,34.057089]}},{"properties":{"city":"Pollock Pines","createddate":"8/14/2012 14:45","iscurativefile":"TRUE","zip":"95726","openeddate":"8/14/2012 0:00","referringcustomerfilenumber":"L120J90","outofstatestatus":"Not Applicable","task completed date":"10/9/2012","region":"South Northern California","countyname":"El Dorado","closeddate":"11/19/2012 0:00","isclosed":"FALSE","geo_score":0.902,"id":"a9hs85nk09fr","filenumber":"489853","filetransactiontype":"Title &amp; Escrow","escrowofficername":"Patti Atkinson-Utz","titleunit":"CA CPU Title-Kevin","referringcustomer":"FNMA","primarycurativetech":"Paula Finley","contract in task":"Contract In Tasks","secondarycurativetech":"Rose Digdigan","branchoffice":"Turlock","isescalated":"FALSE","address":"2889 Willow Street","propertyaddressline2":null,"filenotes":"Created by: Rebecca Kepple","geo_precision":"range","state":"California"},"type":"Feature","geometry":{"type":"Point","coordinates":[-120.5814,38.763488]}},{"properties":{"city":"Turlock","createddate":"8/16/2012 9:55","iscurativefile":"TRUE","zip":"95380","openeddate":"8/16/2012 0:00","referringcustomerfilenumber":"L120JPL","outofstatestatus":"Not Applicable","task completed date":"10/10/2012","region":"South Northern California","countyname":"Stanislaus","closeddate":"11/16/2012 0:00","isclosed":"FALSE","geo_score":0.902,"id":"a9hs859tcaa4","filenumber":"490279","filetransactiontype":"Title &amp; Escrow","escrowofficername":"Diane Oliveira-Medina","titleunit":"CA CPU Title-Kevin","referringcustomer":"FNMA","primarycurativetech":"Paula Finley","contract in task":"Contract In Tasks","secondarycurativetech":"Rose Digdigan","branchoffice":"Turlock","isescalated":"FALSE","address":"1740 Bryce Avenue","propertyaddressline2":null,"filenotes":"Created by: Rebecca Kepple","geo_precision":"range","state":"California"},"type":"Feature","geometry":{"type":"Point","coordinates":[-120.867863,37.507953]}},{"properties":{"city":"Fresno","createddate":"8/17/2012 12:04","iscurativefile":"TRUE","zip":"93702","openeddate":"8/17/2012 0:00","referringcustomerfilenumber":"L120JQ6","outofstatestatus":"Not Applicable","task completed date":"10/16/2012","region":"Central California","countyname":"Fresno","closeddate":"10/12/2012 0:00","isclosed":"FALSE","geo_score":0.829,"id":"a9hs8585kpsp","filenumber":"490628","filetransactiontype":"Title &amp; Escrow","escrowofficername":"Claudia Froelich","titleunit":"CA CPU Title-Kevin","referringcustomer":"FNMA","primarycurativetech":"Jenny Martinez","contract in task":"Contract In Tasks","secondarycurativetech":"Kim Brown","branchoffice":"Fresno","isescalated":"FALSE","address":"740 North Fisher Avenue","propertyaddressline2":null,"filenotes":"Created by: Rebecca Kepple","geo_precision":"range","state":"California"},"type":"Feature","geometry":{"type":"Point","coordinates":[-119.77015,36.753599]}},{"properties":{"city":"Bakersfield","createddate":"8/20/2012 14:30","iscurativefile":"TRUE","zip":"93307","openeddate":"8/20/2012 0:00","referringcustomerfilenumber":"L120HN2","outofstatestatus":"Not Applicable","task completed date":"10/16/2012","region":"Central California","countyname":"Kern","closeddate":"11/1/2012 0:00","isclosed":"FALSE","geo_score":0.902,"id":"a9hs85mialii","filenumber":"490975","filetransactiontype":"Title &amp; Escrow","escrowofficername":"Jennifer Navarro","titleunit":"CA CPU Title-Kevin","referringcustomer":"FNMA","primarycurativetech":"Rose Digdigan","contract in task":"Contract In Tasks","secondarycurativetech":"Anthony Martinez","branchoffice":"Bakersfield","isescalated":"FALSE","address":"911 Casino Street","propertyaddressline2":null,"filenotes":"Created by: Rebecca Kepple","geo_precision":"range","state":"California"},"type":"Feature","geometry":{"type":"Point","coordinates":[-118.986785,35.331376]}},{"properties":{"city":"Shasta Lake","createddate":"8/21/2012 11:21","iscurativefile":"TRUE","zip":"96019","openeddate":"8/21/2012 0:00","referringcustomerfilenumber":"L120K60","outofstatestatus":"Not Applicable","task completed date":"10/19/2012","region":"South Northern California","countyname":"Shasta","closeddate":"11/23/2012 0:00","isclosed":"FALSE","geo_score":0.902,"id":"a9hs85gvrw5h","filenumber":"491157","filetransactiontype":"Title &amp; Escrow","escrowofficername":"Denise Fall","titleunit":"CA CPU Title-Kevin","referringcustomer":"FNMA","primarycurativetech":"Rose Digdigan","contract in task":"Contract In Tasks","secondarycurativetech":"Paula Finley","branchoffice":"Modesto","isescalated":"FALSE","address":"4721 Loch Place","propertyaddressline2":null,"filenotes":"Created by: Rebecca Kepple","geo_precision":"range","state":"California"},"type":"Feature","geometry":{"type":"Point","coordinates":[-122.360002,40.663311]}},{"properties":{"city":"Vallejo","createddate":"8/21/2012 11:23","iscurativefile":"TRUE","zip":"94590","openeddate":"8/21/2012 0:00","referringcustomerfilenumber":"L120K6C","outofstatestatus":"Not Applicable","task completed date":"10/4/2012","region":"#N/A","countyname":"Solano","closeddate":"11/14/2012 0:00","isclosed":"FALSE","geo_score":0.902,"id":"a9hs85hrd49e","filenumber":"491158","filetransactiontype":"Title &amp; Escrow","escrowofficername":"Non-Stewart","titleunit":"CA CPU Title-Kevin","referringcustomer":"FNMA","primarycurativetech":"Rose Digdigan","contract in task":"Contract In Tasks","secondarycurativetech":"Anthony Martinez","branchoffice":"Non_Stewart","isescalated":"FALSE","address":"1146 Ohio Street","propertyaddressline2":null,"filenotes":"Created by: Rebecca Kepple\r\n\r\nBuyers Choice","geo_precision":"range","state":"California"},"type":"Feature","geometry":{"type":"Point","coordinates":[-122.24731,38.107008]}},{"properties":{"city":"Coalinga","createddate":"8/21/2012 15:52","iscurativefile":"TRUE","zip":"93210","openeddate":"8/21/2012 0:00","referringcustomerfilenumber":"L120JQ7","outofstatestatus":"Not Applicable","task completed date":"10/5/2012","region":"Central California","countyname":"Fresno","closeddate":"10/19/2012 0:00","isclosed":"TRUE","geo_score":0.902,"id":"a9hs85knugzr","filenumber":"491257","filetransactiontype":"Title &amp; Escrow","escrowofficername":"Stacey Giguiere","titleunit":"CA CPU Title-Kevin","referringcustomer":"FNMA","primarycurativetech":"Paula Finley","contract in task":"Contract In Tasks","secondarycurativetech":"Rose Digdigan","branchoffice":"Fresno","isescalated":"FALSE","address":"560 East Roosevelt Street","propertyaddressline2":null,"filenotes":"Created by: Rebecca Kepple","geo_precision":"range","state":"California"},"type":"Feature","geometry":{"type":"Point","coordinates":[-120.346393,36.140252]}},{"properties":{"city":"Bakersfield","createddate":"8/22/2012 10:51","iscurativefile":"TRUE","zip":"93305","openeddate":"8/22/2012 0:00","referringcustomerfilenumber":"L120K8X","outofstatestatus":"Not Applicable","task completed date":"10/11/2012","region":"Central California","countyname":"Kern","closeddate":"11/27/2012 0:00","isclosed":"FALSE","geo_score":0.902,"id":"a9hs85bskni7","filenumber":"491446","filetransactiontype":"Title &amp; Escrow","escrowofficername":"Jennifer Navarro","titleunit":"CA CPU Title-Kevin","referringcustomer":"FNMA","primarycurativetech":"Anthony Martinez","contract in task":"Contract In Tasks","secondarycurativetech":"Jenny Martinez","branchoffice":"Bakersfield","isescalated":"FALSE","address":"726 Oregon Street","propertyaddressline2":null,"filenotes":"Created by: Rebecca Kepple","geo_precision":"range","state":"California"},"type":"Feature","geometry":{"type":"Point","coordinates":[-118.989441,35.382876]}},{"properties":{"city":"Concord","createddate":"8/22/2012 13:19","iscurativefile":"TRUE","zip":"94519","openeddate":"8/22/2012 0:00","referringcustomerfilenumber":"L120JWG","outofstatestatus":"Not Applicable","task completed date":"10/17/2012","region":"North Northern California","countyname":"Contra Costa","closeddate":"11/23/2012 0:00","isclosed":"FALSE","geo_score":0.902,"id":"a9hs85m9nke3","filenumber":"491506","filetransactiontype":"Title &amp; Escrow","escrowofficername":"Rheanna Gieseking","titleunit":"CA CPU Title-Kevin","referringcustomer":"FNMA","primarycurativetech":"Kim Brown","contract in task":"Contract In Tasks","secondarycurativetech":"Anthony Martinez","branchoffice":"Danville","isescalated":"FALSE","address":"1725 Vincente Road","propertyaddressline2":null,"filenotes":"Created by: Rebecca Kepple","geo_precision":"range","state":"California"},"type":"Feature","geometry":{"type":"Point","coordinates":[-122.019775,37.977319]}},{"properties":{"city":"Anderson","createddate":"8/22/2012 13:22","iscurativefile":"TRUE","zip":"96007","openeddate":"8/22/2012 0:00","referringcustomerfilenumber":"L120K33","outofstatestatus":"Not Applicable","task completed date":"10/5/2012","region":"#N/A","countyname":"Shasta","closeddate":"11/2/2012 0:00","isclosed":"FALSE","geo_score":0.902,"id":"a9hs85hbvdhz","filenumber":"491507","filetransactiontype":"Title &amp; Escrow","escrowofficername":"Non-Stewart","titleunit":"CA CPU Title-Kevin","referringcustomer":"FNMA","primarycurativetech":"Anthony Martinez","contract in task":"Contract In Tasks","secondarycurativetech":"Jenny Martinez","branchoffice":"Non_Stewart","isescalated":"FALSE","address":"19476 Davidson Lane","propertyaddressline2":null,"filenotes":"Created by: Rebecca Kepple","geo_precision":"range","state":"California"},"type":"Feature","geometry":{"type":"Point","coordinates":[-122.339105,40.413634]}},{"properties":{"city":"Hanford","createddate":"8/23/2012 11:31","iscurativefile":"TRUE","zip":"93230","openeddate":"8/23/2012 0:00","referringcustomerfilenumber":"L120KCR","outofstatestatus":"Not Applicable","task completed date":"10/17/2012","region":"Central California","countyname":"Kings","closeddate":"10/30/2012 0:00","isclosed":"FALSE","geo_score":0.902,"id":"a9hs85df1vqb","filenumber":"491756","filetransactiontype":"Title &amp; Escrow","escrowofficername":"Virgina Luna","titleunit":"CA CPU Title-Kevin","referringcustomer":"FNMA","primarycurativetech":"Paula Finley","contract in task":"Contract In Tasks","secondarycurativetech":"Anthony Martinez","branchoffice":"Hanford","isescalated":"FALSE","address":"412 West Malone Street","propertyaddressline2":null,"filenotes":"Created by: Rebecca Kepple","geo_precision":"range","state":"California"},"type":"Feature","geometry":{"type":"Point","coordinates":[-119.65192,36.339064]}},{"properties":{"city":"Keyes","createddate":"8/23/2012 16:06","iscurativefile":"TRUE","zip":"95328","openeddate":"8/23/2012 0:00","referringcustomerfilenumber":"L120K2S","outofstatestatus":"Not Applicable","task completed date":"10/4/2012","region":"South Northern California","countyname":"Stanislaus","closeddate":"11/14/2012 0:00","isclosed":"FALSE","geo_score":0.902,"id":"a9hs85fqmqk2","filenumber":"491861","filetransactiontype":"Title &amp; Escrow","escrowofficername":"Debra Greene","titleunit":"CA CPU Title-Kevin","referringcustomer":"FNMA","primarycurativetech":"Jenny Martinez","contract in task":"Contract In Tasks","secondarycurativetech":"Kim Brown","branchoffice":"Modesto","isescalated":"FALSE","address":"4213 Esmail Avenue","propertyaddressline2":null,"filenotes":"Created by: Rebecca Kepple","geo_precision":"range","state":"California"},"type":"Feature","geometry":{"type":"Point","coordinates":[-120.920379,37.560356]}},{"properties":{"city":"Hanford","createddate":"8/23/2012 16:08","iscurativefile":"TRUE","zip":"93230","openeddate":"8/23/2012 0:00","referringcustomerfilenumber":"L11197S","outofstatestatus":"Not Applicable","task completed date":"10/15/2012","region":"Central California","countyname":"Kings","closeddate":"10/26/2012 0:00","isclosed":"FALSE","geo_score":0.902,"id":"a9hs85lkyraj","filenumber":"491862","filetransactiontype":"Title &amp; Escrow","escrowofficername":"Cheryl Amos","titleunit":"CA CPU Title-Kevin","referringcustomer":"FNMA","primarycurativetech":"Paula Finley","contract in task":"Contract In Tasks","secondarycurativetech":"Rose Digdigan","branchoffice":"Hanford","isescalated":"FALSE","address":"1351 Echo Lane","propertyaddressline2":null,"filenotes":"Created by: Rebecca Kepple","geo_precision":"range","state":"California"},"type":"Feature","geometry":{"type":"Point","coordinates":[-119.659843,36.307279]}},{"properties":{"city":"Salida","createddate":"8/23/2012 16:14","iscurativefile":"TRUE","zip":"95368","openeddate":"8/23/2012 0:00","referringcustomerfilenumber":"L120K5H","outofstatestatus":"Not Applicable","task completed date":"10/5/2012","region":"South Northern California","countyname":"Stanislaus","closeddate":"12/3/2012 0:00","isclosed":"FALSE","geo_score":0.902,"id":"a9hs85kof8h1","filenumber":"491865","filetransactiontype":"Title &amp; Escrow","escrowofficername":"Debra Greene","titleunit":"CA CPU Title-Kevin","referringcustomer":"FNMA","primarycurativetech":"Anthony Martinez","contract in task":"Contract In Tasks","secondarycurativetech":"Jenny Martinez","branchoffice":"Modesto","isescalated":"FALSE","address":"5105 Newbold Lane","propertyaddressline2":null,"filenotes":"Created by: Rebecca Kepple","geo_precision":"range","state":"California"},"type":"Feature","geometry":{"type":"Point","coordinates":[-121.08927,37.69817]}},{"properties":{"city":"Stevinson","createddate":"8/23/2012 16:19","iscurativefile":"TRUE","zip":"95374","openeddate":"8/23/2012 0:00","referringcustomerfilenumber":"L120FVQ","outofstatestatus":"Not Applicable","task completed date":"10/19/2012","region":"Central California","countyname":"Merced","closeddate":"10/31/2012 0:00","isclosed":"FALSE","geo_score":0.777,"id":"a9hs85hqufi9","filenumber":"491868","filetransactiontype":"Title &amp; Escrow","escrowofficername":"Stacey Giguiere","titleunit":"CA CPU Title-Kevin","referringcustomer":"FNMA","primarycurativetech":"Rose Digdigan","contract in task":"Contract In Tasks","secondarycurativetech":"Kim Brown","branchoffice":"Fresno","isescalated":"FALSE","address":"23523 West 3rd Avenue","propertyaddressline2":null,"filenotes":"Created by: Rebecca Kepple","geo_precision":"range","state":"California"},"type":"Feature","geometry":{"type":"Point","coordinates":[-120.915391,37.327904]}},{"properties":{"city":"Bakersfield","createddate":"8/28/2012 9:56","iscurativefile":"TRUE","zip":"93312","openeddate":"8/28/2012 0:00","referringcustomerfilenumber":"L120KML","outofstatestatus":"Not Applicable","task completed date":"10/11/2012","region":"Central California","countyname":"Kern","closeddate":"11/7/2012 0:00","isclosed":"FALSE","geo_score":0.561,"id":"a9hs85f14sac","filenumber":"492588","filetransactiontype":"Title &amp; Escrow","escrowofficername":"Connie Porter","titleunit":"CA CPU Title-Kevin","referringcustomer":"FNMA","primarycurativetech":"Paula Finley","contract in task":"Contract In Tasks","secondarycurativetech":"Rose Digdigan","branchoffice":"Bakersfield","isescalated":"FALSE","address":"718 Sioux Creek Drive","propertyaddressline2":null,"filenotes":"Created by: Rebecca Kepple","geo_precision":"street","state":"California"},"type":"Feature","geometry":{"type":"Point","coordinates":[-119.254612,35.444089]}},{"properties":{"city":"Rosamond","createddate":"8/28/2012 10:03","iscurativefile":"TRUE","zip":"93560","openeddate":"8/28/2012 0:00","referringcustomerfilenumber":"L120KLS","outofstatestatus":"Not Applicable","task completed date":"10/15/2012","region":"Central California","countyname":"Kern","closeddate":"12/10/2012 0:00","isclosed":"FALSE","geo_score":0.902,"id":"a9hs85d2z7yv","filenumber":"492591","filetransactiontype":"Title &amp; Escrow","escrowofficername":"Connie Porter","titleunit":"CA CPU Title-Kevin","referringcustomer":"FNMA","primarycurativetech":"Anthony Martinez","contract in task":"Contract In Tasks","secondarycurativetech":"Jenny Martinez","branchoffice":"Bakersfield","isescalated":"FALSE","address":"3918 Pacific Avenue","propertyaddressline2":null,"filenotes":"Created by: Rebecca Kepple","geo_precision":"range","state":"California"},"type":"Feature","geometry":{"type":"Point","coordinates":[-118.200177,34.853432]}},{"properties":{"city":"Hemet","createddate":"8/29/2012 11:56","iscurativefile":"TRUE","zip":"92544","openeddate":"8/29/2012 0:00","referringcustomerfilenumber":"L120K8S","outofstatestatus":"Not Applicable","task completed date":"10/5/2012","region":"Inland Empire","countyname":"Riverside","closeddate":"11/15/2012 0:00","isclosed":"FALSE","geo_score":0.902,"id":"a9hs85kf6s3c","filenumber":"492920","filetransactiontype":"Title &amp; Escrow","escrowofficername":"Nyna Ensign","titleunit":"CA CPU Title-Kevin","referringcustomer":"FNMA","primarycurativetech":"Rose Digdigan","contract in task":"Contract In Tasks","secondarycurativetech":"Paula Finley","branchoffice":"Riverside","isescalated":"FALSE","address":"26470 Tuominen Way","propertyaddressline2":null,"filenotes":"Created by: Rebecca Kepple","geo_precision":"range","state":"California"},"type":"Feature","geometry":{"type":"Point","coordinates":[-116.943681,33.737345]}},{"properties":{"city":"San Bernardino","createddate":"8/30/2012 9:44","iscurativefile":"TRUE","zip":"92405","openeddate":"8/30/2012 0:00","referringcustomerfilenumber":"L120KS1","outofstatestatus":"Not Applicable","task completed date":"10/22/2012","region":"Inland Empire","countyname":"San Bernardino","closeddate":"11/28/2012 0:00","isclosed":"FALSE","geo_score":0.415,"id":"a9hs85kqmdg2","filenumber":"493181","filetransactiontype":"Title &amp; Escrow","escrowofficername":"Pamela San Millan","titleunit":"CA CPU Title-Kevin","referringcustomer":"FNMA","primarycurativetech":"Jenny Martinez","contract in task":"Contract In Tasks","secondarycurativetech":"Kim Brown","branchoffice":"Victorville","isescalated":"FALSE","address":"1480 West Edgehill Road, Apt # 62","propertyaddressline2":null,"filenotes":"Created by: Rebecca Kepple","geo_precision":"street","state":"California"},"type":"Feature","geometry":{"type":"Point","coordinates":[-117.299025,34.152993]}},{"properties":{"city":"Santa Maria","createddate":"8/30/2012 11:16","iscurativefile":"TRUE","zip":"93458","openeddate":"8/30/2012 0:00","referringcustomerfilenumber":"L120KJD","outofstatestatus":"Not Applicable","task completed date":"10/18/2012","region":"#N/A","countyname":"Santa Barbara","closeddate":"11/21/2012 0:00","isclosed":"FALSE","geo_score":0.532,"id":"a9hs85f3hphj","filenumber":"493211","filetransactiontype":"Title &amp; Escrow","escrowofficername":"Non-Stewart","titleunit":"CA CPU Title-Kevin","referringcustomer":"FNMA","primarycurativetech":"Paula Finley","contract in task":"Contract In Tasks","secondarycurativetech":"Anthony Martinez","branchoffice":"Non_Stewart","isescalated":"FALSE","address":"1350 Duvali Drive","propertyaddressline2":null,"filenotes":"Created by: Rebecca Kepple","geo_precision":"street","state":"California"},"type":"Feature","geometry":{"type":"Point","coordinates":[-120.455212,34.654973]}},{"properties":{"city":"Ceres","createddate":"8/31/2012 10:16","iscurativefile":"TRUE","zip":"95307","openeddate":"8/31/2012 0:00","referringcustomerfilenumber":"L1204C6","outofstatestatus":"Not Applicable","task completed date":"10/18/2012","region":"South Northern California","countyname":"Stanislaus","closeddate":"11/27/2012 0:00","isclosed":"FALSE","geo_score":0.902,"id":"a9hs85jycbwy","filenumber":"493480","filetransactiontype":"Title &amp; Escrow","escrowofficername":"Debbi Johnson (Apodaca)","titleunit":"CA CPU Title-Kevin","referringcustomer":"FNMA","primarycurativetech":"Jenny Martinez","contract in task":"Contract In Tasks","secondarycurativetech":"Kim Brown","branchoffice":"Modesto","isescalated":"FALSE","address":"2887 Malik Avenue","propertyaddressline2":null,"filenotes":"Created by: Rebecca Kepple","geo_precision":"range","state":"California"},"type":"Feature","geometry":{"type":"Point","coordinates":[-120.97927,37.590996]}},{"properties":{"city":"Porterville","createddate":"8/31/2012 11:38","iscurativefile":"TRUE","zip":"93257","openeddate":"8/31/2012 0:00","referringcustomerfilenumber":"L120KMF","outofstatestatus":"Not Applicable","task completed date":"10/4/2012","region":"Central California","countyname":"Tulare","closeddate":"10/25/2012 0:00","isclosed":"FALSE","geo_score":0.488,"id":"a9hs85hlmr3d","filenumber":"493508","filetransactiontype":"Title &amp; Escrow","escrowofficername":"Judy Loflin","titleunit":"CA CPU Title-Kevin","referringcustomer":"FNMA","primarycurativetech":"Rose Digdigan","contract in task":"Contract In Tasks","secondarycurativetech":"Anthony Martinez","branchoffice":"Porterville","isescalated":"FALSE","address":"2487 Cricklewood Court","propertyaddressline2":null,"filenotes":"Created by: Rebecca Kepple","geo_precision":"zip","state":"California"},"type":"Feature","geometry":{"type":"Point","coordinates":[-118.975655,36.057452]}},{"properties":{"city":"Fallbrook","createddate":"9/4/2012 11:16","iscurativefile":"TRUE","zip":"92028","openeddate":"9/4/2012 0:00","referringcustomerfilenumber":"L120KX1","outofstatestatus":"Not Applicable","task completed date":"10/15/2012","region":"So. California","countyname":"San Diego","closeddate":"10/31/2012 0:00","isclosed":"FALSE","geo_score":0.902,"id":"a9hs85l4cq15","filenumber":"493738","filetransactiontype":"Title &amp; Escrow","escrowofficername":"Irene Casey","titleunit":"CA CPU Title-Kevin","referringcustomer":"FNMA","primarycurativetech":"Kim Brown","contract in task":"Contract In Tasks","secondarycurativetech":"Paula Finley","branchoffice":"Carlsbad","isescalated":"FALSE","address":"114 Brandenburg Lane","propertyaddressline2":null,"filenotes":"Created by: Rebecca Kepple","geo_precision":"range","state":"California"},"type":"Feature","geometry":{"type":"Point","coordinates":[-117.240166,33.383088]}},{"properties":{"city":"Orange","createddate":"9/4/2012 11:36","iscurativefile":"TRUE","zip":"92869","openeddate":"9/4/2012 0:00","referringcustomerfilenumber":"L120KY1","outofstatestatus":"Not Applicable","task completed date":"10/12/2012","region":"So. California","countyname":"Orange","closeddate":"11/12/2012 0:00","isclosed":"FALSE","geo_score":0.415,"id":"a9hs85k6su2a","filenumber":"493742","filetransactiontype":"Title &amp; Escrow","escrowofficername":"Michelle Huynh","titleunit":"CA CPU Title-Kevin","referringcustomer":"FNMA","primarycurativetech":"Anthony Martinez","contract in task":"Contract In Tasks","secondarycurativetech":"Jenny Martinez","branchoffice":"Irvine","isescalated":"FALSE","address":"5744 East Creekside Avenue #15","propertyaddressline2":null,"filenotes":"Created by: Rebecca Kepple","geo_precision":"street","state":"California"},"type":"Feature","geometry":{"type":"Point","coordinates":[-117.789269,33.79058]}},{"properties":{"city":"Winnetka","createddate":"9/4/2012 13:31","iscurativefile":"TRUE","zip":"91306","openeddate":"9/4/2012 0:00","referringcustomerfilenumber":"L120KRJ","outofstatestatus":"Not Applicable","task completed date":"10/17/2012","region":"Los Angeles - Ventura California","countyname":"Los Angeles","closeddate":"11/23/2012 0:00","isclosed":"FALSE","geo_score":0.415,"id":"a9hs85o0xexu","filenumber":"493801","filetransactiontype":"Title &amp; Escrow","escrowofficername":"Adriana Ponce","titleunit":"CA CPU Title-Kevin","referringcustomer":"FNMA","primarycurativetech":"Rose Digdigan","contract in task":"Contract In Tasks","secondarycurativetech":"Jenny Martinez","branchoffice":"City of Industry","isescalated":"FALSE","address":"20135 Runnymede Street #4","propertyaddressline2":null,"filenotes":"Created by: Rebecca Kepple","geo_precision":"street","state":"California"},"type":"Feature","geometry":{"type":"Point","coordinates":[-118.571725,34.205912]}},{"properties":{"city":"Sacramento","createddate":"9/4/2012 13:34","iscurativefile":"TRUE","zip":"95834","openeddate":"9/4/2012 0:00","referringcustomerfilenumber":"L120KQ1","outofstatestatus":"Not Applicable","task completed date":"10/4/2012","region":"South Northern California","countyname":"Sacramento","closeddate":"11/9/2012 0:00","isclosed":"FALSE","geo_score":0.488,"id":"a9hs85eyelop","filenumber":"493802","filetransactiontype":"Title &amp; Escrow","escrowofficername":"Debbi Johnson (Apodaca)","titleunit":"CA CPU Title-Kevin","referringcustomer":"FNMA","primarycurativetech":"Rose Digdigan","contract in task":"Contract In Tasks","secondarycurativetech":"Anthony Martinez","branchoffice":"Modesto","isescalated":"FALSE","address":"307 Dragonfly Cirlce","propertyaddressline2":null,"filenotes":"Created by: Rebecca Kepple","geo_precision":"zip","state":"California"},"type":"Feature","geometry":{"type":"Point","coordinates":[-121.523566,38.584193]}},{"properties":{"city":"San Diego","createddate":"9/4/2012 13:55","iscurativefile":"TRUE","zip":"92128","openeddate":"9/4/2012 0:00","referringcustomerfilenumber":"L120KX4","outofstatestatus":"Not Applicable","task completed date":"10/10/2012","region":"So. California","countyname":"San Diego","closeddate":"11/8/2012 0:00","isclosed":"FALSE","geo_score":0.415,"id":"a9hs85bimcc4","filenumber":"493811","filetransactiontype":"Title &amp; Escrow","escrowofficername":"Irene Casey","titleunit":"CA CPU Title-Kevin","referringcustomer":"FNMA","primarycurativetech":"Anthony Martinez","contract in task":"Contract In Tasks","secondarycurativetech":"Jenny Martinez","branchoffice":"Carlsbad","isescalated":"FALSE","address":"11865 Caminito Ronaldo #200","propertyaddressline2":null,"filenotes":"Created by: Rebecca Kepple","geo_precision":"street","state":"California"},"type":"Feature","geometry":{"type":"Point","coordinates":[-117.074923,33.033164]}},{"properties":{"city":"Salinas","createddate":"9/5/2012 10:07","iscurativefile":"TRUE","zip":"93905","openeddate":"9/5/2012 0:00","referringcustomerfilenumber":"L120JBS","outofstatestatus":"Not Applicable","task completed date":"10/8/2012","region":"South Northern California","countyname":"Monterey","closeddate":"12/3/2012 0:00","isclosed":"FALSE","geo_score":0.878,"id":"a9hs85li7ukw","filenumber":"01180-6061","filetransactiontype":"Title &amp; Escrow","escrowofficername":"Lupe Sandoval","titleunit":"CA CPU Title-Kevin","referringcustomer":"FNMA","primarycurativetech":"Jenny Martinez","contract in task":"Contract In Tasks","secondarycurativetech":"Kim Brown","branchoffice":"Watsonville","isescalated":"FALSE","address":"1436 Tamarack Way","propertyaddressline2":null,"filenotes":"Created by: Rebecca Kepple\r\n\r\nOld file# 494017","geo_precision":"range","state":"California"},"type":"Feature","geometry":{"type":"Point","coordinates":[-121.60143,36.695158]}},{"properties":{"city":"Roseville","createddate":"9/5/2012 12:53","iscurativefile":"TRUE","zip":"95678","openeddate":"9/5/2012 0:00","referringcustomerfilenumber":"L120KT4","outofstatestatus":"Not Applicable","task completed date":"10/9/2012","region":"South Northern California","countyname":"Placer","closeddate":"10/16/2012 0:00","isclosed":"FALSE","geo_score":0.902,"id":"a9hs85ixbs8n","filenumber":"494108","filetransactiontype":"Title &amp; Escrow","escrowofficername":"Heather Walker","titleunit":"CA CPU Title-Kevin","referringcustomer":"FNMA","primarycurativetech":"Kim Brown","contract in task":"Contract In Tasks","secondarycurativetech":"Paula Finley","branchoffice":"Turlock","isescalated":"FALSE","address":"610 Grider Drive","propertyaddressline2":null,"filenotes":"Created by: Rebecca Kepple","geo_precision":"range","state":"California"},"type":"Feature","geometry":{"type":"Point","coordinates":[-121.277187,38.764996]}},{"properties":{"city":"Stockton","createddate":"9/6/2012 10:02","iscurativefile":"TRUE","zip":"95205","openeddate":"9/6/2012 0:00","referringcustomerfilenumber":"L120L6L","outofstatestatus":"Not Applicable","task completed date":"10/8/2012","region":"South Northern California","countyname":"San Joaquin","closeddate":"10/16/2012 0:00","isclosed":"TRUE","geo_score":0.708,"id":"a9hs85f7lvtm","filenumber":"494354","filetransactiontype":"Title &amp; Escrow","escrowofficername":"Debra Greene","titleunit":"CA CPU Title-Kevin","referringcustomer":"FNMA","primarycurativetech":"Kim Brown","contract in task":"Contract In Tasks","secondarycurativetech":"Paula Finley","branchoffice":"Modesto","isescalated":"FALSE","address":"1327 East Washington Street","propertyaddressline2":null,"filenotes":"Created by: Rebecca Kepple","geo_precision":"street","state":"California"},"type":"Feature","geometry":{"type":"Point","coordinates":[-121.268419,37.954279]}},{"properties":{"city":"Perris","createddate":"9/6/2012 10:04","iscurativefile":"TRUE","zip":"92571","openeddate":"9/6/2012 0:00","referringcustomerfilenumber":"L120L49","outofstatestatus":"Not Applicable","task completed date":"10/22/2012","region":"Inland Empire","countyname":"Riverside","closeddate":"11/28/2012 0:00","isclosed":"FALSE","geo_score":0.62,"id":"a9hs85f1qdmp","filenumber":"494355","filetransactiontype":"Title &amp; Escrow","escrowofficername":"Mary Hudson","titleunit":"CA CPU Title-Kevin","referringcustomer":"FNMA","primarycurativetech":"Paula Finley","contract in task":"Contract In Tasks","secondarycurativetech":"Rose Digdigan","branchoffice":"Riverside","isescalated":"FALSE","address":"3688 Cherisa Street","propertyaddressline2":null,"filenotes":"Created by: Rebecca Kepple","geo_precision":"street","state":"California"},"type":"Feature","geometry":{"type":"Point","coordinates":[-117.480288,34.003875]}},{"properties":{"city":"Sacramento","createddate":"9/6/2012 13:08","iscurativefile":"TRUE","zip":"95826","openeddate":"9/6/2012 0:00","referringcustomerfilenumber":"L120L30","outofstatestatus":"Not Applicable","task completed date":"10/8/2012","region":"South Northern California","countyname":"Sacramento","closeddate":"11/19/2012 0:00","isclosed":"FALSE","geo_score":0.415,"id":"a9hs85gnjh7e","filenumber":"494415","filetransactiontype":"Title &amp; Escrow","escrowofficername":"Diane Oliveira-Medina","titleunit":"CA CPU Title-Kevin","referringcustomer":"FNMA","primarycurativetech":"Jenny Martinez","contract in task":"Contract In Tasks","secondarycurativetech":"Kim Brown","branchoffice":"Turlock","isescalated":"FALSE","address":"9101 Newhall Drive #68","propertyaddressline2":null,"filenotes":"Created by: Rebecca Kepple","geo_precision":"street","state":"California"},"type":"Feature","geometry":{"type":"Point","coordinates":[-121.362859,38.542913]}},{"properties":{"city":"Stockton","createddate":"9/7/2012 9:46","iscurativefile":"TRUE","zip":"95207","openeddate":"9/7/2012 0:00","referringcustomerfilenumber":"L120L5H","outofstatestatus":"Not Applicable","task completed date":"10/1/2012","region":"South Northern California","countyname":"San Joaquin","closeddate":"11/7/2012 0:00","isclosed":"FALSE","geo_score":0.902,"id":"a9hs85fpqr3i","filenumber":"494644","filetransactiontype":"Title &amp; Escrow","escrowofficername":"Holly Weston","titleunit":"CA CPU Title-Kevin","referringcustomer":"FNMA","primarycurativetech":"Rose Digdigan","contract in task":"Contract In Tasks","secondarycurativetech":"Jenny Martinez","branchoffice":"Turlock","isescalated":"FALSE","address":"5402 Covey Creek Circle","propertyaddressline2":null,"filenotes":"Created by: Rebecca Kepple","geo_precision":"range","state":"California"},"type":"Feature","geometry":{"type":"Point","coordinates":[-121.335676,37.991926]}},{"properties":{"city":"Manteca","createddate":"9/7/2012 9:50","iscurativefile":"TRUE","zip":"95337","openeddate":"9/7/2012 0:00","referringcustomerfilenumber":"L120L4K","outofstatestatus":"Not Applicable","task completed date":"10/3/2012","region":"South Northern California","countyname":"San Joaquin","closeddate":"11/8/2012 0:00","isclosed":"FALSE","geo_score":0.902,"id":"a9hs85glxemc","filenumber":"494646","filetransactiontype":"Title &amp; Escrow","escrowofficername":"Denise Fall","titleunit":"CA CPU Title-Kevin","referringcustomer":"FNMA","primarycurativetech":"Anthony Martinez","contract in task":"Contract In Tasks","secondarycurativetech":"Jenny Martinez","branchoffice":"Modesto","isescalated":"FALSE","address":"124 Wawona Street","propertyaddressline2":null,"filenotes":"Created by: Rebecca Kepple","geo_precision":"range","state":"California"},"type":"Feature","geometry":{"type":"Point","coordinates":[-121.216997,37.789248]}},{"properties":{"city":"Stockton","createddate":"9/7/2012 10:51","iscurativefile":"TRUE","zip":"95204","openeddate":"9/7/2012 0:00","referringcustomerfilenumber":"L120L5P","outofstatestatus":"Not Applicable","task completed date":"10/5/2012","region":"South Northern California","countyname":"San Joaquin","closeddate":"10/15/2012 0:00","isclosed":"FALSE","geo_score":0.902,"id":"a9hs85es48p8","filenumber":"494657","filetransactiontype":"Title &amp; Escrow","escrowofficername":"Diane Oliveira-Medina","titleunit":"CA CPU Title-Kevin","referringcustomer":"FNMA","primarycurativetech":"Anthony Martinez","contract in task":"Contract In Tasks","secondarycurativetech":"Rose Digdigan","branchoffice":"Turlock","isescalated":"FALSE","address":"1779 Del Rio Drive","propertyaddressline2":null,"filenotes":"Created by: Rebecca Kepple","geo_precision":"range","state":"California"},"type":"Feature","geometry":{"type":"Point","coordinates":[-121.326804,37.979463]}},{"properties":{"city":"Ontario","createddate":"9/12/2012 13:00","iscurativefile":"TRUE","zip":"91761","openeddate":"9/12/2012 0:00","referringcustomerfilenumber":"L120HNN","outofstatestatus":"Not Applicable","task completed date":"10/9/2012","region":"Inland Empire","countyname":"San Bernardino","closeddate":"11/5/2012 0:00","isclosed":"FALSE","geo_score":0.902,"id":"a9hs85agvi4o","filenumber":"495602","filetransactiontype":"Title &amp; Escrow","escrowofficername":"Patti Black","titleunit":"CA CPU Title-Kevin","referringcustomer":"FNMA","primarycurativetech":"Rose Digdigan","contract in task":"Contract In Tasks","secondarycurativetech":"Kim Brown","branchoffice":"Redlands","isescalated":"FALSE","address":"2925 South Meadowbrook Place","propertyaddressline2":null,"filenotes":"Created by: Rebecca Kepple","geo_precision":"range","state":"California"},"type":"Feature","geometry":{"type":"Point","coordinates":[-117.616939,34.020133]}},{"properties":{"city":"Modesto","createddate":"9/12/2012 13:07","iscurativefile":"TRUE","zip":"95356","openeddate":"9/12/2012 0:00","referringcustomerfilenumber":"L120LKF","outofstatestatus":"Not Applicable","task completed date":"10/10/2012","region":"South Northern California","countyname":"Stanislaus","closeddate":"11/9/2012 0:00","isclosed":"FALSE","geo_score":0.902,"id":"a9hs85kb23je","filenumber":"495605","filetransactiontype":"Title &amp; Escrow","escrowofficername":"Vicki Gardea","titleunit":"CA CPU Title-Kevin","referringcustomer":"FNMA","primarycurativetech":"Jenny Martinez","contract in task":"Contract In Tasks","secondarycurativetech":"Kim Brown","branchoffice":"Modesto","isescalated":"FALSE","address":"3136 Honey Bee Court","propertyaddressline2":null,"filenotes":"Created by: Rebecca Kepple","geo_precision":"range","state":"California"},"type":"Feature","geometry":{"type":"Point","coordinates":[-121.053909,37.699666]}},{"properties":{"city":"Palmdale","createddate":"9/13/2012 10:44","iscurativefile":"TRUE","zip":"93552","openeddate":"9/13/2012 0:00","referringcustomerfilenumber":"L120LQY","outofstatestatus":"Not Applicable","task completed date":"10/1/2012","region":"Los Angeles - Ventura California","countyname":"Los Angeles","closeddate":"11/14/2012 0:00","isclosed":"FALSE","geo_score":0.902,"id":"a9hs85ny1w3i","filenumber":"495805","filetransactiontype":"Title &amp; Escrow","escrowofficername":"Adriana Ponce","titleunit":"CA CPU Title-Kevin","referringcustomer":"FNMA","primarycurativetech":"Rose Digdigan","contract in task":"Contract In Tasks","secondarycurativetech":"Anthony Martinez","branchoffice":"City of Industry","isescalated":"FALSE","address":"38022 Ranier Drive","propertyaddressline2":null,"filenotes":"Created by: Rebecca Kepple","geo_precision":"range","state":"California"},"type":"Feature","geometry":{"type":"Point","coordinates":[-118.032178,34.573278]}},{"properties":{"city":"Redding","createddate":"9/13/2012 10:51","iscurativefile":"TRUE","zip":"96002","openeddate":"9/13/2012 0:00","referringcustomerfilenumber":"L120LJX","outofstatestatus":"Not Applicable","task completed date":"10/19/2012","region":"#N/A","countyname":"Shasta","closeddate":"12/21/2012 0:00","isclosed":"FALSE","geo_score":0.488,"id":"a9hs85kxcg9t","filenumber":"495808","filetransactiontype":"Title &amp; Escrow","escrowofficername":"Non-Stewart","titleunit":"CA CPU Title-Kevin","referringcustomer":"FNMA","primarycurativetech":"Kim Brown","contract in task":"Contract In Tasks","secondarycurativetech":"Paula Finley","branchoffice":"Non_Stewart","isescalated":"FALSE","address":"3397 Heritagetown Drive","propertyaddressline2":null,"filenotes":"Created by: Rebecca Kepple\r\n\r\nBUYERS CHOICE IS FIRST AMERICAN TITLE CO.","geo_precision":"zip","state":"California"},"type":"Feature","geometry":{"type":"Point","coordinates":[-122.3076,40.624448]}},{"properties":{"city":"Stockton","createddate":"9/13/2012 14:36","iscurativefile":"TRUE","zip":"95205","openeddate":"9/13/2012 0:00","referringcustomerfilenumber":"L120L3G","outofstatestatus":"Not Applicable","task completed date":"10/10/2012","region":"South Northern California","countyname":"San Joaquin","closeddate":"10/26/2012 0:00","isclosed":"FALSE","geo_score":0.857,"id":"a9hs85kdau5y","filenumber":"494656","filetransactiontype":"Title &amp; Escrow","escrowofficername":"Holly Weston","titleunit":"CA CPU Title-Kevin","referringcustomer":"FNMA","primarycurativetech":"Jenny Martinez","contract in task":"Contract In Tasks","secondarycurativetech":"Kim Brown","branchoffice":"Turlock","isescalated":"FALSE","address":"2828 Redwood Ave","propertyaddressline2":null,"filenotes":null,"geo_precision":"range","state":"California"},"type":"Feature","geometry":{"type":"Point","coordinates":[-121.26565,37.984918]}},{"properties":{"city":"Murrieta","createddate":"9/14/2012 9:49","iscurativefile":"TRUE","zip":"92562","openeddate":"9/14/2012 0:00","referringcustomerfilenumber":"L120LV1","outofstatestatus":"Not Applicable","task completed date":"10/22/2012","region":"Inland Empire","countyname":"Riverside","closeddate":"12/10/2012 0:00","isclosed":"FALSE","geo_score":0.902,"id":"a9hs859n9xnv","filenumber":"496123","filetransactiontype":"Title &amp; Escrow","escrowofficername":"Nyna Ensign","titleunit":"CA CPU Title-Kevin","referringcustomer":"FNMA","primarycurativetech":"Jenny Martinez","contract in task":"Contract In Tasks","secondarycurativetech":"Kim Brown","branchoffice":"Riverside","isescalated":"FALSE","address":"39599 Del Val Drive","propertyaddressline2":null,"filenotes":"Created by: Rebecca Kepple","geo_precision":"range","state":"California"},"type":"Feature","geometry":{"type":"Point","coordinates":[-117.191113,33.584569]}},{"properties":{"city":"Mountain Center","createddate":"9/17/2012 9:46","iscurativefile":"TRUE","zip":"92561","openeddate":"9/17/2012 0:00","referringcustomerfilenumber":"L120LXP","outofstatestatus":"Not Applicable","task completed date":"10/19/2012","region":"Inland Empire","countyname":"Riverside","closeddate":"10/26/2012 0:00","isclosed":"FALSE","geo_score":0.805,"id":"a9hs85frwmw0","filenumber":"496449","filetransactiontype":"Title &amp; Escrow","escrowofficername":"Nyna Ensign","titleunit":"CA CPU Title-Kevin","referringcustomer":"FNMA","primarycurativetech":"Jenny Martinez","contract in task":"Contract In Tasks","secondarycurativetech":"Kim Brown","branchoffice":"Riverside","isescalated":"FALSE","address":"63345 Pozo Drive","propertyaddressline2":null,"filenotes":"Created by: Rebecca Kepple","geo_precision":"street","state":"California"},"type":"Feature","geometry":{"type":"Point","coordinates":[-116.460274,33.590855]}},{"properties":{"city":"San Jacinto","createddate":"9/17/2012 9:52","iscurativefile":"TRUE","zip":"92582","openeddate":"9/17/2012 0:00","referringcustomerfilenumber":"L120LSY","outofstatestatus":"Not Applicable","task completed date":"10/16/2012","region":"Inland Empire","countyname":"Riverside","closeddate":"11/20/2012 0:00","isclosed":"FALSE","geo_score":0.659,"id":"a9hs85i9cptg","filenumber":"496452","filetransactiontype":"Title &amp; Escrow","escrowofficername":"Nyna Ensign","titleunit":"CA CPU Title-Kevin","referringcustomer":"FNMA","primarycurativetech":"Rose Digdigan","contract in task":"Contract In Tasks","secondarycurativetech":"Anthony Martinez","branchoffice":"Riverside","isescalated":"FALSE","address":"662 White Oak Street","propertyaddressline2":null,"filenotes":"Created by: Rebecca Kepple","geo_precision":"street","state":"California"},"type":"Feature","geometry":{"type":"Point","coordinates":[-117.466153,33.904505]}},{"properties":{"city":"Hemet","createddate":"9/18/2012 14:02","iscurativefile":"TRUE","zip":"92544","openeddate":"9/18/2012 0:00","referringcustomerfilenumber":"L120KYC","outofstatestatus":"Not Applicable","task completed date":"10/18/2012","region":"Inland Empire","countyname":"Riverside","closeddate":"12/10/2012 0:00","isclosed":"FALSE","geo_score":0.707,"id":"a9hs85nfh2mv","filenumber":"496872","filetransactiontype":"Title &amp; Escrow","escrowofficername":"Nyna Ensign","titleunit":"CA CPU Title-Kevin","referringcustomer":"FNMA","primarycurativetech":"Paula Finley","contract in task":"Contract In Tasks","secondarycurativetech":"Rose Digdigan","branchoffice":"Riverside","isescalated":"FALSE","address":"26731 Yale Street","propertyaddressline2":null,"filenotes":"Created by: Rebecca Kepple","geo_precision":"street","state":"California"},"type":"Feature","geometry":{"type":"Point","coordinates":[-116.949919,33.758134]}},{"properties":{"city":"Sacramento","createddate":"9/20/2012 10:21","iscurativefile":"TRUE","zip":"95835","openeddate":"9/20/2012 0:00","referringcustomerfilenumber":"L120M4G","outofstatestatus":"Not Applicable","task completed date":"10/16/2012","region":"South Northern California","countyname":"Sacramento","closeddate":"11/16/2012 0:00","isclosed":"FALSE","geo_score":0.74,"id":"a9hs85l2pfbm","filenumber":"497360","filetransactiontype":"Title &amp; Escrow","escrowofficername":"Vicki Gardea","titleunit":"CA CPU Title-Kevin","referringcustomer":"FNMA","primarycurativetech":"Jenny Martinez","contract in task":"Contract In Tasks","secondarycurativetech":"Kim Brown","branchoffice":"Modesto","isescalated":"FALSE","address":"1707 Vosspark Way","propertyaddressline2":null,"filenotes":null,"geo_precision":"street","state":"California"},"type":"Feature","geometry":{"type":"Point","coordinates":[-121.497479,38.684086]}},{"properties":{"city":"Petaluma","createddate":"9/20/2012 10:26","iscurativefile":"TRUE","zip":"94952","openeddate":"9/20/2012 0:00","referringcustomerfilenumber":"L120M7V","outofstatestatus":"Not Applicable","task completed date":"10/15/2012","region":"North Northern California","countyname":"Sonoma","closeddate":"11/8/2012 0:00","isclosed":"FALSE","geo_score":0.902,"id":"a9hs85gv83fp","filenumber":"497362","filetransactiontype":"Title &amp; Escrow","escrowofficername":"Patti Billing","titleunit":"CA CPU Title-Kevin","referringcustomer":"FNMA","primarycurativetech":"Paula Finley","contract in task":"Contract In Tasks","secondarycurativetech":"Rose Digdigan","branchoffice":"Santa Rosa","isescalated":"FALSE","address":"47 Acorn Circle","propertyaddressline2":null,"filenotes":null,"geo_precision":"range","state":"California"},"type":"Feature","geometry":{"type":"Point","coordinates":[-122.648385,38.249709]}},{"properties":{"city":"Modesto","createddate":"9/21/2012 10:05","iscurativefile":"TRUE","zip":"95356","openeddate":"9/21/2012 0:00","referringcustomerfilenumber":"L120L05","outofstatestatus":"Not Applicable","task completed date":"10/18/2012","region":"South Northern California","countyname":"Stanislaus","closeddate":"12/11/2012 0:00","isclosed":"FALSE","geo_score":0.902,"id":"a9hs85fjxa50","filenumber":"497623","filetransactiontype":"Title &amp; Escrow","escrowofficername":"Diane Oliveira-Medina","titleunit":"CA CPU Title-Kevin","referringcustomer":"FNMA","primarycurativetech":"Kim Brown","contract in task":"Contract In Tasks","secondarycurativetech":"Paula Finley","branchoffice":"Turlock","isescalated":"FALSE","address":"4100 Ristau Court","propertyaddressline2":null,"filenotes":"Created by: Rebecca Kepple","geo_precision":"range","state":"California"},"type":"Feature","geometry":{"type":"Point","coordinates":[-121.004965,37.697547]}},{"properties":{"city":"Modesto","createddate":"9/25/2012 13:51","iscurativefile":"TRUE","zip":"95355","openeddate":"9/25/2012 0:00","referringcustomerfilenumber":"L120G50","outofstatestatus":"Not Applicable","task completed date":"10/19/2012","region":"South Northern California","countyname":"Stanislaus","closeddate":"12/7/2012 0:00","isclosed":"FALSE","geo_score":0.634,"id":"a9hs85a32ms3","filenumber":"498369","filetransactiontype":"Title &amp; Escrow","escrowofficername":"Vicki Gardea","titleunit":"CA CPU Title-Kevin","referringcustomer":"FNMA","primarycurativetech":"Anthony Martinez","contract in task":"Contract In Tasks","secondarycurativetech":"Jenny Martinez","branchoffice":"Modesto","isescalated":"FALSE","address":"3024 Caden Drive","propertyaddressline2":null,"filenotes":"Created by: Rebecca Kepple","geo_precision":"street","state":"California"},"type":"Feature","geometry":{"type":"Point","coordinates":[-121.024823,37.306048]}},{"properties":{"city":"Sanger","createddate":"9/27/2012 12:47","iscurativefile":"TRUE","zip":"93657","openeddate":"9/27/2012 0:00","referringcustomerfilenumber":"L120MMC","outofstatestatus":"Not Applicable","task completed date":"10/17/2012","region":"Central California","countyname":"Fresno","closeddate":"10/9/2012 0:00","isclosed":"FALSE","geo_score":0.624,"id":"a9hs85bnsm9i","filenumber":"499057","filetransactiontype":"Title &amp; Escrow","escrowofficername":"Claudia Froelich","titleunit":"CA CPU Title-Kevin","referringcustomer":"FNMA","primarycurativetech":"Rose Digdigan","contract in task":"Contract In Tasks","secondarycurativetech":"Anthony Martinez","branchoffice":"Fresno","isescalated":"FALSE","address":"2673 14th Street","propertyaddressline2":null,"filenotes":"Created by: Rebecca Kepple","geo_precision":"street","state":"California"},"type":"Feature","geometry":{"type":"Point","coordinates":[-119.56438,36.696982]}},{"properties":{"city":"Apple Valley","createddate":"9/27/2012 13:26","iscurativefile":"TRUE","zip":"92307","openeddate":"9/27/2012 0:00","referringcustomerfilenumber":"L120MJP","outofstatestatus":"Not Applicable","task completed date":"10/22/2012","region":"Inland Empire","countyname":"San Bernardino","closeddate":"11/30/2012 0:00","isclosed":"FALSE","geo_score":0.712,"id":"a9hs85fyfeyc","filenumber":"499083","filetransactiontype":"Title &amp; Escrow","escrowofficername":"Diana Price","titleunit":"CA CPU Title-Kevin","referringcustomer":"FNMA","primarycurativetech":"Paula Finley","contract in task":"Contract In Tasks","secondarycurativetech":"Rose Digdigan","branchoffice":"Victorville","isescalated":"FALSE","address":"16158 Maricopa Lane","propertyaddressline2":null,"filenotes":"Created by: Rebecca Kepple","geo_precision":"street","state":"California"},"type":"Feature","geometry":{"type":"Point","coordinates":[-117.274315,34.545352]}},{"properties":{"city":"Visalia","createddate":"10/1/2012 11:23","iscurativefile":"TRUE","zip":"93292","openeddate":"10/1/2012 0:00","referringcustomerfilenumber":"L120ML9","outofstatestatus":"Not Applicable","task completed date":"10/19/2012","region":"Central California","countyname":"Tulare","closeddate":"11/21/2012 0:00","isclosed":"FALSE","geo_score":0.707,"id":"a9hs85cdbard","filenumber":"01180-1013","filetransactiontype":"Title &amp; Escrow","escrowofficername":"Karen Sigda","titleunit":"CA CPU Title-Kevin","referringcustomer":"FNMA","primarycurativetech":"Rose Digdigan","contract in task":"Contract In Tasks","secondarycurativetech":"Anthony Martinez","branchoffice":"Visalia","isescalated":"FALSE","address":"3035 South Maple Street","propertyaddressline2":null,"filenotes":"Created by: Rebecca Kepple","geo_precision":"street","state":"California"},"type":"Feature","geometry":{"type":"Point","coordinates":[-119.262609,36.319655]}},{"properties":{"city":"Olivehurst","createddate":"10/1/2012 11:46","iscurativefile":"TRUE","zip":"95961","openeddate":"10/1/2012 0:00","referringcustomerfilenumber":"L120MPD","outofstatestatus":"Not Applicable","task completed date":"10/12/2012","region":"South Northern California","countyname":"Yuba","closeddate":"11/15/2012 0:00","isclosed":"FALSE","geo_score":0.574,"id":"a9hs85fyjwhi","filenumber":"01180-1018","filetransactiontype":"Title &amp; Escrow","escrowofficername":"Vicki Gardea","titleunit":"CA CPU Title-Kevin","referringcustomer":"FNMA","primarycurativetech":"Rose Digdigan","contract in task":"Contract In Tasks","secondarycurativetech":"Anthony Martinez","branchoffice":"Modesto","isescalated":"FALSE","address":"4381 Sundari Avenue","propertyaddressline2":null,"filenotes":"Created by: Rebecca Kepple","geo_precision":"street","state":"California"},"type":"Feature","geometry":{"type":"Point","coordinates":[-121.643574,39.338211]}},{"properties":{"city":"Desert Hot Springs","createddate":"10/2/2012 10:04","iscurativefile":"TRUE","zip":"92240","openeddate":"10/2/2012 0:00","referringcustomerfilenumber":"L120N3L","outofstatestatus":"Not Applicable","task completed date":"10/15/2012","region":"Inland Empire","countyname":"Riverside","closeddate":"10/22/2012 0:00","isclosed":"FALSE","geo_score":0.681,"id":"a9hs85newjzp","filenumber":"01180-1306","filetransactiontype":"Title &amp; Escrow","escrowofficername":"Cindy (Cynthia) Solomon (Goodgion)","titleunit":"CA CPU Title-Kevin","referringcustomer":"FNMA","primarycurativetech":"Paula Finley","contract in task":"Contract In Tasks","secondarycurativetech":"Anthony Martinez","branchoffice":"Palm Desert","isescalated":"FALSE","address":"16191 Via Corto West","propertyaddressline2":null,"filenotes":"Created by: Rebecca Kepple","geo_precision":"street","state":"California"},"type":"Feature","geometry":{"type":"Point","coordinates":[-116.498906,33.928619]}},{"properties":{"city":"Bakersfield","createddate":"10/8/2012 14:32","iscurativefile":"FALSE","zip":"93309","openeddate":"10/8/2012 0:00","referringcustomerfilenumber":"L1206QZ","outofstatestatus":"Not Applicable","task completed date":"10/8/2012","region":"#N/A","countyname":"Kern","closeddate":"10/10/2012 0:00","isclosed":"FALSE","geo_score":0.902,"id":"a9hs85ip9awr","filenumber":"495401","filetransactiontype":"Title &amp; Escrow","escrowofficername":"Not Applicable","titleunit":"CA CPU Title-Kevin","referringcustomer":"FNMA","primarycurativetech":"Anthony Martinez","contract in task":"Contract In Tasks","secondarycurativetech":"Paula Finley","branchoffice":"Not Applicable","isescalated":"FALSE","address":"5309 New Grove Avenue","propertyaddressline2":null,"filenotes":null,"geo_precision":"range","state":"California"},"type":"Feature","geometry":{"type":"Point","coordinates":[-119.062438,35.326735]}}],"is_temporal":false,"author":{"url":"","metadata":"","contact_name":"","contact_address":"","source":"","contact_phone":""},"source":"","pagination":{"sort":null,"start":0,"total":147,"limit":1000000},"state":"complete","tags":"stca","published":"2014-08-14T22:30:04-04:00","id":285853}