{"type":"FeatureCollection","data_type":"Dataset","url_type":null,"permissions":[{"permissions":{"download":true,"view":true},"group_id":"everyone"}],"classification":null,"title":"Pay_day_loans","count":34,"stream_id":286589,"contributor":{"url":"http://geocommons.com/users/30541","name":"lallen"},"data_attributes":null,"calculation_params":null,"icon_link":null,"link":"http://geocommons.com/overlays/286589.json","extent":[-75.2413,-75.1319,-75.1319,40.0257],"geometry_types":["point"],"unique_name":null,"name":"Pay_day_loans","feature_count":34,"description":"","next_feature":null,"is_raster":false,"short_classification":"Y","stats":{"latitude":{"max":40.025748,"variance":827.943755927103,"mean":32.7705963125,"stdev":28.7740118149538,"min":-75.131907,"median":39.959625},"longitude":{"max":-75.131907,"variance":0.00174196233106241,"mean":-75.1860495625,"stdev":0.0417368222444212,"min":-75.241297,"median":-75.165739}},"features":[{"properties":{"name":"ACE Cash Express","city":"Philadelphia","latitude":-75.131907,"zip code":null,"longitude":-75.131907,"id":"a9jnsocttd13","address":"2401 Kensington Avenue","state":"PA"},"type":"Feature","geometry":{"type":"Point","coordinates":[-75.131907,-75.131907]}},{"properties":{"name":"ACE Cash Express","city":"Philadelphia","latitude":40.025748,"zip code":"19144","longitude":-75.168338,"id":"a9jnsogovi3s","address":"5045 Wayne Ave","state":"PA"},"type":"Feature","geometry":{"type":"Point","coordinates":[-75.168338,40.025748]}},{"properties":{"name":"United Check Cashing","city":"Philadelphia","latitude":39.960938,"zip code":"19123","longitude":-75.144996,"id":"a9jnsobnknn0","address":"400 Spring Garden Street","state":"PA"},"type":"Feature","geometry":{"type":"Point","coordinates":[-75.144996,39.960938]}},{"properties":{"name":"Money Mart","city":"Philadelphia","latitude":39.993106,"zip code":"19132","longitude":-75.154778,"id":"a9jnsonnvtvp","address":"2628 North Broad Street","state":"PA"},"type":"Feature","geometry":{"type":"Point","coordinates":[-75.154778,39.993106]}},{"properties":{"name":"ACE Cash Express","city":"Philadelphia","latitude":39.928412,"zip code":"19142","longitude":-75.230296,"id":"a9jnsoa3b8be","address":"6137 Woodland Avenue","state":"PA"},"type":"Feature","geometry":{"type":"Point","coordinates":[-75.230296,39.928412]}},{"properties":{"name":"United Check Cashing","city":"Philadelphia","latitude":39.941082,"zip code":"19147","longitude":-75.144911,"id":"a9jnsoibdjt1","address":"115 South Street","state":"PA"},"type":"Feature","geometry":{"type":"Point","coordinates":[-75.144911,39.941082]}},{"properties":{"name":"United Check Cashing","city":"Philadelphia","latitude":39.950181,"zip code":"19106","longitude":-75.145711,"id":"a9jnsol9d98l","address":"303 Market St","state":"PA"},"type":"Feature","geometry":{"type":"Point","coordinates":[-75.145711,39.950181]}},{"properties":{"name":"ACE Cash Express","city":"Philadelphia","latitude":39.971613,"zip code":"19131","longitude":-75.225875,"id":"a9jnsokknw47","address":"1206 North 52nd Street","state":"PA"},"type":"Feature","geometry":{"type":"Point","coordinates":[-75.225875,39.971613]}},{"properties":{"name":"Money Mart","city":"Philadelphia","latitude":39.951388,"zip code":"19107","longitude":-75.155641,"id":"a9jnsoaalkh2","address":"930 Market Street","state":"PA"},"type":"Feature","geometry":{"type":"Point","coordinates":[-75.155641,39.951388]}},{"properties":{"name":"Fast Cash Inc","city":"Philadelphia","latitude":39.943683,"zip code":"1946","longitude":-75.165739,"id":"a9jnsohzwgol","address":"1410 South St","state":"PA"},"type":"Feature","geometry":{"type":"Point","coordinates":[-75.165739,39.943683]}},{"properties":{"name":"ACE Cash Express","city":"Philadelphia","latitude":39.959625,"zip code":"19139","longitude":-75.224953,"id":"a9jnsof21tnm","address":"6 S 52nd St, Philadelphia","state":"PA"},"type":"Feature","geometry":{"type":"Point","coordinates":[-75.224953,39.959625]}},{"properties":{"name":"ACE Cash Express","city":"Philadelphia","latitude":39.960132,"zip code":"19139","longitude":-75.224842,"id":"a9jnsohakrkt","address":"8 N 52nd St","state":"PA"},"type":"Feature","geometry":{"type":"Point","coordinates":[-75.224842,39.960132]}},{"properties":{"name":"ACE Cash Express","city":"Philadelphia","latitude":39.947248,"zip code":"19143","longitude":-75.226833,"id":"a9jnsokr23tj","address":"738 S 52nd St","state":"PA"},"type":"Feature","geometry":{"type":"Point","coordinates":[-75.226833,39.947248]}},{"properties":{"name":"ACE Cash Express","city":"Philadelphia","latitude":40.006612,"zip code":"19140","longitude":-75.149984,"id":"a9jnsoxyshqd","address":"3544 Germantown Ave","state":"PA"},"type":"Feature","geometry":{"type":"Point","coordinates":[-75.149984,40.006612]}},{"properties":{"name":"ACE Cash Express","city":"Philadelphia","latitude":39.962288,"zip code":"19139","longitude":-75.240692,"id":"a9jnsp3pekuo","address":"22 N 60th St","state":"PA"},"type":"Feature","geometry":{"type":"Point","coordinates":[-75.240692,39.962288]}},{"properties":{"name":"ACE Cash Express","city":"Philadelphia","latitude":39.959392,"zip code":"19139","longitude":-75.241297,"id":"a9jnsp0828ql","address":"157 S 60th St","state":"PA"},"type":"Feature","geometry":{"type":"Point","coordinates":[-75.241297,39.959392]}},{"properties":{"name":"A &amp; T Check Cashing","city":"Philadelphia","latitude":null,"zip code":"19120","longitude":null,"id":"a9jnsop883tb","address":"5300 Tabor Ave","state":"PA"},"type":"Feature","geometry":null},{"properties":{"name":"ACE Cash Express","city":"Philadelphia","latitude":null,"zip code":"19121","longitude":null,"id":"a9jnsorg1ajt","address":"2129 W Diamond St","state":"PA"},"type":"Feature","geometry":null},{"properties":{"name":"ACE Cash Express","city":"Philadelphia","latitude":null,"zip code":"19139","longitude":null,"id":"a9jnsoox3td3","address":"157 S 60th St","state":"PA"},"type":"Feature","geometry":null},{"properties":{"name":"ACE Cash Express","city":"Philadelphia","latitude":null,"zip code":"19144","longitude":null,"id":"a9jnsopcxmv4","address":"5045 Wayne Ave","state":"PA"},"type":"Feature","geometry":null},{"properties":{"name":"ACE Cash Express","city":"Philadelphia","latitude":null,"zip code":"19120","longitude":null,"id":"a9jnsozohmoc","address":"5450 N 5th St, Philadelphia","state":"PA"},"type":"Feature","geometry":null},{"properties":{"name":"ACE Cash Express","city":"Philadelphia","latitude":null,"zip code":"19141","longitude":null,"id":"a9jnsov1yobb","address":"1349 W Olney Ave","state":"PA"},"type":"Feature","geometry":null},{"properties":{"name":"ACE Cash Express","city":"Philadelphia","latitude":null,"zip code":null,"longitude":null,"id":"a9jnsou5nkxj","address":"2840 W Girard Ave","state":"PA"},"type":"Feature","geometry":null},{"properties":{"name":"ACE Cash Express","city":"Philadelphia","latitude":null,"zip code":"19138","longitude":null,"id":"a9jnsovl19u5","address":"6303 Stenton AVE","state":"PA"},"type":"Feature","geometry":null},{"properties":{"name":"ACE Cash Express","city":"Philadelphia","latitude":null,"zip code":"19150","longitude":null,"id":"a9jnsovv1aix","address":"1503 E Wadsworth Ave","state":"PA"},"type":"Feature","geometry":null},{"properties":{"name":"Afpm Lender Lp","city":"Philadelphia","latitude":null,"zip code":"19104","longitude":null,"id":"a9jnsozaimjr","address":"2929 Arch St","state":"PA"},"type":"Feature","geometry":null},{"properties":{"name":"Fash Cash ATM","city":"Philadelphia","latitude":null,"zip code":"19107","longitude":null,"id":"a9jnsowpgjgo","address":"118 Chestnut St","state":"PA"},"type":"Feature","geometry":null},{"properties":{"name":"Fast Cash Inc","city":"Philadelphia","latitude":null,"zip code":"19144","longitude":null,"id":"a9jnsoy79svt","address":"457 E Washington Ln","state":"PA"},"type":"Feature","geometry":null},{"properties":{"name":"Fast Cash Inc","city":"Philadelphia","latitude":null,"zip code":"19146","longitude":null,"id":"a9jnsoz19b27","address":"1410 South St","state":"PA"},"type":"Feature","geometry":null},{"properties":{"name":"Fast Cash Inc","city":"Philadelphia","latitude":null,"zip code":"19132","longitude":null,"id":"a9jnsoul8cax","address":"2339 W Somerset St","state":"PA"},"type":"Feature","geometry":null},{"properties":{"name":"Fast Cash Inc","city":"Philadelphia","latitude":null,"zip code":"19132","longitude":null,"id":"a9jnsp3j5gj2","address":"2452 W Toronto St","state":"PA"},"type":"Feature","geometry":null},{"properties":{"name":"Fast Cash Inc","city":"Philadelphia","latitude":null,"zip code":"19120","longitude":null,"id":"a9jnsoqanwzl","address":"400 W Spencer St","state":"PA"},"type":"Feature","geometry":null},{"properties":{"name":"Jolley's Money Loan","city":"Philadelphia","latitude":null,"zip code":"19142","longitude":null,"id":"a9jnsounrslx","address":"6214 Woodland Ave","state":"PA"},"type":"Feature","geometry":null},{"properties":{"name":"Lam Cash Service and More Inc","city":"Philadelphia","latitude":null,"zip code":"19134","longitude":null,"id":"a9jnsorrlii8","address":"3125 Frankford Ave","state":"PA"},"type":"Feature","geometry":null}],"is_temporal":false,"author":{"url":"","metadata":null,"contact_name":null,"contact_address":null,"source":null,"contact_phone":null},"source":"","pagination":{"sort":null,"start":0,"total":34,"limit":1000000},"state":"complete","tags":"","published":"2014-08-14T23:25:53-04:00","id":286589}