{"type":"FeatureCollection","data_type":"Dataset","url_type":null,"permissions":[{"permissions":{"download":true,"view":true},"group_id":"everyone"}],"classification":null,"title":"Rachel's BackSack Excel Sheet 10/25/12 2","count":183,"stream_id":286813,"contributor":{"url":"http://geocommons.com/users/32393","name":"eoliver88"},"data_attributes":null,"calculation_params":null,"icon_link":null,"link":"http://geocommons.com/overlays/286813.json","extent":[-86.8174,38.7116,-84.8737,40.1531],"geometry_types":["point"],"unique_name":null,"name":"Rachel's BackSack Excel Sheet 10/25/12 2","feature_count":183,"description":"","next_feature":null,"is_raster":false,"short_classification":"Y","stats":{"2012-2013 backsack projection":{"max":7932,"variance":340535.918933525,"mean":86.6885245901639,"stdev":583.554555233292,"min":4,"median":41},"2011-2012 backsack allocation":{"max":7056,"variance":271399.167020824,"mean":77.5384615384615,"stdev":520.959851640052,"min":0,"median":40}},"features":[{"properties":{"city":"Columbus","site coordinator":"Jan Luken","site coordinator email":"jluken2stpeters-columbus.org","township":"Bartholomew Consolidated School Corporation (Private)","county":"Bartholomew","2012-2013 backsack projection":8,"geo_score":0.902,"zip code":"47201","2012-2013 backsack allocation":"8","principal":"Scott Schumacher","id":"a9kb72erymdl","school":"St. Peter's Lutheran","address":"719 5th Street","phone number":"812-372-5266","geo_precision":"range","state":"IN","principal email":"sschumacher@stpeters-columbus.org","2011-2012 backsack allocation":9,"community partner":null},"type":"Feature","geometry":{"type":"Point","coordinates":[-85.91491,39.203608]}},{"properties":{"city":"Columbus","site coordinator":"Jeannie Newell","site coordinator email":"newellj@bcsc.k12.in.us","township":"Bartholomew Consolidated School Corporation","county":"Bartholomew","2012-2013 backsack projection":33,"geo_score":1.0,"zip code":"47201","2012-2013 backsack allocation":"19","principal":"Joel Metzler","id":"a9kb726tvonv","school":"Southside Elementary","address":"1320 West 200 South","phone number":"812-376-4423","geo_precision":"range","state":"IN","principal email":"metzlerj@bcsc.k12.in.us","2011-2012 backsack allocation":0,"community partner":null},"type":"Feature","geometry":{"type":"Point","coordinates":[-85.938207,39.171427]}},{"properties":{"city":"Columbus","site coordinator":"Jay Hood","site coordinator email":"hoodp@bcsc.k12.in.us","township":"Bartholomew Consolidated School Corporation","county":"Bartholomew","2012-2013 backsack projection":20,"geo_score":0.902,"zip code":"47201","2012-2013 backsack allocation":"20","principal":"Chad Phillips","id":"a9kb72eg0qv2","school":"CSA-Lincoln","address":"750 5th Street","phone number":"812-376-4447","geo_precision":"range","state":"IN","principal email":"phillipsc@bcsc.k12.in.us","2011-2012 backsack allocation":0,"community partner":"Cummins CMEP"},"type":"Feature","geometry":{"type":"Point","coordinates":[-85.91569,39.203733]}},{"properties":{"city":"Columbus","site coordinator":"Kim Speaker","site coordinator email":"speakerk@bcsc.k12.in.us","township":"Bartholomew Consolidated School Corporation","county":"Bartholomew","2012-2013 backsack projection":26,"geo_score":0.865,"zip code":"47201","2012-2013 backsack allocation":"22","principal":"Jeff Backmeyer","id":"a9kb72bvggdx","school":"Mt. Healthy Elementary","address":"12150 S SR 58","phone number":"812-342-2463","geo_precision":"range","state":"IN","principal email":"backmeyerj@bcsc.k12.in.us","2011-2012 backsack allocation":24,"community partner":"Cummins FSP"},"type":"Feature","geometry":{"type":"Point","coordinates":[-86.033936,39.090789]}},{"properties":{"city":"Columbus","site coordinator":"P. Jay Hood","site coordinator email":"hoodp@bcsc.k12.in.us","township":"Bartholomew Consolidated School Corporation","county":"Bartholomew","2012-2013 backsack projection":24,"geo_score":1.0,"zip code":"47201","2012-2013 backsack allocation":"25","principal":"Diane Clancy","id":"a9kb72lzi10d","school":"CSA-Fodrea","address":"2775 Illinois Street","phone number":"812-376-4231","geo_precision":"range","state":"IN","principal email":"clancyd@bcsc.k12.in.us","2011-2012 backsack allocation":0,"community partner":"Cummins CMEP"},"type":"Feature","geometry":{"type":"Point","coordinates":[-85.892405,39.195747]}},{"properties":{"city":"Columbus","site coordinator":"Shannon Clulow","site coordinator email":"slclulow@live.com","township":"Bartholomew Consolidated School Corporation","county":"Bartholomew","2012-2013 backsack projection":43,"geo_score":1.0,"zip code":"47203","2012-2013 backsack allocation":"34","principal":"Christopher Smith","id":"a9kb7271oztq","school":"Parkside Elementary School","address":"1400 Parkside Drive","phone number":"812-376-4314","geo_precision":"range","state":"IN","principal email":"smithch@bcsc.k12.in.us","2011-2012 backsack allocation":0,"community partner":"Cummins CMEP"},"type":"Feature","geometry":{"type":"Point","coordinates":[-85.911893,39.240887]}},{"properties":{"city":"Hope","site coordinator":"Lisa Smith","site coordinator email":"lsmith@flatrock.k12.in.us","township":"Flat Rock","county":"Bartholomew","2012-2013 backsack projection":38,"geo_score":0.806,"zip code":"47246","2012-2013 backsack allocation":"38","principal":"Lisa Smith","id":"a9kb72ecu57p","school":"Hope Elementary","address":"9575 N State Road 9","phone number":"812-546-5001","geo_precision":"street","state":"IN","principal email":"lsmith@flatrock.k12.in.us","2011-2012 backsack allocation":43,"community partner":"Cummins FSP"},"type":"Feature","geometry":{"type":"Point","coordinates":[-85.771422,39.298597]}},{"properties":{"city":"Columbus","site coordinator":"Brelyn Critzer","site coordinator email":"critzerb@bcsc.k12.in.us","township":"Bartholomew Consolidated School Corporation","county":"Bartholomew","2012-2013 backsack projection":35,"geo_score":1.0,"zip code":"47203","2012-2013 backsack allocation":"38","principal":"Darin Sprong","id":"a9kb72ijbc3z","school":"W. D. Richards Elementary","address":"3311 Fairlawn Drive","phone number":"812-376-4311 x1103","geo_precision":"range","state":"IN","principal email":"sprongd@bcsc.k12.in.us","2011-2012 backsack allocation":50,"community partner":"Cummins FSP"},"type":"Feature","geometry":{"type":"Point","coordinates":[-85.871525,39.232509]}},{"properties":{"city":"Columbus","site coordinator":"Jennifer Cooper","site coordinator email":"cooperj@bcsc.k12.in.us","township":"Bartholomew Consolidated School Corporation","county":"Bartholomew","2012-2013 backsack projection":45,"geo_score":1.0,"zip code":"47203","2012-2013 backsack allocation":"48","principal":"Laura Hack","id":"a9kb72ctjwco","school":"L. F. Smith Elementary","address":"4505 Waycross Drive","phone number":"812-376-4317","geo_precision":"range","state":"IN","principal email":"hackl@bcsc.k12.in.us","2011-2012 backsack allocation":50,"community partner":"Cummins FSP"},"type":"Feature","geometry":{"type":"Point","coordinates":[-85.869875,39.220797]}},{"properties":{"city":"Columbus","site coordinator":"Heather Smith","site coordinator email":"smithh@bcsc.k12.in.us","township":"Bartholomew Consolidated School Corporation","county":"Bartholomew","2012-2013 backsack projection":69,"geo_score":1.0,"zip code":"47203","2012-2013 backsack allocation":"70","principal":"Cynthia Frost","id":"a9kb72jj6v3d","school":"Clifty Creek Elementary","address":"4625 East 50 North","phone number":"812-376-4342","geo_precision":"range","state":"IN","principal email":"frostc@bcsc.k12.in.us","2011-2012 backsack allocation":107,"community partner":"Cummins CMEP"},"type":"Feature","geometry":{"type":"Point","coordinates":[-85.86738,39.208652]}},{"properties":{"city":"Taylorsville","site coordinator":"Kim Fowler","site coordinator email":"fowlerk@bcsc.k12.in.us","township":"Bartholomew Consolidated School Corporation","county":"Bartholomew","2012-2013 backsack projection":63,"geo_score":0.878,"zip code":"47280","2012-2013 backsack allocation":"70","principal":"Sydell Gant","id":"a9kb72aplgvh","school":"Taylorsville Elementary","address":"9711 Walnut Street","phone number":"812-526-5448","geo_precision":"range","state":"IN","principal email":"gantsy@bcsc.k12.in.us","2011-2012 backsack allocation":70,"community partner":"Cummins CMEP"},"type":"Feature","geometry":{"type":"Point","coordinates":[-85.949003,39.29849]}},{"properties":{"city":"Columbus","site coordinator":"Amy Dickinson","site coordinator email":"dickinsonam@bcsc.k12.in.us","township":"Bartholomew Consolidated School Corporation","county":"Bartholomew","2012-2013 backsack projection":80,"geo_score":1.0,"zip code":"47201","2012-2013 backsack allocation":"129","principal":"Brett Boezeman","id":"a9kb72cxmfy8","school":"L. C. Schmitt Elementary","address":"2675 California Street","phone number":"812-376-4307","geo_precision":"range","state":"IN","principal email":"boezemn@bcsc.k12.in.us","2011-2012 backsack allocation":140,"community partner":"Cummins CMEP"},"type":"Feature","geometry":{"type":"Point","coordinates":[-85.914334,39.223789]}},{"properties":{"city":"Lebanon","site coordinator":"Debbie Kouns","site coordinator email":"kounsd@leb.k12.in.us","township":"Lebanon Community Schools","county":"Boone","2012-2013 backsack projection":35,"geo_score":0.955,"zip code":"46052","2012-2013 backsack allocation":"14","principal":"Janet Yonts","id":"a9kb72g716ur","school":"Harney Elementary","address":"1500 N Garfield Street","phone number":"765-482-5940","geo_precision":"range","state":"IN","principal email":"yontsj@leb.k12.in.us","2011-2012 backsack allocation":21,"community partner":"Delivery goes to Perry Worth Elementary"},"type":"Feature","geometry":{"type":"Point","coordinates":[-86.47757,40.05956]}},{"properties":{"city":"Lebanon","site coordinator":"Anne Maxwell-McCabe","site coordinator email":"mccabea@leb.k12.in.us","township":"Lebanon Community Schools","county":"Boone","2012-2013 backsack projection":16,"geo_score":1.0,"zip code":"46052","2012-2013 backsack allocation":"16","principal":"Amber Targgart","id":"a9kb72k0eexj","school":"Perry Worth Elementary","address":"3900 E 300 S","phone number":"769-3286","geo_precision":"range","state":"IN","principal email":"targgarta@leb.k12.in.us","2011-2012 backsack allocation":17,"community partner":"Accepts Delivery for Harney"},"type":"Feature","geometry":{"type":"Point","coordinates":[-86.398958,39.996729]}},{"properties":{"city":"Jamestown","site coordinator":"Ann Hendricks","site coordinator email":"annhendricks10@gmail.com","township":"Western Boone","county":"Boone","2012-2013 backsack projection":24,"geo_score":0.932,"zip code":"46147","2012-2013 backsack allocation":"30","principal":"Susan Ottinger","id":"a9kb72dcnyak","school":"Granville Wells","address":"5046 S St Road 75","phone number":"765-485-6311","geo_precision":"range","state":"IN","principal email":"susan.ottinger@webo.k12.in.us","2011-2012 backsack allocation":24,"community partner":null},"type":"Feature","geometry":{"type":"Point","coordinates":[-86.619816,39.966031]}},{"properties":{"city":"Thorntown","site coordinator":"Pam Taylor","site coordinator email":"pam.taylor@webo.k12.in.us","township":"Western Boone","county":"Boone","2012-2013 backsack projection":25,"geo_score":0.925,"zip code":"46071","2012-2013 backsack allocation":"34","principal":"Pam Taylor","id":"a9kb72bb68se","school":"Thorntown Elementary","address":"200 Mill Street","phone number":"765-485-2447","geo_precision":"range","state":"IN","principal email":"pam.taylor@webo.k12.in.us","2011-2012 backsack allocation":35,"community partner":null},"type":"Feature","geometry":{"type":"Point","coordinates":[-86.60794,40.12472]}},{"properties":{"city":"Lebanon","site coordinator":"Marie Roth","site coordinator email":"rothm@leb.k12.in.us","township":"Lebanon Community Schools","county":"Boone","2012-2013 backsack projection":15,"geo_score":1.0,"zip code":"46052","2012-2013 backsack allocation":"46","principal":"Marie Roth","id":"a9kb72l5c5gn","school":"Central Elementary","address":"515 East Williams Street","phone number":"765-482-2000","geo_precision":"range","state":"IN","principal email":"rothm@leb.k12.in.us","2011-2012 backsack allocation":50,"community partner":null},"type":"Feature","geometry":{"type":"Point","coordinates":[-86.463701,40.050144]}},{"properties":{"city":"Lebanon","site coordinator":"Megan Williams","site coordinator email":"williamsmr@leb.k12.in.us","township":"Lebanon Community Schools","county":"Boone","2012-2013 backsack projection":49,"geo_score":0.878,"zip code":"46052","2012-2013 backsack allocation":"55","principal":"Kelly Sollman","id":"a9kb72m5acfx","school":"Hattie B. Stokes Elementary","address":"1005 Hendricks Drive","phone number":"765-482-5950","geo_precision":"range","state":"IN","principal email":"sollmank@leb.k12.in.us","2011-2012 backsack allocation":56,"community partner":null},"type":"Feature","geometry":{"type":"Point","coordinates":[-86.454232,40.034438]}},{"properties":{"city":"Greensburg","site coordinator":"Rob Smith","site coordinator email":"rsmith@decaturco.k12.in.us","township":"Decatur Community Schools","county":"Decatur","2012-2013 backsack projection":39,"geo_score":1.0,"zip code":"47240","2012-2013 backsack allocation":"39","principal":"Rob Smith","id":"a9kb72bhvpel","school":"North Decatur Elementary","address":"3300 N State Road 3","phone number":"812-663-9215","geo_precision":"range","state":"IN","principal email":"rsmith@decaturco.k12.in.us","2011-2012 backsack allocation":0,"community partner":null},"type":"Feature","geometry":{"type":"Point","coordinates":[-85.479548,39.390904]}},{"properties":{"city":"Greensburg","site coordinator":"Holly Green","site coordinator email":"hgreen@decaturco.k12.in.us","township":"Decatur Community Schools","county":"Decatur","2012-2013 backsack projection":40,"geo_score":0.932,"zip code":"47240","2012-2013 backsack allocation":"40","principal":"Kara Holdsworth","id":"a9kb72ftjqkm","school":"South Decatur Elementary","address":"9302 S CR 420 W","phone number":"812-591-3115","geo_precision":"range","state":"IN","principal email":"kholdsworth@decaturco.k12.in.us","2011-2012 backsack allocation":0,"community partner":null},"type":"Feature","geometry":{"type":"Point","coordinates":[-85.559875,39.20063]}},{"properties":{"city":"Greensburg","site coordinator":"Lauren DeWees","site coordinator email":"ldewees@greensburg.k12.in.us","township":"Greensburg","county":"Decatur","2012-2013 backsack projection":90,"geo_score":0.78,"zip code":"47240","2012-2013 backsack allocation":"52","principal":"Rock Linville","id":"a9kb72ke1pi7","school":"Greensburg Elementary","address":"900 Big Blue Avenue","phone number":"812-663-8112","geo_precision":"range","state":"IN","principal email":"rlinville@greensburg.k12.in.us","2011-2012 backsack allocation":0,"community partner":null},"type":"Feature","geometry":{"type":"Point","coordinates":[-85.47554,39.324104]}},{"properties":{"city":"Connersville","site coordinator":"Renee Winner","site coordinator email":"rwinner@fayette.k12.in.us","township":"Fayette County Schools","county":"Fayette","2012-2013 backsack projection":28,"geo_score":0.951,"zip code":"47331","2012-2013 backsack allocation":"29","principal":"Bryan Jennings","id":"a9kb72lrcdwj","school":"Everton Elementary","address":"2440 Everton Road","phone number":"765-825-5840","geo_precision":"range","state":"IN","principal email":"bjenning@fayette.k12.in.us","2011-2012 backsack allocation":32,"community partner":null},"type":"Feature","geometry":{"type":"Point","coordinates":[-85.095228,39.5627]}},{"properties":{"city":"Connersville","site coordinator":"Elizabeth Pennington","site coordinator email":"epennington@fayette.k12.in.us","township":"Fayette County Schools","county":"Fayette","2012-2013 backsack projection":39,"geo_score":0.927,"zip code":"47331","2012-2013 backsack allocation":"40","principal":"Mia McCreary","id":"a9kb72kdh5sz","school":"Frazee Elementary","address":"600 West 3rd Street","phone number":"765-825-6811","geo_precision":"range","state":"IN","principal email":"miamc@fayette.k12.in.us","2011-2012 backsack allocation":74,"community partner":null},"type":"Feature","geometry":{"type":"Point","coordinates":[-85.14962,39.640041]}},{"properties":{"city":"Connersville","site coordinator":"Christine Zen-Ruffinen","site coordinator email":"czenruffinen@fayette.k12.in.us","township":"Fayette County Schools","county":"Fayette","2012-2013 backsack projection":43,"geo_score":1.0,"zip code":"47331","2012-2013 backsack allocation":"43","principal":"Kay Rowley","id":"a9kb72a4yurn","school":"Fayette Central Elementary","address":"2928 North County Road 225 West","phone number":"765-825-6261","geo_precision":"range","state":"IN","principal email":"krowley@fayette.k12.in.us","2011-2012 backsack allocation":48,"community partner":null},"type":"Feature","geometry":{"type":"Point","coordinates":[-85.17964,39.682349]}},{"properties":{"city":"Connersville","site coordinator":"Kim Brown","site coordinator email":"kbrown@fayette.k12.in.us","township":"Fayette County Schools","county":"Fayette","2012-2013 backsack projection":50,"geo_score":1.0,"zip code":"47331","2012-2013 backsack allocation":"48","principal":"Kathryn Schlichte","id":"a9kb72kqbx51","school":"Grandview Elementary","address":"2620 Iowa Avenue","phone number":"765-825-2981","geo_precision":"range","state":"IN","principal email":"schlicht@fayette.k12.in.us","2011-2012 backsack allocation":46,"community partner":null},"type":"Feature","geometry":{"type":"Point","coordinates":[-85.137237,39.667434]}},{"properties":{"city":"Connersville","site coordinator":"Melissa Webber","site coordinator email":"mwebber@fayette.k12.in.us","township":"Fayette County Schools","county":"Fayette","2012-2013 backsack projection":37,"geo_score":1.0,"zip code":"47331","2012-2013 backsack allocation":"52","principal":"Debby Williams","id":"a9kb72bc7ofh","school":"Eastview Elementary","address":"401 S Fountain Street","phone number":"765-825-5541","geo_precision":"range","state":"IN","principal email":"dwilliams@fayette.k12.in.us","2011-2012 backsack allocation":56,"community partner":null},"type":"Feature","geometry":{"type":"Point","coordinates":[-85.124869,39.636786]}},{"properties":{"city":"Connersville","site coordinator":"Midge Rose","site coordinator email":"mrose@fayette.k12.in.us","township":"Fayette County Schools","county":"Fayette","2012-2013 backsack projection":46,"geo_score":0.955,"zip code":"47331","2012-2013 backsack allocation":"62","principal":"Kimberly Corsaro","id":"a9kb72gydzdx","school":"Maplewood Elementary","address":"1800 Eastern Avenue","phone number":"765-825-3941","geo_precision":"range","state":"IN","principal email":"kcorsaro@fayette.k12.in.us","2011-2012 backsack allocation":56,"community partner":null},"type":"Feature","geometry":{"type":"Point","coordinates":[-85.127974,39.653817]}},{"properties":{"city":"Brookville","site coordinator":"Shawna Humbert","site coordinator email":"smatthews@fccsc.com","township":"Franklin School Corporation","county":"Franklin","2012-2013 backsack projection":20,"geo_score":0.585,"zip code":"47012","2012-2013 backsack allocation":"2","principal":"Gary Frost","id":"a9kb72ifn3j5","school":"Brookville Middle School","address":"9092 Wildcat Lane","phone number":"765-647-6040","geo_precision":"zip","state":"IN","principal email":"gfrost@fccsc.com","2011-2012 backsack allocation":20,"community partner":null},"type":"Feature","geometry":{"type":"Point","coordinates":[-85.031626,39.321719]}},{"properties":{"city":"Cedar Grove","site coordinator":"Sharon Wendel","site coordinator email":"swendel@fccsc.k12.in.us","township":"Franklin County Community School Corporation","county":"Franklin","2012-2013 backsack projection":23,"geo_score":0.73,"zip code":"47012","2012-2013 backsack allocation":"35","principal":"Jim Dallio","id":"a9kb72a2ccea","school":"Mt. Carmel School","address":"6178 Johnson Fork Road","phone number":"765-647-4191","geo_precision":"street","state":"IN","principal email":"jdallio@fccsc.k12.in.us","2011-2012 backsack allocation":25,"community partner":null},"type":"Feature","geometry":{"type":"Point","coordinates":[-84.873677,39.406627]}},{"properties":{"city":"Brookville","site coordinator":"Karen Anderson","site coordinator email":"kanderson@fccsc.k12.in.us","township":"Franklin County Community School Corporation","county":"Franklin","2012-2013 backsack projection":39,"geo_score":0.585,"zip code":"47012","2012-2013 backsack allocation":"39","principal":"Michael Biltz","id":"a9kb729s87q9","school":"Brookville Elementary School","address":"10160 Oxford Pike","phone number":"765-647-3503","geo_precision":"zip","state":"IN","principal email":"mbiltz@fccsc.k12.in.us","2011-2012 backsack allocation":31,"community partner":null},"type":"Feature","geometry":{"type":"Point","coordinates":[-85.031626,39.321719]}},{"properties":{"city":"Laurel","site coordinator":"Gwen Demkovich","site coordinator email":"gdemkovich@fccsc.k12.in.us","township":"Franklin County Community School Corporation","county":"Franklin","2012-2013 backsack projection":49,"geo_score":0.927,"zip code":"47024","2012-2013 backsack allocation":"50","principal":"Jill Brack","id":"a9kb72li20jg","school":"Laurel Elementary","address":"13246 St Road 121","phone number":"765-698-3851","geo_precision":"range","state":"IN","principal email":"jbrack@fccsc.k12.in.us","2011-2012 backsack allocation":60,"community partner":null},"type":"Feature","geometry":{"type":"Point","coordinates":[-85.196783,39.482948]}},{"properties":{"city":"Westfield","site coordinator":"Betsy Smith","site coordinator email":"smithb@wws.k12.in.us","township":"Westfield Washington","county":"Hamilton","2012-2013 backsack projection":4,"geo_score":0.727,"zip code":"46074","2012-2013 backsack allocation":"1","principal":"Corey Hartley","id":"a9kb72erv9kd","school":"Shamrock Springs Elementary","address":"747 W. 161 Street","phone number":"867-7400","geo_precision":"range","state":"IN","principal email":"hartleyc@wws.k12.in.us","2011-2012 backsack allocation":0,"community partner":null},"type":"Feature","geometry":{"type":"Point","coordinates":[-86.160739,40.02108]}},{"properties":{"city":"Westfield","site coordinator":"Therisa Seymour","site coordinator email":"seymourt@wws.k12.in.us","township":"Westfield Washington","county":"Hamilton","2012-2013 backsack projection":15,"geo_score":0.868,"zip code":"46074","2012-2013 backsack allocation":"10","principal":"Mike Hall","id":"a9kb72ejkqwd","school":"Monon Trail Elementary","address":"19400 Tomlinson Road","phone number":"867-8611","geo_precision":"range","state":"IN","principal email":"hallm@wws.k12.in.us","2011-2012 backsack allocation":10,"community partner":null},"type":"Feature","geometry":{"type":"Point","coordinates":[-86.137114,40.069397]}},{"properties":{"city":"Fishers","site coordinator":"Courtney Brown","site coordinator email":"courtneykbrown@gmail.com","township":"Hamilton South Eastern","county":"Hamilton","2012-2013 backsack projection":9,"geo_score":0.808,"zip code":"46037","2012-2013 backsack allocation":"15","principal":"Mr. Hurst","id":"a9kb72ktq4yc","school":"Hoosier Road Elementary","address":"11300 East 121st Street","phone number":"915-4240","geo_precision":"street","state":"IN","principal email":"whurst@hse.k12.in.us","2011-2012 backsack allocation":16,"community partner":null},"type":"Feature","geometry":{"type":"Point","coordinates":[-85.969985,39.964603]}},{"properties":{"city":"Westfield","site coordinator":"Brian Sawa","site coordinator email":"sawab@wws.k12.in.us","township":"Westfield Washington","county":"Hamilton","2012-2013 backsack projection":21,"geo_score":0.795,"zip code":"46074","2012-2013 backsack allocation":"21","principal":"Scott Williams","id":"a9kb72c2axbz","school":"Washington Woods Elementary","address":"17950 Grassy Branch Road","phone number":"867-7903","geo_precision":"street","state":"IN","principal email":"williamss@wws.k12.in.us","2011-2012 backsack allocation":27,"community partner":null},"type":"Feature","geometry":{"type":"Point","coordinates":[-86.109243,40.064941]}},{"properties":{"city":"Westfield","site coordinator":"Jennifer Phillips","site coordinator email":"phillipsj@wws.k12.in.us","township":"Westfield Washington","county":"Hamilton","2012-2013 backsack projection":20,"geo_score":0.805,"zip code":"46069","2012-2013 backsack allocation":"26","principal":"Susan Hobson","id":"a9kb7269sxdi","school":"Carey Ridge Elementary","address":"16231 Carey Road","phone number":"867-6202","geo_precision":"range","state":"IN","principal email":"hobsons@wws.k12.in.us","2011-2012 backsack allocation":25,"community partner":null},"type":"Feature","geometry":{"type":"Point","coordinates":[-86.108757,40.017998]}},{"properties":{"city":"Carmel","site coordinator":"Kate Kneifel","site coordinator email":"kkneifel@ccs.k12.in.us","township":"Carmel Clay","county":"Hamilton","2012-2013 backsack projection":19,"geo_score":0.84,"zip code":"46032","2012-2013 backsack allocation":"26","principal":"Megan klinginsmith","id":"a9kb726cinxq","school":"Carmel Elementary School","address":"101 4th Avenue","phone number":"844-0168","geo_precision":"range","state":"IN","principal email":"mklingin@ccs.k12.in.us","2011-2012 backsack allocation":0,"community partner":null},"type":"Feature","geometry":{"type":"Point","coordinates":[-86.122547,39.979295]}},{"properties":{"city":"Indianapolis","site coordinator":"Melissa McCullough","site coordinator email":"mmccullo@ccs.k12.in.us","township":"Carmel Clay","county":"Hamilton","2012-2013 backsack projection":38,"geo_score":0.966,"zip code":"46280","2012-2013 backsack allocation":"41","principal":"Rhonda Turner","id":"a9kb72lfj67u","school":"Orchard Park","address":"10404 Orchard Park Drive","phone number":"848-1918","geo_precision":"range","state":"IN","principal email":"rturner@ccs.k12.in.us","2011-2012 backsack allocation":40,"community partner":null},"type":"Feature","geometry":{"type":"Point","coordinates":[-86.129922,39.93861]}},{"properties":{"city":"Sheridan","site coordinator":"Lisa Samuels","site coordinator email":"lsamuels@sheridan.k12.in.us","township":"Sheridan Community Schools","county":"Hamilton","2012-2013 backsack projection":40,"geo_score":1.0,"zip code":"46069","2012-2013 backsack allocation":"69","principal":"Dean Welbaum","id":"a9kb727s1fiu","school":"Sheridan Elementary Middle Schools","address":"24795 Hinesley Road","phone number":"758-4491","geo_precision":"range","state":"IN","principal email":"dwelbaum@sheridan.k12.in.us","2011-2012 backsack allocation":60,"community partner":null},"type":"Feature","geometry":{"type":"Point","coordinates":[-86.218384,40.153143]}},{"properties":{"city":"Greenfield","site coordinator":"Joey Johnson","site coordinator email":"jjohnson@gcsc.k12.in.us","township":"Greenfield Central","county":"Hancock","2012-2013 backsack projection":8,"geo_score":0.991,"zip code":"46140","2012-2013 backsack allocation":"8","principal":"Joey Johnson","id":"a9kb727mdcv2","school":"Eden Elementary","address":"8185 N State Road 9","phone number":"326-3117","geo_precision":"range","state":"IN","principal email":"jjohnson@gcsc.k12.in.us","2011-2012 backsack allocation":4,"community partner":"Hancock County Food Pantry"},"type":"Feature","geometry":{"type":"Point","coordinates":[-85.770649,39.903763]}},{"properties":{"city":"Greenfield","site coordinator":"Kimberly Hunt","site coordinator email":"kshunt@gcsc.k12.in.us","township":"Greenfield Central","county":"Hancock","2012-2013 backsack projection":35,"geo_score":0.874,"zip code":"46140","2012-2013 backsack allocation":"18","principal":"Jim Bever","id":"a9kb72lxso00","school":"Greenfield Intermediate School","address":"204 W Park","phone number":"462-6827","geo_precision":"range","state":"IN","principal email":null,"2011-2012 backsack allocation":10,"community partner":"Hancock County Food Pantry"},"type":"Feature","geometry":{"type":"Point","coordinates":[-85.771903,39.792248]}},{"properties":{"city":"Charlottesville","site coordinator":"Lora Dodson","site coordinator email":"ldoson@easternhancock.org","township":"Eastern Hancock","county":"Hancock","2012-2013 backsack projection":20,"geo_score":1.0,"zip code":"46117","2012-2013 backsack allocation":"24","principal":"Amanda Pyle","id":"a9kb72m21a3j","school":"Eastern Hancock Elementary","address":"10450 E 250 N","phone number":"936-5829","geo_precision":"range","state":"IN","principal email":"apyle@easternhancock.org","2011-2012 backsack allocation":0,"community partner":"Hancock County Food Pantry"},"type":"Feature","geometry":{"type":"Point","coordinates":[-85.607872,39.822872]}},{"properties":{"city":"Maxwell","site coordinator":"Scott Stroud","site coordinator email":"sstroud@gcsc.k12.in.us","township":"Greenfield-Central","county":"Hancock","2012-2013 backsack projection":25,"geo_score":0.924,"zip code":"46140","2012-2013 backsack allocation":"24","principal":"Jobie Whitaker","id":"a9kb729o3acg","school":"Maxwell Intermediate","address":"102 N Main Street","phone number":"326-3121","geo_precision":"range","state":"IN","principal email":"jwhitaker@gcsc.k12.in.us","2011-2012 backsack allocation":25,"community partner":"Hancock County Food Pantry"},"type":"Feature","geometry":{"type":"Point","coordinates":[-85.770066,39.857838]}},{"properties":{"city":"Greenfield","site coordinator":"Terry Miller","site coordinator email":"temiller@gcsc.k12.in.us","township":"Greenfield-Central","county":"Hancock","2012-2013 backsack projection":19,"geo_score":0.866,"zip code":"46140","2012-2013 backsack allocation":"26","principal":"Stephen F. Burt","id":"a9kb72f6bp6p","school":"Weston Elementary","address":"140 Polk","phone number":"462-1492","geo_precision":"range","state":"IN","principal email":"sburt@gcsc.k12.in.us","2011-2012 backsack allocation":24,"community partner":"Hancock County Food Pantry"},"type":"Feature","geometry":{"type":"Point","coordinates":[-85.786631,39.787328]}},{"properties":{"city":"Greenfield","site coordinator":"Susan Nichter","site coordinator email":"snichter@gcsc.k12.in.us","township":"Greenfield-Central","county":"Hancock","2012-2013 backsack projection":29,"geo_score":0.601,"zip code":"46140","2012-2013 backsack allocation":"29","principal":"Jan Kehrt","id":"a9kb72losru4","school":"Harris Elementary","address":"200 W. Park Avenue","phone number":"467-6731","geo_precision":"street","state":"IN","principal email":"jkehrt@gcsc.k12.in.us","2011-2012 backsack allocation":26,"community partner":"Hancock County Food Pantry"},"type":"Feature","geometry":{"type":"Point","coordinates":[-85.774102,39.792127]}},{"properties":{"city":"Greenfield","site coordinator":"Christy Harpold","site coordinator email":"charpold@gcsc.k12.in.us","township":"Greenfield-Central","county":"Hancock","2012-2013 backsack projection":31,"geo_score":0.991,"zip code":"46140","2012-2013 backsack allocation":"31","principal":"Candy Short","id":"a9kb72i5cll0","school":"JB Stephens Elementary","address":"1331 N Blue Road","phone number":"462-4491","geo_precision":"range","state":"IN","principal email":"cshort@gcsc.k12.in.us","2011-2012 backsack allocation":32,"community partner":"Hancock County Food Pantry"},"type":"Feature","geometry":{"type":"Point","coordinates":[-85.746283,39.805864]}},{"properties":{"city":"Fortville","site coordinator":"Amanda Johnson","site coordinator email":"amanda.johnson@mvcsc.k12.in.us","township":"Mount Vernon","county":"Hancock","2012-2013 backsack projection":29,"geo_score":0.99,"zip code":"46040","2012-2013 backsack allocation":null,"principal":"Susan Bennett","id":"a9kb726my5e1","school":"Fortville Elementary School","address":"8414 North 200 West","phone number":"485-3180","geo_precision":"range","state":"In","principal email":"Susan.bennett@mvcsc.k12.in.us","2011-2012 backsack allocation":0,"community partner":null},"type":"Feature","geometry":{"type":"Point","coordinates":[-85.843335,39.906121]}},{"properties":{"city":"Brownsburg","site coordinator":"Crystal Benner","site coordinator email":"cbenner@brownsburg.k12.in.us","township":"Brownsburg School Corporation","county":"Hendricks","2012-2013 backsack projection":20,"geo_score":0.585,"zip code":"46112","2012-2013 backsack allocation":"15","principal":"Scott Chambers","id":"a9kb72d7him2","school":"Reagan Elementary","address":"4845 Bulldog Way","phone number":"852-1060","geo_precision":"zip","state":"IN","principal email":"schambers@brownsburg.k12.in.us","2011-2012 backsack allocation":0,"community partner":null},"type":"Feature","geometry":{"type":"Point","coordinates":[-86.338328,39.926986]}},{"properties":{"city":"Brownsburg","site coordinator":"Stacey Kraus","site coordinator email":"skraus@brownsburg.k12.in.us","township":"Brownsburg School Corporation","county":"Hendricks","2012-2013 backsack projection":20,"geo_score":1.0,"zip code":"46112","2012-2013 backsack allocation":"20","principal":"Jennifer Greene","id":"a9kb72910y5s","school":"Delaware Trail Elementary","address":"3680 Hornaday Road","phone number":"852-1062","geo_precision":"range","state":"IN","principal email":"jgreene@brownsburg.k12.in.us","2011-2012 backsack allocation":0,"community partner":null},"type":"Feature","geometry":{"type":"Point","coordinates":[-86.382153,39.820547]}},{"properties":{"city":"Avon","site coordinator":"Laura Samide","site coordinator email":"llsamide@avon-schools.org","township":"Avon Community Schools","county":"Hendricks","2012-2013 backsack projection":28,"geo_score":0.61,"zip code":"46112","2012-2013 backsack allocation":"21","principal":"Kris Kingery","id":"a9kb72f1m4hp","school":"River Birch Elementary","address":"5456 E CR 75 N","phone number":"544-6800","geo_precision":"range","state":"IN","principal email":"kjkingery@avon-schools.org","2011-2012 backsack allocation":16,"community partner":null},"type":"Feature","geometry":{"type":"Point","coordinates":[-86.428894,39.772306]}},{"properties":{"city":"Brownsburg","site coordinator":"Jill Yoder","site coordinator email":"jillyoder@brownsburg.k12.in.us","township":"Brownsburg School Corporation","county":"Hendricks","2012-2013 backsack projection":28,"geo_score":1.0,"zip code":"46112","2012-2013 backsack allocation":"22","principal":"Davin Harpe","id":"a9kb729t1m74","school":"Cardinal Elementary","address":"3590 Hornaday Road","phone number":"852-1036","geo_precision":"range","state":"IN","principal email":"dharpe@bronwsburg.k12.in.us","2011-2012 backsack allocation":0,"community partner":null},"type":"Feature","geometry":{"type":"Point","coordinates":[-86.382163,39.82111]}},{"properties":{"city":"Brownsburg","site coordinator":"Kathy Browning","site coordinator email":"kbrowning@brownsburg.k12.in.us","township":"Brownsburg School Corporation","county":"Hendricks","2012-2013 backsack projection":20,"geo_score":1.0,"zip code":"46112","2012-2013 backsack allocation":"28","principal":"Casey Patterson","id":"a9kb72itkksf","school":"Brown Elementary","address":"340 Stadium Drive","phone number":"852-1498","geo_precision":"range","state":"IN","principal email":"cpatterson@brownsburg.k12.in.us","2011-2012 backsack allocation":0,"community partner":null},"type":"Feature","geometry":{"type":"Point","coordinates":[-86.389082,39.838262]}},{"properties":{"city":"Brownstown","site coordinator":"Greg Walker","site coordinator email":"gwalker@btownccs.k12.in.us","township":"Brownstown Central","county":"Jackson","2012-2013 backsack projection":25,"geo_score":0.991,"zip code":"47220","2012-2013 backsack allocation":"15","principal":"Greg Walker","id":"a9kb72jbkx0u","school":"Brownstown Middle School","address":"520 W Walnut Street","phone number":"812-358-4947","geo_precision":"range","state":"IN","principal email":"gwalker@btownccs.k12.in.us","2011-2012 backsack allocation":20,"community partner":null},"type":"Feature","geometry":{"type":"Point","coordinates":[-86.047319,38.880975]}},{"properties":{"city":"Medora","site coordinator":"Dan Johnson","site coordinator email":"djohnson@medora.k12.in.us","township":"Medora Community School Corporation","county":"Jackson","2012-2013 backsack projection":15,"geo_score":1.0,"zip code":"47260","2012-2013 backsack allocation":"34","principal":"Brad McCammon","id":"a9kb729q2qcf","school":"Medora Elementary","address":"82 S George Street","phone number":"812-966-2201","geo_precision":"range","state":"IN","principal email":"bmcammon@medora.org","2011-2012 backsack allocation":50,"community partner":"Crothersville Nazarene"},"type":"Feature","geometry":{"type":"Point","coordinates":[-86.171584,38.823995]}},{"properties":{"city":"Crothersville","site coordinator":"Chris Marshall","site coordinator email":"cmarshall@crothersville.k12.in.us","township":"Crothersville","county":"Jackson","2012-2013 backsack projection":30,"geo_score":1.0,"zip code":"47229","2012-2013 backsack allocation":"56","principal":"Chris Marshall","id":"a9kb729garkn","school":"Crothersville Elementary","address":"109 S Preston Street","phone number":"812-793-2622","geo_precision":"range","state":"IN","principal email":"cmarshall@crothersville.k12.in.us","2011-2012 backsack allocation":53,"community partner":"Crothersville Nazarene"},"type":"Feature","geometry":{"type":"Point","coordinates":[-85.836912,38.797103]}},{"properties":{"city":"Brownstown","site coordinator":"Jill Miller","site coordinator email":"jmiller@btownccs.k12.in.us","township":"Brownstown Central","county":"Jackson","2012-2013 backsack projection":50,"geo_score":0.991,"zip code":"47220","2012-2013 backsack allocation":"61","principal":"Tom McCool","id":"a9kb72ax4sre","school":"Brownstown Elementary School","address":"612 S Base Road","phone number":"812-358-3680","geo_precision":"range","state":"IN","principal email":"tmccool@btownccs.k12.in.us","2011-2012 backsack allocation":60,"community partner":null},"type":"Feature","geometry":{"type":"Point","coordinates":[-86.038256,38.866164]}},{"properties":{"city":"Seymour","site coordinator":"Meredith Henry","site coordinator email":"henrym@scsc.k12.in.us","township":"Seymour Community Schools","county":"Jackson","2012-2013 backsack projection":50,"geo_score":0.988,"zip code":"47274","2012-2013 backsack allocation":"63","principal":"Dylan Purlee","id":"a9kb72ceuzoq","school":"Redding Elementary","address":"1700 North Ewing Street","phone number":"812-522-5621","geo_precision":"range","state":"IN","principal email":"purleed@scsc.k12.in.us","2011-2012 backsack allocation":70,"community partner":"Cummins SEP"},"type":"Feature","geometry":{"type":"Point","coordinates":[-85.890523,38.974986]}},{"properties":{"city":"Seymour","site coordinator":"Tim Freshour","site coordinator email":"freshourt@scsc.k12.in.us","township":"Seymour Community Schools","county":"Jackson","2012-2013 backsack projection":53,"geo_score":1.0,"zip code":"47274","2012-2013 backsack allocation":"73","principal":"Tony Hack","id":"a9kb72m06n9v","school":"Margaret R. Brown Elementary","address":"550 Miller Lane","phone number":"812-569-0205","geo_precision":"range","state":"IN","principal email":"hackt@scsc.k12.in.us","2011-2012 backsack allocation":90,"community partner":"Cummins SEP"},"type":"Feature","geometry":{"type":"Point","coordinates":[-85.874399,38.955607]}},{"properties":{"city":"Madison","site coordinator":"Nancy Strandmark","site coordinator email":"nstrandmark@madison.k12.in.us","township":"Madison Consolidated","county":"Jefferson","2012-2013 backsack projection":20,"geo_score":0.619,"zip code":"47250","2012-2013 backsack allocation":"25","principal":"Karla Gauger","id":"a9kb72lj0leh","school":"Lydia Middleton Elementary","address":"714 W. Main Street","phone number":"812-273-8524","geo_precision":"street","state":"IN","principal email":"kgauger@madison.k12.in.us","2011-2012 backsack allocation":42,"community partner":null},"type":"Feature","geometry":{"type":"Point","coordinates":[-85.380541,38.736307]}},{"properties":{"city":"Madison","site coordinator":"Amy Perkins","site coordinator email":"aperkins@madison.k12.in.us","township":"Madison Consolidated","county":"Jefferson","2012-2013 backsack projection":24,"geo_score":0.984,"zip code":"47250","2012-2013 backsack allocation":"27","principal":"Missy Demaree","id":"a9kb72m6lh50","school":"Rykers Ridge Elementary","address":"2485 North Rykers' Ridge Road","phone number":"812-273-8543","geo_precision":"range","state":"IN","principal email":"mdemaree@madison.k12.in.us","2011-2012 backsack allocation":24,"community partner":"North Madison Christian Church"},"type":"Feature","geometry":{"type":"Point","coordinates":[-85.334312,38.772647]}},{"properties":{"city":"Deputy","site coordinator":"Jan Swann","site coordinator email":"jswann@madison.k12.in.us","township":"Madison Consolidated","county":"Jefferson","2012-2013 backsack projection":11,"geo_score":0.955,"zip code":"47230","2012-2013 backsack allocation":"30","principal":"Alvin Sonner","id":"a9kb72duvjuj","school":"Deputy Elementary","address":"14350 West Mulberry Street","phone number":"812-273-8517","geo_precision":"range","state":"IN","principal email":"asonner@madison.k12.in.us","2011-2012 backsack allocation":26,"community partner":"North Madison Christian Church"},"type":"Feature","geometry":{"type":"Point","coordinates":[-85.651876,38.79584]}},{"properties":{"city":"Madison","site coordinator":"Tony Schroader","site coordinator email":"tschroeder@madison.k12.in.us","township":"Madison Consolidated","county":"Jefferson","2012-2013 backsack projection":45,"geo_score":1.0,"zip code":"47250","2012-2013 backsack allocation":"62","principal":"James Hough","id":"a9kb72cyumfk","school":"E. O. Muncie Elementary","address":"800 Lanier Drive","phone number":"812-273-8536","geo_precision":"range","state":"IN","principal email":"jhough@madison.k12.in.us","2011-2012 backsack allocation":54,"community partner":"North Madison Christian Church"},"type":"Feature","geometry":{"type":"Point","coordinates":[-85.405926,38.76242]}},{"properties":{"city":"Hanover","site coordinator":"Jason Poteet","site coordinator email":"jpoteet@swjcs.us","township":"Southwestern Jefferson County","county":"Jefferson","2012-2013 backsack projection":55,"geo_score":1.0,"zip code":"47243","2012-2013 backsack allocation":"65","principal":"Jason Watson","id":"a9kb72e6nsuh","school":"Southwestern Elementary","address":"273 S Main Cross Street","phone number":"812-866-6200","geo_precision":"range","state":"IN","principal email":"jwatson@swjcs.us","2011-2012 backsack allocation":100,"community partner":"Hanover College"},"type":"Feature","geometry":{"type":"Point","coordinates":[-85.473869,38.711592]}},{"properties":{"city":"Commiskey","site coordinator":"Sharon Law","site coordinator email":"slaw@jcsc.org","township":"Jennings County Schools","county":"Jennings","2012-2013 backsack projection":25,"geo_score":1.0,"zip code":"47227","2012-2013 backsack allocation":"40","principal":"Peggy Fear","id":"a9kb72at67ym","school":"Graham Creek Elementary","address":"7910 S Co Road 90 West","phone number":"812-346-4179","geo_precision":"range","state":"IN","principal email":"pfear@jcsc.k12.in.us","2011-2012 backsack allocation":54,"community partner":"Good Samaritan Food Pantry"},"type":"Feature","geometry":{"type":"Point","coordinates":[-85.627563,38.871353]}},{"properties":{"city":"Scipio","site coordinator":"Kelli Gambrel","site coordinator email":"kgambrel@jcsc.org","township":"Jennings County Schools","county":"Jennings","2012-2013 backsack projection":33,"geo_score":0.854,"zip code":"47273","2012-2013 backsack allocation":"40","principal":"Teresa Helton","id":"a9kb728dnhiz","school":"Scipio Elementary","address":"6320 North State Street Highway 7","phone number":"812-392-2055","geo_precision":"range","state":"IN","principal email":"thelton@jcsc.org","2011-2012 backsack allocation":40,"community partner":"Good Samaritan Food Pantry"},"type":"Feature","geometry":{"type":"Point","coordinates":[-85.710737,39.074167]}},{"properties":{"city":"North Vernon","site coordinator":"Alice Starkey","site coordinator email":"astarkey@jcsc.org","township":"Jennings County Schools","county":"Jennings","2012-2013 backsack projection":38,"geo_score":0.585,"zip code":"47265","2012-2013 backsack allocation":"42","principal":"Johnny Bright","id":"a9kb72gyy7bg","school":"Brush Creek Elementary","address":"4275 E U.S. 50","phone number":"812-458-6582","geo_precision":"zip","state":"IN","principal email":"jbright@jcsc.org","2011-2012 backsack allocation":43,"community partner":"Good Samaritan Food Pantry"},"type":"Feature","geometry":{"type":"Point","coordinates":[-85.677194,39.051164]}},{"properties":{"city":"Hayden","site coordinator":"Vicki McGuire","site coordinator email":"vmcguire@jcsc.org","township":"Jennings County Schools","county":"Jennings","2012-2013 backsack projection":25,"geo_score":0.737,"zip code":"47245","2012-2013 backsack allocation":"60","principal":"Vicki McGuire","id":"a9kb72e82i3u","school":"Hayden Elementary","address":"55 S CR 685 W","phone number":"812-346-2813","geo_precision":"range","state":"IN","principal email":"vmcguire@jcsc.org","2011-2012 backsack allocation":56,"community partner":"Good Samaritan Food Pantry"},"type":"Feature","geometry":{"type":"Point","coordinates":[-85.738223,38.982306]}},{"properties":{"city":"North Vernon","site coordinator":"Elizabeth Lane","site coordinator email":"elane@jcsc.org","township":"Jennings County Schools","county":"Jennings","2012-2013 backsack projection":58,"geo_score":1.0,"zip code":"47265","2012-2013 backsack allocation":"64","principal":"Patricia Ertel","id":"a9kb72k26bx5","school":"Sand Creek Elementary","address":"1450 W Co Road 500 North","phone number":"812-352-9343","geo_precision":"range","state":"IN","principal email":"pertel@jcsc.org","2011-2012 backsack allocation":78,"community partner":"Good Samaritan Food Pantry"},"type":"Feature","geometry":{"type":"Point","coordinates":[-85.638566,39.058574]}},{"properties":{"city":"North Vernon","site coordinator":"Laura Pate","site coordinator email":"lpate@jcsc.org","township":"Jennings County Schools","county":"Jennings","2012-2013 backsack projection":72,"geo_score":0.992,"zip code":"47265","2012-2013 backsack allocation":"72","principal":"Todd Hearne","id":"a9kb72kqj5pz","school":"North Vernon Elementary","address":"810 W Walnut Street","phone number":"812-346-4903","geo_precision":"range","state":"IN","principal email":"thearne@jcsc.org","2011-2012 backsack allocation":98,"community partner":"Good Samaritan Food Pantry"},"type":"Feature","geometry":{"type":"Point","coordinates":[-85.642707,39.000628]}},{"properties":{"city":"New Whiteland","site coordinator":"Melissa Morris","site coordinator email":"mmorris@cpcsc.k12.in.us","township":"Clark Pleasant","county":"Johnson","2012-2013 backsack projection":25,"geo_score":0.829,"zip code":"46184","2012-2013 backsack allocation":"6","principal":"Jenni Baker","id":"a9kb72b0rzxw","school":"Sawmill Woods Elementary","address":"700 Sawmill Road","phone number":"535-2069","geo_precision":"range","state":"IN","principal email":"jbaker@cpcsc.k12.in.us","2011-2012 backsack allocation":5,"community partner":null},"type":"Feature","geometry":{"type":"Point","coordinates":[-86.10168,39.55667]}},{"properties":{"city":"Greenwood","site coordinator":"Lindsey Fitzsimmons","site coordinator email":"lfitzsimmons@gws.k12.in.us","township":"Greenwood","county":"Johnson","2012-2013 backsack projection":54,"geo_score":1.0,"zip code":"46143","2012-2013 backsack allocation":"18","principal":"Amy Sander","id":"a9kb72hiwz8j","school":"Northeast Elementary","address":"99 Crestview Drive","phone number":"889-4080","geo_precision":"range","state":"IN","principal email":"asander@gws.k12.in.us","2011-2012 backsack allocation":20,"community partner":null},"type":"Feature","geometry":{"type":"Point","coordinates":[-86.098998,39.628999]}},{"properties":{"city":"New Whiteland","site coordinator":"Aaron Munson","site coordinator email":"amunson@cpcsc.k12.in.us","township":"Clark Pleasant","county":"Johnson","2012-2013 backsack projection":35,"geo_score":0.951,"zip code":"46184","2012-2013 backsack allocation":"35","principal":"Trina Lake","id":"a9kb72i1nnqv","school":"Break-O-Day Elementary","address":"900 Sawmill Road","phone number":"535-7536","geo_precision":"range","state":"IN","principal email":"tlake@cpcsc.k12.in.us","2011-2012 backsack allocation":18,"community partner":null},"type":"Feature","geometry":{"type":"Point","coordinates":[-86.101544,39.536045]}},{"properties":{"city":"Franklin","site coordinator":"Tammy Schneider","site coordinator email":"schneidert@franklinschools.org","township":"Franklin County Community School Corporation","county":"Johnson","2012-2013 backsack projection":15,"geo_score":0.865,"zip code":"46131","2012-2013 backsack allocation":"35","principal":"Brenda Crauder","id":"a9kb72juh7ds","school":"Custer Baker Intermediate Academy","address":"101 W SR 44","phone number":"346-8600","geo_precision":"range","state":"IN","principal email":"crauderb@franklinschools.org","2011-2012 backsack allocation":52,"community partner":null},"type":"Feature","geometry":{"type":"Point","coordinates":[-86.103124,39.470815]}},{"properties":{"city":"Franklin","site coordinator":"Angie Clendening","site coordinator email":"clendeningan@franklinschools.org","township":"Franklin Community Schools","county":"Johnson","2012-2013 backsack projection":25,"geo_score":1.0,"zip code":"46131","2012-2013 backsack allocation":"40","principal":"Sandra Brown","id":"a9kb7299wiyw","school":"Webb Elementary","address":"1400 Webb Court","phone number":"738-5790","geo_precision":"range","state":"IN","principal email":"browns@franklinschools.org","2011-2012 backsack allocation":62,"community partner":null},"type":"Feature","geometry":{"type":"Point","coordinates":[-86.03419,39.486149]}},{"properties":{"city":"Franklin","site coordinator":"Stephanie Deeter","site coordinator email":"deeters@franklinschools.org","township":"Franklin","county":"Johnson","2012-2013 backsack projection":35,"geo_score":1.0,"zip code":"46131","2012-2013 backsack allocation":"55","principal":"Kent Pettet","id":"a9kb72c07wlj","school":"Needham Elementary","address":"1399 Upper Shelbyville Road","phone number":"738-5780","geo_precision":"range","state":"IN","principal email":"pettetk@franklinschools.org","2011-2012 backsack allocation":70,"community partner":null},"type":"Feature","geometry":{"type":"Point","coordinates":[-86.038973,39.490309]}},{"properties":{"city":"Franklin","site coordinator":"Amanda Martin","site coordinator email":"martina@franklinschools.org","township":"Franklin","county":"Johnson","2012-2013 backsack projection":44,"geo_score":1.0,"zip code":"46131","2012-2013 backsack allocation":"69","principal":"Katie Crites","id":"a9kb728bhwiu","school":"Northwood Elementary","address":"965  Grizzly Cub Drive","phone number":"346-8900","geo_precision":"range","state":"IN","principal email":"critesk@franklinschools.org","2011-2012 backsack allocation":84,"community partner":null},"type":"Feature","geometry":{"type":"Point","coordinates":[-86.063836,39.489056]}},{"properties":{"city":"Indianapolis","site coordinator":"Katrina Hague","site coordinator email":"haguek@ips.k12.in.us","township":"IPS","county":"Marion","2012-2013 backsack projection":15,"geo_score":1.0,"zip code":"46219","2012-2013 backsack allocation":"16","principal":"Sara Hindman","id":"a9kb728tvp4h","school":"IPS Roots","address":"1525 North Ritter Avenue","phone number":"359-5467 ext. 413","geo_precision":"range","state":"IN","principal email":null,"2011-2012 backsack allocation":15,"community partner":null},"type":"Feature","geometry":{"type":"Point","coordinates":[-86.073713,39.786148]}},{"properties":{"city":"Indianapolis","site coordinator":"Elizabeth House","site coordinator email":"ehouse@saintsimon.org","township":"ADI Charter","county":"Marion","2012-2013 backsack projection":20,"geo_score":0.935,"zip code":"46218","2012-2013 backsack allocation":"25","principal":"Steven Glenn","id":"a9kb72jvi8o1","school":"Andrew Academy","address":"4050 East 38th Street","phone number":"549-6305","geo_precision":"range","state":"IN","principal email":"sglenn@andrewacademy.org","2011-2012 backsack allocation":0,"community partner":null},"type":"Feature","geometry":{"type":"Point","coordinates":[-86.099518,39.825448]}},{"properties":{"city":"Indianapolis","site coordinator":"Gary Nelson","site coordinator email":"gnelson@msddecatur.k12.in.us","township":"Decatur","county":"Marion","2012-2013 backsack projection":60,"geo_score":0.878,"zip code":"46221","2012-2013 backsack allocation":"27","principal":"Jana Anderson","id":"a9kb72h5boj1","school":"Decatur Learning Center Gold Academy","address":"5650 Mann Road","phone number":"856-0400","geo_precision":"range","state":"IN","principal email":"janderson@msddecatur.k12.in.us","2011-2012 backsack allocation":45,"community partner":null},"type":"Feature","geometry":{"type":"Point","coordinates":[-86.24595,39.682103]}},{"properties":{"city":"Indianapolis","site coordinator":"Debbie Winstone","site coordinator email":"dwinstone@paduaacademyindy.org","township":"Public Charter","county":"Marion","2012-2013 backsack projection":23,"geo_score":1.0,"zip code":"46222","2012-2013 backsack allocation":"28","principal":"Cynthia Greer","id":"a9kb72jo93dl","school":"Padua Academy","address":"349 N Warman Avenue","phone number":"636-3739","geo_precision":"range","state":"IN","principal email":"cgreer@paduaacdemyindy.org","2011-2012 backsack allocation":38,"community partner":null},"type":"Feature","geometry":{"type":"Point","coordinates":[-86.206487,39.771448]}},{"properties":{"city":"Indianapolis","site coordinator":"Margaret Bova","site coordinator email":"mbova@holycrossindy.org","township":"Archdiocese of Indianapolis","county":"Marion","2012-2013 backsack projection":29,"geo_score":0.932,"zip code":"46202","2012-2013 backsack allocation":"30","principal":"Ruth Tinsley","id":"a9kb72el8dwv","school":"Holy Cross Central","address":"125 N Oriental","phone number":"638-9068","geo_precision":"range","state":"IN","principal email":"rtinsley@holycrossindy.org","2011-2012 backsack allocation":25,"community partner":null},"type":"Feature","geometry":{"type":"Point","coordinates":[-86.135245,39.769419]}},{"properties":{"city":"Indianapolis","site coordinator":"Connie Chew and Melissa Love","site coordinator email":"chewc@ips.k12.in.us;lovem@ips.k12.in.us","township":"IPS","county":"Marion","2012-2013 backsack projection":35,"geo_score":0.934,"zip code":"46235","2012-2013 backsack allocation":"30","principal":"Sheila Burlock","id":"a9kb72bsggzs","school":"IPS # 103 Francis Scott Key Elementary","address":"3920 N Baker Drive","phone number":"226-4103","geo_precision":"range","state":"IN","principal email":"burlocs@ips.k12.in.us","2011-2012 backsack allocation":44,"community partner":null},"type":"Feature","geometry":{"type":"Point","coordinates":[-86.000667,39.828545]}},{"properties":{"city":"Indianapolis","site coordinator":"Monica De La Paz","site coordinator email":"delapazm@ips.k12.in.us","township":"IPS","county":"Marion","2012-2013 backsack projection":53,"geo_score":1.0,"zip code":"46205","2012-2013 backsack allocation":"30","principal":"Carmen Sharp","id":"a9kb72dgzx5u","school":"IPS # 48 Louis B. Russell Jr. Elementary","address":"3445 Central Avenue","phone number":"226-4248","geo_precision":"range","state":"IN","principal email":"sharpc@ips.k12.in.us","2011-2012 backsack allocation":60,"community partner":null},"type":"Feature","geometry":{"type":"Point","coordinates":[-86.149634,39.819033]}},{"properties":{"city":"Indianapolis","site coordinator":"Lori Bonner","site coordinator email":"BonnerLC@ips.k12.in.us","township":"IPS","county":"Marion","2012-2013 backsack projection":55,"geo_score":1.0,"zip code":"46222","2012-2013 backsack allocation":"30","principal":"Montinia Darby","id":"a9kb726adyy4","school":"IPS # 63 Wendell Phillips","address":"1163 N Belmont Avenue","phone number":"226-4263","geo_precision":"range","state":"IN","principal email":"donaldm@ips.k12.in.us","2011-2012 backsack allocation":40,"community partner":null},"type":"Feature","geometry":{"type":"Point","coordinates":[-86.196746,39.78591]}},{"properties":{"city":"Indianapolis","site coordinator":"Frank Jackson","site coordinator email":"frankjackson@msdlt.k12.in.us","township":"Lawrence","county":"Marion","2012-2013 backsack projection":44,"geo_score":0.935,"zip code":"46256","2012-2013 backsack allocation":"30","principal":"Carla Johnson","id":"a9kb726uocxb","school":"Mary Castle Elementary","address":"8502 East 82nd Street","phone number":"964-4600","geo_precision":"range","state":"IN","principal email":"carlajohnson@msdlt.k12.in.us","2011-2012 backsack allocation":30,"community partner":"*Castelton Kiwanis*"},"type":"Feature","geometry":{"type":"Point","coordinates":[-86.017113,39.905483]}},{"properties":{"city":"Indianapolis","site coordinator":"Lisa Eck","site coordinator email":"lisa.eck@ftcsc.k12.in.us","township":"Franklin Township","county":"Marion","2012-2013 backsack projection":39,"geo_score":1.0,"zip code":"46237","2012-2013 backsack allocation":"30","principal":"David Henriott","id":"a9kb72dnvwtp","school":"Arlington Elementary","address":"5814 South Arlington Avenue","phone number":"782-4274","geo_precision":"range","state":"IN","principal email":"david.henriott@ftcsc.k12.in.us","2011-2012 backsack allocation":0,"community partner":null},"type":"Feature","geometry":{"type":"Point","coordinates":[-86.063605,39.683039]}},{"properties":{"city":"Indianapolis","site coordinator":"Gail Fox","site coordinator email":"foxgl@ips.k12.in.us","township":"IPS","county":"Marion","2012-2013 backsack projection":39,"geo_score":0.894,"zip code":"46218","2012-2013 backsack allocation":"34","principal":"Vicky Kelley","id":"a9kb72hxbcnh","school":"IPS # 58 Ralph Waldo Emerson Elementary","address":"2107 N Riley","phone number":"226-4258","geo_precision":"range","state":"IN","principal email":"kelleyv@ips.k12.in.us","2011-2012 backsack allocation":40,"community partner":"Pick Up By School"},"type":"Feature","geometry":{"type":"Point","coordinates":[-86.085669,39.798772]}},{"properties":{"city":"Indianapolis","site coordinator":"Angela Knight","site coordinator email":"knighta@ips.k12.in.us","township":"IPS","county":"Marion","2012-2013 backsack projection":36,"geo_score":0.947,"zip code":"46227","2012-2013 backsack allocation":"36","principal":"Lauren Johnson","id":"a9kb72jxsaam","school":"IPS # 65 Raymond Brandes","address":"4065 S Asbury Street","phone number":"226-4265","geo_precision":"range","state":"IN","principal email":"ljohnson@ips.k12.in.us","2011-2012 backsack allocation":40,"community partner":null},"type":"Feature","geometry":{"type":"Point","coordinates":[-86.128154,39.705155]}},{"properties":{"city":"Indianapolis","site coordinator":"Jason Brooks","site coordinator email":"jbrooks2@warren.k12.in.us","township":"Warren","county":"Marion","2012-2013 backsack projection":39,"geo_score":1.0,"zip code":"46239","2012-2013 backsack allocation":"39","principal":"Rob Lugo","id":"a9kb727qvf6h","school":"Liberty Park Elementary","address":"8425 East Raymond Street","phone number":"532-1850","geo_precision":"range","state":"IN","principal email":"rlugo@warren.k12.in.us","2011-2012 backsack allocation":50,"community partner":null},"type":"Feature","geometry":{"type":"Point","coordinates":[-86.011715,39.740093]}},{"properties":{"city":"Indianapolis","site coordinator":"Pat Patterson","site coordinator email":"ppatters@warren.k12.in.us","township":"Warren","county":"Marion","2012-2013 backsack projection":44,"geo_score":0.329,"zip code":"46239","2012-2013 backsack allocation":"40","principal":"Phil Talbert","id":"a9kb72a43l8b","school":"Hawthorne Elementary","address":"8301 E. Rawles Avenue","phone number":"532-3953","geo_precision":"street","state":"IN","principal email":"ptalbert@warren.k12.in.us","2011-2012 backsack allocation":45,"community partner":null},"type":"Feature","geometry":{"type":"Point","coordinates":[-86.021043,39.762024]}},{"properties":{"city":"Indianapolis","site coordinator":"Lakeitha Patterson","site coordinator email":"lakeitha.patterson@imagineschools.com","township":"IMSA","county":"Marion","2012-2013 backsack projection":81,"geo_score":0.585,"zip code":"46235","2012-2013 backsack allocation":"40","principal":"Bianca Rivers","id":"a9kb72ksdubn","school":"Imagine Indiana Life Sciences Academy East","address":"4352 North Mitthoefer Road","phone number":"890-9100","geo_precision":"zip","state":"IN","principal email":"bianca.rivers@imagineschools.com","2011-2012 backsack allocation":30,"community partner":null},"type":"Feature","geometry":{"type":"Point","coordinates":[-85.974081,39.84709]}},{"properties":{"city":"Indinapolis","site coordinator":"Barnedia McBride-Williams","site coordinator email":"williamb@ips.k12.in.us","township":"IPS","county":"Marion","2012-2013 backsack projection":40,"geo_score":0.927,"zip code":"46218","2012-2013 backsack allocation":"40","principal":"Scott Coffey","id":"a9kb72kxqowd","school":"IPS # 88 Anna Brochhausen Elementary","address":"5801 E 16th Street","phone number":"226-4288","geo_precision":"range","state":"IN","principal email":"coffeys@ips.k12.in.us","2011-2012 backsack allocation":61,"community partner":null},"type":"Feature","geometry":{"type":"Point","coordinates":[-86.067876,39.788944]}},{"properties":{"city":"Indianapolis","site coordinator":"Cheryl Wilson-Brown","site coordinator email":"browncl@ips.k12.in.us","township":"IPS","county":"Marion","2012-2013 backsack projection":44,"geo_score":0.935,"zip code":"46226","2012-2013 backsack allocation":"40","principal":"Samra Rogers","id":"a9kb72845bs5","school":"IPS # 93 George H. Fisher Elementary","address":"7151 E 35th Street","phone number":"226-4293","geo_precision":"range","state":"IN","principal email":"rogerssa@ips.k12.in.us","2011-2012 backsack allocation":0,"community partner":null},"type":"Feature","geometry":{"type":"Point","coordinates":[-86.040187,39.820153]}},{"properties":{"city":"West Newton","site coordinator":"Arbara Rogers","site coordinator email":"arogers@msddecatur.k12.in.us","township":"Decatur","county":"Marion","2012-2013 backsack projection":50,"geo_score":0.992,"zip code":"46183","2012-2013 backsack allocation":"40","principal":"Susan Strube","id":"a9kb72kp112j","school":"West Newton Elementary","address":"7529 Mooresville Road","phone number":"856-5237","geo_precision":"range","state":"IN","principal email":"sstrube@msddecatur.k12.in.us","2011-2012 backsack allocation":57,"community partner":null},"type":"Feature","geometry":{"type":"Point","coordinates":[-86.282228,39.652765]}},{"properties":{"city":"Indianapolis","site coordinator":"Amber Boushehery","site coordinator email":"aboushehry@msddecatur.k12.in.us","township":"Decatur","county":"Marion","2012-2013 backsack projection":60,"geo_score":0.878,"zip code":"46221","2012-2013 backsack allocation":"40","principal":"Stephanie Hofer","id":"a9kb729pcdd3","school":"DELC Blue Academy","address":"5650 Mann Road","phone number":"856-4100","geo_precision":"range","state":"IN","principal email":"shofer@msddecatur.k12.in.us","2011-2012 backsack allocation":40,"community partner":null},"type":"Feature","geometry":{"type":"Point","coordinates":[-86.24595,39.682103]}},{"properties":{"city":"Indianapolis","site coordinator":"Lance Schnaus","site coordinator email":"lschnaus@warren.k12.in.us","township":"Warren","county":"Marion","2012-2013 backsack projection":41,"geo_score":1.0,"zip code":"46239","2012-2013 backsack allocation":"41","principal":"Betsy Snapp","id":"a9kb726el1e5","school":"Grassy Creek Elementary","address":"10330 E Prospect Street","phone number":"532-3100","geo_precision":"range","state":"IN","principal email":"bsnapp@warren.k12.in.us","2011-2012 backsack allocation":40,"community partner":null},"type":"Feature","geometry":{"type":"Point","coordinates":[-85.981002,39.755318]}},{"properties":{"city":"Indianapolis","site coordinator":"Kristy Eaton","site coordinator email":"eatonk@ips.k12.in.us","township":"IPS","county":"Marion","2012-2013 backsack projection":58,"geo_score":1.0,"zip code":"46201","2012-2013 backsack allocation":"42","principal":"Margo Myers","id":"a9kb72glno0x","school":"IPS # 82 Christian Park Elementary","address":"4700 English Avenue","phone number":"226-4282","geo_precision":"range","state":"IN","principal email":"myersm@ips.k12.in.us","2011-2012 backsack allocation":0,"community partner":null},"type":"Feature","geometry":{"type":"Point","coordinates":[-86.088903,39.760242]}},{"properties":{"city":"Indianapolis","site coordinator":"Shevaughn Loney","site coordinator email":"sloney@perryschools.org","township":"Perry","county":"Marion","2012-2013 backsack projection":68,"geo_score":0.955,"zip code":"46227","2012-2013 backsack allocation":"43","principal":"Danny Mendez","id":"a9kb7285qy91","school":"Southport Elementary","address":"261 E Anniston Drive","phone number":"789-3300","geo_precision":"range","state":"IN","principal email":"dmendez@perryschools.org","2011-2012 backsack allocation":66,"community partner":null},"type":"Feature","geometry":{"type":"Point","coordinates":[-86.116367,39.659823]}},{"properties":{"city":"Indianapolis","site coordinator":"Bakari Posey","site coordinator email":"bposey@warren.k12.in.us","township":"Warren","county":"Marion","2012-2013 backsack projection":58,"geo_score":0.805,"zip code":"46223","2012-2013 backsack allocation":"45","principal":"Steve Foster","id":"a9kb72kmatqt","school":"Creston Intermediate Academy","address":"10925 East Prospect Street","phone number":"869-1327","geo_precision":"range","state":"IN","principal email":"sfoster@warren.k12.in.us","2011-2012 backsack allocation":58,"community partner":null},"type":"Feature","geometry":{"type":"Point","coordinates":[-85.971646,39.755263]}},{"properties":{"city":"Indianapolis","site coordinator":"Carl Blythe","site coordinator email":"carlblythe@msdlt.k12.in.us","township":"Lawrence","county":"Marion","2012-2013 backsack projection":46,"geo_score":0.935,"zip code":"46256","2012-2013 backsack allocation":"45","principal":"Kim Brown","id":"a9kb72akjhwd","school":"Crestview Elementary","address":"7600 East 71st Street","phone number":"964-4200","geo_precision":"range","state":"In","principal email":"kimberlybrown@msdlt.k12.in.us","2011-2012 backsack allocation":40,"community partner":null},"type":"Feature","geometry":{"type":"Point","coordinates":[-86.037948,39.883522]}},{"properties":{"city":"Indianapolis","site coordinator":"Beth Masterson","site coordinator email":"mastersb@ips.k12.in.us","township":"IPS","county":"Marion","2012-2013 backsack projection":45,"geo_score":1.0,"zip code":"46205","2012-2013 backsack allocation":"45","principal":"Lauren Franklin","id":"a9kb72cu38gc","school":"IPS # 56 Francis W. Parker","address":"2353 Columbia Avenue","phone number":"226-4256","geo_precision":"range","state":"IN","principal email":"franklil@ips.k12.in.us","2011-2012 backsack allocation":48,"community partner":null},"type":"Feature","geometry":{"type":"Point","coordinates":[-86.136775,39.800397]}},{"properties":{"city":"Beech Grove","site coordinator":"Craig Buckler","site coordinator email":"cbuckler@bgcs.k12.in.us","township":"Beech Grove","county":"Marion","2012-2013 backsack projection":46,"geo_score":0.864,"zip code":"46131","2012-2013 backsack allocation":"46","principal":"Craig Buckler","id":"a9kb72jajzfw","school":"Central Elementary","address":"1000 Main Street","phone number":"784-4565","geo_precision":"range","state":"IN","principal email":"cbukler@bgcs.k12.in.us","2011-2012 backsack allocation":40,"community partner":null},"type":"Feature","geometry":{"type":"Point","coordinates":[-86.05971,39.490359]}},{"properties":{"city":"Indianapolis","site coordinator":"Kim Winkel","site coordinator email":"winkelk@ips.k12.in.us","township":"IPS","county":"Marion","2012-2013 backsack projection":46,"geo_score":0.935,"zip code":"46226","2012-2013 backsack allocation":"46","principal":"Heather Haskett","id":"a9kb72cz6amk","school":"IPS # 83 Floro Torrence Elementary","address":"5050 East 42nd Street","phone number":"226-4283","geo_precision":"range","state":"IN","principal email":"hasketth@ips.k12.in.us","2011-2012 backsack allocation":50,"community partner":null},"type":"Feature","geometry":{"type":"Point","coordinates":[-86.086203,39.833022]}},{"properties":{"city":"Indianapolis","site coordinator":"Janise Stone","site coordinator email":"janise.stone@wayne.k12.in.us","township":"Wayne","county":"Marion","2012-2013 backsack projection":46,"geo_score":0.935,"zip code":"46234","2012-2013 backsack allocation":"46","principal":"Kyle Fessler","id":"a9kb72bf0c6q","school":"Robey Elementary","address":"8700 W 30th Street","phone number":"988-6082","geo_precision":"range","state":"IN","principal email":"kyle.fessler@wayne.k12.in.us","2011-2012 backsack allocation":0,"community partner":null},"type":"Feature","geometry":{"type":"Point","coordinates":[-86.31962,39.808122]}},{"properties":{"city":"Beech Grove","site coordinator":"Colleen Borgert","site coordinator email":"cborgert@bgcs.k12.in.us","township":"Beech Grove","county":"Marion","2012-2013 backsack projection":48,"geo_score":1.0,"zip code":"46107","2012-2013 backsack allocation":"48","principal":"Erin Probus","id":"a9kb72jel290","school":"Hornet Park Elementary","address":"5249 Hornet Avenue","phone number":"780-5050","geo_precision":"range","state":"IN","principal email":"eprobus@bgcs.k12.in.us","2011-2012 backsack allocation":40,"community partner":null},"type":"Feature","geometry":{"type":"Point","coordinates":[-86.077721,39.711163]}},{"properties":{"city":"Indianapolis","site coordinator":"Kate Voss","site coordinator email":"kvoss@senseindy.org","township":"SENSE","county":"Marion","2012-2013 backsack projection":42,"geo_score":0.947,"zip code":"46203","2012-2013 backsack allocation":"48","principal":"Kristie Sweeney","id":"a9kb72l3h3rh","school":"Sense Charter School","address":"1601 S Barth Avenue","phone number":"423-0204","geo_precision":"range","state":"IN","principal email":"ksweeney@senseindy.org","2011-2012 backsack allocation":48,"community partner":null},"type":"Feature","geometry":{"type":"Point","coordinates":[-86.141105,39.744395]}},{"properties":{"city":"Indianapolis","site coordinator":"Laura Hudson and Condy Nicosin","site coordinator email":"lhudson@perryschools.org;cnicosin@perryschools.org","township":"Perry","county":"Marion","2012-2013 backsack projection":47,"geo_score":0.878,"zip code":"46237","2012-2013 backsack allocation":"48","principal":"Dana Dehart","id":"a9kb729szvil","school":"Mary Bryan Elementary","address":"4355 E Stop 11 Road","phone number":null,"geo_precision":"range","state":"IN","principal email":"ddehart@perryschoo.","2011-2012 backsack allocation":null,"community partner":null},"type":"Feature","geometry":{"type":"Point","coordinates":[-86.090387,39.650957]}},{"properties":{"city":"Indianapolis","site coordinator":"Deb Skjeveland","site coordinator email":"dskjeveland@isd.k12.in.us","township":"ISD","county":"Marion","2012-2013 backsack projection":40,"geo_score":0.935,"zip code":"46205","2012-2013 backsack allocation":"49","principal":"Kim Kause","id":"a9kb72d0augh","school":"Indiana School for the Deaf","address":"1200 East 42nd Street","phone number":"550-4800","geo_precision":"range","state":"IN","principal email":"kkause@isd.k12.in.us","2011-2012 backsack allocation":31,"community partner":null},"type":"Feature","geometry":{"type":"Point","coordinates":[-86.131767,39.832886]}},{"properties":{"city":"Indianapolis","site coordinator":"Charles Woods","site coordinator email":"cwoods3@warren.k12.in.us","township":"Warren","county":"Marion","2012-2013 backsack projection":48,"geo_score":0.935,"zip code":"46229","2012-2013 backsack allocation":"50","principal":"Robin Le Claire","id":"a9kb72cs90v4","school":"Eastridge Elementary","address":"10930 East 10th Street","phone number":"532-3150","geo_precision":"range","state":"IN","principal email":"rleclair@warren.k12.in.us","2011-2012 backsack allocation":48,"community partner":null},"type":"Feature","geometry":{"type":"Point","coordinates":[-85.977566,39.782467]}},{"properties":{"city":"Indianapolis","site coordinator":"Jyoti Weaver","site coordinator email":"weaverj@ips.k12.in.us","township":"IPS","county":"Marion","2012-2013 backsack projection":48,"geo_score":0.585,"zip code":"46226","2012-2013 backsack allocation":"50","principal":"tina Foster","id":"a9kb72ay6yvh","school":"IPS # 106 Robert Lee Frost","address":"53010 Roxburry Road","phone number":"317-226-4106","geo_precision":"zip","state":"IN","principal email":"fostertn@ips.k12.in.us","2011-2012 backsack allocation":56,"community partner":null},"type":"Feature","geometry":{"type":"Point","coordinates":[-86.063874,39.857818]}},{"properties":{"city":"Indianapolis","site coordinator":"Maria Manzola","site coordinator email":"manzolamc@ips.k12.in.us","township":"IPS","county":"Marion","2012-2013 backsack projection":92,"geo_score":1.0,"zip code":"46222","2012-2013 backsack allocation":"52","principal":"Mark Nardo","id":"a9kb7269io0w","school":"IPS # 67 Stephen Collins Foster","address":"653 north Somerset Avenue","phone number":"226-4267","geo_precision":"range","state":"IN","principal email":"nardom@ips.k12.in.us","2011-2012 backsack allocation":52,"community partner":null},"type":"Feature","geometry":{"type":"Point","coordinates":[-86.221739,39.775953]}},{"properties":{"city":"Indianapolis","site coordinator":"Stephen Gainey","site coordinator email":"sgainey@warren.k12.in.us","township":"Warren","county":"Marion","2012-2013 backsack projection":50,"geo_score":0.61,"zip code":"46126","2012-2013 backsack allocation":"52","principal":"Ryan Russell","id":"a9kb727mm8kq","school":"Raymond Park Intermediate School","address":"8575 East Raymond Street","phone number":"532-8965","geo_precision":"street","state":"IN","principal email":"rrussell@warren.k12.in.us","2011-2012 backsack allocation":63,"community partner":null},"type":"Feature","geometry":{"type":"Point","coordinates":[-86.391204,39.701007]}},{"properties":{"city":"Indianapolis","site coordinator":"Colleen Kliewer","site coordinator email":"kliewerc@ips.k12.in.us","township":"IPS","county":"Marion","2012-2013 backsack projection":63,"geo_score":0.875,"zip code":"46224","2012-2013 backsack allocation":"53","principal":"Mary Siefert","id":"a9kb72879s3q","school":"IPS # 96 Meradith Nicholson","address":"3651 N Kiel","phone number":"226-4296","geo_precision":"range","state":"IN","principal email":"siefertm@ips.k12.in.us","2011-2012 backsack allocation":71,"community partner":null},"type":"Feature","geometry":{"type":"Point","coordinates":[-86.262856,39.822282]}},{"properties":{"city":"Indianapolis","site coordinator":"Barbara Woods","site coordinator email":"woodsbj@ips.k12.in.us","township":"IPS","county":"Marion","2012-2013 backsack projection":65,"geo_score":1.0,"zip code":"46221","2012-2013 backsack allocation":"54","principal":"Terry Garner","id":"a9kb72bz3bf1","school":"IPS # 46 Daniel Webster Elementary","address":"1450 S Reisner Street","phone number":"226-4246","geo_precision":"range","state":"IN","principal email":"garnert@ips.k12.in.us","2011-2012 backsack allocation":54,"community partner":null},"type":"Feature","geometry":{"type":"Point","coordinates":[-86.189632,39.746642]}},{"properties":{"city":"Indianapolis","site coordinator":"Alissa Carmichael","site coordinator email":"acarmich@warren.k12.in.us","township":"Warren","county":"Marion","2012-2013 backsack projection":54,"geo_score":0.784,"zip code":"46229","2012-2013 backsack allocation":"54","principal":"My Hardin","id":"a9kb727knkmj","school":"Sunny Heights Elementary","address":"1149 StonyBrook Drive","phone number":"532-2900","geo_precision":"street","state":"IN","principal email":"mhardin@warren.k12.in.us","2011-2012 backsack allocation":57,"community partner":null},"type":"Feature","geometry":{"type":"Point","coordinates":[-85.968329,39.80777]}},{"properties":{"city":"Indianapolis","site coordinator":"Kim Griffin","site coordinator email":"kgriffin@warren.k12.in.us","township":"Warren","county":"Marion","2012-2013 backsack projection":56,"geo_score":0.947,"zip code":"46239","2012-2013 backsack allocation":"56","principal":"Michelle Wagner","id":"a9kb727d1n46","school":"Lowell Elementary","address":"2150 Hunter Road","phone number":"532-3900","geo_precision":"range","state":"IN","principal email":"mwagner@warren.k12.in.ud","2011-2012 backsack allocation":56,"community partner":null},"type":"Feature","geometry":{"type":"Point","coordinates":[-86.04965,39.742073]}},{"properties":{"city":"Indianapolis","site coordinator":"Julie Aldrich","site coordinator email":"jaldrich@warren.k12.in.us","township":"Warren","county":"Marion","2012-2013 backsack projection":57,"geo_score":1.0,"zip code":"46219","2012-2013 backsack allocation":"57","principal":"Pat Anderson","id":"a9kb72jcq1dl","school":"Pleasant Run Elementary","address":"1800 N Franklin Road","phone number":"532-3800","geo_precision":"range","state":"IN","principal email":"panderso@warren.k12.in.us","2011-2012 backsack allocation":68,"community partner":null},"type":"Feature","geometry":{"type":"Point","coordinates":[-86.025274,39.793927]}},{"properties":{"city":"Indianapolis","site coordinator":"Herman Arrivillaga","site coordinator email":"harrivillaga@perryschools.org","township":"Perry","county":"Marion","2012-2013 backsack projection":87,"geo_score":0.977,"zip code":"46227","2012-2013 backsack allocation":"58","principal":"Jennifer Sheets","id":"a9kb72az48nm","school":"Clinton Young Elementary","address":"5740 McFarland Road","phone number":"789-3400","geo_precision":"range","state":"IN","principal email":"jsheets@perryschools.org","2011-2012 backsack allocation":58,"community partner":null},"type":"Feature","geometry":{"type":"Point","coordinates":[-86.111108,39.685258]}},{"properties":{"city":"Indianpolis","site coordinator":"Elizabeth Wissel","site coordinator email":"wissell@north.imsaindy.org","township":"IMSA","county":"Marion","2012-2013 backsack projection":47,"geo_score":0.992,"zip code":"46240","2012-2013 backsack allocation":"58","principal":"John Aytekin","id":"a9kb72hey4k3","school":"Indiana Math and Science Academy North","address":"7435 North Keystone Avenue","phone number":"317-989-5761","geo_precision":"range","state":"IN","principal email":"aytekin@north.imsaindy.org","2011-2012 backsack allocation":60,"community partner":null},"type":"Feature","geometry":{"type":"Point","coordinates":[-86.121878,39.890202]}},{"properties":{"city":"Indianapolis","site coordinator":"Angie Abell","site coordinator email":"abella@ips.k12.in.us","township":"IPS","county":"Marion","2012-2013 backsack projection":58,"geo_score":1.0,"zip code":"46226","2012-2013 backsack allocation":"58","principal":"Paula Peterson","id":"a9kb72jay38b","school":"IPS # 105 Charles W. Fairbanks Elementary","address":"8620 Montery Road","phone number":"226-4105","geo_precision":"range","state":"IN","principal email":"petersop@ips.k12.in.us","2011-2012 backsack allocation":75,"community partner":null},"type":"Feature","geometry":{"type":"Point","coordinates":[-86.015986,39.830465]}},{"properties":{"city":"Indianapolis","site coordinator":"Jeanne Milligan","site coordinator email":"milligaj@ips.k12.in.us","township":"IPS","county":"Marion","2012-2013 backsack projection":61,"geo_score":0.875,"zip code":"46203","2012-2013 backsack allocation":"58","principal":"Sue Mahoney","id":"a9kb72ba4jqr","school":"IPS # 34 Eleanor Skillen Elementary","address":"1410 Wade","phone number":"226-4234","geo_precision":"range","state":"IN","principal email":"MahoneSL@ips.k12.in.us","2011-2012 backsack allocation":0,"community partner":null},"type":"Feature","geometry":{"type":"Point","coordinates":[-86.13605,39.735184]}},{"properties":{"city":"Indianapolis","site coordinator":"Rose Graham","site coordinator email":"rosegraham@msdlt.k12.in.us","township":"Lawrence","county":"Marion","2012-2013 backsack projection":74,"geo_score":0.935,"zip code":"46235","2012-2013 backsack allocation":"59","principal":"Alicia harris","id":"a9kb72gk4ppm","school":"Winding Ridge Elementary","address":"11825 East 46th Street","phone number":"964-6800","geo_precision":"range","state":"IN","principal email":"aliciaharris@msdlt.k12.in.us","2011-2012 backsack allocation":80,"community partner":null},"type":"Feature","geometry":{"type":"Point","coordinates":[-85.957471,39.841293]}},{"properties":{"city":"Indianapolis","site coordinator":"Travis Koomler","site coordinator email":"tkoomler@warren.k12.in.us","township":"Warren","county":"Marion","2012-2013 backsack projection":56,"geo_score":0.805,"zip code":"46239","2012-2013 backsack allocation":"60","principal":"Kim Ferguson","id":"a9kb728d9hcq","school":"Brookview Elementary","address":"1550 N Cumberland Road","phone number":"532-3054","geo_precision":"range","state":"IN","principal email":"kferguso@warren.k12.in.us","2011-2012 backsack allocation":65,"community partner":null},"type":"Feature","geometry":{"type":"Point","coordinates":[-85.957322,39.788056]}},{"properties":{"city":"Indianapolis","site coordinator":"Hala Bannourah","site coordinator email":"bannourh@ips.k12.in.us","township":"IPS","county":"Marion","2012-2013 backsack projection":47,"geo_score":0.935,"zip code":"46208","2012-2013 backsack allocation":"60","principal":"Deloris Sangster","id":"a9kb72bcz6ha","school":"IPS #42 Elder Diggs","address":"1002 W 25th Street","phone number":"226-4242","geo_precision":"range","state":"IN","principal email":"sangsted@ips.k12.in.us","2011-2012 backsack allocation":60,"community partner":null},"type":"Feature","geometry":{"type":"Point","coordinates":[-86.180034,39.802885]}},{"properties":{"city":"Indianapolis","site coordinator":"Crystal Johnson","site coordinator email":"johnsocf@ips.k12.in.us","township":"IPS","county":"Marion","2012-2013 backsack projection":62,"geo_score":0.935,"zip code":"46208","2012-2013 backsack allocation":"62","principal":"Kamona McDowell","id":"a9kb72d9mbo7","school":"IPS # 43 James Whitcomb Riley","address":"150 W 40th Street","phone number":"226-4243","geo_precision":"range","state":"IN","principal email":"mcdowelk@ips.k12.in.us","2011-2012 backsack allocation":0,"community partner":null},"type":"Feature","geometry":{"type":"Point","coordinates":[-86.161182,39.828393]}},{"properties":{"city":"Indianapolis","site coordinator":"Shelia Richardson","site coordinator email":"srichardson@jhbcc.org","township":"IPS","county":"Marion","2012-2013 backsack projection":64,"geo_score":0.935,"zip code":"46201","2012-2013 backsack allocation":"63","principal":"Ms. Bakehorn","id":"a9kb72iavx2k","school":"IPS # 54 Brookside Elementary","address":"3150 East 10th Street","phone number":"226-4254","geo_precision":"range","state":"IN","principal email":"bakehorj@ips.k12.in.us","2011-2012 backsack allocation":64,"community partner":null},"type":"Feature","geometry":{"type":"Point","coordinates":[-86.111337,39.781438]}},{"properties":{"city":"Indianapolis","site coordinator":"Janise Stone","site coordinator email":"janise.stone@wayne.k12.in.us","township":"Wayne","county":"Marion","2012-2013 backsack projection":64,"geo_score":1.0,"zip code":"46231","2012-2013 backsack allocation":"64","principal":"Angela Lewis","id":"a9kb7297g5uj","school":"Bridgeport","address":"9035 W Morris Street","phone number":"988-620","geo_precision":"range","state":"IN","principal email":"angela.lewis@wayne.k12.in.us","2011-2012 backsack allocation":0,"community partner":null},"type":"Feature","geometry":{"type":"Point","coordinates":[-86.322464,39.749063]}},{"properties":{"city":"Indianapolis","site coordinator":"Janie Smith","site coordinator email":"jsmith6@warren.k12.in.us","township":"Warren","county":"Marion","2012-2013 backsack projection":62,"geo_score":0.935,"zip code":"46229","2012-2013 backsack allocation":"64","principal":"Jeff Hoog","id":"a9kb72fhig5b","school":"Lakeside Elementary","address":"9601 East 21st Street","phone number":"532-2850","geo_precision":"range","state":"In","principal email":"jhoog@warren.k12.in.us","2011-2012 backsack allocation":79,"community partner":null},"type":"Feature","geometry":{"type":"Point","coordinates":[-85.995944,39.796853]}},{"properties":{"city":"Indianapolis","site coordinator":"Renee Pack","site coordinator email":"Renee.Pack@wayne.k12.in.us","township":"Wayne","county":"Marion","2012-2013 backsack projection":80,"geo_score":1.0,"zip code":"46234","2012-2013 backsack allocation":"66","principal":"Dr. Marc Coapstick","id":"a9kb727doxt7","school":"Chapel Glen Elementary","address":"701 Lansdowne Road","phone number":"988-6500","geo_precision":"range","state":"IN","principal email":"marc.coapstick@wayne.k12.in.us","2011-2012 backsack allocation":0,"community partner":null},"type":"Feature","geometry":{"type":"Point","coordinates":[-86.3166,39.773965]}},{"properties":{"city":"Indianapolis","site coordinator":"Tammy Mills","site coordinator email":"tammymills@msdlt.k12.in.us","township":"Lawrence","county":"Marion","2012-2013 backsack projection":77,"geo_score":0.935,"zip code":"46226","2012-2013 backsack allocation":"68","principal":"Natalie Stewert","id":"a9kb72cuehdz","school":"Harrison Hill Elementary","address":"7510 East 53rd St","phone number":"964-4300","geo_precision":"range","state":"IN","principal email":"nataliestewert@msdlt.k12.in.us","2011-2012 backsack allocation":72,"community partner":null},"type":"Feature","geometry":{"type":"Point","coordinates":[-86.035419,39.850024]}},{"properties":{"city":"Beech Grove","site coordinator":"Julianne Lohman","site coordinator email":"jlohman@bgcs.k12.in.us","township":"Beech Grove","county":"Marion","2012-2013 backsack projection":69,"geo_score":0.935,"zip code":"46107","2012-2013 backsack allocation":"69","principal":"Tonya Reid","id":"a9kb72939blf","school":"South Grove Intermediate School","address":"851 S 9th Avenue","phone number":"786-7687","geo_precision":"range","state":"IN","principal email":"treid@bgcs.k12.in.us","2011-2012 backsack allocation":50,"community partner":null},"type":"Feature","geometry":{"type":"Point","coordinates":[-86.091942,39.707685]}},{"properties":{"city":"Indianapolis","site coordinator":"Hugh Boger","site coordinator email":"hboger@warren.k12.in.us","township":"Warren","county":"Marion","2012-2013 backsack projection":71,"geo_score":0.979,"zip code":"46229","2012-2013 backsack allocation":"71","principal":"Kim Anne Sohule","id":"a9kb72kyz23l","school":"Stonybrook Intermediate Academy","address":"11300 Stonybrook Drive","phone number":"532-8828","geo_precision":"range","state":"IN","principal email":null,"2011-2012 backsack allocation":47,"community partner":null},"type":"Feature","geometry":{"type":"Point","coordinates":[-85.967075,39.807843]}},{"properties":{"city":"Indianapolis","site coordinator":"Joe Lee Dancy","site coordinator email":"joe.dancy@wayne.k12.in.us","township":"Wayne","county":"Marion","2012-2013 backsack projection":73,"geo_score":1.0,"zip code":"46241","2012-2013 backsack allocation":"73","principal":"Jennifer Nichols","id":"a9kb72k7aoav","school":"McClelland","address":"6740 W Morris Street","phone number":"988-8000","geo_precision":"range","state":"IN","principal email":"jennifer.nichols@wayne.k12.in.us","2011-2012 backsack allocation":0,"community partner":null},"type":"Feature","geometry":{"type":"Point","coordinates":[-86.277379,39.74997]}},{"properties":{"city":"Indianapolis","site coordinator":"Victoria Sheppard","site coordinator email":"sheppavd@ips.k12.in.us","township":"IPS","county":"Marion","2012-2013 backsack projection":76,"geo_score":0.619,"zip code":"46218","2012-2013 backsack allocation":"75","principal":"Kris Walker-Guess","id":"a9kb72bitqb0","school":"IPS # 99 Arlington Woods Elementary","address":"5801 E. 30th St","phone number":"226-4299","geo_precision":"street","state":"IN","principal email":"guessk@ips.k12.in.us","2011-2012 backsack allocation":75,"community partner":null},"type":"Feature","geometry":{"type":"Point","coordinates":[-86.135618,39.810694]}},{"properties":{"city":"Indianapolis","site coordinator":"Josette Jackson","site coordinator email":"jjackson@jhbcc.org","township":"IPS","county":"Marion","2012-2013 backsack projection":78,"geo_score":1.0,"zip code":"46202","2012-2013 backsack allocation":"78","principal":"Karen Hastings","id":"a9kb72hcpypc","school":"IPS # 14 Washington Irving Elementary School","address":"1250 E Market Street","phone number":"226-4214","geo_precision":"range","state":"IN","principal email":"hastingsk@ips.k12.in.us","2011-2012 backsack allocation":121,"community partner":null},"type":"Feature","geometry":{"type":"Point","coordinates":[-86.136567,39.768155]}},{"properties":{"city":"Indianapolis","site coordinator":"Sarah McAfee","site coordinator email":"con031sd@ips.k12.in.us","township":"IPS","county":"Marion","2012-2013 backsack projection":58,"geo_score":0.806,"zip code":"46203","2012-2013 backsack allocation":"80","principal":"Ann Toombs","id":"a9kb72akzzrv","school":"IPS # 31 James A. Garfield","address":"307 Lincoln Street","phone number":"226-4231","geo_precision":"street","state":"IN","principal email":"toombsa@ips.k12.in.us","2011-2012 backsack allocation":75,"community partner":null},"type":"Feature","geometry":{"type":"Point","coordinates":[-86.143755,39.745672]}},{"properties":{"city":"Indianapolis","site coordinator":"Tierney Anderson","site coordinator email":"tierneyanderson@msdlt.k12.in.us","township":"Lawrence","county":"Marion","2012-2013 backsack projection":80,"geo_score":0.805,"zip code":"46226","2012-2013 backsack allocation":"80","principal":"Erica Buchanan","id":"a9kb729g16xk","school":"Sunnyside Elementary","address":"6345 Sunnyside Road","phone number":"964-4500","geo_precision":"range","state":"IN","principal email":"ericabuchanan@msdlt.k12.in.us","2011-2012 backsack allocation":60,"community partner":null},"type":"Feature","geometry":{"type":"Point","coordinates":[-85.973199,39.880463]}},{"properties":{"city":"Indianapolis","site coordinator":"Natalie Bohanon","site coordinator email":"nbohannon@msdpt.k12.in.us","township":"Perry","county":"Marion","2012-2013 backsack projection":88,"geo_score":1.0,"zip code":"46227","2012-2013 backsack allocation":"88","principal":"Doug Smith","id":"a9kb72cfvzmd","school":"Winchester Village Elementary","address":"1900 E Stop 12 Road","phone number":"789-2700","geo_precision":"range","state":"IN","principal email":"desmith@perryschools.org","2011-2012 backsack allocation":88,"community partner":null},"type":"Feature","geometry":{"type":"Point","coordinates":[-86.127786,39.642947]}},{"properties":{"city":"Indianapolis","site coordinator":"John Mutz","site coordinator email":"john.mutz@wayne.k12.in.us","township":"Wayne","county":"Marion","2012-2013 backsack projection":79,"geo_score":0.951,"zip code":"46241","2012-2013 backsack allocation":"90","principal":"Moira Clark","id":"a9kb72mmeue2","school":"Maplewood Elementary","address":"1643 S Dunlap Avenue","phone number":"988-6600","geo_precision":"range","state":"IN","principal email":"moira.clark@wayne.k12.in.us","2011-2012 backsack allocation":90,"community partner":null},"type":"Feature","geometry":{"type":"Point","coordinates":[-86.244692,39.744177]}},{"properties":{"city":"Indianapolis","site coordinator":"Julie Vanover","site coordinator email":"jvanover@msdwt.k12.in.us","township":"Washington","county":"Marion","2012-2013 backsack projection":90,"geo_score":0.935,"zip code":"46240","2012-2013 backsack allocation":"93","principal":"Suzanne Zybert","id":"a9kb72lgml5q","school":"Nora Elementary","address":"1000 E 91st St","phone number":"317-844-5436","geo_precision":"range","state":"IN","principal email":"szybert@msdwt.k12.in.us","2011-2012 backsack allocation":0,"community partner":null},"type":"Feature","geometry":{"type":"Point","coordinates":[-86.143547,39.919859]}},{"properties":{"city":"Indianapolis","site coordinator":"Kimo Parham","site coordinator email":"kparham@msdpt.k12.in.us","township":"Perry","county":"Marion","2012-2013 backsack projection":98,"geo_score":1.0,"zip code":"46217","2012-2013 backsack allocation":"96","principal":"Whitney Wilkowski","id":"a9kb72b3dfqd","school":"Abraham Lincoln Elementary","address":"5241 Brehob Road","phone number":"789-3800","geo_precision":"range","state":"IN","principal email":"wwilkowski@msdpt.k12.in.us","2011-2012 backsack allocation":96,"community partner":null},"type":"Feature","geometry":{"type":"Point","coordinates":[-86.166272,39.692457]}},{"properties":{"city":"Indianapolis","site coordinator":"Michelle Stohler","site coordinator email":"michelle.stohler@wayne.k12.in.us","township":"Wayne","county":"Marion","2012-2013 backsack projection":96,"geo_score":1.0,"zip code":"46214","2012-2013 backsack allocation":"96","principal":"Heather Pierce","id":"a9kb72dntt7v","school":"Chapelwood Elementary","address":"1129 N Girls School Road","phone number":"988-6482","geo_precision":"range","state":"IN","principal email":"heather.pierce@wayne.k12.in.us","2011-2012 backsack allocation":104,"community partner":null},"type":"Feature","geometry":{"type":"Point","coordinates":[-86.288434,39.782013]}},{"properties":{"city":"Indianapolis","site coordinator":"Rae Quarles","site coordinator email":"rae.quarles.k12.in.us","township":"Wayne","county":"Marion","2012-2013 backsack projection":100,"geo_score":0.92,"zip code":"46241","2012-2013 backsack allocation":"100","principal":"Karen Boatright","id":"a9kb72hqvpmq","school":"Rhoades Elementary","address":"502 South Auburn","phone number":"988-6700","geo_precision":"range","state":"IN","principal email":"karen.boatright@wayne.k12.in.us","2011-2012 backsack allocation":100,"community partner":null},"type":"Feature","geometry":{"type":"Point","coordinates":[-86.243984,39.75847]}},{"properties":{"city":"Indianapolis","site coordinator":"Virginia Sutherlin","site coordinator email":"sutherlv@ips.k12.in.us","township":"IPS","county":"Marion","2012-2013 backsack projection":73,"geo_score":1.0,"zip code":"46203","2012-2013 backsack allocation":"110","principal":"Beth Gehm","id":"a9kb72k77i0d","school":"IPS # 39 William McKinley","address":"1733 Spann Avenue","phone number":"226-4239","geo_precision":"range","state":"IN","principal email":"gehme@ips.k12.in.us","2011-2012 backsack allocation":58,"community partner":null},"type":"Feature","geometry":{"type":"Point","coordinates":[-86.128663,39.758759]}},{"properties":{"city":"Indianapoli","site coordinator":"Deborah Nay","site coordinator email":"nayd@ips.k12.in.us","township":"IPS","county":"Marion","2012-2013 backsack projection":94,"geo_score":0.992,"zip code":"46203","2012-2013 backsack allocation":"120","principal":"Marjorie Lindeman","id":"a9kb727zglrx","school":"IPS # 114 Paul I Miller Elementary","address":"2251 Sloan Avenue","phone number":"226-4114","geo_precision":"range","state":"IN","principal email":"lindeman@ips.k12.in.us","2011-2012 backsack allocation":88,"community partner":null},"type":"Feature","geometry":{"type":"Point","coordinates":[-86.087356,39.734895]}},{"properties":{"city":"Indianapolis","site coordinator":"Erika Rodriquez","site coordinator email":"erika.rodriquez@wayne.k12.in.us","township":"Wayne","county":"Marion","2012-2013 backsack projection":126,"geo_score":0.585,"zip code":"46224","2012-2013 backsack allocation":"125","principal":"Pam Hardy","id":"a9kb729z42pa","school":"Garden City Elementary","address":"4901 Rockville Road","phone number":"988-8300","geo_precision":"zip","state":"IN","principal email":"Pam.Hardy@wayne.k12.in.us","2011-2012 backsack allocation":0,"community partner":null},"type":"Feature","geometry":{"type":"Point","coordinates":[-86.267213,39.802265]}},{"properties":{"city":"Indianapolis","site coordinator":"Mary Studley","site coordinator email":"studlm@ips.k12.in.us","township":"IPS","county":"Marion","2012-2013 backsack projection":74,"geo_score":1.0,"zip code":"46218","2012-2013 backsack allocation":"NA","principal":"Jennifer Pearson","id":"a9kb729u953j","school":"IPS # 51 James Russell Lowell","address":"3426 Roosevelt Avenue","phone number":"226-4251","geo_precision":"range","state":"IN","principal email":"pearsonj@ips.k12.in.us","2011-2012 backsack allocation":48,"community partner":null},"type":"Feature","geometry":{"type":"Point","coordinates":[-86.108353,39.79931]}},{"properties":{"city":"Indianapolis","site coordinator":"Beverly Fritz","site coordinator email":"dobefritz@att.net","township":"Private","county":"Marion","2012-2013 backsack projection":10,"geo_score":1.0,"zip code":"46203","2012-2013 backsack allocation":null,"principal":"Sandy Duncan","id":"a9kb729x9qcg","school":"Emmaus Lutheran School","address":"1224 Laurel Street","phone number":"632-1486","geo_precision":"range","state":"IN","principal email":"sanduncan@sbcglobal.net","2011-2012 backsack allocation":0,"community partner":null},"type":"Feature","geometry":{"type":"Point","coordinates":[-86.135408,39.751418]}},{"properties":{"city":"Indianapolis","site coordinator":"Migdelia Bolin","site coordinator email":"mbolin@msdwt.k12.in.us","township":"Washington","county":"Marion","2012-2013 backsack projection":46,"geo_score":0.607,"zip code":"46228","2012-2013 backsack allocation":null,"principal":"Kimberly Piper","id":"a9kb72gz8ovr","school":"Crooked Creek Elementary","address":"2150 Kessler Blvd. West Drive","phone number":"259-5478","geo_precision":"street","state":"IN","principal email":"kpiper@msdwt.k12.in.us","2011-2012 backsack allocation":0,"community partner":null},"type":"Feature","geometry":{"type":"Point","coordinates":[-86.199823,39.853728]}},{"properties":{"city":"Indianapolis","site coordinator":"Casey Foust","site coordinator email":"casey.foust@wayne.k12.in.us","township":"Wayne","county":"Marion","2012-2013 backsack projection":88,"geo_score":0.958,"zip code":"46241","2012-2013 backsack allocation":"88","principal":"Judy Stegemann","id":"a9kb72a0vnd2","school":"Stout Field Elementary","address":"3820 Bradbury Avenue","phone number":"988-6800","geo_precision":"range","state":"IN","principal email":"judy.stegemann@wayne.k12.in.us","2011-2012 backsack allocation":88,"community partner":null},"type":"Feature","geometry":{"type":"Point","coordinates":[-86.225823,39.731657]}},{"properties":{"city":"Martinsville","site coordinator":"Cynthia McCammack","site coordinator email":"cynthia.mccammack@mooresvilleschools.org","township":"Mooresville","county":"Morgan","2012-2013 backsack projection":13,"geo_score":1.0,"zip code":"46151","2012-2013 backsack allocation":"13","principal":"warren DuBois","id":"a9kb72e1bq25","school":"Waverly Elementary","address":"8525 Waverly Road","phone number":"831-9218","geo_precision":"range","state":"IN","principal email":"warren.dubois@mooresvilleschools.org","2011-2012 backsack allocation":27,"community partner":"Mt. Gilead"},"type":"Feature","geometry":{"type":"Point","coordinates":[-86.269345,39.553767]}},{"properties":{"city":"Mooresville","site coordinator":"Alicia Mong","site coordinator email":"alicia.mong@mooresvilleschools.org","township":"Mooresville","county":"Morgan","2012-2013 backsack projection":27,"geo_score":1.0,"zip code":"46158","2012-2013 backsack allocation":"27","principal":"Mitchell Fortune","id":"a9kb72j06wxg","school":"Newby Memorial Elementary School","address":"240 North Monroe Street","phone number":"831-9212","geo_precision":"range","state":"IN","principal email":"mitchell.fortune@mooresvilleschools.org","2011-2012 backsack allocation":56,"community partner":"Mt. Gilead"},"type":"Feature","geometry":{"type":"Point","coordinates":[-86.380962,39.615799]}},{"properties":{"city":"Mooresville","site coordinator":"Tammy Medsker","site coordinator email":"tammy.medsker@mooresvilleschools.org","township":"Mooresville","county":"Morgan","2012-2013 backsack projection":32,"geo_score":1.0,"zip code":"46158","2012-2013 backsack allocation":"37","principal":"Tricia Ferguson","id":"a9kb72cxig59","school":"Northwood Elementary","address":"630 N Indiana St","phone number":"831-9216","geo_precision":"range","state":"IN","principal email":"tricia.ferguson@mooresvilleschools.org","2011-2012 backsack allocation":32,"community partner":"Mt. Gilead"},"type":"Feature","geometry":{"type":"Point","coordinates":[-86.375077,39.621093]}},{"properties":{"city":"Camby","site coordinator":"Steve Bunner","site coordinator email":"steven.bunner@mooresvilleschools.org","township":"Mooresville","county":"Morgan","2012-2013 backsack projection":38,"geo_score":0.984,"zip code":"46113","2012-2013 backsack allocation":"42","principal":"Stephanie McGaha","id":"a9kb726uw9le","school":"North Madison Elementary","address":"7456 E Hadley Road","phone number":"831-9214","geo_precision":"range","state":"IN","principal email":"stephanie.mcgaha@mooresvilleschools.org","2011-2012 backsack allocation":31,"community partner":"Mt. Gilead"},"type":"Feature","geometry":{"type":"Point","coordinates":[-86.267893,39.611398]}},{"properties":{"city":"Mooresville","site coordinator":"Tammy Medsker","site coordinator email":"tammy.medsker@mooresvilleschools.org","township":"Mooresville","county":"Morgan","2012-2013 backsack projection":36,"geo_score":0.878,"zip code":"46158","2012-2013 backsack allocation":"48","principal":"Paul Spencer","id":"a9kb72ic8tdp","school":"Neil Armstrong Elementary","address":"1000 State Road 144","phone number":"831-9210","geo_precision":"street","state":"IN","principal email":"paul.spencer@mooresvilleschools.org","2011-2012 backsack allocation":61,"community partner":"Mt. Gilead"},"type":"Feature","geometry":{"type":"Point","coordinates":[-86.358998,39.603594]}},{"properties":{"city":"Cloverdale","site coordinator":"Cindy Peterson","site coordinator email":"cpeterson@cloverdale.k12.in.us","township":"Cloverdale","county":"Putnam","2012-2013 backsack projection":20,"geo_score":1.0,"zip code":"46120","2012-2013 backsack allocation":"9","principal":"Stacey Baugh","id":"a9kb728q2dyz","school":"Cloverdale Middle School","address":"312 E Logan Street","phone number":"765-795-2900","geo_precision":"range","state":"IN","principal email":"sbaugh@cloverdale.k12.in.us","2011-2012 backsack allocation":0,"community partner":"Cloverdale Elementary"},"type":"Feature","geometry":{"type":"Point","coordinates":[-86.791114,39.510552]}},{"properties":{"city":"Greencastle","site coordinator":"Corey Brackney","site coordinator email":"cbrackney@sputnam.k12.in.us","township":"South Putnam","county":"Putnam","2012-2013 backsack projection":16,"geo_score":1.0,"zip code":"46135","2012-2013 backsack allocation":"11","principal":"Debbie Steffy","id":"a9kb7273j4de","school":"Central Elementary School","address":"1888 E US Hwy 40","phone number":"765-653-6175","geo_precision":"range","state":"IN","principal email":"steffyde@sputnam.k12.in.us","2011-2012 backsack allocation":0,"community partner":null},"type":"Feature","geometry":{"type":"Point","coordinates":[-86.817444,39.585204]}},{"properties":{"city":"Fillmore","site coordinator":"Corey Brackney","site coordinator email":"cbrackney@sputnam.k12.in.us","township":"South Putnam","county":"Putnam","2012-2013 backsack projection":11,"geo_score":1.0,"zip code":"46128","2012-2013 backsack allocation":"11","principal":"Brad Hays","id":"a9kb727nkvq5","school":"Fillmore Elementary","address":"161 South Main Street","phone number":"765-246-6136","geo_precision":"range","state":"IN","principal email":"hayesbr@sputnam.k12.in.us","2011-2012 backsack allocation":0,"community partner":null},"type":"Feature","geometry":{"type":"Point","coordinates":[-86.753098,39.667937]}},{"properties":{"city":"Roachdale","site coordinator":"Dan McMurtry","site coordinator email":"dmcmurtry@nputnam.k12.in.us","township":"North Putnam","county":"Putnam","2012-2013 backsack projection":20,"geo_score":0.976,"zip code":"46172","2012-2013 backsack allocation":"24","principal":"Scott Spencer","id":"a9kb72br1wil","school":"Roachdale Elementary","address":"305 S Indiana Street","phone number":"765-522-1732","geo_precision":"range","state":"IN","principal email":"sspencer@nputnam.k12.in.us","2011-2012 backsack allocation":21,"community partner":null},"type":"Feature","geometry":{"type":"Point","coordinates":[-86.802198,39.854603]}},{"properties":{"city":"Bainbridge","site coordinator":"Jeanna Butler","site coordinator email":"jbutler@nputnam.k12.in.us","township":"North Putnam","county":"Putnam","2012-2013 backsack projection":34,"geo_score":0.807,"zip code":"46105","2012-2013 backsack allocation":"40","principal":"JoEllen Cook","id":"a9kb726ude9n","school":"Bainbridge Elementary","address":"412 South Washington Street","phone number":"765-522-6233","geo_precision":"street","state":"IN","principal email":"jcook@nputnam.k12.in.us","2011-2012 backsack allocation":44,"community partner":null},"type":"Feature","geometry":{"type":"Point","coordinates":[-86.811916,39.758095]}},{"properties":{"city":"Cloverdale","site coordinator":"Cindy Peterson","site coordinator email":"cpeterson@cloverdale.k12.in.us","township":"Cloverdale","county":"Putnam","2012-2013 backsack projection":44,"geo_score":1.0,"zip code":"46120","2012-2013 backsack allocation":"47","principal":"Stacey Baugh","id":"a9kb72ffgbio","school":"Cloverdale Elementary","address":"311 E Logan St","phone number":"765-795-4339","geo_precision":"range","state":"IN","principal email":"sbaugh@cloverdale.k12.in.us","2011-2012 backsack allocation":0,"community partner":"Accepts Delivery for Cloverdale Middle"},"type":"Feature","geometry":{"type":"Point","coordinates":[-86.787793,39.510654]}},{"properties":{"city":"Sunman","site coordinator":"Mary Ann Sprinkles","site coordinator email":"masprinkles@sunmandearborn.k12.in.us","township":"Sunman-Dearborn","county":"Ripley","2012-2013 backsack projection":30,"geo_score":1.0,"zip code":"47041","2012-2013 backsack allocation":"25","principal":"Cindy Morton","id":"a9kb72j2lhpx","school":"Sunman Elementary School","address":"925 N Meridian Street","phone number":"812-623-2235","geo_precision":"range","state":"IN","principal email":"cmorton@sunmandearborn.k12.in.us","2011-2012 backsack allocation":30,"community partner":null},"type":"Feature","geometry":{"type":"Point","coordinates":[-85.09458,39.244201]}},{"properties":{"city":"Milan","site coordinator":"Denise Roark","site coordinator email":"Denise.roark@milan.k12.in.us","township":"Ripley","county":"Ripley","2012-2013 backsack projection":35,"geo_score":0.984,"zip code":"47031","2012-2013 backsack allocation":"35","principal":"Jane Rogers","id":"a9kb727229nj","school":"Milan Elementary School","address":"418 East Carr Street","phone number":"812-654-2922","geo_precision":"range","state":"IN","principal email":"jane.rogers@milan.k12.in.us","2011-2012 backsack allocation":45,"community partner":null},"type":"Feature","geometry":{"type":"Point","coordinates":[-85.126828,39.120978]}},{"properties":{"city":"Versailles","site coordinator":"Mark Collier","site coordinator email":"mcollier@sripley.k12.in.us","township":"South Ripley Community","county":"Ripley","2012-2013 backsack projection":56,"geo_score":0.585,"zip code":"47042","2012-2013 backsack allocation":"58","principal":"Mark Collier","id":"a9kb72bhkyhw","school":"South Ripley Elementary","address":"1568 S Behnam Road","phone number":"812-689-5383","geo_precision":"zip","state":"IN","principal email":"mcollier@spriley.k12.in.us","2011-2012 backsack allocation":41,"community partner":null},"type":"Feature","geometry":{"type":"Point","coordinates":[-85.218568,38.990334]}},{"properties":{"city":"Mays","site coordinator":"Melissa Hampton","site coordinator email":"hamptonm@rushville.k12.in.us","township":"Rush County Schools","county":"Rush","2012-2013 backsack projection":12,"geo_score":0.513,"zip code":"46155","2012-2013 backsack allocation":"15","principal":"Nancy Schroeder","id":"a9kb72ceyr7t","school":"Mays Elementary","address":"929 E South Street","phone number":"765-645-5035","geo_precision":"street","state":"IN","principal email":"schroedern@rushville.k12.in.us","2011-2012 backsack allocation":15,"community partner":null},"type":"Feature","geometry":{"type":"Point","coordinates":[-85.429808,39.742581]}},{"properties":{"city":"Milroy","site coordinator":"Kristen Martz","site coordinator email":"martzk@rushville.k12.in.us","township":"Rush County Schools","county":"Rush","2012-2013 backsack projection":17,"geo_score":1.0,"zip code":"46156","2012-2013 backsack allocation":"23","principal":"Sue Lebo","id":"a9kb729n1i72","school":"Milroy Elementary","address":"300 North Walnut Street","phone number":"765-629-2323","geo_precision":"range","state":"IN","principal email":"lebos@rushville.k12.in.us","2011-2012 backsack allocation":23,"community partner":null},"type":"Feature","geometry":{"type":"Point","coordinates":[-85.464402,39.499396]}},{"properties":{"city":"Arlington","site coordinator":"Jennifer Cain","site coordinator email":"cainj@rushville.k12.in.us","township":"Rush County Schools","county":"Rush","2012-2013 backsack projection":17,"geo_score":0.99,"zip code":"46104","2012-2013 backsack allocation":"29","principal":"Julie Innis","id":"a9kb7299gkvw","school":"Arlington Elementary","address":"2533 N 700 W","phone number":"765-663-2416","geo_precision":"range","state":"IN","principal email":"innisj@rushville.k12.in.us","2011-2012 backsack allocation":24,"community partner":null},"type":"Feature","geometry":{"type":"Point","coordinates":[-85.576212,39.647068]}},{"properties":{"city":"Rushville","site coordinator":"Mandi Jackman","site coordinator email":"jackmana@rushville.k12.in.us","township":"Rush County Schools","county":"Rush","2012-2013 backsack projection":27,"geo_score":0.935,"zip code":"46173","2012-2013 backsack allocation":"32","principal":"Kellie Larrabee","id":"a9kb726b6d05","school":"Rushville Elementary East","address":"390 West 16th Street","phone number":"765-938-1616","geo_precision":"range","state":"IN","principal email":"larrabee@rushville.k12.in.us","2011-2012 backsack allocation":40,"community partner":null},"type":"Feature","geometry":{"type":"Point","coordinates":[-85.448197,39.625499]}},{"properties":{"city":"Rushville","site coordinator":"Kelly Stephens","site coordinator email":"stephensk@rushville.k12.in.us","township":"Rush County Schools","county":"Rush","2012-2013 backsack projection":32,"geo_score":0.935,"zip code":"46173","2012-2013 backsack allocation":"43","principal":"Karen Brown","id":"a9kb72hj0l0l","school":"Rushville Elementary West","address":"410 West 16th Street","phone number":"765-938-1509","geo_precision":"range","state":"IN","principal email":"brownka@rushville.k12.in.us","2011-2012 backsack allocation":55,"community partner":null},"type":"Feature","geometry":{"type":"Point","coordinates":[-85.448407,39.625496]}},{"properties":{"city":"Morristown","site coordinator":"Stephanie Miller","site coordinator email":"Smiller@ses.k12.in.us","township":"Shelby Eastern","county":"Shelby","2012-2013 backsack projection":17,"geo_score":0.87,"zip code":"46161","2012-2013 backsack allocation":"17","principal":"Stephanie Miller","id":"a9kb72eebioz","school":"Morristown Elementary","address":"307 W Main Street","phone number":"765-763-6648","geo_precision":"range","state":"IN","principal email":"smiller@ses.k12.in.us","2011-2012 backsack allocation":20,"community partner":null},"type":"Feature","geometry":{"type":"Point","coordinates":[-85.696416,39.672846]}},{"properties":{"city":"Waldron","site coordinator":"Kay DeHart","site coordinator email":"kdehart@ses.k12.in.us","township":"Shelby Eastern","county":"Shelby","2012-2013 backsack projection":17,"geo_score":0.707,"zip code":"46182","2012-2013 backsack allocation":"17","principal":"Gina Pleak","id":"a9kb72azh5po","school":"Waldron Elementary","address":"306 S East Street","phone number":"765-525-6505","geo_precision":"range","state":"IN","principal email":"gpleak@ses.k12.in.us","2011-2012 backsack allocation":21,"community partner":null},"type":"Feature","geometry":{"type":"Point","coordinates":[-86.399988,39.701436]}},{"properties":{"city":"Shelbyville","site coordinator":"Jennifer Castro","site coordinator email":"jlcastro@shelbycs.k12.in.us","township":"Shelbyville Central Schools","county":"Shelby","2012-2013 backsack projection":51,"geo_score":0.585,"zip code":"46176","2012-2013 backsack allocation":"30","principal":"Jim Conner","id":"a9kb72cfz9up","school":"Coulston Elementary","address":"121 N Knightstown Road","phone number":"398-3185","geo_precision":"zip","state":"IN","principal email":"jcconner@shelbycs.k12.in.us","2011-2012 backsack allocation":35,"community partner":null},"type":"Feature","geometry":{"type":"Point","coordinates":[-85.846649,39.460328]}},{"properties":{"city":"Fairland","site coordinator":"Tiffanie Tupper","site coordinator email":"ttupper@nwshelby.k12.in.us","township":"Northwestern Consolidated","county":"Shelby","2012-2013 backsack projection":38,"geo_score":1.0,"zip code":"46126","2012-2013 backsack allocation":"32","principal":"Linda Warnecke","id":"a9kb72c3bwex","school":"Triton Central Elementary","address":"4976 W 600 North","phone number":"835-3003","geo_precision":"range","state":"IN","principal email":"lwarnecke@nwshelby.k12.in.us","2011-2012 backsack allocation":32,"community partner":null},"type":"Feature","geometry":{"type":"Point","coordinates":[-85.873608,39.610466]}},{"properties":{"city":"Shelbyville","site coordinator":"Shoshanna Everhart","site coordinator email":"smeverhart@shelbycs.k12.in.us","township":"Shelbyville Central Schools","county":"Shelby","2012-2013 backsack projection":50,"geo_score":1.0,"zip code":"46176","2012-2013 backsack allocation":"50","principal":"Brent Baker","id":"a9kb72852y3f","school":"Loper Elementary","address":"901 Loper Drive","phone number":"398-9725 ext. 5002","geo_precision":"range","state":"IN","principal email":"bmbaker@shelbycs.k12.in.us","2011-2012 backsack allocation":56,"community partner":null},"type":"Feature","geometry":{"type":"Point","coordinates":[-85.764879,39.511966]}},{"properties":{"city":"Shelbyville","site coordinator":"Julie Rosier","site coordinator email":"jmrosier@shlebycs.k12.in.us","township":"Shelbyville Central Schools","county":"Shelby","2012-2013 backsack projection":62,"geo_score":0.333,"zip code":"46176","2012-2013 backsack allocation":"55","principal":"Pat Lumbley","id":"a9kb72lw64sy","school":"T. A. Hendricks Elementary","address":"1111 St. Joseph Street","phone number":"398-7432","geo_precision":"street","state":"IN","principal email":"wplumbley@shelbycs.k12.in.us","2011-2012 backsack allocation":55,"community partner":null},"type":"Feature","geometry":{"type":"Point","coordinates":[-86.09998,39.53938]}},{"properties":{"city":"Richmond","site coordinator":"Cindy Cook","site coordinator email":"ccook@rcs.k12.in.us","township":"Richmond","county":"Wayne","2012-2013 backsack projection":31,"geo_score":0.627,"zip code":"47374","2012-2013 backsack allocation":"16","principal":"Tammy Rhoades","id":"a9kb72ln0u1a","school":"Westview Elementary School","address":"1707 S. W. A Street","phone number":"765-973-3714","geo_precision":"street","state":"IN","principal email":"tammyr@rcs.k12.in.us","2011-2012 backsack allocation":0,"community partner":"Restoration Church"},"type":"Feature","geometry":{"type":"Point","coordinates":[-84.896599,39.827518]}},{"properties":{"city":"Centerville","site coordinator":"Aleida Parker","site coordinator email":"aparker@centerville.k12.in.us","township":"Centerville-Abington Community Schools","county":"Wayne","2012-2013 backsack projection":29,"geo_score":0.805,"zip code":"47330","2012-2013 backsack allocation":"30","principal":"Lee Stienbarger","id":"a9kb726mhl8t","school":"Rose Hamilton Elementary","address":"1281 S Round Barn Road","phone number":"765-966-3911","geo_precision":"range","state":"IN","principal email":"lstienbarger@centerville.k12.in.us","2011-2012 backsack allocation":0,"community partner":null},"type":"Feature","geometry":{"type":"Point","coordinates":[-84.958072,39.81441]}},{"properties":{"city":"Richmond","site coordinator":"Sara Newton","site coordinator email":"snewton@rcs.k12.in.us","township":"Richmond","county":"Wayne","2012-2013 backsack projection":41,"geo_score":0.965,"zip code":"47374","2012-2013 backsack allocation":"40","principal":"Sheila Hobbs","id":"a9kb72hh6zdr","school":"Crestdale Elementary","address":"701 Crestdale Road","phone number":"765-973-3415","geo_precision":"range","state":"IN","principal email":"sheilah@rcs.k12.in.us","2011-2012 backsack allocation":28,"community partner":"Restoration Church"},"type":"Feature","geometry":{"type":"Point","coordinates":[-84.893203,39.856345]}},{"properties":{"city":"Richmond","site coordinator":"Amber Davis","site coordinator email":"adavis@rcs.k12.in.us","township":"Richmond","county":"Wayne","2012-2013 backsack projection":48,"geo_score":0.924,"zip code":"47374","2012-2013 backsack allocation":"40","principal":"Kathy Pribble","id":"a9kb729avhhy","school":"Vaile Elementary","address":"300 S 14th Street","phone number":"765-973-3433","geo_precision":"range","state":"IN","principal email":"kpribble@rcs.k12.in.us","2011-2012 backsack allocation":35,"community partner":"Restoration Church"},"type":"Feature","geometry":{"type":"Point","coordinates":[-84.883275,39.824518]}},{"properties":{"city":"Richmond","site coordinator":"Josh Jurgens","site coordinator email":"joshj@rcs.k12.in.us","township":"Richmond","county":"Wayne","2012-2013 backsack projection":42,"geo_score":0.989,"zip code":"47374","2012-2013 backsack allocation":"42","principal":"Jennifer O'Brian","id":"a9kb72jqor4q","school":"Fairview Elementary","address":"60 NW L Street","phone number":"765-973-3442","geo_precision":"range","state":"IN","principal email":"jennifero@rcs.k12.in.us","2011-2012 backsack allocation":0,"community partner":null},"type":"Feature","geometry":{"type":"Point","coordinates":[-84.897838,39.843767]}},{"properties":{"city":"Fountain City","site coordinator":"Susan Pointis","site coordinator email":"spointis@nws.k12.in.us","township":"Northeastern Wayne","county":"Wayne","2012-2013 backsack projection":36,"geo_score":1.0,"zip code":"47341","2012-2013 backsack allocation":"50","principal":"Sam Pritchard","id":"a9kb728zq0n1","school":"Northeastern Elementary","address":"534 West Wallace Road","phone number":"765-847-2595","geo_precision":"range","state":"IN","principal email":"spritchard@nws.k12.in.us","2011-2012 backsack allocation":54,"community partner":null},"type":"Feature","geometry":{"type":"Point","coordinates":[-84.909483,39.933368]}},{"properties":{"city":"Richmond","site coordinator":"Amy Gibb","site coordinator email":"amyg@rcs.k12.in.us","township":"Richmond","county":"Wayne","2012-2013 backsack projection":46,"geo_score":0.924,"zip code":"47374","2012-2013 backsack allocation":null,"principal":"Stephanie Quinn","id":"a9kb72b7blbt","school":"Elizabeth Starr Academy","address":"301 North 19th Street","phone number":"765-973-3426","geo_precision":"range","state":"IN","principal email":"stephanieq@rcs.k12.in.us","2011-2012 backsack allocation":0,"community partner":null},"type":"Feature","geometry":{"type":"Point","coordinates":[-84.876424,39.834387]}},{"properties":{"city":null,"site coordinator":null,"site coordinator email":null,"township":null,"county":null,"2012-2013 backsack projection":7932,"geo_score":0.0,"zip code":null,"2012-2013 backsack allocation":"7822","principal":null,"id":"a9kb72b6oogr","school":null,"address":null,"phone number":null,"geo_precision":"","state":null,"principal email":null,"2011-2012 backsack allocation":7056,"community partner":null},"type":"Feature","geometry":null}],"is_temporal":false,"author":{"url":"","metadata":"","contact_name":"","contact_address":"","source":"","contact_phone":""},"source":"","pagination":{"sort":null,"start":0,"total":183,"limit":1000000},"state":"complete","tags":"","published":"2014-08-14T23:38:18-04:00","id":286813}