{"type":"FeatureCollection","data_type":"Dataset","url_type":null,"permissions":[{"permissions":{"download":true,"view":true},"group_id":"everyone"}],"classification":null,"title":"Sheet_4-Table_1","count":75,"stream_id":288089,"contributor":{"url":"http://geocommons.com/users/54646","name":"jhromas"},"data_attributes":null,"calculation_params":null,"icon_link":null,"link":"http://geocommons.com/overlays/288089.json","extent":[-126.67,-24.8333,104.15,54.3998],"geometry_types":["point"],"unique_name":null,"name":"Sheet_4-Table_1","feature_count":75,"description":"","next_feature":null,"is_raster":false,"short_classification":"Y","stats":{"allergies":{"max":742.495833333333,"variance":2920.27153450325,"mean":641.111944444444,"stdev":54.0395367717308,"min":513.966666666667,"median":647.35}},"features":[{"properties":{"city":"ALBANY","column_4":null,"column_5":null,"geo_score":0.0,"allergies":633.4875,"id":"a9onkc4ktnma","geo_precision":"unmatched","state":"New York"},"type":"Feature","geometry":null},{"properties":{"city":"ALBUQUERQUE","column_4":null,"column_5":null,"geo_score":0.0,"allergies":657.6,"id":"a9onkcbiefyb","geo_precision":"unmatched","state":"New Mexico"},"type":"Feature","geometry":null},{"properties":{"city":"ATLANTA","column_4":null,"column_5":null,"geo_score":0.0,"allergies":614.645833333333,"id":"a9onkcaay05x","geo_precision":"unmatched","state":"Georgia"},"type":"Feature","geometry":null},{"properties":{"city":"AUSTIN","column_4":null,"column_5":null,"geo_score":0.0,"allergies":573.2375,"id":"a9onkc1v1sxl","geo_precision":"unmatched","state":"Texas"},"type":"Feature","geometry":null},{"properties":{"city":"BALTIMORE","column_4":null,"column_5":null,"geo_score":0.0,"allergies":631.0625,"id":"a9onkc6lswq4","geo_precision":"unmatched","state":"Maryland"},"type":"Feature","geometry":null},{"properties":{"city":"BIRMINGHAM","column_4":null,"column_5":null,"geo_score":0.0,"allergies":630.770833333333,"id":"a9onkc926dmw","geo_precision":"unmatched","state":"Alabama"},"type":"Feature","geometry":null},{"properties":{"city":"BOSTON","column_4":null,"column_5":null,"geo_score":0.857,"allergies":595.391666666667,"id":"a9onkc4gkzgw","geo_precision":"zip","state":"massachusetts"},"type":"Feature","geometry":{"type":"Point","coordinates":[-4.23,34.11]}},{"properties":{"city":"BUFFALO","column_4":null,"column_5":null,"geo_score":0.0,"allergies":691.629166666666,"id":"a9onkc4oszl8","geo_precision":"unmatched","state":"New York"},"type":"Feature","geometry":null},{"properties":{"city":"CHARLESTON","column_4":null,"column_5":null,"geo_score":0.0,"allergies":625.958333333333,"id":"a9onkbxvd0gh","geo_precision":"unmatched","state":"West Virginia"},"type":"Feature","geometry":null},{"properties":{"city":"CHARLOTTE","column_4":null,"column_5":null,"geo_score":0.0,"allergies":641.4,"id":"a9onkc6lkuth","geo_precision":"unmatched","state":"North Carolina"},"type":"Feature","geometry":null},{"properties":{"city":"CHICAGO","column_4":null,"column_5":null,"geo_score":0.0,"allergies":641.875,"id":"a9onkc2q20so","geo_precision":"unmatched","state":"Illinois"},"type":"Feature","geometry":null},{"properties":{"city":"CINCINNATI","column_4":null,"column_5":null,"geo_score":0.0,"allergies":702.595833333333,"id":"a9onkbximtme","geo_precision":"unmatched","state":"Ohio"},"type":"Feature","geometry":null},{"properties":{"city":"CLEVELAND","column_4":null,"column_5":null,"geo_score":0.0,"allergies":610.725,"id":"a9onkcak2qti","geo_precision":"unmatched","state":"Ohio"},"type":"Feature","geometry":null},{"properties":{"city":"COLUMBUS","column_4":null,"column_5":null,"geo_score":0.0,"allergies":701.4375,"id":"a9onkc7l2q4i","geo_precision":"unmatched","state":"Ohio"},"type":"Feature","geometry":null},{"properties":{"city":"DALLAS","column_4":null,"column_5":null,"geo_score":0.0,"allergies":578.108333333333,"id":"a9onkc6bu6h0","geo_precision":"unmatched","state":"Texas"},"type":"Feature","geometry":null},{"properties":{"city":"DAYTON","column_4":null,"column_5":null,"geo_score":0.0,"allergies":717.720833333333,"id":"a9onkc18mnab","geo_precision":"unmatched","state":"Ohio"},"type":"Feature","geometry":null},{"properties":{"city":"DENVER","column_4":null,"column_5":null,"geo_score":0.0,"allergies":601.6625,"id":"a9onkbx5t9wl","geo_precision":"unmatched","state":"Colorado"},"type":"Feature","geometry":null},{"properties":{"city":"DES MOINES","column_4":null,"column_5":null,"geo_score":0.0,"allergies":682.0,"id":"a9onkc2v2p12","geo_precision":"unmatched","state":"Iowa"},"type":"Feature","geometry":null},{"properties":{"city":"DETROIT","column_4":null,"column_5":null,"geo_score":0.0,"allergies":663.420833333333,"id":"a9onkbylzerg","geo_precision":"unmatched","state":"Michigan"},"type":"Feature","geometry":null},{"properties":{"city":"FLINT","column_4":null,"column_5":null,"geo_score":0.0,"allergies":700.7375,"id":"a9onkc790oc5","geo_precision":"unmatched","state":"Michigan"},"type":"Feature","geometry":null},{"properties":{"city":"FRESNO","column_4":null,"column_5":null,"geo_score":0.857,"allergies":587.4875,"id":"a9onkc9jv39f","geo_precision":"zip","state":"California"},"type":"Feature","geometry":{"type":"Point","coordinates":[-58.748210046,51.300121117]}},{"properties":{"city":"FT MYERS","column_4":null,"column_5":null,"geo_score":0.0,"allergies":678.879166666666,"id":"a9onkc5axin7","geo_precision":"unmatched","state":"Florida"},"type":"Feature","geometry":null},{"properties":{"city":"GRAND RAPIDS","column_4":null,"column_5":null,"geo_score":0.0,"allergies":635.095833333333,"id":"a9onkbx2op1z","geo_precision":"unmatched","state":"Michigan"},"type":"Feature","geometry":null},{"properties":{"city":"GREEN BAY","column_4":null,"column_5":null,"geo_score":0.0,"allergies":665.966666666667,"id":"a9onkca3ybz5","geo_precision":"unmatched","state":"Wisconsin"},"type":"Feature","geometry":null},{"properties":{"city":"GREENSBORO","column_4":null,"column_5":null,"geo_score":0.0,"allergies":662.895833333333,"id":"a9onkbyk6z72","geo_precision":"unmatched","state":"North Carolina"},"type":"Feature","geometry":null},{"properties":{"city":"GREENVILLE","column_4":null,"column_5":null,"geo_score":0.0,"allergies":699.854166666667,"id":"a9onkc3bm5ot","geo_precision":"unmatched","state":"South Carolina"},"type":"Feature","geometry":null},{"properties":{"city":"HARRISBURG","column_4":null,"column_5":null,"geo_score":0.0,"allergies":568.641666666666,"id":"a9onkc4z3cqt","geo_precision":"unmatched","state":"Pennsylvania"},"type":"Feature","geometry":null},{"properties":{"city":"HARTFORD","column_4":null,"column_5":null,"geo_score":0.0,"allergies":693.5,"id":"a9onkbvofni9","geo_precision":"unmatched","state":"Wisconsin"},"type":"Feature","geometry":null},{"properties":{"city":"HONOLULU","column_4":null,"column_5":null,"geo_score":0.0,"allergies":513.966666666667,"id":"a9onkbwbi19a","geo_precision":"unmatched","state":"Hawaii"},"type":"Feature","geometry":null},{"properties":{"city":"HOUSTON","column_4":null,"column_5":null,"geo_score":0.714,"allergies":612.283333333333,"id":"a9onkcaooy63","geo_precision":"zip","state":"Texes"},"type":"Feature","geometry":{"type":"Point","coordinates":[-126.670081692,54.399761785]}},{"properties":{"city":"INDIANAPOLIS","column_4":null,"column_5":null,"geo_score":0.0,"allergies":671.104166666667,"id":"a9onkbzi2p00","geo_precision":"unmatched","state":"Indiana"},"type":"Feature","geometry":null},{"properties":{"city":"JACKSONVILLE","column_4":null,"column_5":null,"geo_score":0.0,"allergies":605.216666666667,"id":"a9onkbxrtldx","geo_precision":"unmatched","state":"Florida"},"type":"Feature","geometry":null},{"properties":{"city":"KANSAS CITY","column_4":null,"column_5":null,"geo_score":0.0,"allergies":661.033333333333,"id":"a9onkcbj44gs","geo_precision":"unmatched","state":"Kansas"},"type":"Feature","geometry":null},{"properties":{"city":"KNOXVILLE","column_4":null,"column_5":null,"geo_score":0.0,"allergies":684.229166666666,"id":"a9onkcaubwl4","geo_precision":"unmatched","state":"Tennessee"},"type":"Feature","geometry":null},{"properties":{"city":"LAS VEGAS","column_4":null,"column_5":null,"geo_score":0.0,"allergies":591.541666666667,"id":"a9onkbwmtf41","geo_precision":"unmatched","state":"Nevada"},"type":"Feature","geometry":null},{"properties":{"city":"LEXINGTON","column_4":null,"column_5":null,"geo_score":0.0,"allergies":574.429166666667,"id":"a9onkc93dcc1","geo_precision":"unmatched","state":"Massachusetts"},"type":"Feature","geometry":null},{"properties":{"city":"LITTLE ROCK","column_4":null,"column_5":null,"geo_score":0.857,"allergies":683.516666666666,"id":"a9onkc3e7bte","geo_precision":"zip","state":"Arkansas"},"type":"Feature","geometry":{"type":"Point","coordinates":[-59.2666667,-24.8333333]}},{"properties":{"city":"LOS ANGELES","column_4":null,"column_5":null,"geo_score":0.857,"allergies":534.408333333333,"id":"a9onkbvn6kfm","geo_precision":"zip","state":"California"},"type":"Feature","geometry":{"type":"Point","coordinates":[-73.734174418,46.256476309]}},{"properties":{"city":"LOUISVILLE","column_4":null,"column_5":null,"geo_score":0.0,"allergies":716.829166666666,"id":"a9onkcar6hqy","geo_precision":"unmatched","state":"Kentucky"},"type":"Feature","geometry":null},{"properties":{"city":"MEMPHIS","column_4":null,"column_5":null,"geo_score":0.0,"allergies":657.125,"id":"a9onkc4ww07h","geo_precision":"unmatched","state":"Tennessee"},"type":"Feature","geometry":null},{"properties":{"city":"MIAMI","column_4":null,"column_5":null,"geo_score":0.0,"allergies":579.275,"id":"a9onkc3hyrzd","geo_precision":"unmatched","state":"Florida"},"type":"Feature","geometry":null},{"properties":{"city":"MILWAUKEE","column_4":null,"column_5":null,"geo_score":0.0,"allergies":640.291666666667,"id":"a9onkc6tcyp3","geo_precision":"unmatched","state":"Wisconsin"},"type":"Feature","geometry":null},{"properties":{"city":"MINNEAPOLIS","column_4":null,"column_5":null,"geo_score":0.0,"allergies":655.8,"id":"a9onkc1xegd1","geo_precision":"unmatched","state":"Minnesota"},"type":"Feature","geometry":null},{"properties":{"city":"MOBILE","column_4":null,"column_5":null,"geo_score":0.0,"allergies":666.9625,"id":"a9onkc2nfx1x","geo_precision":"unmatched","state":"Alabama"},"type":"Feature","geometry":null},{"properties":{"city":"NASHVILLE","column_4":null,"column_5":null,"geo_score":0.0,"allergies":715.5125,"id":"a9onkc4hc9i3","geo_precision":"unmatched","state":"Tennessee"},"type":"Feature","geometry":null},{"properties":{"city":"NEW ORLEANS","column_4":null,"column_5":null,"geo_score":0.857,"allergies":729.804166666667,"id":"a9onkc4vd9v8","geo_precision":"zip","state":"Louisiana"},"type":"Feature","geometry":{"type":"Point","coordinates":[104.15,20.6166667]}},{"properties":{"city":"NEW YORK","column_4":null,"column_5":null,"geo_score":0.0,"allergies":587.2,"id":"a9onkcahs8bw","geo_precision":"unmatched","state":"New York"},"type":"Feature","geometry":null},{"properties":{"city":"NORFOLK","column_4":null,"column_5":null,"geo_score":0.0,"allergies":698.158333333333,"id":"a9onkc151vh5","geo_precision":"unmatched","state":"Virginia"},"type":"Feature","geometry":null},{"properties":{"city":"OKLAHOMA CITY","column_4":null,"column_5":null,"geo_score":0.0,"allergies":742.495833333333,"id":"a9onkc7n5i0h","geo_precision":"unmatched","state":"Oklahoma"},"type":"Feature","geometry":null},{"properties":{"city":"ORLANDO","column_4":null,"column_5":null,"geo_score":0.0,"allergies":656.65,"id":"a9onkbwwz1lo","geo_precision":"unmatched","state":"Florida"},"type":"Feature","geometry":null},{"properties":{"city":"PHILADELPHIA","column_4":null,"column_5":null,"geo_score":0.857,"allergies":647.35,"id":"a9onkc9hle7d","geo_precision":"zip","state":"Pennsylvania"},"type":"Feature","geometry":{"type":"Point","coordinates":[-81.4,7.9833333]}},{"properties":{"city":"PHOENIX","column_4":null,"column_5":null,"geo_score":0.857,"allergies":544.325,"id":"a9onkcbdnkqh","geo_precision":"zip","state":"Arizona"},"type":"Feature","geometry":{"type":"Point","coordinates":[46.5430556,39.7611111]}},{"properties":{"city":"PITTSBURGH","column_4":null,"column_5":null,"geo_score":0.0,"allergies":694.3875,"id":"a9onkbznqk27","geo_precision":"unmatched","state":"Pennsylvania"},"type":"Feature","geometry":null},{"properties":{"city":"PORTLAND","column_4":null,"column_5":null,"geo_score":0.0,"allergies":610.35,"id":"a9onkc91uj87","geo_precision":"unmatched","state":"Oregon"},"type":"Feature","geometry":null},{"properties":{"city":"PROVIDENCE","column_4":null,"column_5":null,"geo_score":0.0,"allergies":630.341666666667,"id":"a9onkc8pb5x3","geo_precision":"unmatched","state":"Rhode Island"},"type":"Feature","geometry":null},{"properties":{"city":"RALEIGH","column_4":null,"column_5":null,"geo_score":0.0,"allergies":709.375,"id":"a9onkc2ai5uf","geo_precision":"unmatched","state":"North Carolina"},"type":"Feature","geometry":null},{"properties":{"city":"RICHMOND","column_4":null,"column_5":null,"geo_score":0.0,"allergies":699.975,"id":"a9onkc8tk4k3","geo_precision":"unmatched","state":"Virginia"},"type":"Feature","geometry":null},{"properties":{"city":"ROANOKE","column_4":null,"column_5":null,"geo_score":0.0,"allergies":687.958333333333,"id":"a9onkc37xf3l","geo_precision":"unmatched","state":"Virginia"},"type":"Feature","geometry":null},{"properties":{"city":"SACRAMENTO","column_4":null,"column_5":null,"geo_score":0.857,"allergies":562.75,"id":"a9onkc0u268w","geo_precision":"zip","state":"California"},"type":"Feature","geometry":{"type":"Point","coordinates":[-118.385598186,50.449832005]}},{"properties":{"city":"SALT LAKE CITY","column_4":null,"column_5":null,"geo_score":0.0,"allergies":547.345833333333,"id":"a9onkbxljxyw","geo_precision":"unmatched","state":"Utah"},"type":"Feature","geometry":null},{"properties":{"city":"SAN ANTONIO","column_4":null,"column_5":null,"geo_score":0.0,"allergies":656.4,"id":"a9onkc562e2w","geo_precision":"unmatched","state":"Texas"},"type":"Feature","geometry":null},{"properties":{"city":"SAN DIEGO","column_4":null,"column_5":null,"geo_score":0.857,"allergies":579.970833333333,"id":"a9onkbz1rv1n","geo_precision":"zip","state":"California"},"type":"Feature","geometry":{"type":"Point","coordinates":[-101.584220585,51.399979807]}},{"properties":{"city":"SAN FRANCISCO","column_4":null,"column_5":null,"geo_score":0.857,"allergies":544.141666666667,"id":"a9onkc0rfceu","geo_precision":"zip","state":"California"},"type":"Feature","geometry":{"type":"Point","coordinates":[-80.466445516,48.350174128]}},{"properties":{"city":"SEATTLE","column_4":null,"column_5":null,"geo_score":0.0,"allergies":581.954166666667,"id":"a9onkcbvzfar","geo_precision":"unmatched","state":"Washington"},"type":"Feature","geometry":null},{"properties":{"city":"SPOKANE","column_4":null,"column_5":null,"geo_score":0.0,"allergies":618.241666666666,"id":"a9onkc92ne4q","geo_precision":"unmatched","state":"Kansas"},"type":"Feature","geometry":null},{"properties":{"city":"SPRINGFIELD","column_4":null,"column_5":null,"geo_score":0.0,"allergies":674.633333333333,"id":"a9onkc1x3rq4","geo_precision":"unmatched","state":"Missouri"},"type":"Feature","geometry":null},{"properties":{"city":"ST LOUIS","column_4":null,"column_5":null,"geo_score":0.0,"allergies":647.454166666667,"id":"a9onkc30e7l6","geo_precision":"unmatched","state":"Missouri"},"type":"Feature","geometry":null},{"properties":{"city":"TAMPA","column_4":null,"column_5":null,"geo_score":0.0,"allergies":618.508333333333,"id":"a9onkc163dm9","geo_precision":"unmatched","state":"Florida"},"type":"Feature","geometry":null},{"properties":{"city":"TOLEDO","column_4":null,"column_5":null,"geo_score":0.0,"allergies":689.866666666667,"id":"a9onkc7ffz9k","geo_precision":"unmatched","state":"Ohio"},"type":"Feature","geometry":null},{"properties":{"city":"TUCSON","column_4":null,"column_5":null,"geo_score":0.0,"allergies":569.445833333333,"id":"a9onkcbje98g","geo_precision":"unmatched","state":"Arizona"},"type":"Feature","geometry":null},{"properties":{"city":"TULSA","column_4":null,"column_5":null,"geo_score":0.0,"allergies":713.170833333333,"id":"a9onkc34r2w1","geo_precision":"unmatched","state":"Oklahoma"},"type":"Feature","geometry":null},{"properties":{"city":"WASHINGTON","column_4":null,"column_5":null,"geo_score":0.0,"allergies":570.820833333333,"id":"a9onkc71iw73","geo_precision":"unmatched","state":"District of Columbia"},"type":"Feature","geometry":null},{"properties":{"city":"WEST PALM BCH","column_4":null,"column_5":null,"geo_score":0.0,"allergies":689.058333333333,"id":"a9onkby4hihc","geo_precision":"unmatched","state":"Florida"},"type":"Feature","geometry":null},{"properties":{"city":"WICHITA","column_4":null,"column_5":null,"geo_score":0.0,"allergies":633.216666666667,"id":"a9onkcbdbpmd","geo_precision":"unmatched","state":"Kansas"},"type":"Feature","geometry":null},{"properties":{"city":"WILKES BARRE","column_4":null,"column_5":null,"geo_score":0.857,"allergies":696.733333333333,"id":"a9onkc30xxi4","geo_precision":"zip","state":"Pennsylvania"},"type":"Feature","geometry":{"type":"Point","coordinates":[-81.3,8.1666667]}}],"is_temporal":false,"author":{"url":"","metadata":null,"contact_name":null,"contact_address":null,"source":null,"contact_phone":null},"source":"","pagination":{"sort":null,"start":0,"total":75,"limit":1000000},"state":"complete","tags":"","published":"2014-08-15T01:16:21-04:00","id":288089}