{"type":"FeatureCollection","data_type":"Dataset","url_type":null,"permissions":[{"permissions":{"download":true,"view":true},"group_id":"everyone"}],"classification":null,"title":"output","count":428,"stream_id":288140,"contributor":{"url":"http://geocommons.com/users/47863","name":"bobbywilson0"},"data_attributes":null,"calculation_params":null,"icon_link":null,"link":"http://geocommons.com/overlays/288140.json","extent":[-112.187,31.7683,-81.2809,41.5245],"geometry_types":["point"],"unique_name":null,"name":"output","feature_count":428,"description":"","next_feature":null,"is_raster":false,"short_classification":"Y","stats":{"count":{"max":506,"variance":1443.15992908578,"mean":20.3084112149533,"stdev":37.9889448272228,"min":1,"median":5}},"features":[{"properties":{"zip":"80831","geo_score":0.714,"count":18,"id":"a9oqw6hwqvmr","geo_precision":"zip"},"type":"Feature","geometry":{"type":"Point","coordinates":[-104.526328,38.984206]}},{"properties":{"zip":"80113","geo_score":0.714,"count":15,"id":"a9oqw69r8fsh","geo_precision":"zip"},"type":"Feature","geometry":{"type":"Point","coordinates":[-104.98776,39.647765]}},{"properties":{"zip":"80211","geo_score":0.714,"count":64,"id":"a9oqw65se0ro","geo_precision":"zip"},"type":"Feature","geometry":{"type":"Point","coordinates":[-105.018387,39.765291]}},{"properties":{"zip":"80909","geo_score":0.714,"count":153,"id":"a9oqw66wun3j","geo_precision":"zip"},"type":"Feature","geometry":{"type":"Point","coordinates":[-104.85023,38.838268]}},{"properties":{"zip":"80301","geo_score":0.714,"count":39,"id":"a9oqw6f52ppa","geo_precision":"zip"},"type":"Feature","geometry":{"type":"Point","coordinates":[-105.278083,40.094787]}},{"properties":{"zip":"80218","geo_score":0.714,"count":39,"id":"a9oqw6fsbqg1","geo_precision":"zip"},"type":"Feature","geometry":{"type":"Point","coordinates":[-104.968759,39.720236]}},{"properties":{"zip":"80214","geo_score":0.714,"count":156,"id":"a9oqw63depz5","geo_precision":"zip"},"type":"Feature","geometry":{"type":"Point","coordinates":[-105.06415,39.753043]}},{"properties":{"zip":"80241","geo_score":0.714,"count":25,"id":"a9oqw68idzlj","geo_precision":"zip"},"type":"Feature","geometry":{"type":"Point","coordinates":[-104.953418,39.929382]}},{"properties":{"zip":"80601","geo_score":0.714,"count":57,"id":"a9oqw69xx49n","geo_precision":"zip"},"type":"Feature","geometry":{"type":"Point","coordinates":[-104.877475,39.988317]}},{"properties":{"zip":"80229","geo_score":0.714,"count":88,"id":"a9oqw6bqsmxg","geo_precision":"zip"},"type":"Feature","geometry":{"type":"Point","coordinates":[-104.943868,39.873319]}},{"properties":{"zip":"80219","geo_score":0.714,"count":144,"id":"a9oqw6g4f2o7","geo_precision":"zip"},"type":"Feature","geometry":{"type":"Point","coordinates":[-105.034339,39.695014]}},{"properties":{"zip":"80260","geo_score":0.714,"count":66,"id":"a9oqw66pkg4h","geo_precision":"zip"},"type":"Feature","geometry":{"type":"Point","coordinates":[-105.005845,39.867397]}},{"properties":{"zip":"81416","geo_score":0.714,"count":39,"id":"a9oqw6ahl0gi","geo_precision":"zip"},"type":"Feature","geometry":{"type":"Point","coordinates":[-107.97078,38.785768]}},{"properties":{"zip":"N/A","geo_score":0.0,"count":506,"id":"a9oqw64uj0ii","geo_precision":"unmatched"},"type":"Feature","geometry":null},{"properties":{"zip":"80128","geo_score":0.714,"count":28,"id":"a9oqw6e395n1","geo_precision":"zip"},"type":"Feature","geometry":{"type":"Point","coordinates":[-105.083196,39.591827]}},{"properties":{"zip":"80003","geo_score":0.714,"count":57,"id":"a9oqw6bfio9k","geo_precision":"zip"},"type":"Feature","geometry":{"type":"Point","coordinates":[-105.105775,39.835086]}},{"properties":{"zip":"80129","geo_score":0.714,"count":12,"id":"a9oqw6br84vx","geo_precision":"zip"},"type":"Feature","geometry":{"type":"Point","coordinates":[-105.011797,39.545917]}},{"properties":{"zip":"80236","geo_score":0.714,"count":33,"id":"a9oqw64sfoew","geo_precision":"zip"},"type":"Feature","geometry":{"type":"Point","coordinates":[-105.034988,39.649837]}},{"properties":{"zip":"81144","geo_score":0.714,"count":9,"id":"a9oqw62x5vcg","geo_precision":"zip"},"type":"Feature","geometry":{"type":"Point","coordinates":[-106.532815,37.35195]}},{"properties":{"zip":"80816","geo_score":0.714,"count":8,"id":"a9oqw6fn6nq1","geo_precision":"zip"},"type":"Feature","geometry":{"type":"Point","coordinates":[-105.190895,38.855231]}},{"properties":{"zip":"80905","geo_score":0.714,"count":68,"id":"a9oqw6dch7x8","geo_precision":"zip"},"type":"Feature","geometry":{"type":"Point","coordinates":[-104.801472,38.844319]}},{"properties":{"zip":"80134","geo_score":0.714,"count":41,"id":"a9oqw62xa50e","geo_precision":"zip"},"type":"Feature","geometry":{"type":"Point","coordinates":[-104.734419,39.455267]}},{"properties":{"zip":"81301","geo_score":0.714,"count":54,"id":"a9oqw653am7r","geo_precision":"zip"},"type":"Feature","geometry":{"type":"Point","coordinates":[-107.795897,37.22417]}},{"properties":{"zip":"81063","geo_score":0.714,"count":4,"id":"a9oqw6dh01a6","geo_precision":"zip"},"type":"Feature","geometry":{"type":"Point","coordinates":[-103.780036,38.317486]}},{"properties":{"zip":"80205","geo_score":0.714,"count":129,"id":"a9oqw66dhxlz","geo_precision":"zip"},"type":"Feature","geometry":{"type":"Point","coordinates":[-104.967585,39.760137]}},{"properties":{"zip":"80249","geo_score":0.714,"count":21,"id":"a9oqw671u446","geo_precision":"zip"},"type":"Feature","geometry":{"type":"Point","coordinates":[-104.697674,39.83776]}},{"properties":{"zip":"80910","geo_score":0.714,"count":105,"id":"a9oqw65ztobm","geo_precision":"zip"},"type":"Feature","geometry":{"type":"Point","coordinates":[-104.772059,38.804094]}},{"properties":{"zip":"80222","geo_score":0.714,"count":42,"id":"a9oqw6gh9s0r","geo_precision":"zip"},"type":"Feature","geometry":{"type":"Point","coordinates":[-104.924134,39.709343]}},{"properties":{"zip":"80487","geo_score":0.714,"count":5,"id":"a9oqw69606z1","geo_precision":"zip"},"type":"Feature","geometry":{"type":"Point","coordinates":[-107.019498,40.484698]}},{"properties":{"zip":"80918","geo_score":0.714,"count":48,"id":"a9oqw636l4fp","geo_precision":"zip"},"type":"Feature","geometry":{"type":"Point","coordinates":[-104.807998,38.90319]}},{"properties":{"zip":"80922","geo_score":0.714,"count":25,"id":"a9oqw691vh14","geo_precision":"zip"},"type":"Feature","geometry":{"type":"Point","coordinates":[-104.70124,38.904817]}},{"properties":{"zip":"80238","geo_score":0.714,"count":4,"id":"a9oqw6d0649d","geo_precision":"zip"},"type":"Feature","geometry":{"type":"Point","coordinates":[-104.408349,39.738752]}},{"properties":{"zip":"81147","geo_score":0.714,"count":19,"id":"a9oqw6ayrt31","geo_precision":"zip"},"type":"Feature","geometry":{"type":"Point","coordinates":[-107.150596,37.027229]}},{"properties":{"zip":"80227","geo_score":0.714,"count":33,"id":"a9oqw6hlc42q","geo_precision":"zip"},"type":"Feature","geometry":{"type":"Point","coordinates":[-105.067136,39.667479]}},{"properties":{"zip":"80022","geo_score":0.714,"count":76,"id":"a9oqw6cq4vi9","geo_precision":"zip"},"type":"Feature","geometry":{"type":"Point","coordinates":[-104.918589,39.83943]}},{"properties":{"zip":"81054","geo_score":0.714,"count":15,"id":"a9oqw6fqifln","geo_precision":"zip"},"type":"Feature","geometry":{"type":"Point","coordinates":[-102.966592,37.58029]}},{"properties":{"zip":"80000","geo_score":0.0,"count":109,"id":"a9oqw63ts2z4","geo_precision":"unmatched"},"type":"Feature","geometry":null},{"properties":{"zip":"81133","geo_score":0.714,"count":5,"id":"a9oqw69btq37","geo_precision":"zip"},"type":"Feature","geometry":{"type":"Point","coordinates":[-105.415437,37.403455]}},{"properties":{"zip":"80015","geo_score":0.714,"count":34,"id":"a9oqw6bbnw3m","geo_precision":"zip"},"type":"Feature","geometry":{"type":"Point","coordinates":[-104.876923,39.579155]}},{"properties":{"zip":"80017","geo_score":0.714,"count":58,"id":"a9oqw6fq9inn","geo_precision":"zip"},"type":"Feature","geometry":{"type":"Point","coordinates":[-104.80667,39.702142]}},{"properties":{"zip":"80861","geo_score":0.714,"count":1,"id":"a9oqw62ogrjp","geo_precision":"zip"},"type":"Feature","geometry":{"type":"Point","coordinates":[-102.74229,39.311151]}},{"properties":{"zip":"80817","geo_score":0.714,"count":52,"id":"a9oqw6c1s5qo","geo_precision":"zip"},"type":"Feature","geometry":{"type":"Point","coordinates":[-104.652221,38.663856]}},{"properties":{"zip":"80204","geo_score":0.714,"count":149,"id":"a9oqw65kwhfk","geo_precision":"zip"},"type":"Feature","geometry":{"type":"Point","coordinates":[-105.021502,39.720136]}},{"properties":{"zip":"80620","geo_score":0.714,"count":45,"id":"a9oqw6hvs8lf","geo_precision":"zip"},"type":"Feature","geometry":{"type":"Point","coordinates":[-104.791285,40.263453]}},{"properties":{"zip":"80215","geo_score":0.714,"count":70,"id":"a9oqw6eotz5s","geo_precision":"zip"},"type":"Feature","geometry":{"type":"Point","coordinates":[-105.081373,39.70471]}},{"properties":{"zip":"80231","geo_score":0.714,"count":41,"id":"a9oqw6bzryqo","geo_precision":"zip"},"type":"Feature","geometry":{"type":"Point","coordinates":[-104.886785,39.68493]}},{"properties":{"zip":"81501","geo_score":0.714,"count":110,"id":"a9oqw6d5e6f2","geo_precision":"zip"},"type":"Feature","geometry":{"type":"Point","coordinates":[-108.48148,39.091926]}},{"properties":{"zip":"80247","geo_score":0.714,"count":30,"id":"a9oqw6gr9pik","geo_precision":"zip"},"type":"Feature","geometry":{"type":"Point","coordinates":[-104.881751,39.696961]}},{"properties":{"zip":"80239","geo_score":0.714,"count":73,"id":"a9oqw65lty0h","geo_precision":"zip"},"type":"Feature","geometry":{"type":"Point","coordinates":[-104.833586,39.793598]}},{"properties":{"zip":"81003","geo_score":0.714,"count":105,"id":"a9oqw62hdrgb","geo_precision":"zip"},"type":"Feature","geometry":{"type":"Point","coordinates":[-104.763851,38.121031]}},{"properties":{"zip":"80027","geo_score":0.714,"count":10,"id":"a9oqw67t4l9c","geo_precision":"zip"},"type":"Feature","geometry":{"type":"Point","coordinates":[-105.168598,39.952763]}},{"properties":{"zip":"80109","geo_score":0.714,"count":5,"id":"a9oqw6dtlwow","geo_precision":"zip"},"type":"Feature","geometry":{"type":"Point","coordinates":[-104.853375,39.376698]}},{"properties":{"zip":"80120","geo_score":0.714,"count":29,"id":"a9oqw67za69w","geo_precision":"zip"},"type":"Feature","geometry":{"type":"Point","coordinates":[-104.89609,39.556655]}},{"properties":{"zip":"81504","geo_score":0.714,"count":72,"id":"a9oqw629wsbk","geo_precision":"zip"},"type":"Feature","geometry":{"type":"Point","coordinates":[-108.496758,39.081648]}},{"properties":{"zip":"80010","geo_score":0.714,"count":180,"id":"a9oqw6adv1wu","geo_precision":"zip"},"type":"Feature","geometry":{"type":"Point","coordinates":[-104.804418,39.740265]}},{"properties":{"zip":"80132","geo_score":0.714,"count":9,"id":"a9oqw6fz03rh","geo_precision":"zip"},"type":"Feature","geometry":{"type":"Point","coordinates":[-104.847479,39.101381]}},{"properties":{"zip":"80303","geo_score":0.714,"count":9,"id":"a9oqw64s8v6w","geo_precision":"zip"},"type":"Feature","geometry":{"type":"Point","coordinates":[-105.27484,40.067772]}},{"properties":{"zip":"80906","geo_score":0.714,"count":81,"id":"a9oqw66ied5y","geo_precision":"zip"},"type":"Feature","geometry":{"type":"Point","coordinates":[-104.835252,38.810548]}},{"properties":{"zip":"81650","geo_score":0.714,"count":23,"id":"a9oqw648ad2y","geo_precision":"zip"},"type":"Feature","geometry":{"type":"Point","coordinates":[-107.72784,39.543314]}},{"properties":{"zip":"80107","geo_score":0.714,"count":18,"id":"a9oqw662tg34","geo_precision":"zip"},"type":"Feature","geometry":{"type":"Point","coordinates":[-104.495911,39.382844]}},{"properties":{"zip":"81004","geo_score":0.714,"count":121,"id":"a9oqw6dnq7af","geo_precision":"zip"},"type":"Feature","geometry":{"type":"Point","coordinates":[-104.822451,38.087325]}},{"properties":{"zip":"81620","geo_score":0.714,"count":2,"id":"a9oqw66ntdj9","geo_precision":"zip"},"type":"Feature","geometry":{"type":"Point","coordinates":[-106.510843,39.631349]}},{"properties":{"zip":"80907","geo_score":0.714,"count":138,"id":"a9oqw6bevnbv","geo_precision":"zip"},"type":"Feature","geometry":{"type":"Point","coordinates":[-104.81444,38.943076]}},{"properties":{"zip":"80461","geo_score":0.714,"count":9,"id":"a9oqw65kjna4","geo_precision":"zip"},"type":"Feature","geometry":{"type":"Point","coordinates":[-106.300579,39.152214]}},{"properties":{"zip":"80631","geo_score":0.714,"count":142,"id":"a9oqw6hivgpk","geo_precision":"zip"},"type":"Feature","geometry":{"type":"Point","coordinates":[-104.779135,40.451925]}},{"properties":{"zip":"81212","geo_score":0.714,"count":62,"id":"a9oqw66j6d14","geo_precision":"zip"},"type":"Feature","geometry":{"type":"Point","coordinates":[-105.21999,38.429165]}},{"properties":{"zip":"81006","geo_score":0.714,"count":32,"id":"a9oqw6f6u3l6","geo_precision":"zip"},"type":"Feature","geometry":{"type":"Point","coordinates":[-104.491637,38.275836]}},{"properties":{"zip":"80102","geo_score":0.714,"count":12,"id":"a9oqw65mcwai","geo_precision":"zip"},"type":"Feature","geometry":{"type":"Point","coordinates":[-104.458336,39.869384]}},{"properties":{"zip":"80016","geo_score":0.714,"count":14,"id":"a9oqw6ft0xxd","geo_precision":"zip"},"type":"Feature","geometry":{"type":"Point","coordinates":[-104.792475,39.591655]}},{"properties":{"zip":"80037","geo_score":0.714,"count":1,"id":"a9oqw64s0r55","geo_precision":"zip"},"type":"Feature","geometry":{"type":"Point","coordinates":[-104.407918,39.80797]}},{"properties":{"zip":"80216","geo_score":0.714,"count":63,"id":"a9oqw6fq57h8","geo_precision":"zip"},"type":"Feature","geometry":{"type":"Point","coordinates":[-104.942034,39.777036]}},{"properties":{"zip":"80751","geo_score":0.714,"count":51,"id":"a9oqw670u5n5","geo_precision":"zip"},"type":"Feature","geometry":{"type":"Point","coordinates":[-103.211191,40.715081]}},{"properties":{"zip":"80203","geo_score":0.714,"count":59,"id":"a9oqw64j18ik","geo_precision":"zip"},"type":"Feature","geometry":{"type":"Point","coordinates":[-104.970331,39.729205]}},{"properties":{"zip":"80863","geo_score":0.714,"count":17,"id":"a9oqw6f4nx8w","geo_precision":"zip"},"type":"Feature","geometry":{"type":"Point","coordinates":[-105.027205,38.955824]}},{"properties":{"zip":"80634","geo_score":0.714,"count":39,"id":"a9oqw692dh2i","geo_precision":"zip"},"type":"Feature","geometry":{"type":"Point","coordinates":[-104.796453,40.281195]}},{"properties":{"zip":"80033","geo_score":0.714,"count":72,"id":"a9oqw6gkjhi9","geo_precision":"zip"},"type":"Feature","geometry":{"type":"Point","coordinates":[-105.108182,39.776986]}},{"properties":{"zip":"80135","geo_score":0.714,"count":5,"id":"a9oqw65zh9kc","geo_precision":"zip"},"type":"Feature","geometry":{"type":"Point","coordinates":[-105.067554,39.311334]}},{"properties":{"zip":"80206","geo_score":0.714,"count":40,"id":"a9oqw68z8i5h","geo_precision":"zip"},"type":"Feature","geometry":{"type":"Point","coordinates":[-104.953335,39.730787]}},{"properties":{"zip":"81505","geo_score":0.714,"count":19,"id":"a9oqw64wwbvb","geo_precision":"zip"},"type":"Feature","geometry":{"type":"Point","coordinates":[-108.608151,39.120814]}},{"properties":{"zip":"81418","geo_score":0.714,"count":1,"id":"a9oqw6cj2ke7","geo_precision":"zip"},"type":"Feature","geometry":{"type":"Point","coordinates":[-107.961178,38.87534]}},{"properties":{"zip":"81005","geo_score":0.714,"count":52,"id":"a9oqw62mmgrp","geo_precision":"zip"},"type":"Feature","geometry":{"type":"Point","coordinates":[-104.669976,38.261114]}},{"properties":{"zip":"80526","geo_score":0.714,"count":47,"id":"a9oqw682wzam","geo_precision":"zip"},"type":"Feature","geometry":{"type":"Point","coordinates":[-105.324268,40.587553]}},{"properties":{"zip":"80915","geo_score":0.714,"count":44,"id":"a9oqw6769dms","geo_precision":"zip"},"type":"Feature","geometry":{"type":"Point","coordinates":[-104.751515,38.874436]}},{"properties":{"zip":"80246","geo_score":0.714,"count":16,"id":"a9oqw6h0wic6","geo_precision":"zip"},"type":"Feature","geometry":{"type":"Point","coordinates":[-104.933591,39.704987]}},{"properties":{"zip":"80525","geo_score":0.714,"count":92,"id":"a9oqw62zc14d","geo_precision":"zip"},"type":"Feature","geometry":{"type":"Point","coordinates":[-105.207073,40.532277]}},{"properties":{"zip":"81226","geo_score":0.714,"count":21,"id":"a9oqw6a36af0","geo_precision":"zip"},"type":"Feature","geometry":{"type":"Point","coordinates":[-105.254782,38.355202]}},{"properties":{"zip":"81201","geo_score":0.714,"count":7,"id":"a9oqw6fa1vyv","geo_precision":"zip"},"type":"Feature","geometry":{"type":"Point","coordinates":[-106.120582,38.629119]}},{"properties":{"zip":"80105","geo_score":0.714,"count":5,"id":"a9oqw638z2pq","geo_precision":"zip"},"type":"Feature","geometry":{"type":"Point","coordinates":[-103.948538,39.659461]}},{"properties":{"zip":"81625","geo_score":0.714,"count":31,"id":"a9oqw6a56bso","geo_precision":"zip"},"type":"Feature","geometry":{"type":"Point","coordinates":[-108.009784,40.612421]}},{"properties":{"zip":"81323","geo_score":0.714,"count":10,"id":"a9oqw62bz3ob","geo_precision":"zip"},"type":"Feature","geometry":{"type":"Point","coordinates":[-108.320084,37.589438]}},{"properties":{"zip":"80537","geo_score":0.714,"count":81,"id":"a9oqw6gw3kvq","geo_precision":"zip"},"type":"Feature","geometry":{"type":"Point","coordinates":[-104.950809,40.406649]}},{"properties":{"zip":"80623","geo_score":0.714,"count":1,"id":"a9oqw6f9urm9","geo_precision":"zip"},"type":"Feature","geometry":{"type":"Point","coordinates":[-104.796889,40.24938]}},{"properties":{"zip":"81007","geo_score":0.714,"count":27,"id":"a9oqw62rvl8w","geo_precision":"zip"},"type":"Feature","geometry":{"type":"Point","coordinates":[-104.861091,38.448611]}},{"properties":{"zip":"80004","geo_score":0.714,"count":42,"id":"a9oqw61m87mu","geo_precision":"zip"},"type":"Feature","geometry":{"type":"Point","coordinates":[-105.128173,39.814481]}},{"properties":{"zip":"80112","geo_score":0.714,"count":22,"id":"a9oqw6fgkcr7","geo_precision":"zip"},"type":"Feature","geometry":{"type":"Point","coordinates":[-104.862194,39.581238]}},{"properties":{"zip":"80521","geo_score":0.714,"count":22,"id":"a9oqw6fodr59","geo_precision":"zip"},"type":"Feature","geometry":{"type":"Point","coordinates":[-105.0572,40.593871]}},{"properties":{"zip":"80226","geo_score":0.714,"count":53,"id":"a9oqw69nqm5k","geo_precision":"zip"},"type":"Feature","geometry":{"type":"Point","coordinates":[-105.091502,39.710884]}},{"properties":{"zip":"80237","geo_score":0.714,"count":20,"id":"a9oqw657n5sa","geo_precision":"zip"},"type":"Feature","geometry":{"type":"Point","coordinates":[-104.903984,39.638537]}},{"properties":{"zip":"0","geo_score":0.0,"count":16,"id":"a9oqw6g9m0fy","geo_precision":"unmatched"},"type":"Feature","geometry":null},{"properties":{"zip":"80030","geo_score":0.714,"count":39,"id":"a9oqw62x8mor","geo_precision":"zip"},"type":"Feature","geometry":{"type":"Point","coordinates":[-105.034487,39.872535]}},{"properties":{"zip":"80501","geo_score":0.714,"count":94,"id":"a9oqw6h87buw","geo_precision":"zip"},"type":"Feature","geometry":{"type":"Point","coordinates":[-104.998868,40.138873]}},{"properties":{"zip":"80444","geo_score":0.714,"count":3,"id":"a9oqw6a82b08","geo_precision":"zip"},"type":"Feature","geometry":{"type":"Point","coordinates":[-105.760626,39.725703]}},{"properties":{"zip":"80013","geo_score":0.714,"count":80,"id":"a9oqw6c49cz2","geo_precision":"zip"},"type":"Feature","geometry":{"type":"Point","coordinates":[-104.76275,39.660654]}},{"properties":{"zip":"81520","geo_score":0.714,"count":36,"id":"a9oqw65iglo7","geo_precision":"zip"},"type":"Feature","geometry":{"type":"Point","coordinates":[-108.404055,39.08246]}},{"properties":{"zip":"80726","geo_score":0.714,"count":4,"id":"a9oqw6fn2lrq","geo_precision":"zip"},"type":"Feature","geometry":{"type":"Point","coordinates":[-103.074727,40.8523]}},{"properties":{"zip":"80002","geo_score":0.714,"count":31,"id":"a9oqw69ed9nc","geo_precision":"zip"},"type":"Feature","geometry":{"type":"Point","coordinates":[-105.109236,39.827818]}},{"properties":{"zip":"80011","geo_score":0.714,"count":113,"id":"a9oqw686ncr8","geo_precision":"zip"},"type":"Feature","geometry":{"type":"Point","coordinates":[-104.822765,39.788286]}},{"properties":{"zip":"81001","geo_score":0.714,"count":100,"id":"a9oqw69qbz7v","geo_precision":"zip"},"type":"Feature","geometry":{"type":"Point","coordinates":[-104.427776,38.344117]}},{"properties":{"zip":"80524","geo_score":0.714,"count":70,"id":"a9oqw6fyjb8l","geo_precision":"zip"},"type":"Feature","geometry":{"type":"Point","coordinates":[-105.252751,40.59889]}},{"properties":{"zip":"80220","geo_score":0.714,"count":97,"id":"a9oqw6ee6c9s","geo_precision":"zip"},"type":"Feature","geometry":{"type":"Point","coordinates":[-104.910843,39.732436]}},{"properties":{"zip":"81503","geo_score":0.714,"count":35,"id":"a9oqw67d9hys","geo_precision":"zip"},"type":"Feature","geometry":{"type":"Point","coordinates":[-108.552315,39.043038]}},{"properties":{"zip":"80123","geo_score":0.714,"count":32,"id":"a9oqw6h1hjvl","geo_precision":"zip"},"type":"Feature","geometry":{"type":"Point","coordinates":[-105.032206,39.601099]}},{"properties":{"zip":"80602","geo_score":0.714,"count":22,"id":"a9oqw6dos9xn","geo_precision":"zip"},"type":"Feature","geometry":{"type":"Point","coordinates":[-104.795426,39.969804]}},{"properties":{"zip":"80621","geo_score":0.714,"count":43,"id":"a9oqw69kw4uv","geo_precision":"zip"},"type":"Feature","geometry":{"type":"Point","coordinates":[-104.838862,40.134983]}},{"properties":{"zip":"80433","geo_score":0.714,"count":12,"id":"a9oqw61jgd5x","geo_precision":"zip"},"type":"Feature","geometry":{"type":"Point","coordinates":[-105.311938,39.502211]}},{"properties":{"zip":"80014","geo_score":0.714,"count":46,"id":"a9oqw6ancnj7","geo_precision":"zip"},"type":"Feature","geometry":{"type":"Point","coordinates":[-104.82933,39.660437]}},{"properties":{"zip":"80701","geo_score":0.714,"count":34,"id":"a9oqw628bfk6","geo_precision":"zip"},"type":"Feature","geometry":{"type":"Point","coordinates":[-103.847648,40.262591]}},{"properties":{"zip":"80221","geo_score":0.714,"count":98,"id":"a9oqw63488x6","geo_precision":"zip"},"type":"Feature","geometry":{"type":"Point","coordinates":[-104.997203,39.832208]}},{"properties":{"zip":"81413","geo_score":0.714,"count":10,"id":"a9oqw68g1xae","geo_precision":"zip"},"type":"Feature","geometry":{"type":"Point","coordinates":[-107.949789,39.040258]}},{"properties":{"zip":"81334","geo_score":0.714,"count":8,"id":"a9oqw6b5qr58","geo_precision":"zip"},"type":"Feature","geometry":{"type":"Point","coordinates":[-108.509012,37.319207]}},{"properties":{"zip":"81641","geo_score":0.714,"count":4,"id":"a9oqw6g7uf68","geo_precision":"zip"},"type":"Feature","geometry":{"type":"Point","coordinates":[-108.043592,39.967864]}},{"properties":{"zip":"80012","geo_score":0.714,"count":89,"id":"a9oqw63iehzg","geo_precision":"zip"},"type":"Feature","geometry":{"type":"Point","coordinates":[-104.80973,39.681201]}},{"properties":{"zip":"81648","geo_score":0.714,"count":7,"id":"a9oqw6hr070o","geo_precision":"zip"},"type":"Feature","geometry":{"type":"Point","coordinates":[-108.650793,39.936331]}},{"properties":{"zip":"80232","geo_score":0.714,"count":25,"id":"a9oqw6588g65","geo_precision":"zip"},"type":"Feature","geometry":{"type":"Point","coordinates":[-105.089805,39.688533]}},{"properties":{"zip":"80911","geo_score":0.714,"count":49,"id":"a9oqw687pr87","geo_precision":"zip"},"type":"Feature","geometry":{"type":"Point","coordinates":[-104.789157,38.922849]}},{"properties":{"zip":"80235","geo_score":0.714,"count":12,"id":"a9oqw65iwjv3","geo_precision":"zip"},"type":"Feature","geometry":{"type":"Point","coordinates":[-105.065003,39.645837]}},{"properties":{"zip":"80020","geo_score":0.714,"count":30,"id":"a9oqw69dvwur","geo_precision":"zip"},"type":"Feature","geometry":{"type":"Point","coordinates":[-105.064706,39.856097]}},{"properties":{"zip":"80103","geo_score":0.714,"count":6,"id":"a9oqw6et5vn8","geo_precision":"zip"},"type":"Feature","geometry":{"type":"Point","coordinates":[-104.162633,39.652632]}},{"properties":{"zip":"81089","geo_score":0.714,"count":23,"id":"a9oqw67ryznj","geo_precision":"zip"},"type":"Feature","geometry":{"type":"Point","coordinates":[-104.831097,37.858343]}},{"properties":{"zip":"80130","geo_score":0.714,"count":5,"id":"a9oqw67j8cb3","geo_precision":"zip"},"type":"Feature","geometry":{"type":"Point","coordinates":[-104.920445,39.541893]}},{"properties":{"zip":"80459","geo_score":0.714,"count":3,"id":"a9oqw63m0g1w","geo_precision":"zip"},"type":"Feature","geometry":{"type":"Point","coordinates":[-106.378296,40.147681]}},{"properties":{"zip":"80735","geo_score":0.714,"count":2,"id":"a9oqw6g39nrb","geo_precision":"zip"},"type":"Feature","geometry":{"type":"Point","coordinates":[-102.142688,39.629716]}},{"properties":{"zip":"81050","geo_score":0.714,"count":39,"id":"a9oqw67q5tbf","geo_precision":"zip"},"type":"Feature","geometry":{"type":"Point","coordinates":[-103.664437,37.954619]}},{"properties":{"zip":"80916","geo_score":0.714,"count":82,"id":"a9oqw6436j5e","geo_precision":"zip"},"type":"Feature","geometry":{"type":"Point","coordinates":[-104.718555,38.81033]}},{"properties":{"zip":"80504","geo_score":0.714,"count":31,"id":"a9oqw68kk9oo","geo_precision":"zip"},"type":"Feature","geometry":{"type":"Point","coordinates":[-104.970816,40.129416]}},{"properties":{"zip":"80920","geo_score":0.714,"count":23,"id":"a9oqw6c8u0qw","geo_precision":"zip"},"type":"Feature","geometry":{"type":"Point","coordinates":[-104.755956,38.965298]}},{"properties":{"zip":"80302","geo_score":0.714,"count":24,"id":"a9oqw6hee1c6","geo_precision":"zip"},"type":"Feature","geometry":{"type":"Point","coordinates":[-105.390027,40.063935]}},{"properties":{"zip":"81076","geo_score":0.714,"count":1,"id":"a9oqw64lu8ts","geo_precision":"zip"},"type":"Feature","geometry":{"type":"Point","coordinates":[-103.599555,38.315371]}},{"properties":{"zip":"80828","geo_score":0.714,"count":8,"id":"a9oqw6ctp1vv","geo_precision":"zip"},"type":"Feature","geometry":{"type":"Point","coordinates":[-103.588908,39.31654]}},{"properties":{"zip":"80538","geo_score":0.714,"count":56,"id":"a9oqw6fg97rn","geo_precision":"zip"},"type":"Feature","geometry":{"type":"Point","coordinates":[-105.183385,40.551116]}},{"properties":{"zip":"80401","geo_score":0.714,"count":63,"id":"a9oqw6d8vnjf","geo_precision":"zip"},"type":"Feature","geometry":{"type":"Point","coordinates":[-105.358604,39.889154]}},{"properties":{"zip":"80104","geo_score":0.714,"count":23,"id":"a9oqw6h1n8dm","geo_precision":"zip"},"type":"Feature","geometry":{"type":"Point","coordinates":[-104.865812,39.418045]}},{"properties":{"zip":"80904","geo_score":0.714,"count":75,"id":"a9oqw66bg740","geo_precision":"zip"},"type":"Feature","geometry":{"type":"Point","coordinates":[-104.874531,38.861981]}},{"properties":{"zip":"80122","geo_score":0.714,"count":24,"id":"a9oqw632i0h8","geo_precision":"zip"},"type":"Feature","geometry":{"type":"Point","coordinates":[-104.952759,39.58721]}},{"properties":{"zip":"80209","geo_score":0.714,"count":13,"id":"a9oqw66k16au","geo_precision":"zip"},"type":"Feature","geometry":{"type":"Point","coordinates":[-104.964236,39.707332]}},{"properties":{"zip":"81137","geo_score":0.714,"count":16,"id":"a9oqw6dfdomj","geo_precision":"zip"},"type":"Feature","geometry":{"type":"Point","coordinates":[-107.538108,37.032782]}},{"properties":{"zip":"81635","geo_score":0.714,"count":16,"id":"a9oqw6fzwvgp","geo_precision":"zip"},"type":"Feature","geometry":{"type":"Point","coordinates":[-107.940626,39.497201]}},{"properties":{"zip":"80234","geo_score":0.714,"count":26,"id":"a9oqw62jlwzo","geo_precision":"zip"},"type":"Feature","geometry":{"type":"Point","coordinates":[-105.00545,39.912572]}},{"properties":{"zip":"80224","geo_score":0.714,"count":17,"id":"a9oqw6c3icpx","geo_precision":"zip"},"type":"Feature","geometry":{"type":"Point","coordinates":[-104.911434,39.702037]}},{"properties":{"zip":"81082","geo_score":0.714,"count":30,"id":"a9oqw6ho89ay","geo_precision":"zip"},"type":"Feature","geometry":{"type":"Point","coordinates":[-104.538875,37.149464]}},{"properties":{"zip":"80210","geo_score":0.714,"count":28,"id":"a9oqw675opcg","geo_precision":"zip"},"type":"Feature","geometry":{"type":"Point","coordinates":[-104.964186,39.701677]}},{"properties":{"zip":"80223","geo_score":0.714,"count":43,"id":"a9oqw69h24gr","geo_precision":"zip"},"type":"Feature","geometry":{"type":"Point","coordinates":[-105.008762,39.707186]}},{"properties":{"zip":"80031","geo_score":0.714,"count":40,"id":"a9oqw62x4cpz","geo_precision":"zip"},"type":"Feature","geometry":{"type":"Point","coordinates":[-105.034487,39.87529]}},{"properties":{"zip":"80640","geo_score":0.714,"count":40,"id":"a9oqw64goy1p","geo_precision":"zip"},"type":"Feature","geometry":{"type":"Point","coordinates":[-104.883581,39.879235]}},{"properties":{"zip":"81151","geo_score":0.714,"count":5,"id":"a9oqw6cmm2sf","geo_precision":"zip"},"type":"Feature","geometry":{"type":"Point","coordinates":[-105.746407,37.266677]}},{"properties":{"zip":"81073","geo_score":0.714,"count":5,"id":"a9oqw6c8hhod","geo_precision":"zip"},"type":"Feature","geometry":{"type":"Point","coordinates":[-102.778256,37.176407]}},{"properties":{"zip":"81321","geo_score":0.714,"count":53,"id":"a9oqw6fugvp6","geo_precision":"zip"},"type":"Feature","geometry":{"type":"Point","coordinates":[-108.662826,37.373594]}},{"properties":{"zip":"80737","geo_score":0.714,"count":7,"id":"a9oqw68ixm4h","geo_precision":"zip"},"type":"Feature","geometry":{"type":"Point","coordinates":[-102.351994,40.875606]}},{"properties":{"zip":"80018","geo_score":0.714,"count":8,"id":"a9oqw61tkejk","geo_precision":"zip"},"type":"Feature","geometry":{"type":"Point","coordinates":[-104.67982,39.689487]}},{"properties":{"zip":"80230","geo_score":0.714,"count":2,"id":"a9oqw6dz00kt","geo_precision":"zip"},"type":"Feature","geometry":{"type":"Point","coordinates":[-104.895093,39.721848]}},{"properties":{"zip":"80403","geo_score":0.714,"count":12,"id":"a9oqw6gm49mz","geo_precision":"zip"},"type":"Feature","geometry":{"type":"Point","coordinates":[-105.270395,39.829821]}},{"properties":{"zip":"81403","geo_score":0.0,"count":4,"id":"a9oqw63zqui3","geo_precision":"unmatched"},"type":"Feature","geometry":null},{"properties":{"zip":"81154","geo_score":0.714,"count":1,"id":"a9oqw6ft263h","geo_precision":"zip"},"type":"Feature","geometry":{"type":"Point","coordinates":[-106.58893,37.68917]}},{"properties":{"zip":"80513","geo_score":0.714,"count":8,"id":"a9oqw62aeu6x","geo_precision":"zip"},"type":"Feature","geometry":{"type":"Point","coordinates":[-104.998589,40.328317]}},{"properties":{"zip":"80304","geo_score":0.714,"count":15,"id":"a9oqw68s7kql","geo_precision":"zip"},"type":"Feature","geometry":{"type":"Point","coordinates":[-105.369797,40.114114]}},{"properties":{"zip":"80228","geo_score":0.714,"count":27,"id":"a9oqw6c7n7g5","geo_precision":"zip"},"type":"Feature","geometry":{"type":"Point","coordinates":[-105.156647,39.683582]}},{"properties":{"zip":"80439","geo_score":0.714,"count":9,"id":"a9oqw6687qo7","geo_precision":"zip"},"type":"Feature","geometry":{"type":"Point","coordinates":[-105.340548,39.660266]}},{"properties":{"zip":"80864","geo_score":0.714,"count":11,"id":"a9oqw69qijew","geo_precision":"zip"},"type":"Feature","geometry":{"type":"Point","coordinates":[-104.193088,38.738943]}},{"properties":{"zip":"80651","geo_score":0.714,"count":4,"id":"a9oqw685t4ba","geo_precision":"zip"},"type":"Feature","geometry":{"type":"Point","coordinates":[-105.014424,40.247762]}},{"properties":{"zip":"80207","geo_score":0.714,"count":42,"id":"a9oqw6cm42xh","geo_precision":"zip"},"type":"Feature","geometry":{"type":"Point","coordinates":[-104.903532,39.713186]}},{"properties":{"zip":"80110","geo_score":0.714,"count":30,"id":"a9oqw6fb68ap","geo_precision":"zip"},"type":"Feature","geometry":{"type":"Point","coordinates":[-104.950814,39.61721]}},{"properties":{"zip":"80917","geo_score":0.714,"count":39,"id":"a9oqw6bmi9fn","geo_precision":"zip"},"type":"Feature","geometry":{"type":"Point","coordinates":[-104.746689,38.82513]}},{"properties":{"zip":"80903","geo_score":0.714,"count":94,"id":"a9oqw62jqgz3","geo_precision":"zip"},"type":"Feature","geometry":{"type":"Point","coordinates":[-104.809929,38.828893]}},{"properties":{"zip":"81008","geo_score":0.714,"count":25,"id":"a9oqw64kxbk4","geo_precision":"zip"},"type":"Feature","geometry":{"type":"Point","coordinates":[-104.616363,38.316391]}},{"properties":{"zip":"80127","geo_score":0.714,"count":28,"id":"a9oqw6foo81z","geo_precision":"zip"},"type":"Feature","geometry":{"type":"Point","coordinates":[-105.153074,39.544307]}},{"properties":{"zip":"81052","geo_score":0.714,"count":15,"id":"a9oqw688kn3o","geo_precision":"zip"},"type":"Feature","geometry":{"type":"Point","coordinates":[-102.612138,38.150286]}},{"properties":{"zip":"81067","geo_score":0.714,"count":24,"id":"a9oqw639hy77","geo_precision":"zip"},"type":"Feature","geometry":{"type":"Point","coordinates":[-103.708332,37.995867]}},{"properties":{"zip":"81152","geo_score":0.714,"count":9,"id":"a9oqw6adn8qf","geo_precision":"zip"},"type":"Feature","geometry":{"type":"Point","coordinates":[-105.47813,37.106599]}},{"properties":{"zip":"80830","geo_score":0.714,"count":2,"id":"a9oqw6ec93eg","geo_precision":"zip"},"type":"Feature","geometry":{"type":"Point","coordinates":[-103.900144,39.114381]}},{"properties":{"zip":"80516","geo_score":0.714,"count":10,"id":"a9oqw61lb7zu","geo_precision":"zip"},"type":"Feature","geometry":{"type":"Point","coordinates":[-104.923481,40.062204]}},{"properties":{"zip":"80233","geo_score":0.714,"count":55,"id":"a9oqw6cer4w5","geo_precision":"zip"},"type":"Feature","geometry":{"type":"Point","coordinates":[-104.987203,39.885541]}},{"properties":{"zip":"80465","geo_score":0.714,"count":15,"id":"a9oqw6bjyr6z","geo_precision":"zip"},"type":"Feature","geometry":{"type":"Point","coordinates":[-105.247213,39.550544]}},{"properties":{"zip":"81601","geo_score":0.714,"count":17,"id":"a9oqw6b3eyep","geo_precision":"zip"},"type":"Feature","geometry":{"type":"Point","coordinates":[-107.310887,39.506093]}},{"properties":{"zip":"80919","geo_score":0.714,"count":17,"id":"a9oqw66f2ncm","geo_precision":"zip"},"type":"Feature","geometry":{"type":"Point","coordinates":[-104.917436,38.938149]}},{"properties":{"zip":"81428","geo_score":0.714,"count":8,"id":"a9oqw6hjabys","geo_precision":"zip"},"type":"Feature","geometry":{"type":"Point","coordinates":[-107.540056,38.921377]}},{"properties":{"zip":"80026","geo_score":0.714,"count":27,"id":"a9oqw6ctdpsf","geo_precision":"zip"},"type":"Feature","geometry":{"type":"Point","coordinates":[-105.104899,40.026334]}},{"properties":{"zip":"81507","geo_score":0.714,"count":12,"id":"a9oqw6hc5qmn","geo_precision":"zip"},"type":"Feature","geometry":{"type":"Point","coordinates":[-108.550649,39.063871]}},{"properties":{"zip":"80201","geo_score":0.714,"count":1,"id":"a9oqw6d14u7q","geo_precision":"zip"},"type":"Feature","geometry":{"type":"Point","coordinates":[-104.856808,39.726303]}},{"properties":{"zip":"81019","geo_score":0.714,"count":2,"id":"a9oqw62ep0we","geo_precision":"zip"},"type":"Feature","geometry":{"type":"Point","coordinates":[-104.613617,37.887346]}},{"properties":{"zip":"80503","geo_score":0.714,"count":19,"id":"a9oqw65fam4e","geo_precision":"zip"},"type":"Feature","geometry":{"type":"Point","coordinates":[-105.212558,40.159043]}},{"properties":{"zip":"81235","geo_score":0.714,"count":2,"id":"a9oqw6ge5j4l","geo_precision":"zip"},"type":"Feature","geometry":{"type":"Point","coordinates":[-107.276581,38.026256]}},{"properties":{"zip":"81632","geo_score":0.714,"count":5,"id":"a9oqw62nr95s","geo_precision":"zip"},"type":"Feature","geometry":{"type":"Point","coordinates":[-106.620644,39.638166]}},{"properties":{"zip":"81638","geo_score":0.714,"count":1,"id":"a9oqw6fyvobb","geo_precision":"zip"},"type":"Feature","geometry":{"type":"Point","coordinates":[-107.665731,40.297591]}},{"properties":{"zip":"80535","geo_score":0.714,"count":7,"id":"a9oqw644gdm1","geo_precision":"zip"},"type":"Feature","geometry":{"type":"Point","coordinates":[-105.262822,40.589014]}},{"properties":{"zip":"81230","geo_score":0.714,"count":7,"id":"a9oqw66b28y9","geo_precision":"zip"},"type":"Feature","geometry":{"type":"Point","coordinates":[-107.037294,38.528323]}},{"properties":{"zip":"80424","geo_score":0.714,"count":4,"id":"a9oqw6ahwgzn","geo_precision":"zip"},"type":"Feature","geometry":{"type":"Point","coordinates":[-106.043907,39.42971]}},{"properties":{"zip":"81433","geo_score":0.714,"count":4,"id":"a9oqw6fxsrm3","geo_precision":"zip"},"type":"Feature","geometry":{"type":"Point","coordinates":[-107.680381,37.848391]}},{"properties":{"zip":"81062","geo_score":0.714,"count":2,"id":"a9oqw6c2oodh","geo_precision":"zip"},"type":"Feature","geometry":{"type":"Point","coordinates":[-103.953208,38.327723]}},{"properties":{"zip":"80520","geo_score":0.714,"count":4,"id":"a9oqw67gn6pc","geo_precision":"zip"},"type":"Feature","geometry":{"type":"Point","coordinates":[-104.935838,40.122477]}},{"properties":{"zip":"80603","geo_score":0.714,"count":12,"id":"a9oqw6c6t9o0","geo_precision":"zip"},"type":"Feature","geometry":{"type":"Point","coordinates":[-104.844568,39.863881]}},{"properties":{"zip":"80807","geo_score":0.714,"count":10,"id":"a9oqw6e77ghx","geo_precision":"zip"},"type":"Feature","geometry":{"type":"Point","coordinates":[-102.461287,39.308966]}},{"properties":{"zip":"81121","geo_score":0.714,"count":1,"id":"a9oqw6fm9wnz","geo_precision":"zip"},"type":"Feature","geometry":{"type":"Point","coordinates":[-107.31183,37.109225]}},{"properties":{"zip":"81132","geo_score":0.714,"count":13,"id":"a9oqw64pjwpx","geo_precision":"zip"},"type":"Feature","geometry":{"type":"Point","coordinates":[-106.407311,37.644684]}},{"properties":{"zip":"80212","geo_score":0.714,"count":24,"id":"a9oqw66lxlmk","geo_precision":"zip"},"type":"Feature","geometry":{"type":"Point","coordinates":[-105.055539,39.774431]}},{"properties":{"zip":"81240","geo_score":0.714,"count":12,"id":"a9oqw6hhmhgm","geo_precision":"zip"},"type":"Feature","geometry":{"type":"Point","coordinates":[-105.047277,38.414125]}},{"properties":{"zip":"81521","geo_score":0.714,"count":21,"id":"a9oqw6gkov2n","geo_precision":"zip"},"type":"Feature","geometry":{"type":"Point","coordinates":[-108.685164,39.149614]}},{"properties":{"zip":"80615","geo_score":0.714,"count":9,"id":"a9oqw64d8j2k","geo_precision":"zip"},"type":"Feature","geometry":{"type":"Point","coordinates":[-104.660412,40.350055]}},{"properties":{"zip":"80550","geo_score":0.714,"count":15,"id":"a9oqw67quvtn","geo_precision":"zip"},"type":"Feature","geometry":{"type":"Point","coordinates":[-104.942467,40.307972]}},{"properties":{"zip":"80126","geo_score":0.714,"count":16,"id":"a9oqw68w5vg2","geo_precision":"zip"},"type":"Feature","geometry":{"type":"Point","coordinates":[-104.969143,39.54372]}},{"properties":{"zip":"81101","geo_score":0.714,"count":28,"id":"a9oqw61rr0nz","geo_precision":"zip"},"type":"Feature","geometry":{"type":"Point","coordinates":[-105.924467,37.366118]}},{"properties":{"zip":"80646","geo_score":0.714,"count":4,"id":"a9oqw6gfr6ff","geo_precision":"zip"},"type":"Feature","geometry":{"type":"Point","coordinates":[-104.70542,40.48243]}},{"properties":{"zip":"81652","geo_score":0.714,"count":8,"id":"a9oqw64t0u3m","geo_precision":"zip"},"type":"Feature","geometry":{"type":"Point","coordinates":[-107.665664,39.502817]}},{"properties":{"zip":"81527","geo_score":0.714,"count":11,"id":"a9oqw6e1fbvq","geo_precision":"zip"},"type":"Feature","geometry":{"type":"Point","coordinates":[-108.604695,38.814573]}},{"properties":{"zip":"81624","geo_score":0.714,"count":4,"id":"a9oqw64ilai6","geo_precision":"zip"},"type":"Feature","geometry":{"type":"Point","coordinates":[-107.981737,39.237201]}},{"properties":{"zip":"81328","geo_score":0.714,"count":5,"id":"a9oqw6ds21h3","geo_precision":"zip"},"type":"Feature","geometry":{"type":"Point","coordinates":[-108.468364,37.336041]}},{"properties":{"zip":"80421","geo_score":0.714,"count":18,"id":"a9oqw6hq9ltx","geo_precision":"zip"},"type":"Feature","geometry":{"type":"Point","coordinates":[-105.509723,39.408878]}},{"properties":{"zip":"80125","geo_score":0.714,"count":11,"id":"a9oqw6gdqzr9","geo_precision":"zip"},"type":"Feature","geometry":{"type":"Point","coordinates":[-105.05897,39.495327]}},{"properties":{"zip":"80436","geo_score":0.714,"count":2,"id":"a9oqw65k95wb","geo_precision":"zip"},"type":"Feature","geometry":{"type":"Point","coordinates":[-105.614445,39.766654]}},{"properties":{"zip":"81122","geo_score":0.714,"count":9,"id":"a9oqw6bcd9vm","geo_precision":"zip"},"type":"Feature","geometry":{"type":"Point","coordinates":[-107.63728,37.21917]}},{"properties":{"zip":"80117","geo_score":0.714,"count":5,"id":"a9oqw638a8sz","geo_precision":"zip"},"type":"Feature","geometry":{"type":"Point","coordinates":[-104.421214,39.370254]}},{"properties":{"zip":"80534","geo_score":0.714,"count":13,"id":"a9oqw6c7ajvl","geo_precision":"zip"},"type":"Feature","geometry":{"type":"Point","coordinates":[-104.94192,40.336094]}},{"properties":{"zip":"81401","geo_score":0.714,"count":42,"id":"a9oqw61zjv1w","geo_precision":"zip"},"type":"Feature","geometry":{"type":"Point","coordinates":[-107.818672,38.378043]}},{"properties":{"zip":"80645","geo_score":0.714,"count":7,"id":"a9oqw6d1kwwf","geo_precision":"zip"},"type":"Feature","geometry":{"type":"Point","coordinates":[-104.751079,40.303871]}},{"properties":{"zip":"80467","geo_score":0.714,"count":3,"id":"a9oqw6hwax9k","geo_precision":"zip"},"type":"Feature","geometry":{"type":"Point","coordinates":[-106.944274,40.323272]}},{"properties":{"zip":"91089","geo_score":0.0,"count":1,"id":"a9oqw66ffyy8","geo_precision":"unmatched"},"type":"Feature","geometry":null},{"properties":{"zip":"80759","geo_score":0.714,"count":4,"id":"a9oqw679x5t4","geo_precision":"zip"},"type":"Feature","geometry":{"type":"Point","coordinates":[-102.618522,40.061817]}},{"properties":{"zip":"80517","geo_score":0.714,"count":3,"id":"a9oqw678i90m","geo_precision":"zip"},"type":"Feature","geometry":{"type":"Point","coordinates":[-105.544444,40.364428]}},{"properties":{"zip":"80755","geo_score":0.714,"count":1,"id":"a9oqw6b15pcb","geo_precision":"zip"},"type":"Feature","geometry":{"type":"Point","coordinates":[-102.434252,39.812149]}},{"properties":{"zip":"81647","geo_score":0.714,"count":11,"id":"a9oqw69q1zca","geo_precision":"zip"},"type":"Feature","geometry":{"type":"Point","coordinates":[-107.566159,39.597433]}},{"properties":{"zip":"81415","geo_score":0.714,"count":3,"id":"a9oqw6d9vyeb","geo_precision":"zip"},"type":"Feature","geometry":{"type":"Point","coordinates":[-107.63089,38.767652]}},{"properties":{"zip":"81223","geo_score":0.714,"count":6,"id":"a9oqw641bkdm","geo_precision":"zip"},"type":"Feature","geometry":{"type":"Point","coordinates":[-105.580556,38.413053]}},{"properties":{"zip":"80138","geo_score":0.714,"count":19,"id":"a9oqw6bbr1a4","geo_precision":"zip"},"type":"Feature","geometry":{"type":"Point","coordinates":[-104.721607,39.510214]}},{"properties":{"zip":"80723","geo_score":0.714,"count":16,"id":"a9oqw6etym5u","geo_precision":"zip"},"type":"Feature","geometry":{"type":"Point","coordinates":[-103.584391,40.146371]}},{"properties":{"zip":"80530","geo_score":0.714,"count":7,"id":"a9oqw66l0hnm","geo_precision":"zip"},"type":"Feature","geometry":{"type":"Point","coordinates":[-104.938057,40.123557]}},{"properties":{"zip":"80902","geo_score":0.714,"count":1,"id":"a9oqw651w425","geo_precision":"zip"},"type":"Feature","geometry":{"type":"Point","coordinates":[-104.821363,38.833882]}},{"properties":{"zip":"80456","geo_score":0.714,"count":3,"id":"a9oqw6821hrv","geo_precision":"zip"},"type":"Feature","geometry":{"type":"Point","coordinates":[-105.686535,39.27593]}},{"properties":{"zip":"81039","geo_score":0.714,"count":3,"id":"a9oqw667tfip","geo_precision":"zip"},"type":"Feature","geometry":{"type":"Point","coordinates":[-103.967799,37.98146]}},{"properties":{"zip":"81431","geo_score":0.714,"count":1,"id":"a9oqw69i1brn","geo_precision":"zip"},"type":"Feature","geometry":{"type":"Point","coordinates":[-108.415514,38.192224]}},{"properties":{"zip":"80007","geo_score":0.714,"count":3,"id":"a9oqw6fhleke","geo_precision":"zip"},"type":"Feature","geometry":{"type":"Point","coordinates":[-105.172429,39.863369]}},{"properties":{"zip":"81303","geo_score":0.714,"count":8,"id":"a9oqw695v07m","geo_precision":"zip"},"type":"Feature","geometry":{"type":"Point","coordinates":[-107.868991,37.275907]}},{"properties":{"zip":"80202","geo_score":0.714,"count":7,"id":"a9oqw67prgm6","geo_precision":"zip"},"type":"Feature","geometry":{"type":"Point","coordinates":[-104.996553,39.760189]}},{"properties":{"zip":"80732","geo_score":0.714,"count":3,"id":"a9oqw6abft1w","geo_precision":"zip"},"type":"Feature","geometry":{"type":"Point","coordinates":[-104.305265,40.975104]}},{"properties":{"zip":"80829","geo_score":0.714,"count":12,"id":"a9oqw6fxushj","geo_precision":"zip"},"type":"Feature","geometry":{"type":"Point","coordinates":[-104.927452,38.853366]}},{"properties":{"zip":"80118","geo_score":0.714,"count":4,"id":"a9oqw6d49bzd","geo_precision":"zip"},"type":"Feature","geometry":{"type":"Point","coordinates":[-104.855258,39.182491]}},{"properties":{"zip":"80925","geo_score":0.714,"count":10,"id":"a9oqw67tfqlq","geo_precision":"zip"},"type":"Feature","geometry":{"type":"Point","coordinates":[-104.645854,38.737774]}},{"properties":{"zip":"80024","geo_score":0.714,"count":1,"id":"a9oqw6dxlb8m","geo_precision":"zip"},"type":"Feature","geometry":{"type":"Point","coordinates":[-104.918783,39.844501]}},{"properties":{"zip":"81623","geo_score":0.714,"count":9,"id":"a9oqw67vhyi6","geo_precision":"zip"},"type":"Feature","geometry":{"type":"Point","coordinates":[-107.061714,39.364984]}},{"properties":{"zip":"81058","geo_score":0.714,"count":3,"id":"a9oqw67qw1hs","geo_precision":"zip"},"type":"Feature","geometry":{"type":"Point","coordinates":[-103.885189,38.082793]}},{"properties":{"zip":"80005","geo_score":0.714,"count":15,"id":"a9oqw6hdetee","geo_precision":"zip"},"type":"Feature","geometry":{"type":"Point","coordinates":[-105.12344,39.857259]}},{"properties":{"zip":"81023","geo_score":0.714,"count":3,"id":"a9oqw6cft4b2","geo_precision":"zip"},"type":"Feature","geometry":{"type":"Point","coordinates":[-104.63577,38.127363]}},{"properties":{"zip":"80514","geo_score":0.714,"count":7,"id":"a9oqw6b3y1e3","geo_precision":"zip"},"type":"Feature","geometry":{"type":"Point","coordinates":[-104.911938,40.204344]}},{"properties":{"zip":"80466","geo_score":0.714,"count":4,"id":"a9oqw6hmwvu3","geo_precision":"zip"},"type":"Feature","geometry":{"type":"Point","coordinates":[-105.563889,39.948598]}},{"properties":{"zip":"80808","geo_score":0.714,"count":14,"id":"a9oqw67le7os","geo_precision":"zip"},"type":"Feature","geometry":{"type":"Point","coordinates":[-104.386909,38.838328]}},{"properties":{"zip":"80908","geo_score":0.714,"count":13,"id":"a9oqw6fokfcz","geo_precision":"zip"},"type":"Feature","geometry":{"type":"Point","coordinates":[-104.705498,39.020647]}},{"properties":{"zip":"81646","geo_score":0.714,"count":1,"id":"a9oqw69lmqv5","geo_precision":"zip"},"type":"Feature","geometry":{"type":"Point","coordinates":[-108.076508,39.165152]}},{"properties":{"zip":"80021","geo_score":0.714,"count":13,"id":"a9oqw6d92op5","geo_precision":"zip"},"type":"Feature","geometry":{"type":"Point","coordinates":[-105.114346,39.889763]}},{"properties":{"zip":"80543","geo_score":0.714,"count":8,"id":"a9oqw65kvn22","geo_precision":"zip"},"type":"Feature","geometry":{"type":"Point","coordinates":[-104.841349,40.387381]}},{"properties":{"zip":"80542","geo_score":0.714,"count":3,"id":"a9oqw6blk9m1","geo_precision":"zip"},"type":"Feature","geometry":{"type":"Point","coordinates":[-104.893796,40.327051]}},{"properties":{"zip":"81524","geo_score":0.714,"count":2,"id":"a9oqw63981pu","geo_precision":"zip"},"type":"Feature","geometry":{"type":"Point","coordinates":[-108.78446,39.256425]}},{"properties":{"zip":"80928","geo_score":0.714,"count":5,"id":"a9oqw68ixici","geo_precision":"zip"},"type":"Feature","geometry":{"type":"Point","coordinates":[-104.395746,38.645078]}},{"properties":{"zip":"80240","geo_score":0.714,"count":1,"id":"a9oqw61le5fo","geo_precision":"zip"},"type":"Feature","geometry":{"type":"Point","coordinates":[-104.984703,39.739154]}},{"properties":{"zip":"80512","geo_score":0.714,"count":3,"id":"a9oqw67tuupi","geo_precision":"zip"},"type":"Feature","geometry":{"type":"Point","coordinates":[-105.700004,40.58026]}},{"properties":{"zip":"80720","geo_score":0.714,"count":6,"id":"a9oqw6ayr97f","geo_precision":"zip"},"type":"Feature","geometry":{"type":"Point","coordinates":[-103.202379,40.073328]}},{"properties":{"zip":"80744","geo_score":0.714,"count":1,"id":"a9oqw6fe6kz4","geo_precision":"zip"},"type":"Feature","geometry":{"type":"Point","coordinates":[-102.358241,40.875571]}},{"properties":{"zip":"80626","geo_score":0.0,"count":1,"id":"a9oqw6clid2h","geo_precision":"unmatched"},"type":"Feature","geometry":null},{"properties":{"zip":"81326","geo_score":0.714,"count":4,"id":"a9oqw696y5s0","geo_precision":"zip"},"type":"Feature","geometry":{"type":"Point","coordinates":[-108.077851,37.1925]}},{"properties":{"zip":"80734","geo_score":0.714,"count":3,"id":"a9oqw6bajelg","geo_precision":"zip"},"type":"Feature","geometry":{"type":"Point","coordinates":[-102.272326,40.587166]}},{"properties":{"zip":"80921","geo_score":0.714,"count":3,"id":"a9oqw65rztzn","geo_precision":"zip"},"type":"Feature","geometry":{"type":"Point","coordinates":[-104.89122,39.055054]}},{"properties":{"zip":"81506","geo_score":0.714,"count":9,"id":"a9oqw6fkft81","geo_precision":"zip"},"type":"Feature","geometry":{"type":"Point","coordinates":[-108.566523,39.089167]}},{"properties":{"zip":"80023","geo_score":0.714,"count":3,"id":"a9oqw64nr6yi","geo_precision":"zip"},"type":"Feature","geometry":{"type":"Point","coordinates":[-104.83192,39.729432]}},{"properties":{"zip":"81252","geo_score":0.714,"count":4,"id":"a9oqw626is97","geo_precision":"zip"},"type":"Feature","geometry":{"type":"Point","coordinates":[-105.33611,38.097224]}},{"properties":{"zip":"81036","geo_score":0.714,"count":3,"id":"a9oqw6az6qeg","geo_precision":"zip"},"type":"Feature","geometry":{"type":"Point","coordinates":[-102.554901,38.440752]}},{"properties":{"zip":"80923","geo_score":0.714,"count":15,"id":"a9oqw6f4fo4d","geo_precision":"zip"},"type":"Feature","geometry":{"type":"Point","coordinates":[-104.821363,38.833882]}},{"properties":{"zip":"80449","geo_score":0.714,"count":1,"id":"a9oqw6ctdprq","geo_precision":"zip"},"type":"Feature","geometry":{"type":"Point","coordinates":[-105.878811,38.967262]}},{"properties":{"zip":"80930","geo_score":0.714,"count":5,"id":"a9oqw6hwl8mi","geo_precision":"zip"},"type":"Feature","geometry":{"type":"Point","coordinates":[-104.493259,38.824202]}},{"properties":{"zip":"81040","geo_score":0.714,"count":4,"id":"a9oqw653slzf","geo_precision":"zip"},"type":"Feature","geometry":{"type":"Point","coordinates":[-105.18487,37.787772]}},{"properties":{"zip":"80540","geo_score":0.714,"count":5,"id":"a9oqw61pw53e","geo_precision":"zip"},"type":"Feature","geometry":{"type":"Point","coordinates":[-105.430273,40.261929]}},{"properties":{"zip":"80498","geo_score":0.714,"count":3,"id":"a9oqw66jlo0x","geo_precision":"zip"},"type":"Feature","geometry":{"type":"Point","coordinates":[-106.301139,39.872486]}},{"properties":{"zip":"80813","geo_score":0.714,"count":3,"id":"a9oqw6h0qteb","geo_precision":"zip"},"type":"Feature","geometry":{"type":"Point","coordinates":[-105.149874,38.826084]}},{"properties":{"zip":"80642","geo_score":0.714,"count":9,"id":"a9oqw669ka2p","geo_precision":"zip"},"type":"Feature","geometry":{"type":"Point","coordinates":[-104.672306,40.109353]}},{"properties":{"zip":"80528","geo_score":0.714,"count":6,"id":"a9oqw6byaq15","geo_precision":"zip"},"type":"Feature","geometry":{"type":"Point","coordinates":[-105.034077,40.533726]}},{"properties":{"zip":"80648","geo_score":0.714,"count":3,"id":"a9oqw6cdksap","geo_precision":"zip"},"type":"Feature","geometry":{"type":"Point","coordinates":[-104.627586,40.492804]}},{"properties":{"zip":"80124","geo_score":0.714,"count":4,"id":"a9oqw6hbwovo","geo_precision":"zip"},"type":"Feature","geometry":{"type":"Point","coordinates":[-104.861962,39.531381]}},{"properties":{"zip":"80136","geo_score":0.714,"count":7,"id":"a9oqw6aho7pj","geo_precision":"zip"},"type":"Feature","geometry":{"type":"Point","coordinates":[-104.291682,39.865547]}},{"properties":{"zip":"80747","geo_score":0.714,"count":4,"id":"a9oqw6g7nwon","geo_precision":"zip"},"type":"Feature","geometry":{"type":"Point","coordinates":[-103.16182,40.825442]}},{"properties":{"zip":"80827","geo_score":0.714,"count":3,"id":"a9oqw6eo44nx","geo_precision":"zip"},"type":"Feature","geometry":{"type":"Point","coordinates":[-105.475555,39.121935]}},{"properties":{"zip":"80305","geo_score":0.714,"count":5,"id":"a9oqw6dpfcm2","geo_precision":"zip"},"type":"Feature","geometry":{"type":"Point","coordinates":[-105.250597,39.975263]}},{"properties":{"zip":"81425","geo_score":0.714,"count":6,"id":"a9oqw6eoe1k1","geo_precision":"zip"},"type":"Feature","geometry":{"type":"Point","coordinates":[-108.078623,38.497566]}},{"properties":{"zip":"80749","geo_score":0.714,"count":3,"id":"a9oqw62i5293","geo_precision":"zip"},"type":"Feature","geometry":{"type":"Point","coordinates":[-102.44023,40.875703]}},{"properties":{"zip":"81149","geo_score":0.714,"count":1,"id":"a9oqw6acihe8","geo_precision":"zip"},"type":"Feature","geometry":{"type":"Point","coordinates":[-106.351826,38.181206]}},{"properties":{"zip":"80643","geo_score":0.714,"count":1,"id":"a9oqw69qxry8","geo_precision":"zip"},"type":"Feature","geometry":{"type":"Point","coordinates":[-104.506123,40.085322]}},{"properties":{"zip":"80733","geo_score":0.714,"count":2,"id":"a9oqw6b9kcbz","geo_precision":"zip"},"type":"Feature","geometry":{"type":"Point","coordinates":[-103.505721,40.345863]}},{"properties":{"zip":"80822","geo_score":0.714,"count":1,"id":"a9oqw64ibk4t","geo_precision":"zip"},"type":"Feature","geometry":{"type":"Point","coordinates":[-102.500066,39.959546]}},{"properties":{"zip":"80809","geo_score":0.714,"count":4,"id":"a9oqw6htjdrr","geo_precision":"zip"},"type":"Feature","geometry":{"type":"Point","coordinates":[-104.994972,38.945534]}},{"properties":{"zip":"80133","geo_score":0.714,"count":2,"id":"a9oqw65h2ofc","geo_precision":"zip"},"type":"Feature","geometry":{"type":"Point","coordinates":[-104.900328,39.112138]}},{"properties":{"zip":"81419","geo_score":0.714,"count":7,"id":"a9oqw63r46gq","geo_precision":"zip"},"type":"Feature","geometry":{"type":"Point","coordinates":[-107.793116,38.779151]}},{"properties":{"zip":"80422","geo_score":0.714,"count":4,"id":"a9oqw647xqz8","geo_precision":"zip"},"type":"Feature","geometry":{"type":"Point","coordinates":[-105.475322,39.81599]}},{"properties":{"zip":"80213","geo_score":0.714,"count":1,"id":"a9oqw6dg61eh","geo_precision":"zip"},"type":"Feature","geometry":{"type":"Point","coordinates":[-104.984703,39.739154]}},{"properties":{"zip":"81055","geo_score":0.714,"count":2,"id":"a9oqw6ft6edb","geo_precision":"zip"},"type":"Feature","geometry":{"type":"Point","coordinates":[-105.057545,37.511672]}},{"properties":{"zip":"80757","geo_score":0.714,"count":1,"id":"a9oqw6hnftp8","geo_precision":"zip"},"type":"Feature","geometry":{"type":"Point","coordinates":[-103.591614,39.74082]}},{"properties":{"zip":"80454","geo_score":0.714,"count":2,"id":"a9oqw6242z78","geo_precision":"zip"},"type":"Feature","geometry":{"type":"Point","coordinates":[-105.248119,39.654637]}},{"properties":{"zip":"80443","geo_score":0.714,"count":2,"id":"a9oqw64n169x","geo_precision":"zip"},"type":"Feature","geometry":{"type":"Point","coordinates":[-106.133183,39.558929]}},{"properties":{"zip":"80814","geo_score":0.714,"count":4,"id":"a9oqw6b3xp3k","geo_precision":"zip"},"type":"Feature","geometry":{"type":"Point","coordinates":[-105.185653,38.923901]}},{"properties":{"zip":"81637","geo_score":0.714,"count":3,"id":"a9oqw6b447kr","geo_precision":"zip"},"type":"Feature","geometry":{"type":"Point","coordinates":[-106.895722,39.615505]}},{"properties":{"zip":"81051","geo_score":0.0,"count":3,"id":"a9oqw6grneck","geo_precision":"unmatched"},"type":"Feature","geometry":null},{"properties":{"zip":"80610","geo_score":0.714,"count":3,"id":"a9oqw61oix5p","geo_precision":"zip"},"type":"Feature","geometry":{"type":"Point","coordinates":[-104.607073,40.675794]}},{"properties":{"zip":"81611","geo_score":0.714,"count":3,"id":"a9oqw6cq11r2","geo_precision":"zip"},"type":"Feature","geometry":{"type":"Point","coordinates":[-106.776744,39.169324]}},{"properties":{"zip":"80819","geo_score":0.714,"count":4,"id":"a9oqw69u506g","geo_precision":"zip"},"type":"Feature","geometry":{"type":"Point","coordinates":[-105.009444,38.93893]}},{"properties":{"zip":"80924","geo_score":0.714,"count":2,"id":"a9oqw6gaed7l","geo_precision":"zip"},"type":"Feature","geometry":{"type":"Point","coordinates":[-104.821363,38.833882]}},{"properties":{"zip":"80821","geo_score":0.714,"count":2,"id":"a9oqw6e4x8hp","geo_precision":"zip"},"type":"Feature","geometry":{"type":"Point","coordinates":[-103.457864,39.022942]}},{"properties":{"zip":"80741","geo_score":0.714,"count":4,"id":"a9oqw670ea7a","geo_precision":"zip"},"type":"Feature","geometry":{"type":"Point","coordinates":[-103.413883,40.632075]}},{"properties":{"zip":"81410","geo_score":0.714,"count":2,"id":"a9oqw6gxnzh6","geo_precision":"zip"},"type":"Feature","geometry":{"type":"Point","coordinates":[-107.983125,38.805013]}},{"properties":{"zip":"81125","geo_score":0.714,"count":4,"id":"a9oqw6gpu6bd","geo_precision":"zip"},"type":"Feature","geometry":{"type":"Point","coordinates":[-106.046711,37.869875]}},{"properties":{"zip":"80111","geo_score":0.714,"count":4,"id":"a9oqw6byc1f4","geo_precision":"zip"},"type":"Feature","geometry":{"type":"Point","coordinates":[-104.864703,39.666811]}},{"properties":{"zip":"80200","geo_score":0.0,"count":2,"id":"a9oqw65qqa9h","geo_precision":"unmatched"},"type":"Feature","geometry":null},{"properties":{"zip":"81657","geo_score":0.714,"count":4,"id":"a9oqw6g1qma0","geo_precision":"zip"},"type":"Feature","geometry":{"type":"Point","coordinates":[-106.44873,39.5824]}},{"properties":{"zip":"80823","geo_score":0.714,"count":1,"id":"a9oqw6425cz8","geo_precision":"zip"},"type":"Feature","geometry":{"type":"Point","coordinates":[-103.474701,38.806509]}},{"properties":{"zip":"80731","geo_score":0.714,"count":5,"id":"a9oqw6dmcpv9","geo_precision":"zip"},"type":"Feature","geometry":{"type":"Point","coordinates":[-102.523842,40.601383]}},{"properties":{"zip":"81065","geo_score":0.714,"count":1,"id":"a9oqw6fofjv8","geo_precision":"zip"},"type":"Feature","geometry":{"type":"Point","coordinates":[-104.714152,37.50807]}},{"properties":{"zip":"80477","geo_score":0.714,"count":1,"id":"a9oqw6832kx2","geo_precision":"zip"},"type":"Feature","geometry":{"type":"Point","coordinates":[-106.92691,40.348242]}},{"properties":{"zip":"80562","geo_score":0.0,"count":1,"id":"a9oqw68y1cpk","geo_precision":"unmatched"},"type":"Feature","geometry":null},{"properties":{"zip":"80926","geo_score":0.714,"count":6,"id":"a9oqw6gyuc69","geo_precision":"zip"},"type":"Feature","geometry":{"type":"Point","coordinates":[-104.880825,38.644087]}},{"properties":{"zip":"80108","geo_score":0.714,"count":3,"id":"a9oqw6fbxc39","geo_precision":"zip"},"type":"Feature","geometry":{"type":"Point","coordinates":[-104.773313,39.505205]}},{"properties":{"zip":"80470","geo_score":0.714,"count":4,"id":"a9oqw6fii8b6","geo_precision":"zip"},"type":"Feature","geometry":{"type":"Point","coordinates":[-105.529167,39.498878]}},{"properties":{"zip":"80446","geo_score":0.714,"count":3,"id":"a9oqw6e14z47","geo_precision":"zip"},"type":"Feature","geometry":{"type":"Point","coordinates":[-105.928533,40.073869]}},{"properties":{"zip":"81236","geo_score":0.714,"count":3,"id":"a9oqw67ge8n0","geo_precision":"zip"},"type":"Feature","geometry":{"type":"Point","coordinates":[-106.338079,38.708607]}},{"properties":{"zip":"81211","geo_score":0.714,"count":4,"id":"a9oqw6706cm5","geo_precision":"zip"},"type":"Feature","geometry":{"type":"Point","coordinates":[-106.106684,38.810829]}},{"properties":{"zip":"80455","geo_score":0.714,"count":1,"id":"a9oqw6gl4rk0","geo_precision":"zip"},"type":"Feature","geometry":{"type":"Point","coordinates":[-105.389439,40.07693]}},{"properties":{"zip":"80652","geo_score":0.714,"count":3,"id":"a9oqw673rx8l","geo_precision":"zip"},"type":"Feature","geometry":{"type":"Point","coordinates":[-104.281976,40.087777]}},{"properties":{"zip":"81630","geo_score":0.714,"count":2,"id":"a9oqw6fm7uhu","geo_precision":"zip"},"type":"Feature","geometry":{"type":"Point","coordinates":[-108.210688,39.292409]}},{"properties":{"zip":"80121","geo_score":0.714,"count":3,"id":"a9oqw6gy1i92","geo_precision":"zip"},"type":"Feature","geometry":{"type":"Point","coordinates":[-104.88773,39.612789]}},{"properties":{"zip":"80101","geo_score":0.714,"count":1,"id":"a9oqw6b7j6ag","geo_precision":"zip"},"type":"Feature","geometry":{"type":"Point","coordinates":[-104.084781,39.382335]}},{"properties":{"zip":"80435","geo_score":0.714,"count":1,"id":"a9oqw6akat6k","geo_precision":"zip"},"type":"Feature","geometry":{"type":"Point","coordinates":[-105.974117,39.595212]}},{"properties":{"zip":"81423","geo_score":0.714,"count":3,"id":"a9oqw678287p","geo_precision":"zip"},"type":"Feature","geometry":{"type":"Point","coordinates":[-108.316049,38.028899]}},{"properties":{"zip":"81526","geo_score":0.714,"count":5,"id":"a9oqw61pf8d8","geo_precision":"zip"},"type":"Feature","geometry":{"type":"Point","coordinates":[-108.299254,39.095369]}},{"properties":{"zip":"80549","geo_score":0.714,"count":9,"id":"a9oqw68yj3i3","geo_precision":"zip"},"type":"Feature","geometry":{"type":"Point","coordinates":[-105.094976,40.827205]}},{"properties":{"zip":"81057","geo_score":0.714,"count":1,"id":"a9oqw6ez3y7y","geo_precision":"zip"},"type":"Feature","geometry":{"type":"Point","coordinates":[-102.924367,38.128896]}},{"properties":{"zip":"81090","geo_score":0.714,"count":1,"id":"a9oqw6c11va6","geo_precision":"zip"},"type":"Feature","geometry":{"type":"Point","coordinates":[-102.265146,37.368042]}},{"properties":{"zip":"81656","geo_score":0.714,"count":1,"id":"a9oqw66lfe17","geo_precision":"zip"},"type":"Feature","geometry":{"type":"Point","coordinates":[-106.898514,39.283116]}},{"properties":{"zip":"81621","geo_score":0.714,"count":2,"id":"a9oqw68c724j","geo_precision":"zip"},"type":"Feature","geometry":{"type":"Point","coordinates":[-106.798094,39.366374]}},{"properties":{"zip":"80116","geo_score":0.714,"count":1,"id":"a9oqw6f0eniq","geo_precision":"zip"},"type":"Feature","geometry":{"type":"Point","coordinates":[-104.756722,39.30403]}},{"properties":{"zip":"81631","geo_score":0.714,"count":5,"id":"a9oqw6dcx0h8","geo_precision":"zip"},"type":"Feature","geometry":{"type":"Point","coordinates":[-106.805111,39.607401]}},{"properties":{"zip":"80440","geo_score":0.714,"count":3,"id":"a9oqw68po4sd","geo_precision":"zip"},"type":"Feature","geometry":{"type":"Point","coordinates":[-105.60417,39.04777]}},{"properties":{"zip":"80522","geo_score":0.714,"count":1,"id":"a9oqw6evv23r","geo_precision":"zip"},"type":"Feature","geometry":{"type":"Point","coordinates":[-105.057005,40.642907]}},{"properties":{"zip":"80438","geo_score":0.714,"count":3,"id":"a9oqw6a847u7","geo_precision":"zip"},"type":"Feature","geometry":{"type":"Point","coordinates":[-105.80862,39.77082]}},{"properties":{"zip":"81022","geo_score":0.714,"count":4,"id":"a9oqw6fhq9g6","geo_precision":"zip"},"type":"Feature","geometry":{"type":"Point","coordinates":[-104.346079,38.261946]}},{"properties":{"zip":"80527","geo_score":0.714,"count":1,"id":"a9oqw6h2aqzf","geo_precision":"zip"},"type":"Feature","geometry":{"type":"Point","coordinates":[-105.280009,40.540565]}},{"properties":{"zip":"80812","geo_score":0.714,"count":1,"id":"a9oqw6293xa7","geo_precision":"zip"},"type":"Feature","geometry":{"type":"Point","coordinates":[-102.99038,39.684772]}},{"properties":{"zip":"81126","geo_score":0.714,"count":2,"id":"a9oqw63ess7j","geo_precision":"zip"},"type":"Feature","geometry":{"type":"Point","coordinates":[-105.450502,37.326735]}},{"properties":{"zip":"81120","geo_score":0.714,"count":3,"id":"a9oqw6hqxjkg","geo_precision":"zip"},"type":"Feature","geometry":{"type":"Point","coordinates":[-106.064467,36.988347]}},{"properties":{"zip":"80951","geo_score":0.0,"count":3,"id":"a9oqw6ekq4wc","geo_precision":"unmatched"},"type":"Feature","geometry":null},{"properties":{"zip":"81041","geo_score":0.714,"count":1,"id":"a9oqw6hxltqn","geo_precision":"zip"},"type":"Feature","geometry":{"type":"Point","coordinates":[-102.346857,38.071398]}},{"properties":{"zip":"81047","geo_score":0.714,"count":4,"id":"a9oqw6gcutsg","geo_precision":"zip"},"type":"Feature","geometry":{"type":"Point","coordinates":[-102.335202,37.956511]}},{"properties":{"zip":"80480","geo_score":0.714,"count":1,"id":"a9oqw6ciri32","geo_precision":"zip"},"type":"Feature","geometry":{"type":"Point","coordinates":[-106.249045,40.678825]}},{"properties":{"zip":"81523","geo_score":0.714,"count":4,"id":"a9oqw6ajq5kg","geo_precision":"zip"},"type":"Feature","geometry":{"type":"Point","coordinates":[-108.78097,38.989416]}},{"properties":{"zip":"81233","geo_score":0.714,"count":1,"id":"a9oqw695ihsy","geo_precision":"zip"},"type":"Feature","geometry":{"type":"Point","coordinates":[-105.769848,38.410012]}},{"properties":{"zip":"81143","geo_score":0.714,"count":4,"id":"a9oqw6b08eho","geo_precision":"zip"},"type":"Feature","geometry":{"type":"Point","coordinates":[-105.817955,38.065284]}},{"properties":{"zip":"81324","geo_score":0.714,"count":2,"id":"a9oqw6f5go69","geo_precision":"zip"},"type":"Feature","geometry":{"type":"Point","coordinates":[-109.064832,37.860825]}},{"properties":{"zip":"80810","geo_score":0.714,"count":2,"id":"a9oqw6abrpbl","geo_precision":"zip"},"type":"Feature","geometry":{"type":"Point","coordinates":[-102.411537,38.827259]}},{"properties":{"zip":"80547","geo_score":0.714,"count":1,"id":"a9oqw65n068r","geo_precision":"zip"},"type":"Feature","geometry":{"type":"Point","coordinates":[-105.017539,40.708692]}},{"properties":{"zip":"80758","geo_score":0.714,"count":4,"id":"a9oqw6fuefwb","geo_precision":"zip"},"type":"Feature","geometry":{"type":"Point","coordinates":[-102.075743,40.30777]}},{"properties":{"zip":"80137","geo_score":0.714,"count":1,"id":"a9oqw64em1fr","geo_precision":"zip"},"type":"Feature","geometry":{"type":"Point","coordinates":[-104.630327,39.796784]}},{"properties":{"zip":"81123","geo_score":0.714,"count":2,"id":"a9oqw636b8un","geo_precision":"zip"},"type":"Feature","geometry":{"type":"Point","coordinates":[-105.57348,37.435812]}},{"properties":{"zip":"61701","geo_score":0.714,"count":1,"id":"a9oqw625mbxb","geo_precision":"zip"},"type":"Feature","geometry":{"type":"Point","coordinates":[-88.783679,40.526979]}},{"properties":{"zip":"81025","geo_score":0.714,"count":3,"id":"a9oqw693usrz","geo_precision":"zip"},"type":"Feature","geometry":{"type":"Point","coordinates":[-104.209119,38.319575]}},{"properties":{"zip":"81610","geo_score":0.714,"count":2,"id":"a9oqw6b2tu0w","geo_precision":"zip"},"type":"Feature","geometry":{"type":"Point","coordinates":[-108.640381,40.252748]}},{"properties":{"zip":"81244","geo_score":0.714,"count":3,"id":"a9oqw67hcy4q","geo_precision":"zip"},"type":"Feature","geometry":{"type":"Point","coordinates":[-105.22114,38.336184]}},{"properties":{"zip":"81029","geo_score":0.714,"count":1,"id":"a9oqw6dc0orw","geo_precision":"zip"},"type":"Feature","geometry":{"type":"Point","coordinates":[-102.473938,37.184434]}},{"properties":{"zip":"81432","geo_score":0.714,"count":1,"id":"a9oqw6f3hmld","geo_precision":"zip"},"type":"Feature","geometry":{"type":"Point","coordinates":[-107.701449,38.081381]}},{"properties":{"zip":"80321","geo_score":0.714,"count":1,"id":"a9oqw61fa7j3","geo_precision":"zip"},"type":"Feature","geometry":{"type":"Point","coordinates":[-105.373507,40.087835]}},{"properties":{"zip":"80453","geo_score":0.714,"count":2,"id":"a9oqw68rap01","geo_precision":"zip"},"type":"Feature","geometry":{"type":"Point","coordinates":[-105.244245,39.668426]}},{"properties":{"zip":"81140","geo_score":0.714,"count":1,"id":"a9oqw64cxe6q","geo_precision":"zip"},"type":"Feature","geometry":{"type":"Point","coordinates":[-106.020025,37.327785]}},{"properties":{"zip":"81153","geo_score":0.714,"count":1,"id":"a9oqw6dmlogk","geo_precision":"zip"},"type":"Feature","geometry":{"type":"Point","coordinates":[-105.402511,37.159739]}},{"properties":{"zip":"80427","geo_score":0.714,"count":3,"id":"a9oqw6d6a05n","geo_precision":"zip"},"type":"Feature","geometry":{"type":"Point","coordinates":[-105.545631,39.821626]}},{"properties":{"zip":"80833","geo_score":0.714,"count":2,"id":"a9oqw6g3i22d","geo_precision":"zip"},"type":"Feature","geometry":{"type":"Point","coordinates":[-104.117904,38.818756]}},{"properties":{"zip":"80835","geo_score":0.714,"count":3,"id":"a9oqw6b8onur","geo_precision":"zip"},"type":"Feature","geometry":{"type":"Point","coordinates":[-104.070186,39.208696]}},{"properties":{"zip":"80805","geo_score":0.714,"count":3,"id":"a9oqw64eerfb","geo_precision":"zip"},"type":"Feature","geometry":{"type":"Point","coordinates":[-102.433217,39.293345]}},{"properties":{"zip":"80654","geo_score":0.714,"count":3,"id":"a9oqw64149v9","geo_precision":"zip"},"type":"Feature","geometry":{"type":"Point","coordinates":[-104.07495,40.01554]}},{"properties":{"zip":"81020","geo_score":0.714,"count":2,"id":"a9oqw65gne3h","geo_precision":"zip"},"type":"Feature","geometry":{"type":"Point","coordinates":[-104.653809,37.381577]}},{"properties":{"zip":"80650","geo_score":0.714,"count":2,"id":"a9oqw6g5d8cc","geo_precision":"zip"},"type":"Feature","geometry":{"type":"Point","coordinates":[-104.744575,40.646551]}},{"properties":{"zip":"81049","geo_score":0.714,"count":1,"id":"a9oqw64xol6z","geo_precision":"zip"},"type":"Feature","geometry":{"type":"Point","coordinates":[-103.611616,37.219186]}},{"properties":{"zip":"80860","geo_score":0.714,"count":2,"id":"a9oqw6e3b32c","geo_precision":"zip"},"type":"Feature","geometry":{"type":"Point","coordinates":[-105.150536,38.722211]}},{"properties":{"zip":"81424","geo_score":0.714,"count":3,"id":"a9oqw62jnq9t","geo_precision":"zip"},"type":"Feature","geometry":{"type":"Point","coordinates":[-108.57669,38.310689]}},{"properties":{"zip":"81141","geo_score":0.714,"count":2,"id":"a9oqw6crqzef","geo_precision":"zip"},"type":"Feature","geometry":{"type":"Point","coordinates":[-105.927841,37.175463]}},{"properties":{"zip":"81645","geo_score":0.714,"count":2,"id":"a9oqw6dv4qey","geo_precision":"zip"},"type":"Feature","geometry":{"type":"Point","coordinates":[-106.393918,39.532764]}},{"properties":{"zip":"80106","geo_score":0.714,"count":2,"id":"a9oqw6dr2h1s","geo_precision":"zip"},"type":"Feature","geometry":{"type":"Point","coordinates":[-104.347187,39.215821]}},{"properties":{"zip":"80217","geo_score":0.714,"count":1,"id":"a9oqw6f5bxou","geo_precision":"zip"},"type":"Feature","geometry":{"type":"Point","coordinates":[-104.408349,39.738752]}},{"properties":{"zip":"80727","geo_score":0.714,"count":2,"id":"a9oqw6h347v7","geo_precision":"zip"},"type":"Feature","geometry":{"type":"Point","coordinates":[-102.4803,40.061126]}},{"properties":{"zip":"81091","geo_score":0.714,"count":1,"id":"a9oqw62yfbdz","geo_precision":"zip"},"type":"Feature","geometry":{"type":"Point","coordinates":[-104.996666,37.051967]}},{"properties":{"zip":"80452","geo_score":0.714,"count":2,"id":"a9oqw6hpke18","geo_precision":"zip"},"type":"Feature","geometry":{"type":"Point","coordinates":[-105.541583,39.706574]}},{"properties":{"zip":"81435","geo_score":0.714,"count":1,"id":"a9oqw6hmuxhy","geo_precision":"zip"},"type":"Feature","geometry":{"type":"Point","coordinates":[-107.785618,37.933327]}},{"properties":{"zip":"51326","geo_score":0.0,"count":1,"id":"a9oqw630xjme","geo_precision":"unmatched"},"type":"Feature","geometry":null},{"properties":{"zip":"80736","geo_score":0.714,"count":2,"id":"a9oqw6h929m1","geo_precision":"zip"},"type":"Feature","geometry":{"type":"Point","coordinates":[-102.951586,40.806935]}},{"properties":{"zip":"80804","geo_score":0.714,"count":1,"id":"a9oqw61muxeh","geo_precision":"zip"},"type":"Feature","geometry":{"type":"Point","coordinates":[-103.323143,39.316461]}},{"properties":{"zip":"81092","geo_score":0.714,"count":1,"id":"a9oqw6g616uv","geo_precision":"zip"},"type":"Feature","geometry":{"type":"Point","coordinates":[-102.750752,38.201397]}},{"properties":{"zip":"81024","geo_score":0.714,"count":1,"id":"a9oqw62quxvx","geo_precision":"zip"},"type":"Feature","geometry":{"type":"Point","coordinates":[-104.719787,37.208109]}},{"properties":{"zip":"81327","geo_score":0.714,"count":1,"id":"a9oqw6bcxz4u","geo_precision":"zip"},"type":"Feature","geometry":{"type":"Point","coordinates":[-108.655638,37.458047]}},{"properties":{"zip":"80824","geo_score":0.714,"count":1,"id":"a9oqw629um0a","geo_precision":"zip"},"type":"Feature","geometry":{"type":"Point","coordinates":[-102.546469,39.664421]}},{"properties":{"zip":"80545","geo_score":0.714,"count":2,"id":"a9oqw66nd1s4","geo_precision":"zip"},"type":"Feature","geometry":{"type":"Point","coordinates":[-105.638852,40.610176]}},{"properties":{"zip":"81427","geo_score":0.714,"count":1,"id":"a9oqw6cvkmek","geo_precision":"zip"},"type":"Feature","geometry":{"type":"Point","coordinates":[-107.702561,37.903606]}},{"properties":{"zip":"80442","geo_score":0.714,"count":1,"id":"a9oqw6h4lxlj","geo_precision":"zip"},"type":"Feature","geometry":{"type":"Point","coordinates":[-105.792637,39.958523]}},{"properties":{"zip":"81221","geo_score":0.714,"count":1,"id":"a9oqw6aphrj0","geo_precision":"zip"},"type":"Feature","geometry":{"type":"Point","coordinates":[-105.159722,38.338919]}},{"properties":{"zip":"80488","geo_score":0.714,"count":1,"id":"a9oqw6bt2o67","geo_precision":"zip"},"type":"Feature","geometry":{"type":"Point","coordinates":[-106.860746,40.619661]}},{"properties":{"zip":"81155","geo_score":0.714,"count":1,"id":"a9oqw6b98ig7","geo_precision":"zip"},"type":"Feature","geometry":{"type":"Point","coordinates":[-106.142243,38.294722]}},{"properties":{"zip":"80836","geo_score":0.714,"count":1,"id":"a9oqw651ei0l","geo_precision":"zip"},"type":"Feature","geometry":{"type":"Point","coordinates":[-102.67301,39.304913]}},{"properties":{"zip":"81654","geo_score":0.714,"count":2,"id":"a9oqw69xvn0v","geo_precision":"zip"},"type":"Feature","geometry":{"type":"Point","coordinates":[-106.922425,39.251721]}},{"properties":{"zip":"80457","geo_score":0.714,"count":1,"id":"a9oqw6a2bwtw","geo_precision":"zip"},"type":"Feature","geometry":{"type":"Point","coordinates":[-105.278194,39.648137]}},{"properties":{"zip":"80929","geo_score":0.714,"count":1,"id":"a9oqw6gh38s0","geo_precision":"zip"},"type":"Feature","geometry":{"type":"Point","coordinates":[-104.624727,38.846355]}},{"properties":{"zip":"81146","geo_score":0.714,"count":1,"id":"a9oqw67aivgn","geo_precision":"zip"},"type":"Feature","geometry":{"type":"Point","coordinates":[-105.773133,37.631025]}},{"properties":{"zip":"81325","geo_score":0.714,"count":1,"id":"a9oqw6hrqb2q","geo_precision":"zip"},"type":"Feature","geometry":{"type":"Point","coordinates":[-108.846067,37.929371]}},{"properties":{"zip":"80728","geo_score":0.714,"count":1,"id":"a9oqw680gnqk","geo_precision":"zip"},"type":"Feature","geometry":{"type":"Point","coordinates":[-102.874735,40.598608]}},{"properties":{"zip":"81077","geo_score":0.714,"count":1,"id":"a9oqw64s6uy5","geo_precision":"zip"},"type":"Feature","geometry":{"type":"Point","coordinates":[-103.619493,38.054962]}},{"properties":{"zip":"52761","geo_score":0.714,"count":1,"id":"a9oqw6e8lwd9","geo_precision":"zip"},"type":"Feature","geometry":{"type":"Point","coordinates":[-90.872091,41.524474]}},{"properties":{"zip":"80820","geo_score":0.714,"count":1,"id":"a9oqw6hraagi","geo_precision":"zip"},"type":"Feature","geometry":{"type":"Point","coordinates":[-105.562124,38.835374]}},{"properties":{"zip":"80536","geo_score":0.714,"count":1,"id":"a9oqw68mor7g","geo_precision":"zip"},"type":"Feature","geometry":{"type":"Point","coordinates":[-105.441688,40.693564]}},{"properties":{"zip":"81131","geo_score":0.714,"count":1,"id":"a9oqw6dxque4","geo_precision":"zip"},"type":"Feature","geometry":{"type":"Point","coordinates":[-105.68788,37.953038]}},{"properties":{"zip":"80913","geo_score":0.714,"count":1,"id":"a9oqw632uf6j","geo_precision":"zip"},"type":"Feature","geometry":{"type":"Point","coordinates":[-104.753607,38.729969]}},{"properties":{"zip":"80742","geo_score":0.714,"count":1,"id":"a9oqw6d35o3k","geo_precision":"zip"},"type":"Feature","geometry":{"type":"Point","coordinates":[-103.878656,40.736271]}},{"properties":{"zip":"81639","geo_score":0.714,"count":1,"id":"a9oqw6hk64jd","geo_precision":"zip"},"type":"Feature","geometry":{"type":"Point","coordinates":[-107.277181,40.438195]}},{"properties":{"zip":"81402","geo_score":0.714,"count":1,"id":"a9oqw62v2b3q","geo_precision":"zip"},"type":"Feature","geometry":{"type":"Point","coordinates":[-107.885975,38.485093]}},{"properties":{"zip":"80705","geo_score":0.714,"count":1,"id":"a9oqw6b192i3","geo_precision":"zip"},"type":"Feature","geometry":{"type":"Point","coordinates":[-103.833813,40.270654]}},{"properties":{"zip":"80001","geo_score":0.714,"count":1,"id":"a9oqw639fdoi","geo_precision":"zip"},"type":"Feature","geometry":{"type":"Point","coordinates":[-105.223945,39.522014]}},{"properties":{"zip":"81414","geo_score":0.714,"count":1,"id":"a9oqw6b3eh8p","geo_precision":"zip"},"type":"Feature","geometry":{"type":"Point","coordinates":[-107.986174,38.788697]}},{"properties":{"zip":"66208","geo_score":0.714,"count":1,"id":"a9oqw65dl5vq","geo_precision":"zip"},"type":"Feature","geometry":{"type":"Point","coordinates":[-94.634038,38.993805]}},{"properties":{"zip":"80611","geo_score":0.714,"count":1,"id":"a9oqw6ff10xe","geo_precision":"zip"},"type":"Feature","geometry":{"type":"Point","coordinates":[-104.240542,40.443596]}},{"properties":{"zip":"31320","geo_score":0.714,"count":1,"id":"a9oqw65x4gms","geo_precision":"zip"},"type":"Feature","geometry":{"type":"Point","coordinates":[-81.280937,31.768272]}},{"properties":{"zip":"80546","geo_score":0.714,"count":1,"id":"a9oqw6gktat5","geo_precision":"zip"},"type":"Feature","geometry":{"type":"Point","coordinates":[-104.850544,40.524987]}},{"properties":{"zip":"85036","geo_score":0.714,"count":1,"id":"a9oqw64d2wlb","geo_precision":"zip"},"type":"Feature","geometry":{"type":"Point","coordinates":[-112.18717,33.276539]}}],"is_temporal":false,"author":{"url":"","metadata":null,"contact_name":null,"contact_address":null,"source":null,"contact_phone":null},"source":"","pagination":{"sort":null,"start":0,"total":428,"limit":1000000},"state":"complete","tags":"","published":"2014-08-15T01:21:06-04:00","id":288140}