{"type":"FeatureCollection","data_type":"Dataset","url_type":null,"permissions":[{"permissions":{"download":true,"view":true},"group_id":"everyone"}],"classification":null,"title":"church pop halloween ver","count":245,"stream_id":288361,"contributor":{"url":"http://geocommons.com/users/52708","name":"jjames"},"data_attributes":null,"calculation_params":null,"icon_link":null,"link":"http://geocommons.com/overlays/288361.json","extent":[-84.0327,33.9085,-75.6736,36.5377],"geometry_types":["point"],"unique_name":null,"name":"church pop halloween ver","feature_count":245,"description":"TDE Rural Churches added via RUCA criteria","next_feature":null,"is_raster":false,"short_classification":"Y","stats":{"lon":{"max":-75.67362,"variance":2.90108692710379,"mean":-79.6028946244898,"stdev":1.70325773948155,"min":-84.03272,"median":-79.75971},"gcfa":{"max":968522,"variance":34059437557.5578,"mean":432167.155102041,"stdev":184551.991475459,"min":288924,"median":452447},"lat":{"max":36.53765,"variance":0.343955793246236,"mean":35.5525974204081,"stdev":0.586477444789002,"min":33.90853,"median":35.54554}},"features":[{"properties":{"name":"Taylorsville First","lon":-81.17463,"district":"Statesville","county":"Alexander","gcfa":297804,"conference":"WNCC","id":"a9pf34eq1zzr","lat":35.92293},"type":"Feature","geometry":{"type":"Point","coordinates":[-81.17463,35.92293]}},{"properties":{"name":"SPARTA","lon":-81.12416,"district":"North Wilkesboro","county":"Alleghany","gcfa":297768,"conference":"WNCC","id":"a9pf349eug1e","lat":36.50766},"type":"Feature","geometry":{"type":"Point","coordinates":[-81.12416,36.50766]}},{"properties":{"name":"WADESBORO: FIRST","lon":-80.07737,"district":"Albemarle","county":"Anson","gcfa":292766,"conference":"WNCC","id":"a9pf344lnjd0","lat":34.96503},"type":"Feature","geometry":{"type":"Point","coordinates":[-80.07737,34.96503]}},{"properties":{"name":"WADE","lon":-80.05341,"district":"Albemarle","county":"Anson","gcfa":292846,"conference":"WNCC","id":"a9pf34knfgbt","lat":34.96307},"type":"Feature","geometry":{"type":"Point","coordinates":[-80.05341,34.96307]}},{"properties":{"name":"JEFFERSON","lon":-81.47399,"district":"North Wilkesboro","county":"Ashe","gcfa":297600,"conference":"WNCC","id":"a9pf34c5mkdv","lat":36.42044},"type":"Feature","geometry":{"type":"Point","coordinates":[-81.47399,36.42044]}},{"properties":{"name":"WEST JEFFERSON","lon":-81.49536,"district":"North Wilkesboro","county":"Ashe","gcfa":297883,"conference":"WNCC","id":"a9pf34kdgays","lat":36.40275},"type":"Feature","geometry":{"type":"Point","coordinates":[-81.49536,36.40275]}},{"properties":{"name":"MT ZION","lon":-82.01301,"district":"Marion","county":"Avery","gcfa":297336,"conference":"WNCC","id":"a9pf34d6a08v","lat":35.93472},"type":"Feature","geometry":{"type":"Point","coordinates":[-82.01301,35.93472]}},{"properties":{"name":"Trinity","lon":-76.61954,"district":"Greenville","county":"Beaufort","gcfa":452447,"conference":"NCC","id":"a9pf34ci5bx5","lat":35.53571},"type":"Feature","geometry":{"type":"Point","coordinates":[-76.61954,35.53571]}},{"properties":{"name":"First: Washington","lon":-77.05782,"district":"Greenville","county":"Beaufort","gcfa":453101,"conference":"NCC","id":"a9pf347dw0b1","lat":35.54554},"type":"Feature","geometry":{"type":"Point","coordinates":[-77.05782,35.54554]}},{"properties":{"name":"Windsor","lon":-76.94445,"district":"Elizabeth City","county":"Bertie","gcfa":459142,"conference":"NCC","id":"a9pf34k3g1q6","lat":35.99403},"type":"Feature","geometry":{"type":"Point","coordinates":[-76.94445,35.99403]}},{"properties":{"name":"Trinity","lon":-78.61592,"district":"Wilmington","county":"Bladen","gcfa":459563,"conference":"NCC","id":"a9pf34ah2uot","lat":34.63133},"type":"Feature","geometry":{"type":"Point","coordinates":[-78.61592,34.63133]}},{"properties":{"name":"Camp","lon":-78.38575,"district":"Wilmington","county":"Brunswick","gcfa":459940,"conference":"NCC","id":"a9pf34imziip","lat":33.97279},"type":"Feature","geometry":{"type":"Point","coordinates":[-78.38575,33.97279]}},{"properties":{"name":"Trinity","lon":-78.01857,"district":"Wilmington","county":"Brunswick","gcfa":460004,"conference":"NCC","id":"a9pf34bva2v0","lat":33.92292},"type":"Feature","geometry":{"type":"Point","coordinates":[-78.01857,33.92292]}},{"properties":{"name":"Ocean View","lon":-78.08258,"district":"Wilmington","county":"Brunswick","gcfa":460287,"conference":"NCC","id":"a9pf34ac70sp","lat":33.90853},"type":"Feature","geometry":{"type":"Point","coordinates":[-78.08258,33.90853]}},{"properties":{"name":"Ann Street","lon":-76.66562,"district":"New Bern","county":"Carteret","gcfa":455942,"conference":"NCC","id":"a9pf34ggm3wv","lat":34.71808},"type":"Feature","geometry":{"type":"Point","coordinates":[-76.66562,34.71808]}},{"properties":{"name":"Saint Peters","lon":-76.79799,"district":"New Bern","county":"Carteret","gcfa":456024,"conference":"NCC","id":"a9pf34bzh90m","lat":34.73352},"type":"Feature","geometry":{"type":"Point","coordinates":[-76.79799,34.73352]}},{"properties":{"name":"Broad Creek","lon":-76.93573,"district":"New Bern","county":"Carteret","gcfa":456172,"conference":"NCC","id":"a9pf349foelv","lat":34.72087},"type":"Feature","geometry":{"type":"Point","coordinates":[-76.93573,34.72087]}},{"properties":{"name":"First: Morehead City","lon":-76.716,"district":"New Bern","county":"Carteret","gcfa":456365,"conference":"NCC","id":"a9pf347v0rxc","lat":34.72122},"type":"Feature","geometry":{"type":"Point","coordinates":[-76.716,34.72122]}},{"properties":{"name":"Franklin Memorial","lon":-76.71899,"district":"New Bern","county":"Carteret","gcfa":456387,"conference":"NCC","id":"a9pf34cnhcz0","lat":34.72122},"type":"Feature","geometry":{"type":"Point","coordinates":[-76.71899,34.72122]}},{"properties":{"name":"Saint James","lon":-76.85807,"district":"New Bern","county":"Carteret","gcfa":456536,"conference":"NCC","id":"a9pf34fgf1c0","lat":34.78445},"type":"Feature","geometry":{"type":"Point","coordinates":[-76.85807,34.78445]}},{"properties":{"name":"Yanceyville","lon":-79.34089,"district":"Burlington","county":"Caswell","gcfa":451066,"conference":"NCC","id":"a9pf344pojin","lat":36.40322},"type":"Feature","geometry":{"type":"Point","coordinates":[-79.34089,36.40322]}},{"properties":{"name":"First: Siler City","lon":-79.46299,"district":"Sanford","county":"Chatham","gcfa":450962,"conference":"NCC","id":"a9pf34dh9vs7","lat":35.72081},"type":"Feature","geometry":{"type":"Point","coordinates":[-79.46299,35.72081]}},{"properties":{"name":"West End","lon":-79.47853,"district":"Sanford","county":"Chatham","gcfa":450973,"conference":"NCC","id":"a9pf34b5xm1s","lat":35.73659},"type":"Feature","geometry":{"type":"Point","coordinates":[-79.47853,35.73659]}},{"properties":{"name":"Iglesia Methodista Hispana (Siler City)","lon":-79.4608,"district":"Sanford","county":"Chatham","gcfa":451215,"conference":"NCC","id":"a9pf34dp8b8h","lat":35.7201},"type":"Feature","geometry":{"type":"Point","coordinates":[-79.4608,35.7201]}},{"properties":{"name":"CHCP: ANDREWS","lon":-83.82573,"district":"Waynesville","county":"Cherokee","gcfa":302285,"conference":"WNCC","id":"a9pf34i2x6jg","lat":35.20063},"type":"Feature","geometry":{"type":"Point","coordinates":[-83.82573,35.20063]}},{"properties":{"name":"CHCP: MURPHY: FIRST","lon":-84.03272,"district":"Waynesville","county":"Cherokee","gcfa":302720,"conference":"WNCC","id":"a9pf34ia7s7o","lat":35.08836},"type":"Feature","geometry":{"type":"Point","coordinates":[-84.03272,35.08836]}},{"properties":{"name":"Edenton","lon":-76.60061,"district":"Elizabeth City","county":"Chowan","gcfa":452540,"conference":"NCC","id":"a9pf346cl0w2","lat":36.08151},"type":"Feature","geometry":{"type":"Point","coordinates":[-76.60061,36.08151]}},{"properties":{"name":"BOILING SPRINGS","lon":-81.6661,"district":"Gastonia","county":"Cleveland","gcfa":294151,"conference":"WNCC","id":"a9pf34iacb9u","lat":35.24572},"type":"Feature","geometry":{"type":"Point","coordinates":[-81.6661,35.24572]}},{"properties":{"name":"SHELBY: ALDERSGATE","lon":-81.56207,"district":"Gastonia","county":"Cleveland","gcfa":294162,"conference":"WNCC","id":"a9pf34jcsuaa","lat":35.28783},"type":"Feature","geometry":{"type":"Point","coordinates":[-81.56207,35.28783]}},{"properties":{"name":"SHELBY: CENTRAL","lon":-81.53917,"district":"Gastonia","county":"Cleveland","gcfa":294184,"conference":"WNCC","id":"a9pf34ei9z2r","lat":35.29169},"type":"Feature","geometry":{"type":"Point","coordinates":[-81.53917,35.29169]}},{"properties":{"name":"SHELBY: HOYLE MEMORIAL","lon":-81.50772,"district":"Gastonia","county":"Cleveland","gcfa":294207,"conference":"WNCC","id":"a9pf34ju1trb","lat":35.340624},"type":"Feature","geometry":{"type":"Point","coordinates":[-81.50772,35.340624]}},{"properties":{"name":"SHELBY: LaFAYETTE ST","lon":-81.555066,"district":"Gastonia","county":"Cleveland","gcfa":294220,"conference":"WNCC","id":"a9pf348vfg3b","lat":35.268952},"type":"Feature","geometry":{"type":"Point","coordinates":[-81.555066,35.268952]}},{"properties":{"name":"SULPHUR SPRINGS","lon":-81.52841,"district":"Gastonia","county":"Cleveland","gcfa":294344,"conference":"WNCC","id":"a9pf34dfse57","lat":35.23557},"type":"Feature","geometry":{"type":"Point","coordinates":[-81.52841,35.23557]}},{"properties":{"name":"SHELBY: DURHAM CHAPEL","lon":-81.52918,"district":"Gastonia","county":"Cleveland","gcfa":968522,"conference":"WNCC","id":"a9pf344manwk","lat":35.31612},"type":"Feature","geometry":{"type":"Point","coordinates":[-81.52918,35.31612]}},{"properties":{"name":"Chadbourn","lon":-78.8231,"district":"Wilmington","county":"Columbus","gcfa":459483,"conference":"NCC","id":"a9pf347ytfaq","lat":34.32577},"type":"Feature","geometry":{"type":"Point","coordinates":[-78.8231,34.32577]}},{"properties":{"name":"Saint Paul","lon":-78.86958,"district":"Wilmington","county":"Columbus","gcfa":460026,"conference":"NCC","id":"a9pf34jekkfg","lat":34.15155},"type":"Feature","geometry":{"type":"Point","coordinates":[-78.86958,34.15155]}},{"properties":{"name":"Whiteville","lon":-78.7031,"district":"Wilmington","county":"Columbus","gcfa":460106,"conference":"NCC","id":"a9pf347bva3k","lat":34.34369},"type":"Feature","geometry":{"type":"Point","coordinates":[-78.7031,34.34369]}},{"properties":{"name":"New Song UMC","lon":-77.03524,"district":"New Bern","county":"Craven","gcfa":455895,"conference":"NCC","id":"a9pf348aauc2","lat":35.07036},"type":"Feature","geometry":{"type":"Point","coordinates":[-77.03524,35.07036]}},{"properties":{"name":"Cherry Point","lon":-76.89872,"district":"New Bern","county":"Craven","gcfa":456161,"conference":"NCC","id":"a9pf3466sc0a","lat":34.87717},"type":"Feature","geometry":{"type":"Point","coordinates":[-76.89872,34.87717]}},{"properties":{"name":"First: Havelock","lon":-76.91811,"district":"New Bern","county":"Craven","gcfa":456183,"conference":"NCC","id":"a9pf34bexqev","lat":34.88457},"type":"Feature","geometry":{"type":"Point","coordinates":[-76.91811,34.88457]}},{"properties":{"name":"Faith","lon":-77.1245,"district":"New Bern","county":"Craven","gcfa":456398,"conference":"NCC","id":"a9pf345pktrc","lat":35.09422},"type":"Feature","geometry":{"type":"Point","coordinates":[-77.1245,35.09422]}},{"properties":{"name":"Centenary","lon":-77.03951,"district":"New Bern","county":"Craven","gcfa":456401,"conference":"NCC","id":"a9pf34jtsmrh","lat":35.10721},"type":"Feature","geometry":{"type":"Point","coordinates":[-77.03951,35.10721]}},{"properties":{"name":"Riverside","lon":-77.04765,"district":"New Bern","county":"Craven","gcfa":456423,"conference":"NCC","id":"a9pf34hplclo","lat":35.11915},"type":"Feature","geometry":{"type":"Point","coordinates":[-77.04765,35.11915]}},{"properties":{"name":"Trinity","lon":-77.0777,"district":"New Bern","county":"Craven","gcfa":456445,"conference":"NCC","id":"a9pf344m67dg","lat":35.11142},"type":"Feature","geometry":{"type":"Point","coordinates":[-77.0777,35.11142]}},{"properties":{"name":"Garber","lon":-77.08801,"district":"New Bern","county":"Craven","gcfa":456456,"conference":"NCC","id":"a9pf347nzw7v","lat":35.07561},"type":"Feature","geometry":{"type":"Point","coordinates":[-77.08801,35.07561]}},{"properties":{"name":"Kitty Hawk","lon":-75.70813,"district":"Elizabeth City","county":"Dare","gcfa":452744,"conference":"NCC","id":"a9pf34eryrju","lat":36.0643},"type":"Feature","geometry":{"type":"Point","coordinates":[-75.70813,36.0643]}},{"properties":{"name":"Mount Olivet","lon":-75.67362,"district":"Elizabeth City","county":"Dare","gcfa":452766,"conference":"NCC","id":"a9pf345yuzk1","lat":35.90906},"type":"Feature","geometry":{"type":"Point","coordinates":[-75.67362,35.90906]}},{"properties":{"name":"Colington","lon":-75.70574,"district":"Elizabeth City","county":"Dare","gcfa":453145,"conference":"NCC","id":"a9pf348r8biq","lat":36.00774},"type":"Feature","geometry":{"type":"Point","coordinates":[-75.70574,36.00774]}},{"properties":{"name":"LEXINGTON: FIRST","lon":-80.25567,"district":"Lexington","county":"Davidson","gcfa":301281,"conference":"WNCC","id":"a9pf34h5pmqz","lat":35.82196},"type":"Feature","geometry":{"type":"Point","coordinates":[-80.25567,35.82196]}},{"properties":{"name":"LEXINGTON: TRINITY","lon":-80.26208,"district":"Lexington","county":"Davidson","gcfa":301304,"conference":"WNCC","id":"a9pf347qpiqs","lat":35.81646},"type":"Feature","geometry":{"type":"Point","coordinates":[-80.26208,35.81646]}},{"properties":{"name":"LEX: WESLEY HEIGHTS","lon":-80.27396,"district":"Lexington","county":"Davidson","gcfa":301315,"conference":"WNCC","id":"a9pf347z7bdi","lat":35.82948},"type":"Feature","geometry":{"type":"Point","coordinates":[-80.27396,35.82948]}},{"properties":{"name":"LEX: ST TIMOTHY'S","lon":-80.22418,"district":"Lexington","county":"Davidson","gcfa":301361,"conference":"WNCC","id":"a9pf34e4ukut","lat":35.80085},"type":"Feature","geometry":{"type":"Point","coordinates":[-80.22418,35.80085]}},{"properties":{"name":"LEX: ST STEPHENS","lon":-80.25157,"district":"Lexington","county":"Davidson","gcfa":968134,"conference":"WNCC","id":"a9pf34ectc2q","lat":35.8237},"type":"Feature","geometry":{"type":"Point","coordinates":[-80.25157,35.8237]}},{"properties":{"name":"COOLEEMEE","lon":-80.55389,"district":"Lexington","county":"Davie","gcfa":300880,"conference":"WNCC","id":"a9pf34kns14e","lat":35.8111},"type":"Feature","geometry":{"type":"Point","coordinates":[-80.55389,35.8111]}},{"properties":{"name":"BETHEL","lon":-80.53635,"district":"Lexington","county":"Davie","gcfa":301417,"conference":"WNCC","id":"a9pf34ach6mi","lat":35.89503},"type":"Feature","geometry":{"type":"Point","coordinates":[-80.53635,35.89503]}},{"properties":{"name":"MOCKSVILLE: FIRST","lon":-80.56154,"district":"Lexington","county":"Davie","gcfa":301441,"conference":"WNCC","id":"a9pf3467cckn","lat":35.89641},"type":"Feature","geometry":{"type":"Point","coordinates":[-80.56154,35.89641]}},{"properties":{"name":"Rose Hill","lon":-78.02545,"district":"Goldsboro","county":"Duplin","gcfa":455383,"conference":"NCC","id":"a9pf34c2f2lv","lat":34.82624},"type":"Feature","geometry":{"type":"Point","coordinates":[-78.02545,34.82624]}},{"properties":{"name":"Wallace","lon":-77.99663,"district":"Goldsboro","county":"Duplin","gcfa":455565,"conference":"NCC","id":"a9pf346ecmzz","lat":34.73739},"type":"Feature","geometry":{"type":"Point","coordinates":[-77.99663,34.73739]}},{"properties":{"name":"Warsaw","lon":-78.09388,"district":"Goldsboro","county":"Duplin","gcfa":455601,"conference":"NCC","id":"a9pf347aefsg","lat":35.00149},"type":"Feature","geometry":{"type":"Point","coordinates":[-78.09388,35.00149]}},{"properties":{"name":"Beulaville","lon":-77.77796,"district":"Goldsboro","county":"Duplin","gcfa":456412,"conference":"NCC","id":"a9pf34gatlnf","lat":34.92669},"type":"Feature","geometry":{"type":"Point","coordinates":[-77.77796,34.92669]}},{"properties":{"name":"Pinetops","lon":-77.63716,"district":"Rocky Mount","county":"Edgecombe","gcfa":458604,"conference":"NCC","id":"a9pf34am130z","lat":35.79632},"type":"Feature","geometry":{"type":"Point","coordinates":[-77.63716,35.79632]}},{"properties":{"name":"Hart","lon":-77.53797,"district":"Greenville","county":"Edgecombe","gcfa":458967,"conference":"NCC","id":"a9pf34bnf6j1","lat":35.90415},"type":"Feature","geometry":{"type":"Point","coordinates":[-77.53797,35.90415]}},{"properties":{"name":"Saint James","lon":-77.53148,"district":"Greenville","county":"Edgecombe","gcfa":458980,"conference":"NCC","id":"a9pf34ib1cnr","lat":35.90027},"type":"Feature","geometry":{"type":"Point","coordinates":[-77.53148,35.90027]}},{"properties":{"name":"Ebenezer","lon":-78.295,"district":"Raleigh","county":"Franklin","gcfa":457325,"conference":"NCC","id":"a9pf347m9ktk","lat":36.1012},"type":"Feature","geometry":{"type":"Point","coordinates":[-78.295,36.1012]}},{"properties":{"name":"Louisburg","lon":-78.29779,"district":"Raleigh","county":"Franklin","gcfa":457507,"conference":"NCC","id":"a9pf34iqnlm3","lat":36.10363},"type":"Feature","geometry":{"type":"Point","coordinates":[-78.29779,36.10363]}},{"properties":{"name":"CHERRYVILLE: FIRST","lon":-81.37745,"district":"Gastonia","county":"Gaston","gcfa":293305,"conference":"WNCC","id":"a9pf34bc3eua","lat":35.38287},"type":"Feature","geometry":{"type":"Point","coordinates":[-81.37745,35.38287]}},{"properties":{"name":"Oxford","lon":-78.59293,"district":"Durham","county":"Granville","gcfa":452061,"conference":"NCC","id":"a9pf349uabxw","lat":36.31506},"type":"Feature","geometry":{"type":"Point","coordinates":[-78.59293,36.31506]}},{"properties":{"name":"Saint Peters","lon":-78.58684,"district":"Durham","county":"Granville","gcfa":967208,"conference":"NCC","id":"a9pf34cie2yu","lat":36.30839},"type":"Feature","geometry":{"type":"Point","coordinates":[-78.58684,36.30839]}},{"properties":{"name":"Calvary Memorial","lon":-77.67321,"district":"Greenville","county":"Greene","gcfa":455521,"conference":"NCC","id":"a9pf347cgz7c","lat":35.45246},"type":"Feature","geometry":{"type":"Point","coordinates":[-77.67321,35.45246]}},{"properties":{"name":"First: Roanoke Rapids","lon":-77.65359,"district":"Rocky Mount","county":"Halifax","gcfa":458683,"conference":"NCC","id":"a9pf34i17ixr","lat":36.46819},"type":"Feature","geometry":{"type":"Point","coordinates":[-77.65359,36.46819]}},{"properties":{"name":"Rosemary","lon":-77.65929,"district":"Rocky Mount","county":"Halifax","gcfa":458706,"conference":"NCC","id":"a9pf34dxzxto","lat":36.45729},"type":"Feature","geometry":{"type":"Point","coordinates":[-77.65929,36.45729]}},{"properties":{"name":"Scotland Neck","lon":-77.42354,"district":"Rocky Mount","county":"Halifax","gcfa":458865,"conference":"NCC","id":"a9pf34dm50t3","lat":36.12785},"type":"Feature","geometry":{"type":"Point","coordinates":[-77.42354,36.12785]}},{"properties":{"name":"South Rosemary","lon":-77.66234,"district":"Rocky Mount","county":"Halifax","gcfa":458978,"conference":"NCC","id":"a9pf34hi3cv1","lat":36.44325},"type":"Feature","geometry":{"type":"Point","coordinates":[-77.66234,36.44325]}},{"properties":{"name":"Weldon","lon":-77.59732,"district":"Rocky Mount","county":"Halifax","gcfa":459005,"conference":"NCC","id":"a9pf34dj2i00","lat":36.42709},"type":"Feature","geometry":{"type":"Point","coordinates":[-77.59732,36.42709]}},{"properties":{"name":"Divine Street","lon":-78.61429,"district":"Fayetteville","county":"Harnett","gcfa":457187,"conference":"NCC","id":"a9pf34kd4vc0","lat":35.31058},"type":"Feature","geometry":{"type":"Point","coordinates":[-78.61429,35.31058]}},{"properties":{"name":"Erwin","lon":-78.66815,"district":"Fayetteville","county":"Harnett","gcfa":457223,"conference":"NCC","id":"a9pf34alwox9","lat":35.32779},"type":"Feature","geometry":{"type":"Point","coordinates":[-78.66815,35.32779]}},{"properties":{"name":"Lillington","lon":-78.81762,"district":"Fayetteville","county":"Harnett","gcfa":457484,"conference":"NCC","id":"a9pf34hx52pl","lat":35.39312},"type":"Feature","geometry":{"type":"Point","coordinates":[-78.81762,35.39312]}},{"properties":{"name":"Ahoskie","lon":-76.98845,"district":"Elizabeth City","county":"Hertford","gcfa":452403,"conference":"NCC","id":"a9pf34e3xp94","lat":36.28801},"type":"Feature","geometry":{"type":"Point","coordinates":[-76.98845,36.28801]}},{"properties":{"name":"Murfreesboro","lon":-77.09724,"district":"Elizabeth City","county":"Hertford","gcfa":452824,"conference":"NCC","id":"a9pf34c0n6ue","lat":36.43973},"type":"Feature","geometry":{"type":"Point","coordinates":[-77.09724,36.43973]}},{"properties":{"name":"First: Raeford","lon":-79.22374,"district":"Fayetteville","county":"Hoke","gcfa":454025,"conference":"NCC","id":"a9pf345llxwp","lat":34.98325},"type":"Feature","geometry":{"type":"Point","coordinates":[-79.22374,34.98325]}},{"properties":{"name":"ROCKY MOUNT","lon":-80.88617,"district":"Lake Norman","county":"Iredell","gcfa":299893,"conference":"WNCC","id":"a9pf34cf09ug","lat":35.65418},"type":"Feature","geometry":{"type":"Point","coordinates":[-80.88617,35.65418]}},{"properties":{"name":"ROSE CHAPEL","lon":-80.863288,"district":"Statesville","county":"Iredell","gcfa":300127,"conference":"WNCC","id":"a9pf34d7bodi","lat":35.846172},"type":"Feature","geometry":{"type":"Point","coordinates":[-80.863288,35.846172]}},{"properties":{"name":"Christ Boulevard","lon":-80.849825,"district":"Statesville","county":"Iredell","gcfa":300207,"conference":"WNCC","id":"a9pf349du8hu","lat":35.791195},"type":"Feature","geometry":{"type":"Point","coordinates":[-80.849825,35.791195]}},{"properties":{"name":"STATESVILLE: BROAD ST","lon":-80.89317,"district":"Statesville","county":"Iredell","gcfa":300220,"conference":"WNCC","id":"a9pf345lav8l","lat":35.7833},"type":"Feature","geometry":{"type":"Point","coordinates":[-80.89317,35.7833]}},{"properties":{"name":"STV: WESLEY MEMORIAL","lon":-80.88758,"district":"Statesville","county":"Iredell","gcfa":300264,"conference":"WNCC","id":"a9pf3479jg1x","lat":35.79889},"type":"Feature","geometry":{"type":"Point","coordinates":[-80.88758,35.79889]}},{"properties":{"name":"TROUTMAN: FIRST","lon":-80.892074,"district":"Statesville","county":"Iredell","gcfa":300344,"conference":"WNCC","id":"a9pf346uq0p1","lat":35.703092},"type":"Feature","geometry":{"type":"Point","coordinates":[-80.892074,35.703092]}},{"properties":{"name":"STATESVL: SCOTT'S CH","lon":-80.88056,"district":"Statesville","county":"Iredell","gcfa":967857,"conference":"WNCC","id":"a9pf34k1tg3i","lat":35.77778},"type":"Feature","geometry":{"type":"Point","coordinates":[-80.88056,35.77778]}},{"properties":{"name":"ST PAUL","lon":-80.89199,"district":"Lake Norman","county":"Iredell","gcfa":968076,"conference":"WNCC","id":"a9pf3488t2z5","lat":35.63004},"type":"Feature","geometry":{"type":"Point","coordinates":[-80.89199,35.63004]}},{"properties":{"name":"SPEEDWELL","lon":-83.185118,"district":"Waynesville","county":"Jackson","gcfa":301975,"conference":"WNCC","id":"a9pf34d22nnw","lat":35.285402},"type":"Feature","geometry":{"type":"Point","coordinates":[-83.185118,35.285402]}},{"properties":{"name":"CULLOWHEE","lon":-83.17972,"district":"Waynesville","county":"Jackson","gcfa":302445,"conference":"WNCC","id":"a9pf34e9i3qm","lat":35.31061},"type":"Feature","geometry":{"type":"Point","coordinates":[-83.17972,35.31061]}},{"properties":{"name":"SYLVA: FIRST","lon":-83.22496,"district":"Waynesville","county":"Jackson","gcfa":302866,"conference":"WNCC","id":"a9pf34d8p85x","lat":35.37297},"type":"Feature","geometry":{"type":"Point","coordinates":[-83.22496,35.37297]}},{"properties":{"name":"Four Oaks","lon":-78.42955,"district":"Goldsboro","county":"Johnston","gcfa":454867,"conference":"NCC","id":"a9pf346xoqt3","lat":35.44509},"type":"Feature","geometry":{"type":"Point","coordinates":[-78.42955,35.44509]}},{"properties":{"name":"Kenly","lon":-78.12299,"district":"Goldsboro","county":"Johnston","gcfa":455100,"conference":"NCC","id":"a9pf34iqz06q","lat":35.59506},"type":"Feature","geometry":{"type":"Point","coordinates":[-78.12299,35.59506]}},{"properties":{"name":"Asbury","lon":-78.35005,"district":"Goldsboro","county":"Johnston","gcfa":455213,"conference":"NCC","id":"a9pf344vtv2a","lat":35.50198},"type":"Feature","geometry":{"type":"Point","coordinates":[-78.35005,35.50198]}},{"properties":{"name":"First: Pine Level","lon":-78.24036,"district":"Goldsboro","county":"Johnston","gcfa":455268,"conference":"NCC","id":"a9pf346br7jd","lat":35.51006},"type":"Feature","geometry":{"type":"Point","coordinates":[-78.24036,35.51006]}},{"properties":{"name":"Edgerton Memorial","lon":-78.2849,"district":"Goldsboro","county":"Johnston","gcfa":455441,"conference":"NCC","id":"a9pf34b9nuqv","lat":35.54098},"type":"Feature","geometry":{"type":"Point","coordinates":[-78.2849,35.54098]}},{"properties":{"name":"Centenary","lon":-78.3479,"district":"Goldsboro","county":"Johnston","gcfa":455485,"conference":"NCC","id":"a9pf34b44dyh","lat":35.51181},"type":"Feature","geometry":{"type":"Point","coordinates":[-78.3479,35.51181]}},{"properties":{"name":"Benson","lon":-78.54628,"district":"Goldsboro","county":"Johnston","gcfa":457063,"conference":"NCC","id":"a9pf348zq1zr","lat":35.38328},"type":"Feature","geometry":{"type":"Point","coordinates":[-78.54628,35.38328]}},{"properties":{"name":"Jonesboro","lon":-79.1527,"district":"Sanford","county":"Lee","gcfa":450882,"conference":"NCC","id":"a9pf34ag5qbo","lat":35.45632},"type":"Feature","geometry":{"type":"Point","coordinates":[-79.1527,35.45632]}},{"properties":{"name":"Saint Luke","lon":-79.20798,"district":"Sanford","county":"Lee","gcfa":450905,"conference":"NCC","id":"a9pf34h3rr0c","lat":35.46969},"type":"Feature","geometry":{"type":"Point","coordinates":[-79.20798,35.46969]}},{"properties":{"name":"Trinity Sanford","lon":-79.162843,"district":"Sanford","county":"Lee","gcfa":450927,"conference":"NCC","id":"a9pf345bs25n","lat":35.481355},"type":"Feature","geometry":{"type":"Point","coordinates":[-79.162843,35.481355]}},{"properties":{"name":"La Grange","lon":-77.78766,"district":"Goldsboro","county":"Lenoir","gcfa":455122,"conference":"NCC","id":"a9pf34igo8q9","lat":35.30531},"type":"Feature","geometry":{"type":"Point","coordinates":[-77.78766,35.30531]}},{"properties":{"name":"Queen Street","lon":-77.58183,"district":"Greenville","county":"Lenoir","gcfa":456228,"conference":"NCC","id":"a9pf34jn3551","lat":35.26844},"type":"Feature","geometry":{"type":"Point","coordinates":[-77.58183,35.26844]}},{"properties":{"name":"Westminster","lon":-77.59471,"district":"Greenville","county":"Lenoir","gcfa":456285,"conference":"NCC","id":"a9pf345mt84a","lat":35.28002},"type":"Feature","geometry":{"type":"Point","coordinates":[-77.59471,35.28002]}},{"properties":{"name":"ASBURY","lon":-81.18644,"district":"Gastonia","county":"Lincoln","gcfa":293021,"conference":"WNCC","id":"a9pf345g71xw","lat":35.48216},"type":"Feature","geometry":{"type":"Point","coordinates":[-81.18644,35.48216]}},{"properties":{"name":"BOGER CITY","lon":-81.22997,"district":"Gastonia","county":"Lincoln","gcfa":293260,"conference":"WNCC","id":"a9pf346vn5tw","lat":35.47738},"type":"Feature","geometry":{"type":"Point","coordinates":[-81.22997,35.47738]}},{"properties":{"name":"LINCOLNTON: FIRST","lon":-81.25559,"district":"Gastonia","county":"Lincoln","gcfa":293761,"conference":"WNCC","id":"a9pf349gzn11","lat":35.47167},"type":"Feature","geometry":{"type":"Point","coordinates":[-81.25559,35.47167]}},{"properties":{"name":"LINC: RHYNE HEIGHTS","lon":-81.26171,"district":"Gastonia","county":"Lincoln","gcfa":293783,"conference":"WNCC","id":"a9pf349y9q9w","lat":35.46427},"type":"Feature","geometry":{"type":"Point","coordinates":[-81.26171,35.46427]}},{"properties":{"name":"HINTON MEMORIAL","lon":-81.20025,"district":"Gastonia","county":"Lincoln","gcfa":967926,"conference":"WNCC","id":"a9pf34dbjbs6","lat":35.51717},"type":"Feature","geometry":{"type":"Point","coordinates":[-81.20025,35.51717]}},{"properties":{"name":"FRANKLIN: FIRST","lon":-83.38365,"district":"Waynesville","county":"Macon","gcfa":302503,"conference":"WNCC","id":"a9pf344obwj9","lat":35.18159},"type":"Feature","geometry":{"type":"Point","coordinates":[-83.38365,35.18159]}},{"properties":{"name":"First: Williamston","lon":-77.05324,"district":"Greenville","county":"Martin","gcfa":459084,"conference":"NCC","id":"a9pf349s61xi","lat":35.85742},"type":"Feature","geometry":{"type":"Point","coordinates":[-77.05324,35.85742]}},{"properties":{"name":"MARION: CLINCHFIELD","lon":-81.99082,"district":"Marion","county":"McDowell","gcfa":296627,"conference":"WNCC","id":"a9pf34az6yfb","lat":35.69558},"type":"Feature","geometry":{"type":"Point","coordinates":[-81.99082,35.69558]}},{"properties":{"name":"MARION: CROSS","lon":-82.01748,"district":"Marion","county":"McDowell","gcfa":296640,"conference":"WNCC","id":"a9pf345awo80","lat":35.6792},"type":"Feature","geometry":{"type":"Point","coordinates":[-82.01748,35.6792]}},{"properties":{"name":"MARION: EAST MARION","lon":-81.9928,"district":"Marion","county":"McDowell","gcfa":296662,"conference":"WNCC","id":"a9pf34hgllz5","lat":35.67799},"type":"Feature","geometry":{"type":"Point","coordinates":[-81.9928,35.67799]}},{"properties":{"name":"MARION: FIRST","lon":-82.00671,"district":"Marion","county":"McDowell","gcfa":296684,"conference":"WNCC","id":"a9pf3447c8e1","lat":35.69099},"type":"Feature","geometry":{"type":"Point","coordinates":[-82.00671,35.69099]}},{"properties":{"name":"MARION: WEST MARION","lon":-82.02455,"district":"Marion","county":"McDowell","gcfa":296968,"conference":"WNCC","id":"a9pf34jfrbp9","lat":35.66058},"type":"Feature","geometry":{"type":"Point","coordinates":[-82.02455,35.66058]}},{"properties":{"name":"MARION: ADDIE'S CHAPEL","lon":-82.01923,"district":"Marion","county":"McDowell","gcfa":967790,"conference":"WNCC","id":"a9pf3458ww4i","lat":35.67178},"type":"Feature","geometry":{"type":"Point","coordinates":[-82.01923,35.67178]}},{"properties":{"name":"SPRUCE PINE","lon":-82.07509,"district":"Marion","county":"Mitchell","gcfa":297085,"conference":"WNCC","id":"a9pf344a2s8u","lat":35.90323},"type":"Feature","geometry":{"type":"Point","coordinates":[-82.07509,35.90323]}},{"properties":{"name":"Biscoe - Page Memorial","lon":-79.78072,"district":"Sanford","county":"Montgomery","gcfa":453340,"conference":"NCC","id":"a9pf34ao58nv","lat":35.3601},"type":"Feature","geometry":{"type":"Point","coordinates":[-79.78072,35.3601]}},{"properties":{"name":"Trinity","lon":-79.8914,"district":"Sanford","county":"Montgomery","gcfa":454388,"conference":"NCC","id":"a9pf349domve","lat":35.36081},"type":"Feature","geometry":{"type":"Point","coordinates":[-79.8914,35.36081]}},{"properties":{"name":"First: Troy","lon":-79.92066,"district":"Sanford","county":"Montgomery","gcfa":454402,"conference":"NCC","id":"a9pf34b5r7r3","lat":35.37061},"type":"Feature","geometry":{"type":"Point","coordinates":[-79.92066,35.37061]}},{"properties":{"name":"Carthage","lon":-79.42323,"district":"Sanford","county":"Moore","gcfa":450483,"conference":"NCC","id":"a9pf348vzkdj","lat":35.34922},"type":"Feature","geometry":{"type":"Point","coordinates":[-79.42323,35.34922]}},{"properties":{"name":"Pinehurst","lon":-79.4274,"district":"Sanford","county":"Moore","gcfa":453123,"conference":"NCC","id":"a9pf34fnryj8","lat":35.2109},"type":"Feature","geometry":{"type":"Point","coordinates":[-79.4274,35.2109]}},{"properties":{"name":"Page Memorial","lon":-79.4284,"district":"Sanford","county":"Moore","gcfa":453327,"conference":"NCC","id":"a9pf34i7fryy","lat":35.13286},"type":"Feature","geometry":{"type":"Point","coordinates":[-79.4284,35.13286]}},{"properties":{"name":"Southern Pines","lon":-79.3813,"district":"Sanford","county":"Moore","gcfa":454322,"conference":"NCC","id":"a9pf347cjcl9","lat":35.18308},"type":"Feature","geometry":{"type":"Point","coordinates":[-79.3813,35.18308]}},{"properties":{"name":"Swansboro","lon":-77.12899,"district":"New Bern","county":"Onslow","gcfa":456684,"conference":"NCC","id":"a9pf34j3859d","lat":34.69208},"type":"Feature","geometry":{"type":"Point","coordinates":[-77.12899,34.69208]}},{"properties":{"name":"City Road","lon":-76.22288,"district":"Elizabeth City","county":"Pasquotank","gcfa":452562,"conference":"NCC","id":"a9pf349c6vzr","lat":36.30733},"type":"Feature","geometry":{"type":"Point","coordinates":[-76.22288,36.30733]}},{"properties":{"name":"First: Elizabeth City","lon":-76.22461,"district":"Elizabeth City","county":"Pasquotank","gcfa":452584,"conference":"NCC","id":"a9pf34hbwx50","lat":36.30066},"type":"Feature","geometry":{"type":"Point","coordinates":[-76.22461,36.30066]}},{"properties":{"name":"Riverside","lon":-76.20676,"district":"Elizabeth City","county":"Pasquotank","gcfa":452620,"conference":"NCC","id":"a9pf34cfbwfl","lat":36.28414},"type":"Feature","geometry":{"type":"Point","coordinates":[-76.20676,36.28414]}},{"properties":{"name":"Hertford","lon":-76.46707,"district":"Elizabeth City","county":"Perquimans","gcfa":452700,"conference":"NCC","id":"a9pf345ttt0f","lat":36.18685},"type":"Feature","geometry":{"type":"Point","coordinates":[-76.46707,36.18685]}},{"properties":{"name":"Brooksdale","lon":-78.98075,"district":"Durham","county":"Person","gcfa":451341,"conference":"NCC","id":"a9pf3467s42x","lat":36.37618},"type":"Feature","geometry":{"type":"Point","coordinates":[-78.98075,36.37618]}},{"properties":{"name":"Longhurst","lon":-78.96678,"district":"Durham","county":"Person","gcfa":452015,"conference":"NCC","id":"a9pf34djuzrl","lat":36.42253},"type":"Feature","geometry":{"type":"Point","coordinates":[-78.96678,36.42253]}},{"properties":{"name":"Long Memorial","lon":-78.98381,"district":"Durham","county":"Person","gcfa":452163,"conference":"NCC","id":"a9pf34gqmb1o","lat":36.39513},"type":"Feature","geometry":{"type":"Point","coordinates":[-78.98381,36.39513]}},{"properties":{"name":"Grace-CaVel","lon":-78.97855,"district":"Durham","county":"Person","gcfa":452185,"conference":"NCC","id":"a9pf344g54si","lat":36.39163},"type":"Feature","geometry":{"type":"Point","coordinates":[-78.97855,36.39163]}},{"properties":{"name":"TRYON","lon":-82.23354,"district":"Asheville","county":"Polk","gcfa":291261,"conference":"WNCC","id":"a9pf34julan5","lat":35.20689},"type":"Feature","geometry":{"type":"Point","coordinates":[-82.23354,35.20689]}},{"properties":{"name":"ABORO: BROWER'S CHAPEL","lon":-79.78283,"district":"High Point","county":"Randolph","gcfa":300470,"conference":"WNCC","id":"a9pf34hkpojm","lat":35.67583},"type":"Feature","geometry":{"type":"Point","coordinates":[-79.78283,35.67583]}},{"properties":{"name":"ASHEBORO: CALVARY","lon":-79.80772,"district":"High Point","county":"Randolph","gcfa":300628,"conference":"WNCC","id":"a9pf346n1clc","lat":35.74504},"type":"Feature","geometry":{"type":"Point","coordinates":[-79.80772,35.74504]}},{"properties":{"name":"ASHEBORO: CENTRAL","lon":-79.81076,"district":"High Point","county":"Randolph","gcfa":300641,"conference":"WNCC","id":"a9pf349vbtmq","lat":35.70283},"type":"Feature","geometry":{"type":"Point","coordinates":[-79.81076,35.70283]}},{"properties":{"name":"ASHEBORO: FIRST","lon":-79.81421,"district":"High Point","county":"Randolph","gcfa":300663,"conference":"WNCC","id":"a9pf34ho4jvu","lat":35.70757},"type":"Feature","geometry":{"type":"Point","coordinates":[-79.81421,35.70757]}},{"properties":{"name":"ASHEBORO: WEST BEND","lon":-79.83637,"district":"High Point","county":"Randolph","gcfa":300685,"conference":"WNCC","id":"a9pf34bqh8gf","lat":35.68574},"type":"Feature","geometry":{"type":"Point","coordinates":[-79.83637,35.68574]}},{"properties":{"name":"ASHEBRO: GILES CHAPEL","lon":-79.7745,"district":"High Point","county":"Randolph","gcfa":300696,"conference":"WNCC","id":"a9pf34duoxj3","lat":35.74497},"type":"Feature","geometry":{"type":"Point","coordinates":[-79.7745,35.74497]}},{"properties":{"name":"LIBERTY: FIRST","lon":-79.57061,"district":"Greensboro","county":"Randolph","gcfa":301326,"conference":"WNCC","id":"a9pf349p9d57","lat":35.85354},"type":"Feature","geometry":{"type":"Point","coordinates":[-79.57061,35.85354]}},{"properties":{"name":"RANDLEMAN: MT LEBANON","lon":-79.80379,"district":"High Point","county":"Randolph","gcfa":301508,"conference":"WNCC","id":"a9pf347m6ftq","lat":35.82564},"type":"Feature","geometry":{"type":"Point","coordinates":[-79.80379,35.82564]}},{"properties":{"name":"RANDLEMAN: FIRST","lon":-79.80379,"district":"High Point","county":"Randolph","gcfa":301680,"conference":"WNCC","id":"a9pf34i4hjro","lat":35.81477},"type":"Feature","geometry":{"type":"Point","coordinates":[-79.80379,35.81477]}},{"properties":{"name":"WORTHVILLE","lon":-79.782228,"district":"High Point","county":"Randolph","gcfa":301725,"conference":"WNCC","id":"a9pf34apsua5","lat":35.799477},"type":"Feature","geometry":{"type":"Point","coordinates":[-79.782228,35.799477]}},{"properties":{"name":"RAMSEUR: JORDAN MEM","lon":-79.65515,"district":"High Point","county":"Randolph","gcfa":301851,"conference":"WNCC","id":"a9pf34b58m90","lat":35.73326},"type":"Feature","geometry":{"type":"Point","coordinates":[-79.65515,35.73326]}},{"properties":{"name":"Adonai","lon":-79.80185,"district":"High Point","county":"Randolph","gcfa":301931,"conference":"WNCC","id":"a9pf34grlhzs","lat":35.723395},"type":"Feature","geometry":{"type":"Point","coordinates":[-79.80185,35.723395]}},{"properties":{"name":"RANDLMN: FERREE'S CH","lon":-79.81643,"district":"High Point","county":"Randolph","gcfa":967015,"conference":"WNCC","id":"a9pf34asc9x6","lat":35.80467},"type":"Feature","geometry":{"type":"Point","coordinates":[-79.81643,35.80467]}},{"properties":{"name":"ASHEBORO: ST LUKE'S","lon":-79.81059,"district":"High Point","county":"Randolph","gcfa":968098,"conference":"WNCC","id":"a9pf3472qb2p","lat":35.71102},"type":"Feature","geometry":{"type":"Point","coordinates":[-79.81059,35.71102]}},{"properties":{"name":"Cordova","lon":-79.80194,"district":"Rockingham","county":"Richmond","gcfa":453407,"conference":"NCC","id":"a9pf345bofzw","lat":34.90317},"type":"Feature","geometry":{"type":"Point","coordinates":[-79.80194,34.90317]}},{"properties":{"name":"Fellowship","lon":-79.717266,"district":"Rockingham","county":"Richmond","gcfa":453761,"conference":"NCC","id":"a9pf34j5kb89","lat":34.889213},"type":"Feature","geometry":{"type":"Point","coordinates":[-79.717266,34.889213]}},{"properties":{"name":"First: Hamlet","lon":-79.699882,"district":"Rockingham","county":"Richmond","gcfa":453783,"conference":"NCC","id":"a9pf34jn6ybs","lat":34.8881},"type":"Feature","geometry":{"type":"Point","coordinates":[-79.699882,34.8881]}},{"properties":{"name":"Pee Dee","lon":-79.78311,"district":"Rockingham","county":"Richmond","gcfa":453896,"conference":"NCC","id":"a9pf34jhav82","lat":34.96252},"type":"Feature","geometry":{"type":"Point","coordinates":[-79.78311,34.96252]}},{"properties":{"name":"Roberdel","lon":-79.74325,"district":"Rockingham","county":"Richmond","gcfa":454060,"conference":"NCC","id":"a9pf346q22dy","lat":34.959},"type":"Feature","geometry":{"type":"Point","coordinates":[-79.74325,34.959]}},{"properties":{"name":"East Rockingham","lon":-79.76338,"district":"Rockingham","county":"Richmond","gcfa":454105,"conference":"NCC","id":"a9pf347u1p1b","lat":34.91792},"type":"Feature","geometry":{"type":"Point","coordinates":[-79.76338,34.91792]}},{"properties":{"name":"First: Rockingham","lon":-79.76211,"district":"Rockingham","county":"Richmond","gcfa":454127,"conference":"NCC","id":"a9pf34fj6wwl","lat":34.94321},"type":"Feature","geometry":{"type":"Point","coordinates":[-79.76211,34.94321]}},{"properties":{"name":"Glenwood","lon":-79.74838,"district":"Rockingham","county":"Richmond","gcfa":454140,"conference":"NCC","id":"a9pf34af4xdx","lat":34.92881},"type":"Feature","geometry":{"type":"Point","coordinates":[-79.74838,34.92881]}},{"properties":{"name":"Trinity","lon":-79.77924,"district":"Rockingham","county":"Richmond","gcfa":454162,"conference":"NCC","id":"a9pf34kfuw77","lat":34.93829},"type":"Feature","geometry":{"type":"Point","coordinates":[-79.77924,34.93829]}},{"properties":{"name":"West Rockingham","lon":-79.78654,"district":"Rockingham","county":"Richmond","gcfa":454184,"conference":"NCC","id":"a9pf34c6ytp5","lat":34.94215},"type":"Feature","geometry":{"type":"Point","coordinates":[-79.78654,34.94215]}},{"properties":{"name":"Saint Peter Hamlet","lon":-79.69313,"district":"Rockingham","county":"Richmond","gcfa":967312,"conference":"NCC","id":"a9pf34j9rnp6","lat":34.88878},"type":"Feature","geometry":{"type":"Point","coordinates":[-79.69313,34.88878]}},{"properties":{"name":"Philadelphia","lon":-79.725206,"district":"Rockingham","county":"Richmond","gcfa":967380,"conference":"NCC","id":"a9pf3496okwp","lat":34.954697},"type":"Feature","geometry":{"type":"Point","coordinates":[-79.725206,34.954697]}},{"properties":{"name":"Saint Paul's","lon":-79.35135,"district":"Rockingham","county":"Robeson","gcfa":453908,"conference":"NCC","id":"a9pf34hxxoh6","lat":34.73529},"type":"Feature","geometry":{"type":"Point","coordinates":[-79.35135,34.73529]}},{"properties":{"name":"Trinity","lon":-79.18037,"district":"Rockingham","county":"Robeson","gcfa":454047,"conference":"NCC","id":"a9pf34c1i4yg","lat":34.81676},"type":"Feature","geometry":{"type":"Point","coordinates":[-79.18037,34.81676]}},{"properties":{"name":"Saint Pauls","lon":-78.97428,"district":"Rockingham","county":"Robeson","gcfa":454242,"conference":"NCC","id":"a9pf348bcbef","lat":34.80728},"type":"Feature","geometry":{"type":"Point","coordinates":[-78.97428,34.80728]}},{"properties":{"name":"Trinity","lon":-79.11656,"district":"Rockingham","county":"Robeson","gcfa":459608,"conference":"NCC","id":"a9pf34ezqox3","lat":34.49821},"type":"Feature","geometry":{"type":"Point","coordinates":[-79.11656,34.49821]}},{"properties":{"name":"Chestnut Street","lon":-79.00371,"district":"Rockingham","county":"Robeson","gcfa":459723,"conference":"NCC","id":"a9pf346zavrv","lat":34.6236},"type":"Feature","geometry":{"type":"Point","coordinates":[-79.00371,34.6236]}},{"properties":{"name":"Asbury","lon":-78.99302,"district":"Rockingham","county":"Robeson","gcfa":459734,"conference":"NCC","id":"a9pf34ck9rir","lat":34.61306},"type":"Feature","geometry":{"type":"Point","coordinates":[-78.99302,34.61306]}},{"properties":{"name":"First: Pembroke","lon":-79.19823,"district":"Rockingham","county":"Robeson","gcfa":459803,"conference":"NCC","id":"a9pf34fm7d9k","lat":34.68296},"type":"Feature","geometry":{"type":"Point","coordinates":[-79.19823,34.68296]}},{"properties":{"name":"Branch Street","lon":-79.02889,"district":"Rockingham","county":"Robeson","gcfa":460128,"conference":"NCC","id":"a9pf348stfjh","lat":34.6271},"type":"Feature","geometry":{"type":"Point","coordinates":[-79.02889,34.6271]}},{"properties":{"name":"Mount Olive","lon":-79.00414,"district":"Rockingham","county":"Robeson","gcfa":967356,"conference":"NCC","id":"a9pf34bkj2ng","lat":34.62642},"type":"Feature","geometry":{"type":"Point","coordinates":[-79.00414,34.62642]}},{"properties":{"name":"Saint James","lon":-79.19013,"district":"Rockingham","county":"Robeson","gcfa":967414,"conference":"NCC","id":"a9pf349w63nx","lat":34.68189},"type":"Feature","geometry":{"type":"Point","coordinates":[-79.19013,34.68189]}},{"properties":{"name":"Rhyne Memorial","lon":-79.18935,"district":"Rockingham","county":"Robeson","gcfa":967425,"conference":"NCC","id":"a9pf34aymkma","lat":34.81676},"type":"Feature","geometry":{"type":"Point","coordinates":[-79.18935,34.81676]}},{"properties":{"name":"Saint George","lon":-79.37194,"district":"Rockingham","county":"Robeson","gcfa":967527,"conference":"NCC","id":"a9pf347rlona","lat":34.74162},"type":"Feature","geometry":{"type":"Point","coordinates":[-79.37194,34.74162]}},{"properties":{"name":"EDEN: FIRST","lon":-79.69235,"district":"Northeast","county":"Rockingham","gcfa":294628,"conference":"WNCC","id":"a9pf34d9mfep","lat":36.51518},"type":"Feature","geometry":{"type":"Point","coordinates":[-79.69235,36.51518]}},{"properties":{"name":"EDEN: LEAKSVILLE","lon":-79.76641,"district":"Northeast","county":"Rockingham","gcfa":295485,"conference":"WNCC","id":"a9pf34bou0h4","lat":36.49167},"type":"Feature","geometry":{"type":"Point","coordinates":[-79.76641,36.49167]}},{"properties":{"name":"MADISON","lon":-79.96095,"district":"Northeast","county":"Rockingham","gcfa":295521,"conference":"WNCC","id":"a9pf34jmbje5","lat":36.3851},"type":"Feature","geometry":{"type":"Point","coordinates":[-79.96095,36.3851]}},{"properties":{"name":"MAYODAN","lon":-79.97072,"district":"Northeast","county":"Rockingham","gcfa":295543,"conference":"WNCC","id":"a9pf34dcmyl4","lat":36.41332},"type":"Feature","geometry":{"type":"Point","coordinates":[-79.97072,36.41332]}},{"properties":{"name":"EDEN: MEADOW VIEW","lon":-79.73458,"district":"Northeast","county":"Rockingham","gcfa":295565,"conference":"WNCC","id":"a9pf34jsu413","lat":36.52802},"type":"Feature","geometry":{"type":"Point","coordinates":[-79.73458,36.52802]}},{"properties":{"name":"REIDSVILLE: FIRST","lon":-79.66347,"district":"Northeast","county":"Rockingham","gcfa":295805,"conference":"WNCC","id":"a9pf34dzpnuu","lat":36.34129},"type":"Feature","geometry":{"type":"Point","coordinates":[-79.66347,36.34129]}},{"properties":{"name":"REIDSVILLE: MAIN ST","lon":-79.66631,"district":"Northeast","county":"Rockingham","gcfa":295827,"conference":"WNCC","id":"a9pf34fl0m1s","lat":36.35892},"type":"Feature","geometry":{"type":"Point","coordinates":[-79.66631,36.35892]}},{"properties":{"name":"REIDSVILLE: WOODMONT","lon":-79.68455,"district":"Northeast","county":"Rockingham","gcfa":295838,"conference":"WNCC","id":"a9pf34azqw6c","lat":36.33797},"type":"Feature","geometry":{"type":"Point","coordinates":[-79.68455,36.33797]}},{"properties":{"name":"EDEN: SPRAY","lon":-79.75971,"district":"Northeast","county":"Rockingham","gcfa":295920,"conference":"WNCC","id":"a9pf34cn2zly","lat":36.51812},"type":"Feature","geometry":{"type":"Point","coordinates":[-79.75971,36.51812]}},{"properties":{"name":"EDEN: ST JOHN","lon":-79.77575,"district":"Northeast","county":"Rockingham","gcfa":966933,"conference":"WNCC","id":"a9pf345vh2ux","lat":36.49434},"type":"Feature","geometry":{"type":"Point","coordinates":[-79.77575,36.49434]}},{"properties":{"name":"REIDSVILLE: ST PAUL","lon":-79.68022,"district":"Northeast","county":"Rockingham","gcfa":967004,"conference":"WNCC","id":"a9pf34e6hp6q","lat":36.35545},"type":"Feature","geometry":{"type":"Point","coordinates":[-79.68022,36.35545]}},{"properties":{"name":"ST STEPHEN'S","lon":-79.96925,"district":"Northeast","county":"Rockingham","gcfa":968156,"conference":"WNCC","id":"a9pf34bpzxga","lat":36.39286},"type":"Feature","geometry":{"type":"Point","coordinates":[-79.96925,36.39286]}},{"properties":{"name":"ROCKWELL","lon":-80.3986,"district":"Salisbury","county":"Rowan","gcfa":298592,"conference":"WNCC","id":"a9pf34ask9pm","lat":35.54897},"type":"Feature","geometry":{"type":"Point","coordinates":[-80.3986,35.54897]}},{"properties":{"name":"SALISBURY: GRACE","lon":-80.45685,"district":"Salisbury","county":"Rowan","gcfa":298730,"conference":"WNCC","id":"a9pf34801waj","lat":35.63934},"type":"Feature","geometry":{"type":"Point","coordinates":[-80.45685,35.63934]}},{"properties":{"name":"CHRIST","lon":-80.55373,"district":"Salisbury","county":"Rowan","gcfa":298980,"conference":"WNCC","id":"a9pf34b6cykh","lat":35.66092},"type":"Feature","geometry":{"type":"Point","coordinates":[-80.55373,35.66092]}},{"properties":{"name":"SALISBURY: COBURN MEM","lon":-80.48072,"district":"Salisbury","county":"Rowan","gcfa":299027,"conference":"WNCC","id":"a9pf34aj2na8","lat":35.66107},"type":"Feature","geometry":{"type":"Point","coordinates":[-80.48072,35.66107]}},{"properties":{"name":"SALISBURY: FIRST","lon":-80.47243,"district":"Salisbury","county":"Rowan","gcfa":299040,"conference":"WNCC","id":"a9pf347ixjqe","lat":35.66725},"type":"Feature","geometry":{"type":"Point","coordinates":[-80.47243,35.66725]}},{"properties":{"name":"SALISBURY: MAIN ST","lon":-80.4553,"district":"Salisbury","county":"Rowan","gcfa":299062,"conference":"WNCC","id":"a9pf34c4tose","lat":35.67861},"type":"Feature","geometry":{"type":"Point","coordinates":[-80.4553,35.67861]}},{"properties":{"name":"SALIS: MILFORD HILLS","lon":-80.50858,"district":"Salisbury","county":"Rowan","gcfa":299084,"conference":"WNCC","id":"a9pf349tp04i","lat":35.69258},"type":"Feature","geometry":{"type":"Point","coordinates":[-80.50858,35.69258]}},{"properties":{"name":"SALISBURY: PARK AVE","lon":-80.46257,"district":"Salisbury","county":"Rowan","gcfa":299107,"conference":"WNCC","id":"a9pf34e6sqwd","lat":35.6662},"type":"Feature","geometry":{"type":"Point","coordinates":[-80.46257,35.6662]}},{"properties":{"name":"GRANITE QUARRY: SHILOH","lon":-80.44425,"district":"Salisbury","county":"Rowan","gcfa":299120,"conference":"WNCC","id":"a9pf34c27r6f","lat":35.61145},"type":"Feature","geometry":{"type":"Point","coordinates":[-80.44425,35.61145]}},{"properties":{"name":"SPENCER: CENTRAL","lon":-80.43462,"district":"Salisbury","county":"Rowan","gcfa":299142,"conference":"WNCC","id":"a9pf34b3fyox","lat":35.69003},"type":"Feature","geometry":{"type":"Point","coordinates":[-80.43462,35.69003]}},{"properties":{"name":"ALEXANDER","lon":-81.85999,"district":"Marion","county":"Rutherford","gcfa":296241,"conference":"WNCC","id":"a9pf34ige4zk","lat":35.31323},"type":"Feature","geometry":{"type":"Point","coordinates":[-81.85999,35.31323]}},{"properties":{"name":"AVONDALE","lon":-81.7973,"district":"Marion","county":"Rutherford","gcfa":296285,"conference":"WNCC","id":"a9pf344br5a9","lat":35.27246},"type":"Feature","geometry":{"type":"Point","coordinates":[-81.7973,35.27246]}},{"properties":{"name":"CAROLEEN: FIRST","lon":-81.79413,"district":"Marion","county":"Rutherford","gcfa":296365,"conference":"WNCC","id":"a9pf34ae2ozi","lat":35.28141},"type":"Feature","geometry":{"type":"Point","coordinates":[-81.79413,35.28141]}},{"properties":{"name":"FOREST CITY: FIRST","lon":-81.85785,"district":"Marion","county":"Rutherford","gcfa":296467,"conference":"WNCC","id":"a9pf34eeg20r","lat":35.33233},"type":"Feature","geometry":{"type":"Point","coordinates":[-81.85785,35.33233]}},{"properties":{"name":"FOR CITY: PLEASANT GR","lon":-81.88451,"district":"Marion","county":"Rutherford","gcfa":296480,"conference":"WNCC","id":"a9pf34cys3cw","lat":35.34594},"type":"Feature","geometry":{"type":"Point","coordinates":[-81.88451,35.34594]}},{"properties":{"name":"RUTHERFORDTON: FIRST","lon":-81.95595,"district":"Marion","county":"Rutherford","gcfa":297052,"conference":"WNCC","id":"a9pf34c0dt4y","lat":35.37296},"type":"Feature","geometry":{"type":"Point","coordinates":[-81.95595,35.37296]}},{"properties":{"name":"SPINDALE","lon":-81.92814,"district":"Marion","county":"Rutherford","gcfa":297063,"conference":"WNCC","id":"a9pf34eaqgbd","lat":35.35632},"type":"Feature","geometry":{"type":"Point","coordinates":[-81.92814,35.35632]}},{"properties":{"name":"FOR CTY: WELLS SPRING","lon":-81.89079,"district":"Marion","county":"Rutherford","gcfa":967711,"conference":"WNCC","id":"a9pf349rjeag","lat":35.34821},"type":"Feature","geometry":{"type":"Point","coordinates":[-81.89079,35.34821]}},{"properties":{"name":"First: Clinton","lon":-78.32488,"district":"Fayetteville","county":"Sampson","gcfa":454708,"conference":"NCC","id":"a9pf34c7wc0k","lat":35.0001},"type":"Feature","geometry":{"type":"Point","coordinates":[-78.32488,35.0001]}},{"properties":{"name":"Grace","lon":-78.31205,"district":"Fayetteville","county":"Sampson","gcfa":454721,"conference":"NCC","id":"a9pf34ddyfv4","lat":35.00537},"type":"Feature","geometry":{"type":"Point","coordinates":[-78.31205,35.00537]}},{"properties":{"name":"Central","lon":-79.44638,"district":"Rockingham","county":"Scotland","gcfa":453373,"conference":"NCC","id":"a9pf34fpwzte","lat":34.77251},"type":"Feature","geometry":{"type":"Point","coordinates":[-79.44638,34.77251]}},{"properties":{"name":"First: Laurinburg","lon":-79.46435,"district":"Rockingham","county":"Scotland","gcfa":453841,"conference":"NCC","id":"a9pf34fgq3zi","lat":34.77251},"type":"Feature","geometry":{"type":"Point","coordinates":[-79.46435,34.77251]}},{"properties":{"name":"Saint Luke","lon":-79.49679,"district":"Rockingham","county":"Scotland","gcfa":454355,"conference":"NCC","id":"a9pf3456eeam","lat":34.74968},"type":"Feature","geometry":{"type":"Point","coordinates":[-79.49679,34.74968]}},{"properties":{"name":"Galilee","lon":-79.45493,"district":"Rockingham","county":"Scotland","gcfa":967334,"conference":"NCC","id":"a9pf34cz422b","lat":34.79007},"type":"Feature","geometry":{"type":"Point","coordinates":[-79.45493,34.79007]}},{"properties":{"name":"ALBEMARLE: CENTRAL","lon":-80.19835,"district":"Albemarle","county":"Stanly","gcfa":298103,"conference":"WNCC","id":"a9pf34kbpbd8","lat":35.35131},"type":"Feature","geometry":{"type":"Point","coordinates":[-80.19835,35.35131]}},{"properties":{"name":"ALBEMARLE: FIRST ST","lon":-80.19924,"district":"Albemarle","county":"Stanly","gcfa":298125,"conference":"WNCC","id":"a9pf34d1s4sb","lat":35.35933},"type":"Feature","geometry":{"type":"Point","coordinates":[-80.19924,35.35933]}},{"properties":{"name":"ALBEMARLE: MAIN STREET","lon":-80.21027,"district":"Albemarle","county":"Stanly","gcfa":298147,"conference":"WNCC","id":"a9pf34beo7po","lat":35.34976},"type":"Feature","geometry":{"type":"Point","coordinates":[-80.21027,35.34976]}},{"properties":{"name":"PARKWAY","lon":-80.167784,"district":"Xchurch","county":"Stanly","gcfa":298160,"conference":"WNCC","id":"a9pf345q7df4","lat":35.3521},"type":"Feature","geometry":{"type":"Point","coordinates":[-80.167784,35.3521]}},{"properties":{"name":"BADIN","lon":-80.11037,"district":"Albemarle","county":"Stanly","gcfa":298205,"conference":"WNCC","id":"a9pf34f7d9sm","lat":35.40615},"type":"Feature","geometry":{"type":"Point","coordinates":[-80.11037,35.40615]}},{"properties":{"name":"BETHANY","lon":-80.20144,"district":"Albemarle","county":"Stanly","gcfa":298227,"conference":"WNCC","id":"a9pf34jsg6ta","lat":35.39809},"type":"Feature","geometry":{"type":"Point","coordinates":[-80.20144,35.39809]}},{"properties":{"name":"NORWOOD: FIRST","lon":-80.1192,"district":"Albemarle","county":"Stanly","gcfa":298843,"conference":"WNCC","id":"a9pf34blpkbj","lat":35.22585},"type":"Feature","geometry":{"type":"Point","coordinates":[-80.1192,35.22585]}},{"properties":{"name":"ALBEMARLE: TABERNACLE","lon":-80.21236,"district":"Albemarle","county":"Stanly","gcfa":299186,"conference":"WNCC","id":"a9pf345qt6lf","lat":35.35101},"type":"Feature","geometry":{"type":"Point","coordinates":[-80.21236,35.35101]}},{"properties":{"name":"DOBSON","lon":-80.72258,"district":"Northeast","county":"Surry","gcfa":303280,"conference":"WNCC","id":"a9pf34e96tqc","lat":36.39549},"type":"Feature","geometry":{"type":"Point","coordinates":[-80.72258,36.39549]}},{"properties":{"name":"ELKIN: FIRST","lon":-80.84547,"district":"North Wilkesboro","county":"Surry","gcfa":303325,"conference":"WNCC","id":"a9pf34k18jz0","lat":36.25525},"type":"Feature","geometry":{"type":"Point","coordinates":[-80.84547,36.25525]}},{"properties":{"name":"MOUNT AIRY: CENTRAL","lon":-80.60419,"district":"Northeast","county":"Surry","gcfa":303586,"conference":"WNCC","id":"a9pf349zzm83","lat":36.52041},"type":"Feature","geometry":{"type":"Point","coordinates":[-80.60419,36.52041]}},{"properties":{"name":"MT A: FRANKLIN HTS","lon":-80.6336,"district":"Northeast","county":"Surry","gcfa":303600,"conference":"WNCC","id":"a9pf34j2cx6s","lat":36.48897},"type":"Feature","geometry":{"type":"Point","coordinates":[-80.6336,36.48897]}},{"properties":{"name":"MT AIRY: ROCKFORD ST","lon":-80.61054,"district":"Northeast","county":"Surry","gcfa":303622,"conference":"WNCC","id":"a9pf34980l3t","lat":36.49211},"type":"Feature","geometry":{"type":"Point","coordinates":[-80.61054,36.49211]}},{"properties":{"name":"MT AIRY: OAK GROVE","lon":-80.56677,"district":"Northeast","county":"Surry","gcfa":303746,"conference":"WNCC","id":"a9pf34820d4p","lat":36.49177},"type":"Feature","geometry":{"type":"Point","coordinates":[-80.56677,36.49177]}},{"properties":{"name":"MT AIRY: SALEM","lon":-80.60178,"district":"Northeast","county":"Surry","gcfa":303941,"conference":"WNCC","id":"a9pf34aw2vzk","lat":36.53765},"type":"Feature","geometry":{"type":"Point","coordinates":[-80.60178,36.53765]}},{"properties":{"name":"MALLALIEU-JONES","lon":-80.61471,"district":"Northeast","county":"Surry","gcfa":968180,"conference":"WNCC","id":"a9pf34cjlfm7","lat":36.49911},"type":"Feature","geometry":{"type":"Point","coordinates":[-80.61471,36.49911]}},{"properties":{"name":"WESLEY'S CHAPEL","lon":-80.85054,"district":"North Wilkesboro","county":"Surry","gcfa":968340,"conference":"WNCC","id":"a9pf347j98hn","lat":36.27287},"type":"Feature","geometry":{"type":"Point","coordinates":[-80.85054,36.27287]}},{"properties":{"name":"BRYSON CITY","lon":-83.4452,"district":"Waynesville","county":"Swain","gcfa":302321,"conference":"WNCC","id":"a9pf34bwavvb","lat":35.42723},"type":"Feature","geometry":{"type":"Point","coordinates":[-83.4452,35.42723]}},{"properties":{"name":"BREVARD: FIRST","lon":-82.73064,"district":"Asheville","county":"Transylvania","gcfa":290621,"conference":"WNCC","id":"a9pf34g5v3g6","lat":35.23853},"type":"Feature","geometry":{"type":"Point","coordinates":[-82.73064,35.23853]}},{"properties":{"name":"BREVARD: ST TIMOTHY","lon":-82.71748,"district":"Asheville","county":"Transylvania","gcfa":290814,"conference":"WNCC","id":"a9pf347oxel9","lat":35.25648},"type":"Feature","geometry":{"type":"Point","coordinates":[-82.71748,35.25648]}},{"properties":{"name":"Mount Carmel","lon":-78.37194,"district":"Durham","county":"Vance","gcfa":457234,"conference":"NCC","id":"a9pf34brou8j","lat":36.30031},"type":"Feature","geometry":{"type":"Point","coordinates":[-78.37194,36.30031]}},{"properties":{"name":"City Road","lon":-78.394837,"district":"Durham","county":"Vance","gcfa":457347,"conference":"NCC","id":"a9pf34bavu67","lat":36.334797},"type":"Feature","geometry":{"type":"Point","coordinates":[-78.394837,36.334797]}},{"properties":{"name":"First: Henderson","lon":-78.401614,"district":"Durham","county":"Vance","gcfa":457360,"conference":"NCC","id":"a9pf34f8dh2e","lat":36.328651},"type":"Feature","geometry":{"type":"Point","coordinates":[-78.401614,36.328651]}},{"properties":{"name":"White Memorial","lon":-78.400693,"district":"Durham","county":"Vance","gcfa":457405,"conference":"NCC","id":"a9pf34itd0p3","lat":36.315216},"type":"Feature","geometry":{"type":"Point","coordinates":[-78.400693,36.315216]}},{"properties":{"name":"Plymouth","lon":-76.74902,"district":"Elizabeth City","county":"Washington","gcfa":452926,"conference":"NCC","id":"a9pf347d0yfc","lat":35.86586},"type":"Feature","geometry":{"type":"Point","coordinates":[-76.74902,35.86586]}},{"properties":{"name":"BOONE: BOONE","lon":-81.68322,"district":"North Wilkesboro","county":"Watauga","gcfa":297427,"conference":"WNCC","id":"a9pf34k5bf0q","lat":36.21798},"type":"Feature","geometry":{"type":"Point","coordinates":[-81.68322,36.21798]}},{"properties":{"name":"BOONE: DEERFIELD","lon":-81.64805,"district":"North Wilkesboro","county":"Watauga","gcfa":297531,"conference":"WNCC","id":"a9pf3491cypa","lat":36.20222},"type":"Feature","geometry":{"type":"Point","coordinates":[-81.64805,36.20222]}},{"properties":{"name":"Crossfire Mission","lon":-81.103681,"district":"North Wilkesboro","county":"Wilkes","gcfa":288924,"conference":"WNCC","id":"a9pf346m79hh","lat":36.132134},"type":"Feature","geometry":{"type":"Point","coordinates":[-81.103681,36.132134]}},{"properties":{"name":"MILLERS CREEK","lon":-81.237932,"district":"North Wilkesboro","county":"Wilkes","gcfa":297644,"conference":"WNCC","id":"a9pf34hpmz7u","lat":36.19214},"type":"Feature","geometry":{"type":"Point","coordinates":[-81.237932,36.19214]}},{"properties":{"name":"NORTH WILKESBRO: FIRST","lon":-81.14407,"district":"North Wilkesboro","county":"Wilkes","gcfa":297724,"conference":"WNCC","id":"a9pf34df7tug","lat":36.16388},"type":"Feature","geometry":{"type":"Point","coordinates":[-81.14407,36.16388]}},{"properties":{"name":"WILKESBORO","lon":-81.156676,"district":"North Wilkesboro","county":"Wilkes","gcfa":297906,"conference":"WNCC","id":"a9pf34fkdi2z","lat":36.146976},"type":"Feature","geometry":{"type":"Point","coordinates":[-81.156676,36.146976]}},{"properties":{"name":"First: Wilson","lon":-77.93396,"district":"Rocky Mount","county":"Wilson","gcfa":459107,"conference":"NCC","id":"a9pf348gzwtb","lat":35.7222},"type":"Feature","geometry":{"type":"Point","coordinates":[-77.93396,35.7222]}},{"properties":{"name":"Winstead","lon":-77.93611,"district":"Rocky Mount","county":"Wilson","gcfa":459120,"conference":"NCC","id":"a9pf34fq43sr","lat":35.7201},"type":"Feature","geometry":{"type":"Point","coordinates":[-77.93611,35.7201]}},{"properties":{"name":"West Nash","lon":-77.93222,"district":"Rocky Mount","county":"Wilson","gcfa":459153,"conference":"NCC","id":"a9pf34jjjpqp","lat":35.75312},"type":"Feature","geometry":{"type":"Point","coordinates":[-77.93222,35.75312]}},{"properties":{"name":"JONESVILLE: First","lon":-80.84781,"district":"North Wilkesboro","county":"Yadkin","gcfa":303427,"conference":"WNCC","id":"a9pf345q9ebw","lat":36.23786},"type":"Feature","geometry":{"type":"Point","coordinates":[-80.84781,36.23786]}},{"properties":{"name":"BURNSVLLE: HIGGINS MEM","lon":-82.29984,"district":"Asheville","county":"Yancey","gcfa":290687,"conference":"WNCC","id":"a9pf34e5s9o2","lat":35.91844},"type":"Feature","geometry":{"type":"Point","coordinates":[-82.29984,35.91844]}}],"is_temporal":false,"author":{"url":"","metadata":"","contact_name":"John James","contact_address":"jjames@div.duke.edu","source":"","contact_phone":"919-613-5352"},"source":"","pagination":{"sort":null,"start":0,"total":245,"limit":1000000},"state":"complete","tags":"","published":"2012-10-31T16:00:00Z","id":288361}