{"type":"FeatureCollection","data_type":"Dataset","url_type":null,"permissions":[{"permissions":{"download":true,"view":true},"group_id":"everyone"}],"classification":null,"title":"Elgin Open Sites","count":8,"stream_id":288348,"contributor":{"url":"http://geocommons.com/users/53425","name":"annanelsonNIFB"},"data_attributes":null,"calculation_params":null,"icon_link":null,"link":"http://geocommons.com/overlays/288348.json","extent":[-88.351,42.0208,-88.2726,42.0907],"geometry_types":["point"],"unique_name":null,"name":"Elgin Open Sites","feature_count":8,"description":"","next_feature":null,"is_raster":false,"short_classification":"Y","stats":{},"features":[{"properties":{"city":"Elgin","zip":"60120","geo_score":0.886,"site":"Clara Howard Park","id":"a9pdvn7ehpsn","address":"453 Fremont Street","geo_precision":"range"},"type":"Feature","geometry":{"type":"Point","coordinates":[-88.272633,42.04511]}},{"properties":{"city":"Elgin","zip":"60120","geo_score":0.61,"site":"Clifford Owasco Park","id":"a9pdvn3pqg1f","address":"691 Clifford Ct","geo_precision":"street"},"type":"Feature","geometry":{"type":"Point","coordinates":[-88.293634,42.053253]}},{"properties":{"city":"Elgin","zip":"60120","geo_score":0.805,"site":"Cornerstone Park","id":"a9pdvn3gyjrz","address":"1540 Mulberry Lane","geo_precision":"range"},"type":"Feature","geometry":{"type":"Point","coordinates":[-88.316899,42.026909]}},{"properties":{"city":"Elgin","zip":"60120","geo_score":0.886,"site":"St Francis Park","id":"a9pdvmzm1yfw","address":"277 Jefferson Avenue","geo_precision":"range"},"type":"Feature","geometry":{"type":"Point","coordinates":[-88.280288,42.04807]}},{"properties":{"city":"Elgin","zip":"60120","geo_score":0.805,"site":"Harvest Bible Chapel","id":"a9pdvnbu180z","address":"222 Locust Street","geo_precision":"range"},"type":"Feature","geometry":{"type":"Point","coordinates":[-88.286599,42.033757]}},{"properties":{"city":"Elgin","zip":"60120","geo_score":0.805,"site":"Buena Vista Townhomes","id":"a9pdvn17ajpz","address":"1285 Fleetwood Drive","geo_precision":"range"},"type":"Feature","geometry":{"type":"Point","coordinates":[-88.312332,42.020837]}},{"properties":{"city":"Elgin","zip":"60120","geo_score":0.513,"site":"Elgin Community Church","id":"a9pdvn32xsw5","address":"991 S Deborah Drive","geo_precision":"street"},"type":"Feature","geometry":{"type":"Point","coordinates":[-88.350999,42.090654]}},{"properties":{"city":"Elgin","zip":"60120","geo_score":0.715,"site":"Harriet Gifford School","id":"a9pdvn9ah150","address":"240 S Clifton","geo_precision":"range"},"type":"Feature","geometry":{"type":"Point","coordinates":[-88.309392,42.029187]}}],"is_temporal":false,"author":{"url":"","metadata":"","contact_name":"","contact_address":"","source":"","contact_phone":""},"source":"","pagination":{"sort":null,"start":0,"total":8,"limit":1000000},"state":"complete","tags":"","published":"2014-08-15T01:36:24-04:00","id":288348}