{"type":"FeatureCollection","data_type":"Dataset","url_type":null,"permissions":[{"permissions":{"download":true,"view":true},"group_id":"everyone"}],"classification":null,"title":"Current CACFP &amp; Backpack Sites","count":134,"stream_id":288460,"contributor":{"url":"http://geocommons.com/users/53425","name":"annanelsonNIFB"},"data_attributes":null,"calculation_params":null,"icon_link":null,"link":"http://geocommons.com/overlays/288460.json","extent":[-89.8136,41.1408,-87.5617,42.4961],"geometry_types":["point"],"unique_name":null,"name":"Current CACFP & Backpack Sites","feature_count":134,"description":"","next_feature":null,"is_raster":false,"short_classification":"Y","stats":{"co fip":{"max":201,"variance":3530.75419847329,"mean":114.87786259542,"stdev":59.4201497681829,"min":7,"median":97},"site reduced\neligible":{"max":367,"variance":1751.10565593087,"mean":45.8283582089552,"stdev":41.8462143560307,"min":0,"median":40},"site free\neligible":{"max":2388,"variance":69540.763326226,"mean":343.059701492537,"stdev":263.705827251174,"min":19,"median":311},"site \nenrollment":{"max":3267,"variance":149866.472898665,"mean":552.432835820896,"stdev":387.12591349413,"min":30,"median":489}},"features":[{"properties":{"city":"Plainfield","co fip":197,"geo_score":0.0,"zip code":"60585-7800","site reduced\neligible":46,"site % \neligible":"13.46%","site":"* Plainfield North High School","program":"Backpack","id":"a9phubflr2b5","address":"12005 S 248th Ave","geo_precision":"unmatched","site \nenrollment":1954,"site free\neligible":217},"type":"Feature","geometry":null},{"properties":{"city":"Roscoe","co fip":201,"geo_score":0.902,"zip code":"61073-9646","site reduced\neligible":15,"site % \neligible":"19.44%","site":"* Stone Creek School","program":"Backpack","id":"a9phub3qirr6","address":"11633 S Gate Rd","geo_precision":"range","site \nenrollment":391,"site free\neligible":61},"type":"Feature","geometry":{"type":"Point","coordinates":[-88.97377,42.430393]}},{"properties":{"city":"Roscoe","co fip":201,"geo_score":0.902,"zip code":"61073-7313","site reduced\neligible":21,"site % \neligible":"20.90%","site":"* Kinnikinnick School","program":"Backpack","id":"a9phub88vsk1","address":"5410 Pine Ln","geo_precision":"range","site \nenrollment":421,"site free\neligible":67},"type":"Feature","geometry":{"type":"Point","coordinates":[-89.011168,42.420051]}},{"properties":{"city":"Roscoe","co fip":201,"geo_score":0.902,"zip code":"61073-9646","site reduced\neligible":15,"site % \neligible":"20.94%","site":"* Ledgewood Elem School","program":"Backpack","id":"a9phub8ucq9l","address":"11685 S Gate Rd","geo_precision":"range","site \nenrollment":406,"site free\neligible":70},"type":"Feature","geometry":{"type":"Point","coordinates":[-88.973769,42.42968]}},{"properties":{"city":"Shirland","co fip":201,"geo_score":0.429,"zip code":"61079-0099","site reduced\neligible":7,"site % \neligible":"24.82%","site":"* Shirland Comm Cons School","program":"Backpack","id":"a9phubfprqjk","address":"PO Box 99","geo_precision":"street","site \nenrollment":137,"site free\neligible":27},"type":"Feature","geometry":{"type":"Point","coordinates":[-89.004137,42.496051]}},{"properties":{"city":"Plainfield","co fip":197,"geo_score":0.902,"zip code":"60544-8806","site reduced\neligible":42,"site % \neligible":"27.27%","site":"* Indian Trail Middle School","program":"Backpack","id":"a9phuba9iq4t","address":"1005 N Eastern Ave","geo_precision":"range","site \nenrollment":770,"site free\neligible":168},"type":"Feature","geometry":{"type":"Point","coordinates":[-88.196507,41.614802]}},{"properties":{"city":"Winnebago","co fip":201,"geo_score":0.902,"zip code":"61088-9074","site reduced\neligible":16,"site % \neligible":"28.83%","site":"* Jean McNair Elem School","program":"Backpack","id":"a9phuba1j2nk","address":"304 E McNair Rd","geo_precision":"range","site \nenrollment":326,"site free\neligible":78},"type":"Feature","geometry":{"type":"Point","coordinates":[-89.238384,42.272367]}},{"properties":{"city":"Waterman","co fip":37,"geo_score":0.78,"zip code":"60556-9812","site reduced\neligible":12,"site % \neligible":"30.36%","site":"* Waterman Elem School","program":"Backpack","id":"a9phubeojlst","address":"220 N Maple St","geo_precision":"range","site \nenrollment":112,"site free\neligible":22},"type":"Feature","geometry":{"type":"Point","coordinates":[-88.771232,41.77146]}},{"properties":{"city":"St Charles","co fip":89,"geo_score":0.538,"zip code":"60174-6636","site reduced\neligible":27,"site % \neligible":"32.55%","site":"* Anderson Elem School","program":"Both","id":"a9phubfnb41u","address":"35W071 Villa Maria Rd","geo_precision":"street","site \nenrollment":424,"site free\neligible":111},"type":"Feature","geometry":{"type":"Point","coordinates":[-88.301636,41.963209]}},{"properties":{"city":"Lena","co fip":177,"geo_score":0.876,"zip code":"61048-8610","site reduced\neligible":25,"site % \neligible":"33.65%","site":"* Lena Elem School","program":"Backpack","id":"a9phubfsaf09","address":"401 Fremont St","geo_precision":"range","site \nenrollment":416,"site free\neligible":115},"type":"Feature","geometry":{"type":"Point","coordinates":[-89.813634,42.379282]}},{"properties":{"city":"Shabbona","co fip":201,"geo_score":0.902,"zip code":"60550-5165","site reduced\neligible":12,"site % \neligible":"35.02%","site":"* Shabbona Elem School","program":"Backpack","id":"a9phubccxbc7","address":"301 W Cherokee Ave","geo_precision":"range","site \nenrollment":217,"site free\neligible":64},"type":"Feature","geometry":{"type":"Point","coordinates":[-88.874592,41.766877]}},{"properties":{"city":"Winnebago","co fip":201,"geo_score":0.902,"zip code":"61088-9576","site reduced\neligible":18,"site % \neligible":"36.64%","site":"* Dorothy Simon Elem School","program":"Backpack","id":"a9phub8f7o1p","address":"309 S Benton St","geo_precision":"range","site \nenrollment":292,"site free\neligible":89},"type":"Feature","geometry":{"type":"Point","coordinates":[-89.242868,42.263156]}},{"properties":{"city":"Highland Park","co fip":97,"geo_score":0.772,"zip code":"60035-1129","site reduced\neligible":26,"site % \neligible":"41.87%","site":"Northwood Jr High School","program":"CACFP","id":"a9phub0u80st","address":"945 North Ave","geo_precision":"range","site \nenrollment":449,"site free\neligible":162},"type":"Feature","geometry":{"type":"Point","coordinates":[-87.82466,42.203532]}},{"properties":{"city":"Great Lakes","co fip":97,"geo_score":0.866,"zip code":"60088-1914","site reduced\neligible":41,"site % \neligible":"45.57%","site":"Forrestal Elementary School","program":"CACFP","id":"a9phub0svqjd","address":"2833 E Washington Ave","geo_precision":"range","site \nenrollment":406,"site free\neligible":144},"type":"Feature","geometry":{"type":"Point","coordinates":[-87.86577,42.301603]}},{"properties":{"city":"Plano","co fip":93,"geo_score":0.902,"zip code":"60545-1180","site reduced\neligible":29,"site % \neligible":"46.76%","site":"Plano High School","program":"CACFP","id":"a9phubfldbo7","address":"704 W Abe St","geo_precision":"range","site \nenrollment":633,"site free\neligible":267},"type":"Feature","geometry":{"type":"Point","coordinates":[-88.550169,41.665715]}},{"properties":{"city":"Bolingbrook","co fip":197,"geo_score":0.902,"zip code":"60440-3100","site reduced\neligible":70,"site % \neligible":"47.15%","site":"* Jane Addams Middle School","program":"Backpack","id":"a9phubc1ppvr","address":"905 Lily Cache Ln","geo_precision":"range","site \nenrollment":738,"site free\neligible":278},"type":"Feature","geometry":{"type":"Point","coordinates":[-88.10252,41.69015]}},{"properties":{"city":"DeKalb","co fip":37,"geo_score":0.829,"zip code":"60115-3154","site reduced\neligible":52,"site % \neligible":"47.30%","site":"Clinton Rosette Middle School","program":"CACFP","id":"a9phub9zgcjd","address":"650 N 1st St","geo_precision":"range","site \nenrollment":647,"site free\neligible":254},"type":"Feature","geometry":{"type":"Point","coordinates":[-88.74994,41.938628]}},{"properties":{"city":"DeKalb","co fip":37,"geo_score":0.829,"zip code":"60115-4572","site reduced\neligible":35,"site % \neligible":"48.15%","site":"* Founders Elementary School","program":"Backpack","id":"a9phubb04exr","address":"821 S 7th St","geo_precision":"range","site \nenrollment":594,"site free\neligible":251},"type":"Feature","geometry":{"type":"Point","coordinates":[-88.748695,41.921487]}},{"properties":{"city":"DeKalb","co fip":37,"geo_score":0.488,"zip code":"60115-1813","site reduced\neligible":21,"site % \neligible":"49.01%","site":"* Jefferson Elem School","program":"Backpack","id":"a9phub312piu","address":"211 McCormick Dr","geo_precision":"zip","site \nenrollment":304,"site free\neligible":128},"type":"Feature","geometry":{"type":"Point","coordinates":[-88.776197,41.864196]}},{"properties":{"city":"Plano","co fip":93,"geo_score":0.902,"zip code":"60545-1026","site reduced\neligible":17,"site % \neligible":"49.61%","site":"P H Miller Elem School","program":"CACFP","id":"a9phub642eue","address":"904 N Lew St","geo_precision":"range","site \nenrollment":383,"site free\neligible":173},"type":"Feature","geometry":{"type":"Point","coordinates":[-88.535818,41.671709]}},{"properties":{"city":"Sycamore","co fip":37,"geo_score":0.902,"zip code":"60178-1641","site reduced\neligible":26,"site % \neligible":"49.83%","site":"* West Elem School","program":"Backpack","id":"a9phub9c6myx","address":"240 Fair St","geo_precision":"range","site \nenrollment":297,"site free\neligible":122},"type":"Feature","geometry":{"type":"Point","coordinates":[-88.698128,41.987409]}},{"properties":{"city":"Hanover Park","co fip":47,"geo_score":0.902,"zip code":"60133-5569","site reduced\neligible":46,"site % \neligible":"50.36%","site":"Spring Wood Middle School","program":"CACFP","id":"a9phub9cpbxi","address":"5540 Arlington Dr E","geo_precision":"range","site \nenrollment":562,"site free\neligible":237},"type":"Feature","geometry":{"type":"Point","coordinates":[-88.130112,41.973071]}},{"properties":{"city":"Lombard","co fip":43,"geo_score":0.643,"zip code":"60148-4111","site reduced\neligible":8,"site % \neligible":"52.08%","site":"* Stevenson School","program":"Backpack","id":"a9phub6yaok2","address":"18W331 15th St","geo_precision":"street","site \nenrollment":192,"site free\neligible":92},"type":"Feature","geometry":{"type":"Point","coordinates":[-88.012018,41.854102]}},{"properties":{"city":"DeKalb","co fip":37,"geo_score":0.902,"zip code":"60115-4426","site reduced\neligible":15,"site % \neligible":"53.05%","site":"* Lincoln Elem School","program":"Backpack","id":"a9phub5mihg5","address":"220 E Sunset Pl","geo_precision":"range","site \nenrollment":311,"site free\neligible":150},"type":"Feature","geometry":{"type":"Point","coordinates":[-88.755827,41.918157]}},{"properties":{"city":"Romeoville","co fip":null,"geo_score":0.902,"zip code":"60446-1332","site reduced\neligible":95,"site % \neligible":"53.62%","site":"* Robert C Hill Elem School","program":"Backpack","id":"a9phub08kje4","address":"616 Dalhart Ave","geo_precision":"range","site \nenrollment":843,"site free\neligible":357},"type":"Feature","geometry":{"type":"Point","coordinates":[-88.085141,41.654257]}},{"properties":{"city":"Aurora","co fip":43,"geo_score":0.902,"zip code":"60504-5958","site reduced\neligible":62,"site % \neligible":"53.74%","site":"Georgetown Elem School","program":"CACFP","id":"a9phub2bvqsj","address":"995 Long Grove Dr","geo_precision":"range","site \nenrollment":588,"site free\neligible":254},"type":"Feature","geometry":{"type":"Point","coordinates":[-88.240129,41.73801]}},{"properties":{"city":"Romeoville","co fip":197,"geo_score":0.902,"zip code":"60446-1801","site reduced\neligible":217,"site % \neligible":"53.87%","site":"Romeoville High School","program":"CACFP","id":"a9phub472z8m","address":"100 N Independence Blvd","geo_precision":"range","site \nenrollment":1758,"site free\neligible":730},"type":"Feature","geometry":{"type":"Point","coordinates":[-88.080452,41.641099]}},{"properties":{"city":"Romeoville","co fip":197,"geo_score":0.71,"zip code":"60446-3921","site reduced\neligible":84,"site % \neligible":"53.97%","site":"* Skoff Elementary","program":"Both","id":"a9phubeob55f","address":"775 W Normantown Rd","geo_precision":"street","site \nenrollment":793,"site free\neligible":344},"type":"Feature","geometry":{"type":"Point","coordinates":[-88.090614,41.654347]}},{"properties":{"city":"Bolingbrook","co fip":197,"geo_score":0.902,"zip code":"60440-1801","site reduced\neligible":139,"site % \neligible":"55.59%","site":"* Brooks Middle School","program":"Both","id":"a9phub8nnge7","address":"350 Blair Ln","geo_precision":"range","site \nenrollment":1279,"site free\neligible":572},"type":"Feature","geometry":{"type":"Point","coordinates":[-88.081456,41.701081]}},{"properties":{"city":"Freeport","co fip":177,"geo_score":0.902,"zip code":"61032-4644","site reduced\neligible":41,"site % \neligible":"56.79%","site":"* Carl Sandburg Middle School","program":"Both","id":"a9phub2zlgtk","address":"1717 W Eby St","geo_precision":"range","site \nenrollment":523,"site free\neligible":256},"type":"Feature","geometry":{"type":"Point","coordinates":[-89.652537,42.289792]}},{"properties":{"city":"Freeport","co fip":177,"geo_score":0.902,"zip code":"61032-6114","site reduced\neligible":23,"site % \neligible":"57.19%","site":"* Empire Elementary School","program":"Both","id":"a9phub6i0sd0","address":"1325 Empire Ct","geo_precision":"range","site \nenrollment":306,"site free\neligible":152},"type":"Feature","geometry":{"type":"Point","coordinates":[-89.642064,42.284882]}},{"properties":{"city":"Cortland","co fip":37,"geo_score":0.488,"zip code":"60112-4417","site reduced\neligible":31,"site % \neligible":"57.52%","site":"* Cortland Elem School","program":"Backpack","id":"a9phub8i47os","address":"370 E Lexington Ave","geo_precision":"zip","site \nenrollment":532,"site free\neligible":275},"type":"Feature","geometry":{"type":"Point","coordinates":[-88.684007,41.926177]}},{"properties":{"city":"Romeoville","co fip":197,"geo_score":0.715,"zip code":"60446-3921","site reduced\neligible":73,"site % \neligible":"57.73%","site":"John J Lukancic Middle School","program":"CACFP","id":"a9phubeh1d82","address":"725 W Normantown Rd","geo_precision":"street","site \nenrollment":634,"site free\neligible":293},"type":"Feature","geometry":{"type":"Point","coordinates":[-88.090614,41.654347]}},{"properties":{"city":"Rochelle","co fip":141,"geo_score":0.829,"zip code":"61068-1759","site reduced\neligible":21,"site % \neligible":"57.75%","site":"* May Elem School","program":"Backpack","id":"a9phubdje08y","address":"1033 N 2nd St","geo_precision":"range","site \nenrollment":258,"site free\neligible":128},"type":"Feature","geometry":{"type":"Point","coordinates":[-89.063127,41.932003]}},{"properties":{"city":"Bradley","co fip":91,"geo_score":0.902,"zip code":"60915-1668","site reduced\neligible":48,"site % \neligible":"58.16%","site":"* Bradley Central Middle School","program":"Backpack","id":"a9phubei79cd","address":"260 N Wabash Ave","geo_precision":"range","site \nenrollment":521,"site free\neligible":255},"type":"Feature","geometry":{"type":"Point","coordinates":[-87.86589,41.144316]}},{"properties":{"city":"North Chicago","co fip":97,"geo_score":0.902,"zip code":"60064-2838","site reduced\neligible":41,"site % \neligible":"58.41%","site":"* Green Bay Elem School","program":"Backpack","id":"a9phuba7s17b","address":"2100 Green Bay Rd","geo_precision":"range","site \nenrollment":315,"site free\neligible":143},"type":"Feature","geometry":{"type":"Point","coordinates":[-87.866508,42.319482]}},{"properties":{"city":"University Park","co fip":197,"geo_score":0.0,"zip code":"60484-3248","site reduced\neligible":46,"site % \neligible":"59.42%","site":"Coretta Scott King Magnet Sch","program":"CACFP","id":"a9phub5zqfby","address":"1009 Blackhawk Dr","geo_precision":"unmatched","site \nenrollment":345,"site free\neligible":159},"type":"Feature","geometry":null},{"properties":{"city":"Romeoville","co fip":197,"geo_score":0.902,"zip code":"60446-1400","site reduced\neligible":90,"site % \neligible":"60.74%","site":"A Vito Martinez Middle School","program":"CACFP","id":"a9phub20digy","address":"590 Belmont Dr","geo_precision":"range","site \nenrollment":810,"site free\neligible":402},"type":"Feature","geometry":{"type":"Point","coordinates":[-88.098958,41.641571]}},{"properties":{"city":"Bolingbrook","co fip":197,"geo_score":0.902,"zip code":"60440-2278","site reduced\neligible":61,"site % \neligible":"60.79%","site":"* Jonas E Salk Elem School","program":"Backpack","id":"a9phub1tkt3k","address":"500 King Arthur Way","geo_precision":"range","site \nenrollment":635,"site free\neligible":325},"type":"Feature","geometry":{"type":"Point","coordinates":[-88.045022,41.710871]}},{"properties":{"city":"Bradley","co fip":91,"geo_score":0.902,"zip code":"60915-2424","site reduced\neligible":48,"site % \neligible":"61.39%","site":"* Bradley East Elem School","program":"Backpack","id":"a9phub6m61ma","address":"610 Liberty St","geo_precision":"range","site \nenrollment":531,"site free\neligible":278},"type":"Feature","geometry":{"type":"Point","coordinates":[-87.851033,41.14076]}},{"properties":{"city":"Bradley","co fip":91,"geo_score":0.649,"zip code":"60915-2681","site reduced\neligible":52,"site % \neligible":"62.45%","site":"* Bradley West Elem School","program":"Backpack","id":"a9phub8hl77e","address":"200 W State St","geo_precision":"street","site \nenrollment":474,"site free\neligible":244},"type":"Feature","geometry":{"type":"Point","coordinates":[-87.879196,41.14357]}},{"properties":{"city":"South Beloit","co fip":201,"geo_score":0.902,"zip code":"61080-2579","site reduced\neligible":36,"site % \neligible":"62.50%","site":"* South Beloit Sr High School","program":"Backpack","id":"a9phubcdnkav","address":"245 Prairie Hill Rd","geo_precision":"range","site \nenrollment":296,"site free\neligible":149},"type":"Feature","geometry":{"type":"Point","coordinates":[-89.045802,42.470538]}},{"properties":{"city":"Belvidere","co fip":7,"geo_score":0.819,"zip code":"61008-5139","site reduced\neligible":47,"site % \neligible":"62.94%","site":"* Washington Academy","program":"Backpack","id":"a9phubabkwsg","address":"1031 5th Ave","geo_precision":"range","site \nenrollment":761,"site free\neligible":432},"type":"Feature","geometry":{"type":"Point","coordinates":[-88.846625,42.251034]}},{"properties":{"city":"Addison","co fip":43,"geo_score":0.559,"zip code":"60101-6602","site reduced\neligible":99,"site % \neligible":"63.05%","site":"Indian Trail Jr High School","program":"CACFP","id":"a9phub3ai3wq","address":"222 N JF Kennedy Dr","geo_precision":"street","site \nenrollment":1375,"site free\neligible":768},"type":"Feature","geometry":{"type":"Point","coordinates":[-88.257797,42.139325]}},{"properties":{"city":"Rochelle","co fip":141,"geo_score":0.756,"zip code":"61068-1460","site reduced\neligible":34,"site % \neligible":"63.66%","site":"* Central Elem School","program":"Backpack","id":"a9phub1clfu3","address":"444 N 8th St","geo_precision":"range","site \nenrollment":366,"site free\neligible":199},"type":"Feature","geometry":{"type":"Point","coordinates":[-89.070069,41.923295]}},{"properties":{"city":"Romeoville","co fip":197,"geo_score":0.902,"zip code":"60446-1701","site reduced\neligible":61,"site % \neligible":"63.87%","site":"* Irene King Elem School","program":"Both","id":"a9phubb8fxcm","address":"301 Eaton Ave","geo_precision":"range","site \nenrollment":584,"site free\neligible":312},"type":"Feature","geometry":{"type":"Point","coordinates":[-88.089548,41.637314]}},{"properties":{"city":"Bolingbrook","co fip":197,"geo_score":0.854,"zip code":"60440-2600","site reduced\neligible":80,"site % \neligible":"64.09%","site":"*Independence Elem School","program":"Both","id":"a9phubf7ar9d","address":"230 S Orchard Dr","geo_precision":"range","site \nenrollment":738,"site free\neligible":393},"type":"Feature","geometry":{"type":"Point","coordinates":[-88.09852,41.691343]}},{"properties":{"city":"Freeport","co fip":177,"geo_score":0.902,"zip code":"61032-6908","site reduced\neligible":22,"site % \neligible":"64.17%","site":"* Jones Farrar Early Learning Ctr","program":"Both","id":"a9phub5tvjlr","address":"1386 Kiwanis Dr","geo_precision":"range","site \nenrollment":307,"site free\neligible":175},"type":"Feature","geometry":{"type":"Point","coordinates":[-89.669606,42.284842]}},{"properties":{"city":"West Chicago","co fip":43,"geo_score":0.902,"zip code":"60185-5050","site reduced\neligible":29,"site % \neligible":"64.56%","site":"Wegner Elem School","program":"CACFP","id":"a9phub1dnss0","address":"1180 Marcella Ln","geo_precision":"range","site \nenrollment":570,"site free\neligible":339},"type":"Feature","geometry":{"type":"Point","coordinates":[-88.210859,41.906337]}},{"properties":{"city":"Streamwood","co fip":null,"geo_score":0.902,"zip code":"60107-2042","site reduced\neligible":43,"site % \neligible":"65.22%","site":"Sunnydale Elem School","program":"CACFP","id":"a9phubfcicuz","address":"716 Sunnydale Blvd","geo_precision":"range","site \nenrollment":391,"site free\neligible":212},"type":"Feature","geometry":{"type":"Point","coordinates":[-88.159884,42.016213]}},{"properties":{"city":"South Beloit","co fip":201,"geo_score":0.488,"zip code":"61080-2263","site reduced\neligible":11,"site % \neligible":"65.58%","site":"* Blackhawk Elem School","program":"Backpack","id":"a9phub5o3nzg","address":"840 Blackhawk Blvd","geo_precision":"zip","site \nenrollment":154,"site free\neligible":90},"type":"Feature","geometry":{"type":"Point","coordinates":[-89.090975,42.38648]}},{"properties":{"city":"Freeport","co fip":177,"geo_score":0.902,"zip code":"61032-3511","site reduced\neligible":11,"site % \neligible":"65.87%","site":"* Lincoln Douglas Elem School","program":"Both","id":"a9phube0t7hw","address":"1700 W Laurel St","geo_precision":"range","site \nenrollment":252,"site free\neligible":155},"type":"Feature","geometry":{"type":"Point","coordinates":[-89.654029,42.301024]}},{"properties":{"city":"DeKalb","co fip":37,"geo_score":0.447,"zip code":"60115-2574","site reduced\neligible":23,"site % \neligible":"65.88%","site":"* Littlejohn Elem School","program":"Backpack","id":"a9phub26my8t","address":"1121 School St","geo_precision":"street","site \nenrollment":337,"site free\neligible":199},"type":"Feature","geometry":{"type":"Point","coordinates":[-88.077979,42.023278]}},{"properties":{"city":"Round Lake Beach","co fip":97,"geo_score":0.561,"zip code":"60073-2951","site reduced\neligible":138,"site % \neligible":"66.23%","site":"Round Lake Sr High School","program":"CACFP","id":"a9phuazf0aoa","address":"800 High School Dr","geo_precision":"street","site \nenrollment":1928,"site free\neligible":1139},"type":"Feature","geometry":{"type":"Point","coordinates":[-88.110327,42.47877]}},{"properties":{"city":"Momence","co fip":91,"geo_score":0.488,"zip code":"60954-1221","site reduced\neligible":14,"site % \neligible":"67.79%","site":"* Range Elem School","program":"Backpack","id":"a9phubbj4z4s","address":"415 N Dixie Hwy","geo_precision":"zip","site \nenrollment":208,"site free\neligible":127},"type":"Feature","geometry":{"type":"Point","coordinates":[-87.561702,41.169756]}},{"properties":{"city":"Aurora","co fip":89,"geo_score":0.902,"zip code":"60505-3017","site reduced\neligible":31,"site % \neligible":"68.20%","site":"Oak Park Elem School","program":"CACFP","id":"a9phub8phghq","address":"1200 Front St","geo_precision":"range","site \nenrollment":717,"site free\neligible":458},"type":"Feature","geometry":{"type":"Point","coordinates":[-88.284033,41.764047]}},{"properties":{"city":"South Beloit","co fip":201,"geo_score":0.902,"zip code":"61080-1816","site reduced\neligible":25,"site % \neligible":"69.51%","site":"* Riverview Elem School","program":"Backpack","id":"a9phube0sq5c","address":"306 Miller St","geo_precision":"range","site \nenrollment":246,"site free\neligible":146},"type":"Feature","geometry":{"type":"Point","coordinates":[-89.050377,42.492723]}},{"properties":{"city":"Zion","co fip":97,"geo_score":0.902,"zip code":"60099-2352","site reduced\neligible":12,"site % \neligible":"70.83%","site":"* Lakeview School","program":"Backpack","id":"a9phubec611u","address":"2200 Bethesda Blvd","geo_precision":"range","site \nenrollment":264,"site free\neligible":175},"type":"Feature","geometry":{"type":"Point","coordinates":[-87.834069,42.454041]}},{"properties":{"city":"Highwood","co fip":97,"geo_score":0.902,"zip code":"60040-1610","site reduced\neligible":25,"site % \neligible":"71.20%","site":"Oak Terrace Elem School","program":"CACFP","id":"a9phub7ujk47","address":"240 Prairie Ave","geo_precision":"range","site \nenrollment":493,"site free\neligible":326},"type":"Feature","geometry":{"type":"Point","coordinates":[-87.81359,42.19983]}},{"properties":{"city":"De Kalb","co fip":37,"geo_score":0.62,"zip code":"60115-4398","site reduced\neligible":10,"site % \neligible":"71.57%","site":"* Tyler Elem School","program":"Backpack","id":"a9phub7wt0ae","address":"1021 Alden Circle Dr","geo_precision":"street","site \nenrollment":197,"site free\neligible":131},"type":"Feature","geometry":{"type":"Point","coordinates":[-88.764834,41.919238]}},{"properties":{"city":"South Beloit","co fip":201,"geo_score":0.902,"zip code":"61080-1967","site reduced\neligible":12,"site % \neligible":"72.39%","site":"* Clark Elem School","program":"Backpack","id":"a9phubc3t5en","address":"464 Oak Grove Ave","geo_precision":"range","site \nenrollment":134,"site free\neligible":85},"type":"Feature","geometry":{"type":"Point","coordinates":[-89.035552,42.486405]}},{"properties":{"city":"West Chicago","co fip":43,"geo_score":0.902,"zip code":"60185-3512","site reduced\neligible":54,"site % \neligible":"72.51%","site":"West Chicago Middle School","program":"CACFP","id":"a9phubbqogu8","address":"238 E Hazel St","geo_precision":"range","site \nenrollment":782,"site free\neligible":513},"type":"Feature","geometry":{"type":"Point","coordinates":[-88.201932,41.873761]}},{"properties":{"city":"Lombard","co fip":43,"geo_score":0.607,"zip code":"60148-4708","site reduced\neligible":17,"site % \neligible":"72.54%","site":"* York Center Elem School","program":"Backpack","id":"a9phub9qer1y","address":"18W701 14th St","geo_precision":"street","site \nenrollment":193,"site free\neligible":123},"type":"Feature","geometry":{"type":"Point","coordinates":[-88.019832,41.849081]}},{"properties":{"city":"Aurora","co fip":89,"geo_score":0.902,"zip code":"60505-3704","site reduced\neligible":19,"site % \neligible":"72.97%","site":"W S Beaupre Elem School","program":"CACFP","id":"a9phub3zw1qr","address":"954 E Benton St","geo_precision":"range","site \nenrollment":370,"site free\neligible":251},"type":"Feature","geometry":{"type":"Point","coordinates":[-88.29243,41.75094]}},{"properties":{"city":"Momence","co fip":91,"geo_score":0.829,"zip code":"60954-1440","site reduced\neligible":27,"site % \neligible":"73.45%","site":"* Je-Neir Elem School","program":"Backpack","id":"a9phub16xeby","address":"1001 W 2nd St","geo_precision":"range","site \nenrollment":339,"site free\neligible":222},"type":"Feature","geometry":{"type":"Point","coordinates":[-87.676972,41.164184]}},{"properties":{"city":"Joliet","co fip":197,"geo_score":0.902,"zip code":"60433-2218","site reduced\neligible":63,"site % \neligible":"74.28%","site":"Washington Jr High School","program":"CACFP","id":"a9phub62zg6f","address":"402 Richards St","geo_precision":"range","site \nenrollment":731,"site free\neligible":480},"type":"Feature","geometry":{"type":"Point","coordinates":[-88.074126,41.516078]}},{"properties":{"city":"Loves Park","co fip":201,"geo_score":0.902,"zip code":"61111-4511","site reduced\neligible":49,"site % \neligible":"74.79%","site":"* Loves Park Elem School","program":"Backpack","id":"a9phub8aybbp","address":"344 Grand Ave","geo_precision":"range","site \nenrollment":361,"site free\neligible":221},"type":"Feature","geometry":{"type":"Point","coordinates":[-89.065514,42.312318]}},{"properties":{"city":"Warrenville","co fip":47,"geo_score":0.586,"zip code":"60555-1456","site reduced\neligible":58,"site % \neligible":"74.89%","site":"Clifford Johnson School (BASP)","program":"CACFP","id":"a9phub2cy69b","address":"2S700 Continental Dr","geo_precision":"street","site \nenrollment":438,"site free\neligible":270},"type":"Feature","geometry":{"type":"Point","coordinates":[-88.209822,41.841063]}},{"properties":{"city":"Freeport","co fip":177,"geo_score":0.902,"zip code":"61032-6355","site reduced\neligible":50,"site % \neligible":"74.93%","site":"* Freeport Jr High School","program":"Both","id":"a9phub5nwd2l","address":"701 W Empire St","geo_precision":"range","site \nenrollment":714,"site free\neligible":485},"type":"Feature","geometry":{"type":"Point","coordinates":[-89.631774,42.287404]}},{"properties":{"city":"Hanover Park","co fip":43,"geo_score":0.902,"zip code":"60133-5519","site reduced\neligible":44,"site % \neligible":"75.05%","site":"Greenbrook Elem School","program":"CACFP","id":"a9phube1zmew","address":"5208 Arlington Cir","geo_precision":"range","site \nenrollment":481,"site free\neligible":317},"type":"Feature","geometry":{"type":"Point","coordinates":[-88.137044,41.968051]}},{"properties":{"city":"Freeport","co fip":177,"geo_score":0.902,"zip code":"61032-5731","site reduced\neligible":11,"site % \neligible":"75.48%","site":"* Center Elem School","program":"Both","id":"a9phubdh8zre","address":"718 E Illinois St","geo_precision":"range","site \nenrollment":310,"site free\neligible":223},"type":"Feature","geometry":{"type":"Point","coordinates":[-89.60626,42.288677]}},{"properties":{"city":"Durand","co fip":201,"geo_score":0.902,"zip code":"61024-9725","site reduced\neligible":4,"site % \neligible":"76.67%","site":"* Dolan Ctr Maryville Farm Campus","program":"Backpack","id":"a9phub02iora","address":"10104 Farm School Rd","geo_precision":"range","site \nenrollment":30,"site free\neligible":19},"type":"Feature","geometry":{"type":"Point","coordinates":[-89.233944,42.409775]}},{"properties":{"city":"Streamwood","co fip":null,"geo_score":0.902,"zip code":"60107-1575","site reduced\neligible":86,"site % \neligible":"77.02%","site":"Oakhill Elem School","program":"CACFP","id":"a9phub8pqacy","address":"502 S Oltendorf Rd","geo_precision":"range","site \nenrollment":557,"site free\neligible":343},"type":"Feature","geometry":{"type":"Point","coordinates":[-88.175079,42.020948]}},{"properties":{"city":"Bolingbrook","co fip":197,"geo_score":0.526,"zip code":"60440-2400","site reduced\neligible":88,"site % \neligible":"77.05%","site":"* John R Tibbott Elem School","program":"Backpack","id":"a9phubdwgszq","address":"520 Gary Dr","geo_precision":"street","site \nenrollment":671,"site free\neligible":429},"type":"Feature","geometry":{"type":"Point","coordinates":[-88.133748,41.558371]}},{"properties":{"city":"Waukegan","co fip":97,"geo_score":0.488,"zip code":"60085-3724","site reduced\neligible":89,"site % \neligible":"78.48%","site":"* Miguel Juarez Middle School","program":"Both","id":"a9phub9wbjjx","address":"201 N Butrick St","geo_precision":"zip","site \nenrollment":748,"site free\neligible":498},"type":"Feature","geometry":{"type":"Point","coordinates":[-87.88424,42.348355]}},{"properties":{"city":"Aurora","co fip":89,"geo_score":0.902,"zip code":"60505-5432","site reduced\neligible":79,"site % \neligible":"78.83%","site":"Olney C Allen Elem School","program":"CACFP","id":"a9phub1osuba","address":"700 S Farnsworth Ave","geo_precision":"range","site \nenrollment":907,"site free\neligible":636},"type":"Feature","geometry":{"type":"Point","coordinates":[-88.281307,41.741754]}},{"properties":{"city":"Waukegan","co fip":97,"geo_score":0.772,"zip code":"60087-5113","site reduced\neligible":44,"site % \neligible":"79.50%","site":"* Greenwood Elem School","program":"Backpack","id":"a9phubfjaccg","address":"1919 North Ave","geo_precision":"range","site \nenrollment":361,"site free\neligible":243},"type":"Feature","geometry":{"type":"Point","coordinates":[-87.835636,42.386241]}},{"properties":{"city":"Rockford","co fip":201,"geo_score":0.902,"zip code":"61102-3100","site reduced\neligible":41,"site % \neligible":"80.37%","site":"Barbour Two-Way Immersion School","program":"CACFP","id":"a9phub157jw0","address":"1506 Clover Ave","geo_precision":"range","site \nenrollment":647,"site free\neligible":479},"type":"Feature","geometry":{"type":"Point","coordinates":[-89.114908,42.256446]}},{"properties":{"city":"Round Lake Beach","co fip":97,"geo_score":0.902,"zip code":"60073-2400","site reduced\neligible":61,"site % \neligible":"80.44%","site":"Raymond Ellis Elem School","program":"CACFP","id":"a9phub4l05ce","address":"720 Central Park Dr","geo_precision":"range","site \nenrollment":721,"site free\neligible":519},"type":"Feature","geometry":{"type":"Point","coordinates":[-88.101517,42.369314]}},{"properties":{"city":"Rochelle","co fip":141,"geo_score":0.902,"zip code":"61068-2016","site reduced\neligible":21,"site % \neligible":"81.44%","site":"* Lincoln Elem School","program":"Backpack","id":"a9phubazja8u","address":"108 S Main St","geo_precision":"range","site \nenrollment":194,"site free\neligible":137},"type":"Feature","geometry":{"type":"Point","coordinates":[-89.065057,41.919375]}},{"properties":{"city":"North Chicago","co fip":97,"geo_score":0.902,"zip code":"60064-1730","site reduced\neligible":21,"site % \neligible":"81.70%","site":"* Novak-King Sixth Grade Center","program":"Backpack","id":"a9phub8wr433","address":"1500 Kemble Ave","geo_precision":"range","site \nenrollment":306,"site free\neligible":229},"type":"Feature","geometry":{"type":"Point","coordinates":[-87.854712,42.330517]}},{"properties":{"city":"Aurora","co fip":89,"geo_score":0.0,"zip code":"60502-9438","site reduced\neligible":23,"site % \neligible":"81.71%","site":"* C I Johnson Elem School","program":"Both","id":"a9phub6fx5a9","address":"1934 Liberty St","geo_precision":"unmatched","site \nenrollment":410,"site free\neligible":312},"type":"Feature","geometry":null},{"properties":{"city":"Freeport","co fip":177,"geo_score":0.78,"zip code":"61032-3434","site reduced\neligible":19,"site % \neligible":"81.71%","site":"* Taylor Park Elem School","program":"Both","id":"a9phuazogd40","address":"806 E Stephenson St","geo_precision":"range","site \nenrollment":246,"site free\neligible":182},"type":"Feature","geometry":{"type":"Point","coordinates":[-89.615313,42.30034]}},{"properties":{"city":"Waukegan","co fip":97,"geo_score":0.902,"zip code":"60085-2528","site reduced\neligible":71,"site % \neligible":"82.11%","site":"* Glenwood Elem School","program":"Backpack","id":"a9phub5oiw4r","address":"2500 Northmoor Ave","geo_precision":"range","site \nenrollment":693,"site free\neligible":498},"type":"Feature","geometry":{"type":"Point","coordinates":[-87.865321,42.375732]}},{"properties":{"city":"Hanover Park","co fip":47,"geo_score":0.902,"zip code":"60133-3316","site reduced\neligible":61,"site % \neligible":"82.22%","site":"* Laurel Hill Elem School","program":"Both","id":"a9phubejj4ox","address":"1750 Laurel Ave","geo_precision":"range","site \nenrollment":495,"site free\neligible":346},"type":"Feature","geometry":{"type":"Point","coordinates":[-88.14985,42.002775]}},{"properties":{"city":"Freeport","co fip":177,"geo_score":0.488,"zip code":"61032-6303","site reduced\neligible":25,"site % \neligible":"82.27%","site":"* Blackhawk Elem School","program":"Both","id":"a9phuazea7jy","address":"1401 S Blackhawk Ave","geo_precision":"zip","site \nenrollment":299,"site free\neligible":221},"type":"Feature","geometry":{"type":"Point","coordinates":[-89.527338,42.344462]}},{"properties":{"city":"Rockford","co fip":201,"geo_score":0.902,"zip code":"61101-5670","site reduced\neligible":8,"site % \neligible":"82.32%","site":"Lewis Lemon Elem School","program":"CACFP","id":"a9phub95ua33","address":"1993 Mulberry St","geo_precision":"range","site \nenrollment":379,"site free\neligible":304},"type":"Feature","geometry":{"type":"Point","coordinates":[-89.118498,42.277448]}},{"properties":{"city":"Elgin","co fip":89,"geo_score":0.902,"zip code":"60120-4626","site reduced\neligible":73,"site % \neligible":"82.76%","site":"* Lords Park Elem School","program":"Both","id":"a9phub2pg1fm","address":"323 Waverly Dr","geo_precision":"range","site \nenrollment":725,"site free\neligible":527},"type":"Feature","geometry":{"type":"Point","coordinates":[-88.253989,42.04386]}},{"properties":{"city":"Waukegan","co fip":97,"geo_score":0.902,"zip code":"60085-2626","site reduced\neligible":60,"site % \neligible":"82.96%","site":"* Whittier Elem School","program":"Backpack","id":"a9phuazdrp5n","address":"901 N Lewis Ave","geo_precision":"range","site \nenrollment":622,"site free\neligible":456},"type":"Feature","geometry":{"type":"Point","coordinates":[-87.855475,42.373921]}},{"properties":{"city":"North Chicago","co fip":97,"geo_score":0.902,"zip code":"60064-3210","site reduced\neligible":11,"site % \neligible":"83.33%","site":"* South Elem School","program":"Both","id":"a9phub8gf1ob","address":"1812 Morrow Ave","geo_precision":"range","site \nenrollment":342,"site free\neligible":274},"type":"Feature","geometry":{"type":"Point","coordinates":[-87.85496,42.316029]}},{"properties":{"city":"Elgin","co fip":89,"geo_score":0.902,"zip code":"60123-4913","site reduced\neligible":53,"site % \neligible":"83.66%","site":"* Hillcrest Elem School","program":"Backpack","id":"a9phub7o3va5","address":"80 N Airlite St","geo_precision":"range","site \nenrollment":618,"site free\neligible":464},"type":"Feature","geometry":{"type":"Point","coordinates":[-88.327688,42.037243]}},{"properties":{"city":"Waukegan","co fip":97,"geo_score":0.902,"zip code":"60087-3645","site reduced\neligible":63,"site % \neligible":"83.69%","site":"* Oakdale Elem School","program":"Both","id":"a9phubd6qzii","address":"2230 N McAree Rd","geo_precision":"range","site \nenrollment":515,"site free\neligible":368},"type":"Feature","geometry":{"type":"Point","coordinates":[-87.865087,42.396063]}},{"properties":{"city":"Aurora","co fip":89,"geo_score":0.902,"zip code":"60505-1936","site reduced\neligible":80,"site % \neligible":"83.71%","site":"C F Simmons Middle School","program":"CACFP","id":"a9phub4iohth","address":"1130 Sheffer Rd","geo_precision":"range","site \nenrollment":1062,"site free\neligible":809},"type":"Feature","geometry":{"type":"Point","coordinates":[-88.28836,41.777279]}},{"properties":{"city":"Zion","co fip":97,"geo_score":0.902,"zip code":"60099-1629","site reduced\neligible":41,"site % \neligible":"83.82%","site":"* Beulah Park Elem School","program":"Both","id":"a9phubaastxt","address":"1910 Gilboa Ave","geo_precision":"range","site \nenrollment":377,"site free\neligible":275},"type":"Feature","geometry":{"type":"Point","coordinates":[-87.84216,42.459142]}},{"properties":{"city":"North Chicago","co fip":97,"geo_score":0.902,"zip code":"60064-2335","site reduced\neligible":19,"site % \neligible":"84.01%","site":"* A J Katzenmaier Elem School","program":"Both","id":"a9phub7gtkyd","address":"1829 Kennedy Dr","geo_precision":"range","site \nenrollment":444,"site free\neligible":354},"type":"Feature","geometry":{"type":"Point","coordinates":[-87.863304,42.325676]}},{"properties":{"city":"Elgin","co fip":89,"geo_score":0.805,"zip code":"60123-5183","site reduced\neligible":48,"site % \neligible":"84.10%","site":"* Highland Elem School","program":"Backpack","id":"a9phub3umwy7","address":"190 N Melrose Ave","geo_precision":"range","site \nenrollment":541,"site free\neligible":407},"type":"Feature","geometry":{"type":"Point","coordinates":[-88.308248,42.037799]}},{"properties":{"city":"Aurora","co fip":89,"geo_score":0.819,"zip code":"60505-4900","site reduced\neligible":367,"site % \neligible":"84.33%","site":"East High School","program":"CACFP","id":"a9phub06dwoq","address":"779 5th Ave","geo_precision":"range","site \nenrollment":3267,"site free\neligible":2388},"type":"Feature","geometry":{"type":"Point","coordinates":[-88.296711,41.745855]}},{"properties":{"city":"Elgin","co fip":89,"geo_score":0.902,"zip code":"60123-7151","site reduced\neligible":41,"site % \neligible":"84.62%","site":"*Harriet Gifford Elem School","program":"Backpack","id":"a9phubetw3wl","address":"240 S Clifton Ave","geo_precision":"range","site \nenrollment":520,"site free\neligible":399},"type":"Feature","geometry":{"type":"Point","coordinates":[-88.309392,42.029187]}},{"properties":{"city":"Elgin","co fip":89,"geo_score":0.902,"zip code":"60120-8220","site reduced\neligible":49,"site % \neligible":"84.71%","site":"* Huff Elem School","program":"Backpack","id":"a9phub9qhq17","address":"801 Hastings St","geo_precision":"range","site \nenrollment":667,"site free\neligible":516},"type":"Feature","geometry":{"type":"Point","coordinates":[-88.262247,42.021882]}},{"properties":{"city":"Elgin","co fip":89,"geo_score":0.902,"zip code":"60120-6633","site reduced\neligible":61,"site % \neligible":"85.16%","site":"* Channing Memorial Elem School","program":"Backpack","id":"a9phubeglsw6","address":"63 S Channing St","geo_precision":"range","site \nenrollment":667,"site free\neligible":507},"type":"Feature","geometry":{"type":"Point","coordinates":[-88.273567,42.03555]}},{"properties":{"city":"West Chicago","co fip":43,"geo_score":0.902,"zip code":"60185-3524","site reduced\neligible":70,"site % \neligible":"85.23%","site":"Gary Elem School","program":"CACFP","id":"a9phubeulf44","address":"130 E Forest Ave","geo_precision":"range","site \nenrollment":528,"site free\neligible":380},"type":"Feature","geometry":{"type":"Point","coordinates":[-88.200185,41.871002]}},{"properties":{"city":"Waukegan","co fip":97,"geo_score":0.902,"zip code":"60085-2982","site reduced\neligible":36,"site % \neligible":"85.30%","site":"* Glen Flora Elem School","program":"Backpack","id":"a9phub5etwuf","address":"1110 Chestnut St","geo_precision":"range","site \nenrollment":517,"site free\neligible":405},"type":"Feature","geometry":{"type":"Point","coordinates":[-87.840769,42.376324]}},{"properties":{"city":"Zion","co fip":97,"geo_score":0.902,"zip code":"60099-3209","site reduced\neligible":12,"site % \neligible":"85.81%","site":"* East Elem School","program":"Backpack","id":"a9phub3nv6vm","address":"2913 Elim Ave","geo_precision":"range","site \nenrollment":148,"site free\neligible":115},"type":"Feature","geometry":{"type":"Point","coordinates":[-87.823901,42.441084]}},{"properties":{"city":"Zion","co fip":97,"geo_score":0.902,"zip code":"60099-3124","site reduced\neligible":38,"site % \neligible":"86.01%","site":"* Elmwood Elem School","program":"Backpack","id":"a9phub9avr7z","address":"3025 Ezra Ave","geo_precision":"range","site \nenrollment":393,"site free\neligible":300},"type":"Feature","geometry":{"type":"Point","coordinates":[-87.837602,42.439563]}},{"properties":{"city":"Joliet","co fip":197,"geo_score":0.902,"zip code":"60436-9544","site reduced\neligible":15,"site % \neligible":"86.01%","site":"Laraway Elem School","program":"CACFP","id":"a9phub5dpi9m","address":"275 W Laraway Rd","geo_precision":"range","site \nenrollment":286,"site free\neligible":231},"type":"Feature","geometry":{"type":"Point","coordinates":[-88.083672,41.480691]}},{"properties":{"city":"Waukegan","co fip":97,"geo_score":0.902,"zip code":"60085-3631","site reduced\neligible":37,"site % \neligible":"86.04%","site":"* Hyde Park Elem School","program":"Backpack","id":"a9phub42pwy0","address":"1525 Hyde Park Ave","geo_precision":"range","site \nenrollment":308,"site free\neligible":228},"type":"Feature","geometry":{"type":"Point","coordinates":[-87.851111,42.366102]}},{"properties":{"city":"Bolingbrook","co fip":197,"geo_score":0.488,"zip code":"60440-3071","site reduced\neligible":39,"site % \neligible":"86.96%","site":"* Bernard J Ward Elem School","program":"Both","id":"a9phub4wfm31","address":"200 Recreation Dr","geo_precision":"zip","site \nenrollment":506,"site free\neligible":401},"type":"Feature","geometry":{"type":"Point","coordinates":[-88.022464,41.623336]}},{"properties":{"city":"Waukegan","co fip":97,"geo_score":0.902,"zip code":"60085-4035","site reduced\neligible":45,"site % \neligible":"87.54%","site":"* North Elem School","program":"Backpack","id":"a9phub9at921","address":"410 Franklin St","geo_precision":"range","site \nenrollment":634,"site free\neligible":510},"type":"Feature","geometry":{"type":"Point","coordinates":[-87.834312,42.368492]}},{"properties":{"city":"Hanover Park","co fip":47,"geo_score":0.902,"zip code":"60133-3251","site reduced\neligible":42,"site % \neligible":"87.56%","site":"Parkwood Elem School","program":"CACFP","id":"a9phubcocdk0","address":"2150 Laurel Ave","geo_precision":"range","site \nenrollment":410,"site free\neligible":317},"type":"Feature","geometry":{"type":"Point","coordinates":[-88.1576,42.00265]}},{"properties":{"city":"Waukegan","co fip":97,"geo_score":0.902,"zip code":"60087-4622","site reduced\neligible":41,"site % \neligible":"88.05%","site":"* Clearview Elem School","program":"Backpack","id":"a9phub4pjdh5","address":"1700 Delaware Rd","geo_precision":"range","site \nenrollment":770,"site free\neligible":637},"type":"Feature","geometry":{"type":"Point","coordinates":[-87.86075,42.386533]}},{"properties":{"city":"Aurora","co fip":89,"geo_score":0.488,"zip code":"60505-5647","site reduced\neligible":73,"site % \neligible":"88.07%","site":"G N Dieterich Elem School","program":"CACFP","id":"a9phub2ch1eh","address":"1141 Jackson St","geo_precision":"zip","site \nenrollment":704,"site free\neligible":547},"type":"Feature","geometry":{"type":"Point","coordinates":[-88.405446,41.765478]}},{"properties":{"city":"Addison","co fip":43,"geo_score":0.902,"zip code":"60101-2573","site reduced\neligible":30,"site % \neligible":"88.48%","site":"Lincoln Elem School","program":"CACFP","id":"a9phubb4z6r2","address":"720 N Lincoln Ave","geo_precision":"range","site \nenrollment":486,"site free\neligible":400},"type":"Feature","geometry":{"type":"Point","coordinates":[-87.995436,41.939773]}},{"properties":{"city":"Elgin","co fip":89,"geo_score":0.902,"zip code":"60120-3722","site reduced\neligible":45,"site % \neligible":"88.89%","site":"* McKinley Elem School","program":"Backpack","id":"a9phub4phsft","address":"258 Lovell St","geo_precision":"range","site \nenrollment":450,"site free\neligible":355},"type":"Feature","geometry":{"type":"Point","coordinates":[-88.279816,42.049982]}},{"properties":{"city":"Aurora","co fip":89,"geo_score":0.902,"zip code":"60505-2710","site reduced\neligible":26,"site % \neligible":"89.08%","site":"* L D Brady Elem School","program":"Both","id":"a9phub9c0qze","address":"600 Columbia St","geo_precision":"range","site \nenrollment":513,"site free\neligible":431},"type":"Feature","geometry":{"type":"Point","coordinates":[-88.300625,41.759751]}},{"properties":{"city":"Zion","co fip":97,"geo_score":0.902,"zip code":"60099-2117","site reduced\neligible":46,"site % \neligible":"89.57%","site":"* West Elem School","program":"Backpack","id":"a9phuazjc5x1","address":"2412 Jethro Ave","geo_precision":"range","site \nenrollment":537,"site free\neligible":435},"type":"Feature","geometry":{"type":"Point","coordinates":[-87.85058,42.450633]}},{"properties":{"city":"Joliet","co fip":197,"geo_score":0.902,"zip code":"60432-2716","site reduced\neligible":33,"site % \neligible":"89.74%","site":"* A O Marshall Elem School","program":"Both","id":"a9phub8q9z0u","address":"319 Harwood St","geo_precision":"range","site \nenrollment":468,"site free\neligible":387},"type":"Feature","geometry":{"type":"Point","coordinates":[-88.044602,41.531277]}},{"properties":{"city":"Joliet","co fip":197,"geo_score":0.902,"zip code":"60432'","site reduced\neligible":24,"site % \neligible":"89.81%","site":"* Isaac Singleton Elem Sch","program":"Both","id":"a9phub11tg5x","address":"1451 Copperfield Ave","geo_precision":"range","site \nenrollment":481,"site free\neligible":408},"type":"Feature","geometry":{"type":"Point","coordinates":[-88.046166,41.536709]}},{"properties":{"city":"Aurora","co fip":47,"geo_score":0.488,"zip code":"60505-1628","site reduced\neligible":67,"site % \neligible":"89.98%","site":"Mabel O'Donnell Elem School","program":"CACFP","id":"a9phubfpobpm","address":"1640 Reckinger Rd","geo_precision":"zip","site \nenrollment":529,"site free\neligible":409},"type":"Feature","geometry":{"type":"Point","coordinates":[-88.405446,41.765478]}},{"properties":{"city":"Aurora","co fip":89,"geo_score":0.819,"zip code":"60505-5372","site reduced\neligible":53,"site % \neligible":"90.12%","site":"John Gates Elem School","program":"CACFP","id":"a9phubcb8lz0","address":"800 7th Ave","geo_precision":"range","site \nenrollment":729,"site free\neligible":604},"type":"Feature","geometry":{"type":"Point","coordinates":[-88.300792,41.741665]}},{"properties":{"city":"Waukegan","co fip":97,"geo_score":0.902,"zip code":"60085-6428","site reduced\neligible":25,"site % \neligible":"90.18%","site":"* Carman-Buckner Elem School","program":"Backpack","id":"a9phub3gy42n","address":"520 Helmholz Ave","geo_precision":"range","site \nenrollment":672,"site free\neligible":581},"type":"Feature","geometry":{"type":"Point","coordinates":[-87.838389,42.348169]}},{"properties":{"city":"Aurora","co fip":89,"geo_score":0.488,"zip code":"60505-4300","site reduced\neligible":74,"site % \neligible":"90.77%","site":"K D Waldo Middle School","program":"CACFP","id":"a9phub8n2izi","address":"56 Jackson St","geo_precision":"zip","site \nenrollment":997,"site free\neligible":831},"type":"Feature","geometry":{"type":"Point","coordinates":[-88.405446,41.765478]}},{"properties":{"city":"Zion","co fip":97,"geo_score":0.902,"zip code":"60099-2530","site reduced\neligible":30,"site % \neligible":"91.48%","site":"* Shiloh Park Elem School","program":"Backpack","id":"a9phub4z6pik","address":"2635 Gabriel Ave","geo_precision":"range","site \nenrollment":528,"site free\neligible":453},"type":"Feature","geometry":{"type":"Point","coordinates":[-87.83906,42.446767]}},{"properties":{"city":"Aurora","co fip":89,"geo_score":0.902,"zip code":"60505-3010","site reduced\neligible":134,"site % \neligible":"91.61%","site":"Henry W Cowherd Middle School","program":"CACFP","id":"a9phub7x0rvw","address":"441 N Farnsworth Ave","geo_precision":"range","site \nenrollment":1049,"site free\neligible":827},"type":"Feature","geometry":{"type":"Point","coordinates":[-88.281494,41.763238]}},{"properties":{"city":"Aurora","co fip":89,"geo_score":0.902,"zip code":"60505-4669","site reduced\neligible":81,"site % \neligible":"91.62%","site":"C M Bardwell Elem School","program":"CACFP","id":"a9phub9bct95","address":"550 S Lincoln Ave","geo_precision":"range","site \nenrollment":967,"site free\neligible":805},"type":"Feature","geometry":{"type":"Point","coordinates":[-88.32025,41.745305]}},{"properties":{"city":"Elgin","co fip":89,"geo_score":0.902,"zip code":"60120-7841","site reduced\neligible":35,"site % \neligible":"91.83%","site":"* Garfield Elem School","program":"Backpack","id":"a9phubeqkorg","address":"420 May St","geo_precision":"range","site \nenrollment":453,"site free\neligible":381},"type":"Feature","geometry":{"type":"Point","coordinates":[-88.269387,42.024605]}},{"properties":{"city":"Elgin","co fip":89,"geo_score":0.902,"zip code":"60120-4441","site reduced\neligible":41,"site % \neligible":"91.96%","site":"* Sheridan Elem School","program":"Backpack","id":"a9phubehn6gj","address":"510 Franklin Blvd","geo_precision":"range","site \nenrollment":510,"site free\neligible":428},"type":"Feature","geometry":{"type":"Point","coordinates":[-88.269571,42.042911]}},{"properties":{"city":"Hanover Park","co fip":47,"geo_score":0.902,"zip code":"60133-3808","site reduced\neligible":40,"site % \neligible":"92.82%","site":"Ontarioville Elem School","program":"CACFP","id":"a9phub98gm72","address":"2100 Elm Ave","geo_precision":"range","site \nenrollment":641,"site free\neligible":555},"type":"Feature","geometry":{"type":"Point","coordinates":[-88.158966,41.992611]}},{"properties":{"city":"West Chicago","co fip":43,"geo_score":0.709,"zip code":"60185-4100","site reduced\neligible":39,"site % \neligible":"93.06%","site":"Currier Elem School","program":"CACFP","id":"a9phub8jpbre","address":"800 Garys Mill Rd","geo_precision":"street","site \nenrollment":418,"site free\neligible":350},"type":"Feature","geometry":{"type":"Point","coordinates":[-88.188662,41.8576]}},{"properties":{"city":"Aurora","co fip":89,"geo_score":0.902,"zip code":"60505-5564","site reduced\neligible":36,"site % \neligible":"93.55%","site":"Rose E Krug Elem School","program":"CACFP","id":"a9phub9vexg1","address":"240 Melrose Ave","geo_precision":"range","site \nenrollment":341,"site free\neligible":283},"type":"Feature","geometry":{"type":"Point","coordinates":[-88.323084,41.732749]}},{"properties":{"city":"Aurora","co fip":89,"geo_score":0.902,"zip code":"60505-1914","site reduced\neligible":103,"site % \neligible":"94.00%","site":"Nicholas A Hermes Elem School","program":"CACFP","id":"a9phubc5vvw9","address":"1000 Jungles Ave","geo_precision":"range","site \nenrollment":866,"site free\neligible":711},"type":"Feature","geometry":{"type":"Point","coordinates":[-88.292889,41.777147]}},{"properties":{"city":"West Chicago","co fip":43,"geo_score":0.902,"zip code":"60185-3227","site reduced\neligible":26,"site % \neligible":"95.31%","site":"Pioneer Elem School","program":"CACFP","id":"a9phubbaqih2","address":"615 Kenwood Ave","geo_precision":"range","site \nenrollment":469,"site free\neligible":421},"type":"Feature","geometry":{"type":"Point","coordinates":[-88.215355,41.874544]}},{"properties":{"city":"Aurora","co fip":89,"geo_score":0.902,"zip code":"60505-3756","site reduced\neligible":29,"site % \neligible":"96.32%","site":"* Edna Rollins Elem School","program":"Both","id":"a9phub3ilrca","address":"950 Kane St","geo_precision":"range","site \nenrollment":489,"site free\neligible":442},"type":"Feature","geometry":{"type":"Point","coordinates":[-88.291571,41.756585]}},{"properties":{"city":"Burr Ridge","co fip":43,"geo_score":0.714,"zip code":"60527-6379","site reduced\neligible":0,"site % \neligible":"100.00%","site":"* Burr Ridge Middle School","program":"Backpack","id":"a9phub71ec5m","address":"15W451 91st St","geo_precision":"zip","site \nenrollment":311,"site free\neligible":311},"type":"Feature","geometry":{"type":"Point","coordinates":[-88.088716,41.839679]}},{"properties":{"city":"Willowbrook","co fip":43,"geo_score":0.714,"zip code":"60527-6126","site reduced\neligible":0,"site % \neligible":"100.00%","site":"* Anne M Jeans Elem School","program":"Both","id":"a9phub65azj6","address":"16W631 91st St","geo_precision":"zip","site \nenrollment":323,"site free\neligible":323},"type":"Feature","geometry":{"type":"Point","coordinates":[-88.088716,41.839679]}}],"is_temporal":false,"author":{"url":"","metadata":"","contact_name":"","contact_address":"","source":"","contact_phone":""},"source":"","pagination":{"sort":null,"start":0,"total":134,"limit":1000000},"state":"complete","tags":"","published":"2014-08-15T01:54:56-04:00","id":288460}