{"type":"FeatureCollection","data_type":"Dataset","url_type":null,"permissions":[{"permissions":{"download":true,"view":true},"group_id":"everyone"}],"classification":null,"title":"zip codes for travis county","count":63,"stream_id":289191,"contributor":{"url":"http://geocommons.com/users/54549","name":"jessicav"},"data_attributes":null,"calculation_params":null,"icon_link":null,"link":"http://geocommons.com/overlays/289191.json","extent":[-98.3595,29.9991,-97.3612,30.5793],"geometry_types":["point"],"unique_name":null,"name":"zip codes for travis county","feature_count":63,"description":"","next_feature":null,"is_raster":false,"short_classification":"Y","stats":{"latitude":{"max":30.57932,"variance":0.0163208320528454,"mean":30.3240832301587,"stdev":0.127753011913009,"min":29.9991,"median":30.3363},"longitude":{"max":-97.3612,"variance":0.0325037262351434,"mean":-97.7641297777778,"stdev":0.180287898193815,"min":-98.3595,"median":-97.7426225}},"features":[{"properties":{"latitude":30.07851,"zipcode":"78610","longitude":-97.838,"id":"a9r4ooeoff7c"},"type":"Feature","geometry":{"type":"Point","coordinates":[-97.838,30.07851]}},{"properties":{"latitude":30.09409,"zipcode":"78612","longitude":-97.4951,"id":"a9r4ooep2woo"},"type":"Feature","geometry":{"type":"Point","coordinates":[-97.4951,30.09409]}},{"properties":{"latitude":30.50394,"zipcode":"78613","longitude":-97.8242,"id":"a9r4ooj0hy6d"},"type":"Feature","geometry":{"type":"Point","coordinates":[-97.8242,30.50394]}},{"properties":{"latitude":30.4654,"zipcode":"78615","longitude":-97.3841,"id":"a9r4oo8cdqch"},"type":"Feature","geometry":{"type":"Point","coordinates":[-97.3841,30.4654]}},{"properties":{"latitude":30.151722,"zipcode":"78617","longitude":-97.589779,"id":"a9r4oog9fggh"},"type":"Feature","geometry":{"type":"Point","coordinates":[-97.589779,30.151722]}},{"properties":{"latitude":30.40226,"zipcode":"78620","longitude":-98.3595,"id":"a9r4oobjxo18"},"type":"Feature","geometry":{"type":"Point","coordinates":[-98.3595,30.40226]}},{"properties":{"latitude":30.33858,"zipcode":"78621","longitude":-97.3612,"id":"a9r4oofdgor0"},"type":"Feature","geometry":{"type":"Point","coordinates":[-97.3612,30.33858]}},{"properties":{"latitude":30.40226,"zipcode":"78663","longitude":-98.3595,"id":"a9r4ooefn377"},"type":"Feature","geometry":{"type":"Point","coordinates":[-98.3595,30.40226]}},{"properties":{"latitude":30.56004,"zipcode":"78634","longitude":-97.54612,"id":"a9r4oojsfd3a"},"type":"Feature","geometry":{"type":"Point","coordinates":[-97.54612,30.56004]}},{"properties":{"latitude":29.9991,"zipcode":"78640","longitude":-97.8282,"id":"a9r4oogiacwx"},"type":"Feature","geometry":{"type":"Point","coordinates":[-97.8282,29.9991]}},{"properties":{"latitude":30.56255,"zipcode":"78641","longitude":-97.9078,"id":"a9r4oo8qfrvq"},"type":"Feature","geometry":{"type":"Point","coordinates":[-97.9078,30.56255]}},{"properties":{"latitude":30.444363,"zipcode":"78645","longitude":-97.919612,"id":"a9r4oo70ownx"},"type":"Feature","geometry":{"type":"Point","coordinates":[-97.919612,30.444363]}},{"properties":{"latitude":30.132528,"zipcode":"78652","longitude":-97.8555725,"id":"a9r4oogreyrq"},"type":"Feature","geometry":{"type":"Point","coordinates":[-97.8555725,30.132528]}},{"properties":{"latitude":30.33969,"zipcode":"78653","longitude":-97.5235,"id":"a9r4ooj9u7l6"},"type":"Feature","geometry":{"type":"Point","coordinates":[-97.5235,30.33969]}},{"properties":{"latitude":30.57932,"zipcode":"78654","longitude":-97.3886,"id":"a9r4oom3nkyd"},"type":"Feature","geometry":{"type":"Point","coordinates":[-97.3886,30.57932]}},{"properties":{"latitude":30.441635,"zipcode":"78660","longitude":-97.5981165,"id":"a9r4ooicg2ax"},"type":"Feature","geometry":{"type":"Point","coordinates":[-97.5981165,30.441635]}},{"properties":{"latitude":30.50174,"zipcode":"78664","longitude":-97.6472,"id":"a9r4oog1137q"},"type":"Feature","geometry":{"type":"Point","coordinates":[-97.6472,30.50174]}},{"properties":{"latitude":30.435253,"zipcode":"78669","longitude":-98.101241,"id":"a9r4ooaauk7w"},"type":"Feature","geometry":{"type":"Point","coordinates":[-98.101241,30.435253]}},{"properties":{"latitude":30.53435,"zipcode":"78681","longitude":-97.7256,"id":"a9r4oodvyv6c"},"type":"Feature","geometry":{"type":"Point","coordinates":[-97.7256,30.53435]}},{"properties":{"latitude":30.2676755,"zipcode":"78701","longitude":-97.7426225,"id":"a9r4ookjn7ll"},"type":"Feature","geometry":{"type":"Point","coordinates":[-97.7426225,30.2676755]}},{"properties":{"latitude":30.2642615,"zipcode":"78702","longitude":-97.7138175,"id":"a9r4ookhjsx6"},"type":"Feature","geometry":{"type":"Point","coordinates":[-97.7138175,30.2642615]}},{"properties":{"latitude":30.3363,"zipcode":"78703","longitude":-97.920868,"id":"a9r4oo62or9a"},"type":"Feature","geometry":{"type":"Point","coordinates":[-97.920868,30.3363]}},{"properties":{"latitude":30.241321,"zipcode":"78704","longitude":-97.768754,"id":"a9r4oo7zovq8"},"type":"Feature","geometry":{"type":"Point","coordinates":[-97.768754,30.241321]}},{"properties":{"latitude":30.295985,"zipcode":"78705","longitude":-97.736722,"id":"a9r4ooge5z98"},"type":"Feature","geometry":{"type":"Point","coordinates":[-97.736722,30.295985]}},{"properties":{"latitude":30.4916625,"zipcode":"78717","longitude":-97.754104,"id":"a9r4ooc0225f"},"type":"Feature","geometry":{"type":"Point","coordinates":[-97.754104,30.4916625]}},{"properties":{"latitude":30.1456315,"zipcode":"78719","longitude":-97.6680865,"id":"a9r4ooemjmwy"},"type":"Feature","geometry":{"type":"Point","coordinates":[-97.6680865,30.1456315]}},{"properties":{"latitude":30.269606,"zipcode":"78721","longitude":-97.6833325,"id":"a9r4ooednth1"},"type":"Feature","geometry":{"type":"Point","coordinates":[-97.6833325,30.269606]}},{"properties":{"latitude":30.29404,"zipcode":"78722","longitude":-97.7096685,"id":"a9r4oo9mv4y3"},"type":"Feature","geometry":{"type":"Point","coordinates":[-97.7096685,30.29404]}},{"properties":{"latitude":30.304128,"zipcode":"78723","longitude":-97.685707,"id":"a9r4oo6zuyv3"},"type":"Feature","geometry":{"type":"Point","coordinates":[-97.685707,30.304128]}},{"properties":{"latitude":30.292411,"zipcode":"78724","longitude":-97.617027,"id":"a9r4oo9qd4ap"},"type":"Feature","geometry":{"type":"Point","coordinates":[-97.617027,30.292411]}},{"properties":{"latitude":30.2460065,"zipcode":"78725","longitude":-97.610254,"id":"a9r4ooev1hhk"},"type":"Feature","geometry":{"type":"Point","coordinates":[-97.610254,30.2460065]}},{"properties":{"latitude":30.43074,"zipcode":"78726","longitude":-97.84,"id":"a9r4oomj8ai2"},"type":"Feature","geometry":{"type":"Point","coordinates":[-97.84,30.43074]}},{"properties":{"latitude":30.429219,"zipcode":"78727","longitude":-97.7210675,"id":"a9r4oocmjwcf"},"type":"Feature","geometry":{"type":"Point","coordinates":[-97.7210675,30.429219]}},{"properties":{"latitude":30.456422,"zipcode":"78728","longitude":-97.69622,"id":"a9r4ooltev4y"},"type":"Feature","geometry":{"type":"Point","coordinates":[-97.69622,30.456422]}},{"properties":{"latitude":30.4549635,"zipcode":"78729","longitude":-97.756326,"id":"a9r4oo9e8ohb"},"type":"Feature","geometry":{"type":"Point","coordinates":[-97.756326,30.4549635]}},{"properties":{"latitude":30.37045,"zipcode":"78730","longitude":-97.8358,"id":"a9r4oojkifcp"},"type":"Feature","geometry":{"type":"Point","coordinates":[-97.8358,30.37045]}},{"properties":{"latitude":30.3455615,"zipcode":"78731","longitude":-97.770437,"id":"a9r4oohm8nkx"},"type":"Feature","geometry":{"type":"Point","coordinates":[-97.770437,30.3455615]}},{"properties":{"latitude":30.377889,"zipcode":"78732","longitude":-97.895,"id":"a9r4oojsj15x"},"type":"Feature","geometry":{"type":"Point","coordinates":[-97.895,30.377889]}},{"properties":{"latitude":30.35106,"zipcode":"78733","longitude":-97.851082,"id":"a9r4ooj0bs8l"},"type":"Feature","geometry":{"type":"Point","coordinates":[-97.851082,30.35106]}},{"properties":{"latitude":30.38048,"zipcode":"78734","longitude":-97.9583485,"id":"a9r4oo6adntc"},"type":"Feature","geometry":{"type":"Point","coordinates":[-97.9583485,30.38048]}},{"properties":{"latitude":30.2696735,"zipcode":"78735","longitude":-97.866405,"id":"a9r4oo925vjx"},"type":"Feature","geometry":{"type":"Point","coordinates":[-97.866405,30.2696735]}},{"properties":{"latitude":30.255314,"zipcode":"78736","longitude":-97.956766,"id":"a9r4oolgr2lv"},"type":"Feature","geometry":{"type":"Point","coordinates":[-97.956766,30.255314]}},{"properties":{"latitude":30.19032,"zipcode":"78737","longitude":-97.9569,"id":"a9r4ooj2t473"},"type":"Feature","geometry":{"type":"Point","coordinates":[-97.9569,30.19032]}},{"properties":{"latitude":30.31974,"zipcode":"78738","longitude":-97.9582,"id":"a9r4oofylkgq"},"type":"Feature","geometry":{"type":"Point","coordinates":[-97.9582,30.31974]}},{"properties":{"latitude":30.17841,"zipcode":"78739","longitude":-97.8886,"id":"a9r4ook348ic"},"type":"Feature","geometry":{"type":"Point","coordinates":[-97.8886,30.17841]}},{"properties":{"latitude":30.230974,"zipcode":"78741","longitude":-97.716786,"id":"a9r4oo9whvtz"},"type":"Feature","geometry":{"type":"Point","coordinates":[-97.716786,30.230974]}},{"properties":{"latitude":30.1856525,"zipcode":"78742","longitude":-97.828227,"id":"a9r4ooaznkrc"},"type":"Feature","geometry":{"type":"Point","coordinates":[-97.828227,30.1856525]}},{"properties":{"latitude":30.175635,"zipcode":"78744","longitude":-97.7370835,"id":"a9r4oobm48ux"},"type":"Feature","geometry":{"type":"Point","coordinates":[-97.7370835,30.175635]}},{"properties":{"latitude":30.2058335,"zipcode":"78745","longitude":-97.800128,"id":"a9r4oo6lm5rw"},"type":"Feature","geometry":{"type":"Point","coordinates":[-97.800128,30.2058335]}},{"properties":{"latitude":30.2953685,"zipcode":"78746","longitude":-97.813766,"id":"a9r4oolgngsh"},"type":"Feature","geometry":{"type":"Point","coordinates":[-97.813766,30.2953685]}},{"properties":{"latitude":30.120171,"zipcode":"78747","longitude":-97.741539,"id":"a9r4oob1t8at"},"type":"Feature","geometry":{"type":"Point","coordinates":[-97.741539,30.120171]}},{"properties":{"latitude":30.1676895,"zipcode":"78748","longitude":-97.8225045,"id":"a9r4oock342q"},"type":"Feature","geometry":{"type":"Point","coordinates":[-97.8225045,30.1676895]}},{"properties":{"latitude":30.206926,"zipcode":"78749","longitude":-97.8588035,"id":"a9r4ooeess0j"},"type":"Feature","geometry":{"type":"Point","coordinates":[-97.8588035,30.206926]}},{"properties":{"latitude":30.4150855,"zipcode":"78750","longitude":-97.7977725,"id":"a9r4oog9mpmi"},"type":"Feature","geometry":{"type":"Point","coordinates":[-97.7977725,30.4150855]}},{"properties":{"latitude":30.310432,"zipcode":"78751","longitude":-97.722798,"id":"a9r4ook38whp"},"type":"Feature","geometry":{"type":"Point","coordinates":[-97.722798,30.310432]}},{"properties":{"latitude":30.329881,"zipcode":"78752","longitude":-97.7014055,"id":"a9r4oobm5emb"},"type":"Feature","geometry":{"type":"Point","coordinates":[-97.7014055,30.329881]}},{"properties":{"latitude":30.379597,"zipcode":"78753","longitude":-97.675249,"id":"a9r4oo9u89tc"},"type":"Feature","geometry":{"type":"Point","coordinates":[-97.675249,30.379597]}},{"properties":{"latitude":30.341855,"zipcode":"78753","longitude":-97.532753,"id":"a9r4ooi8e4jk"},"type":"Feature","geometry":{"type":"Point","coordinates":[-97.532753,30.341855]}},{"properties":{"latitude":30.366282,"zipcode":"78754","longitude":-97.644503,"id":"a9r4oof7wd7z"},"type":"Feature","geometry":{"type":"Point","coordinates":[-97.644503,30.366282]}},{"properties":{"latitude":30.320725,"zipcode":"78756","longitude":-97.7374705,"id":"a9r4ooizi254"},"type":"Feature","geometry":{"type":"Point","coordinates":[-97.7374705,30.320725]}},{"properties":{"latitude":30.3543995,"zipcode":"78757","longitude":-97.7343075,"id":"a9r4oodnhvnn"},"type":"Feature","geometry":{"type":"Point","coordinates":[-97.7343075,30.3543995]}},{"properties":{"latitude":30.3842605,"zipcode":"78758","longitude":-97.707176,"id":"a9r4oogvobbj"},"type":"Feature","geometry":{"type":"Point","coordinates":[-97.707176,30.3842605]}},{"properties":{"latitude":30.399874,"zipcode":"78759","longitude":-97.752847,"id":"a9r4ookif4ku"},"type":"Feature","geometry":{"type":"Point","coordinates":[-97.752847,30.399874]}}],"is_temporal":false,"author":{"url":"","metadata":"","contact_name":"","contact_address":"","source":"","contact_phone":""},"source":"","pagination":{"sort":null,"start":0,"total":63,"limit":1000000},"state":"complete","tags":"jessicav","published":"2014-08-15T02:53:35-04:00","id":289191}