{"type":"FeatureCollection","data_type":"Dataset","url_type":null,"permissions":[{"permissions":{"download":true,"view":true},"group_id":"everyone"}],"classification":null,"title":"Waze Gas Report 2012-11-05 at 12:30","count":28,"stream_id":290070,"contributor":{"url":"http://geocommons.com/users/159","name":"ajturner"},"data_attributes":null,"calculation_params":null,"icon_link":null,"link":"http://geocommons.com/overlays/290070.json","extent":[-74.3472,40.5708,-73.2342,41.1237],"geometry_types":["point"],"unique_name":"","name":"Waze Gas Report 2012-11-05 at 12:30","feature_count":28,"description":"","next_feature":null,"is_raster":false,"short_classification":"Y","stats":{"lon":{"max":-73.234194,"variance":0.0602147151733588,"mean":-73.9099416071429,"stdev":0.245386868380031,"median":-73.92906,"min":-74.347236},"lat":{"max":41.123698,"variance":0.0164103736855171,"mean":40.7502940357143,"stdev":0.128102980783107,"median":40.737466,"min":40.570778}},"features":[{"properties":{"lon":-74.32379,"city":"Iselin","description":"citgo open. no lines!","street":"Juliet St","id":"a9uinxfflh9b","lat":40.570778,"state":"NJ"},"type":"Feature","geometry":{"type":"Point","coordinates":[-74.32379,40.570778]}},{"properties":{"lon":-73.996848,"city":"Brooklyn","description":"Gulf gas station is still working.  Bath Ave and Bay Pky","street":"Bath Ave","id":"a9uinxgb7g0v","lat":40.598212,"state":"NY"},"type":"Feature","geometry":{"type":"Point","coordinates":[-73.996848,40.598212]}},{"properties":{"lon":-73.990615,"city":"Brooklyn","description":"any word of gas where there will be gas later on in the day or some time tonight?","street":"Bay Pkwy","id":"a9uinxh1qzlm","lat":40.604614,"state":"NY"},"type":"Feature","geometry":{"type":"Point","coordinates":[-73.990615,40.604614]}},{"properties":{"lon":-74.018878,"city":"Brooklyn","description":"Anyone know where I can get gas here in bridge","street":"80th St","id":"a9uinxqcacor","lat":40.622587,"state":"NY"},"type":"Feature","geometry":{"type":"Point","coordinates":[-74.018878,40.622587]}},{"properties":{"lon":-74.023088,"city":null,"description":"hey any gas stations open in that areawas","street":null,"id":"a9uinxgus4zf","lat":40.639397,"state":null},"type":"Feature","geometry":{"type":"Point","coordinates":[-74.023088,40.639397]}},{"properties":{"lon":-73.965761,"city":"Brooklyn","description":"ave I and Coney Island Avenue has gas","street":"Coney Island Ave","id":"a9uinxqyl27s","lat":40.627874,"state":"NY"},"type":"Feature","geometry":{"type":"Point","coordinates":[-73.965761,40.627874]}},{"properties":{"lon":-73.962948,"city":null,"description":"Fuel?","street":null,"id":"a9uinxgv91li","lat":40.661295,"state":null},"type":"Feature","geometry":{"type":"Point","coordinates":[-73.962948,40.661295]}},{"properties":{"lon":-73.965863,"city":null,"description":"Can you help me find fuel?","street":null,"id":"a9uinxcsxhll","lat":40.667989,"state":null},"type":"Feature","geometry":{"type":"Point","coordinates":[-73.965863,40.667989]}},{"properties":{"lon":-73.836808,"city":"Queens","description":"in line for gas","street":"Rockaway Blvd","id":"a9uinxcj8dws","lat":40.679575,"state":"NY"},"type":"Feature","geometry":{"type":"Point","coordinates":[-73.836808,40.679575]}},{"properties":{"lon":-74.039513,"city":"Jersey City","description":"gas station open,Hess, shell,Exxon,sunnoco","street":"Marin Blvd","id":"a9uinxohx4ku","lat":40.731222,"state":"NJ"},"type":"Feature","geometry":{"type":"Point","coordinates":[-74.039513,40.731222]}},{"properties":{"lon":-73.865796,"city":"Queens","description":"avoid Woodhaven &amp; Drive Harbor. people lineup for gas","street":"64th Rd","id":"a9uinxnvftzl","lat":40.721747,"state":"NY"},"type":"Feature","geometry":{"type":"Point","coordinates":[-73.865796,40.721747]}},{"properties":{"lon":-73.931538,"city":"Queens","description":"Mobil is open. lines for cars and jugs.","street":"Broadway","id":"a9uinxgcsgob","lat":40.765139,"state":"NY"},"type":"Feature","geometry":{"type":"Point","coordinates":[-73.931538,40.765139]}},{"properties":{"lon":-73.92906,"city":"Queens","description":"gulf is closed","street":"21st St","id":"a9uinxitvso1","lat":40.768323,"state":"NY"},"type":"Feature","geometry":{"type":"Point","coordinates":[-73.92906,40.768323]}},{"properties":{"lon":-73.876428,"city":"Queens","description":"91st and roosevelt av queens ny has gas the gas can line is not so long","street":"37th Ave","id":"a9uinxmjwm8w","lat":40.750581,"state":"NY"},"type":"Feature","geometry":{"type":"Point","coordinates":[-73.876428,40.750581]}},{"properties":{"lon":-73.856488,"city":"Queens","description":"ders line here for bp gas but employes n not sure if dey get gas today last time they had was on Sat","street":"Calloway St","id":"a9uinxlosx5j","lat":40.737466,"state":"NY"},"type":"Feature","geometry":{"type":"Point","coordinates":[-73.856488,40.737466]}},{"properties":{"lon":-73.779042,"city":"Queens","description":"gas on linden and merrick blvd","street":"Sayres Ave","id":"a9uinxdb4aew","lat":40.693827,"state":"NY"},"type":"Feature","geometry":{"type":"Point","coordinates":[-73.779042,40.693827]}},{"properties":{"lon":-73.811811,"city":"Queens","description":"Gulf on kissnea cross from quens college waas only on line for about a hr abd a half  40 buck limit","street":"Jewel Ave","id":"a9uinxfwgfsx","lat":40.732233,"state":"NY"},"type":"Feature","geometry":{"type":"Point","coordinates":[-73.811811,40.732233]}},{"properties":{"lon":-73.825208,"city":"Queens","description":"right lane filled with ppl waiting for gas","street":"Main St","id":"a9uinxewejma","lat":40.735475,"state":"NY"},"type":"Feature","geometry":{"type":"Point","coordinates":[-73.825208,40.735475]}},{"properties":{"lon":-73.693716,"city":"North New Hyde Park","description":"gas here at coastal","street":"Hillside Ave","id":"a9uinxqqhsdd","lat":40.743164,"state":"NY"},"type":"Feature","geometry":{"type":"Point","coordinates":[-73.693716,40.743164]}},{"properties":{"lon":-74.347236,"city":"Montville","description":"pumping gas in Montville nj changebrook rd and main short wait","street":"Changebridge Rd","id":"a9uinxnzfscp","lat":40.863681,"state":"NJ"},"type":"Feature","geometry":{"type":"Point","coordinates":[-74.347236,40.863681]}},{"properties":{"lon":-73.914521,"city":"Queens","description":"gulf is closed","street":"21st St","id":"a9uinxk8i4wq","lat":40.782343,"state":"NY"},"type":"Feature","geometry":{"type":"Point","coordinates":[-73.914521,40.782343]}},{"properties":{"lon":-73.835214,"city":"Queens","description":"college point  has gas","street":"20th Ave","id":"a9uinxpuoupf","lat":40.781673,"state":"NY"},"type":"Feature","geometry":{"type":"Point","coordinates":[-73.835214,40.781673]}},{"properties":{"lon":-73.234194,"city":"Brentwood","description":"419 looks open at gulf 30 cars","street":"Expressway Dr S","id":"a9uinxnojbda","lat":40.806245,"state":"NY"},"type":"Feature","geometry":{"type":"Point","coordinates":[-73.234194,40.806245]}},{"properties":{"lon":-73.235385,"city":"Greater Islip Area","description":"Mobil no gas","street":"Lie North Svc Rd","id":"a9uinxd8kfhy","lat":40.807059,"state":"NY"},"type":"Feature","geometry":{"type":"Point","coordinates":[-73.235385,40.807059]}},{"properties":{"lon":-73.780986,"city":"Thornwood","description":"very short lines, 5 min wait!","street":"Franklin Ave","id":"a9uinxjon3mq","lat":41.123698,"state":"NY"},"type":"Feature","geometry":{"type":"Point","coordinates":[-73.780986,41.123698]}},{"properties":{"lon":-74.191541,"city":"Little Falls","description":"Exxon on 46w by valley road in Clifton has a short line for gas.","street":"US Hwy 46","id":"a9uinxf88lf9","lat":40.871936,"state":"NJ"},"type":"Feature","geometry":{"type":"Point","coordinates":[-74.191541,40.871936]}},{"properties":{"lon":-74.092211,"city":"East Rutherford","description":"exxon on rt17 (across lowe's) has gas. wait time around 20 min","street":"State Rte 17","id":"a9uinxdw85rm","lat":40.829484,"state":"NJ"},"type":"Feature","geometry":{"type":"Point","coordinates":[-74.092211,40.829484]}},{"properties":{"lon":-74.153878,"city":"Mahwah","description":"rt 17 north Mahwah, Getty is open. 20 cars online.","street":"State Rte 17","id":"a9uinxqzteux","lat":41.090616,"state":"NJ"},"type":"Feature","geometry":{"type":"Point","coordinates":[-74.153878,41.090616]}}],"is_temporal":false,"author":{"url":"","metadata":"","contact_name":"","contact_address":"","source":"Waze","contact_phone":""},"source":"","pagination":{"sort":null,"start":0,"total":28,"limit":1000000},"state":"complete","tags":"","published":"2012-11-05T17:00:00Z","id":290070}