{"type":"FeatureCollection","data_type":"Dataset","url_type":null,"permissions":[{"permissions":{"download":true,"view":true},"group_id":"everyone"}],"classification":null,"title":"2013 Distribution Map","count":428,"stream_id":290093,"contributor":{"url":"http://geocommons.com/users/55066","name":"DRSTeam"},"data_attributes":null,"calculation_params":null,"icon_link":null,"link":"http://geocommons.com/overlays/290093.json","extent":[-155.047,19.7307,-76.329,46.844],"geometry_types":["point"],"unique_name":null,"name":"2013 Distribution Map","feature_count":428,"description":"","next_feature":null,"is_raster":false,"short_classification":"Y","stats":{},"features":[{"properties":{"company":"A&amp;C Plastic Products, Inc.","city":"Houston","zip":"77087","product":"PE","geo_score":0.322,"address 1":null,"id":"a9ukz0es0xej","address":"6035 Northdale","geo_precision":"street","state":"TX"},"type":"Feature","geometry":{"type":"Point","coordinates":[-155.0474,19.73071]}},{"properties":{"company":"Aetna Plastics Corp.","city":"Cleveland","zip":"44114","product":"Full Line","geo_score":0.444,"address 1":null,"id":"a9ukz0ahk470","address":"1702 St. Clair Ave.","geo_precision":"street","state":"OH"},"type":"Feature","geometry":{"type":"Point","coordinates":[-106.303485,39.643179]}},{"properties":{"company":"AIN Plastics","city":"Yonkers","zip":"10704","product":"Full Line","geo_score":0.444,"address 1":null,"id":"a9ukz03ecm9a","address":"60 Fullerton Ave.","geo_precision":"street","state":"NY"},"type":"Feature","geometry":{"type":"Point","coordinates":[-106.303485,39.643179]}},{"properties":{"company":"AIN Plastics","city":"Bensenville","zip":"60106","product":"Full Line","geo_score":0.444,"address 1":null,"id":"a9ukyzzkd7q9","address":"300 County Line Road","geo_precision":"street","state":"IL"},"type":"Feature","geometry":{"type":"Point","coordinates":[-106.303485,39.643179]}},{"properties":{"company":"AIN Plastics","city":"Canton","zip":"02021","product":"Full Line","geo_score":0.444,"address 1":null,"id":"a9ukz0cynvpl","address":"110 Shawmut Rd.","geo_precision":"street","state":"MA"},"type":"Feature","geometry":{"type":"Point","coordinates":[-106.303485,39.643179]}},{"properties":{"company":"AIN Plastics","city":"Columbus","zip":"43228","product":"Full Line","geo_score":0.444,"address 1":null,"id":"a9ukz0e7393p","address":"1360 Boltonfield St.","geo_precision":"street","state":"OH"},"type":"Feature","geometry":{"type":"Point","coordinates":[-106.303485,39.643179]}},{"properties":{"company":"AIN Plastics","city":"Kennesaw","zip":"30144","product":"Full Line","geo_score":0.444,"address 1":null,"id":"a9ukz02j0j1f","address":"1980 Shiloh Rd.","geo_precision":"street","state":"GA"},"type":"Feature","geometry":{"type":"Point","coordinates":[-106.303485,39.643179]}},{"properties":{"company":"AIN Plastics","city":"Lancaster","zip":"17603","product":"Full Line","geo_score":0.444,"address 1":"Suite 16","id":"a9ukz0ae069w","address":"499 Running Pump Rd.","geo_precision":"street","state":"PA"},"type":"Feature","geometry":{"type":"Point","coordinates":[-106.303485,39.643179]}},{"properties":{"company":"AIN Plastics","city":"Madison Heights","zip":"48071","product":"Full Line","geo_score":0.444,"address 1":null,"id":"a9ukz08331q5","address":"1750 Heights Drive East","geo_precision":"street","state":"MI"},"type":"Feature","geometry":{"type":"Point","coordinates":[-106.303485,39.643179]}},{"properties":{"company":"AIN Plastics","city":"Riverview","zip":"33578","product":"Full Line","geo_score":0.444,"address 1":null,"id":"a9ukz0czmdsw","address":"6317 Pelican Creek Circle","geo_precision":"street","state":"FL"},"type":"Feature","geometry":{"type":"Point","coordinates":[-106.303485,39.643179]}},{"properties":{"company":"AIN Plastics","city":"Virginia Beach","zip":"23455","product":"Full Line","geo_score":0.444,"address 1":null,"id":"a9ukz05oj4jf","address":"1347 Diamond Springs Rd.","geo_precision":"street","state":"VA"},"type":"Feature","geometry":{"type":"Point","coordinates":[-106.303485,39.643179]}},{"properties":{"company":"All Power, Inc.","city":"Sioux City","zip":"51111","product":"PE","geo_score":0.322,"address 1":null,"id":"a9ukz07yrnng","address":"2228 Murray St.","geo_precision":"street","state":"IA"},"type":"Feature","geometry":{"type":"Point","coordinates":[-155.0474,19.73071]}},{"properties":{"company":"Allied Plastics","city":"Dallas","zip":"75220","product":"Full Line","geo_score":0.444,"address 1":null,"id":"a9ukz06rhyiu","address":"10828 Shady Trail Drive","geo_precision":"street","state":"TX"},"type":"Feature","geometry":{"type":"Point","coordinates":[-106.303485,39.643179]}},{"properties":{"company":"Allied Plastics","city":"Houston","zip":"77092","product":"Full Line","geo_score":0.444,"address 1":null,"id":"a9ukz09ptzb7","address":"4510 West 34th St.","geo_precision":"street","state":"TX"},"type":"Feature","geometry":{"type":"Point","coordinates":[-106.303485,39.643179]}},{"properties":{"company":"Alro Steel","city":"Clearwater","zip":"33762","product":"Full Line","geo_score":0.444,"address 1":null,"id":"a9ukz0cip3i2","address":"10585 47th St. N.","geo_precision":"street","state":"FL"},"type":"Feature","geometry":{"type":"Point","coordinates":[-106.303485,39.643179]}},{"properties":{"company":"Alro Steel","city":"Grand Rapids","zip":"49512-3933","product":"Full Line","geo_score":0.444,"address 1":null,"id":"a9ukz0azrg21","address":"4150 Broadmoor South East","geo_precision":"street","state":"MI"},"type":"Feature","geometry":{"type":"Point","coordinates":[-106.303485,39.643179]}},{"properties":{"company":"Alro Steel","city":"Jackson","zip":"49204","product":"Full Line","geo_score":0.444,"address 1":null,"id":"a9ukz01vznpe","address":"2218 Enterprise","geo_precision":"street","state":"MI"},"type":"Feature","geometry":{"type":"Point","coordinates":[-106.303485,39.643179]}},{"properties":{"company":"Alro Steel","city":"Louisville","zip":"40228","product":"Full Line","geo_score":0.444,"address 1":null,"id":"a9ukz0b5eo6u","address":"5620 Shepherdsville Rd.","geo_precision":"street","state":"KY"},"type":"Feature","geometry":{"type":"Point","coordinates":[-106.303485,39.643179]}},{"properties":{"company":"Altair Co.","city":"Richardson","zip":"75081","product":"Delete","geo_score":0.399,"address 1":null,"id":"a9ukz08j5dkz","address":"412 North Bowser","geo_precision":"street","state":"TX"},"type":"Feature","geometry":{"type":"Point","coordinates":[-81.557676,34.535241]}},{"properties":{"company":"ACI Plastics","city":"Tulsa","zip":"74146","product":"PE","geo_score":0.322,"address 1":"Suite 144","id":"a9ukz0at558i","address":"9726 E. 42nd St.","geo_precision":"street","state":"OK"},"type":"Feature","geometry":{"type":"Point","coordinates":[-155.0474,19.73071]}},{"properties":{"company":"American Industrial Plastics","city":"Daytona Beach","zip":"32114","product":"Full Line","geo_score":0.444,"address 1":null,"id":"a9ukz0cy9gfr","address":"724 Fentress Blvd.","geo_precision":"street","state":"FL"},"type":"Feature","geometry":{"type":"Point","coordinates":[-106.303485,39.643179]}},{"properties":{"company":"Arrowhead Conveyor Corp.","city":"Oshkosh","zip":"54902","product":"PE","geo_score":0.322,"address 1":null,"id":"a9ukz029xi80","address":"3255 Medalist Drive","geo_precision":"street","state":"WI"},"type":"Feature","geometry":{"type":"Point","coordinates":[-155.0474,19.73071]}},{"properties":{"company":"Asgco Mfg. Belting Co.","city":"Allentown","zip":"18102","product":"PE","geo_score":0.322,"address 1":null,"id":"a9ukz00d8pzm","address":"3rd &amp; Gordon St.","geo_precision":"street","state":"PA"},"type":"Feature","geometry":{"type":"Point","coordinates":[-155.0474,19.73071]}},{"properties":{"company":"Ashbrook Simon-Hartley Operations","city":"Houston","zip":"77093","product":"PE","geo_score":0.322,"address 1":null,"id":"a9ukz0fcdwzb","address":"11600 East Hardy Rd.","geo_precision":"street","state":"TX"},"type":"Feature","geometry":{"type":"Point","coordinates":[-155.0474,19.73071]}},{"properties":{"company":"Atlas Fibre Company","city":"Skokie","zip":"60076-4008","product":"Full Line","geo_score":0.444,"address 1":null,"id":"a9ukz0fzkl1e","address":"3721 West Chase Ave.","geo_precision":"street","state":"IL"},"type":"Feature","geometry":{"type":"Point","coordinates":[-106.303485,39.643179]}},{"properties":{"company":"Auburn Plastics &amp; Rubber Co.","city":"Indianapolis","zip":"46219","product":"Full Line","geo_score":0.444,"address 1":null,"id":"a9ukz0ecr3ai","address":"2432 N. Shadeland Ave.","geo_precision":"street","state":"IN"},"type":"Feature","geometry":{"type":"Point","coordinates":[-106.303485,39.643179]}},{"properties":{"company":"Aurora Technologies, Inc.","city":"Pacific","zip":"63069","product":"PE","geo_score":0.322,"address 1":null,"id":"a9ukz08yj9pf","address":"19 Industrial Drive","geo_precision":"street","state":"MO"},"type":"Feature","geometry":{"type":"Point","coordinates":[-155.0474,19.73071]}},{"properties":{"company":"Badger Plastics &amp; Supply, Inc.","city":"Plover","zip":"54467","product":"PE","geo_score":0.322,"address 1":"PO Box 190","id":"a9ukz02xb4pa","address":"3451 Johnson Ave.","geo_precision":"street","state":"WI"},"type":"Feature","geometry":{"type":"Point","coordinates":[-155.0474,19.73071]}},{"properties":{"company":"Blair Machine &amp; Tool, Inc.","city":"Jacksonville","zip":"32256","product":"Full Line","geo_score":0.444,"address 1":null,"id":"a9ukz0chez53","address":"8665 Phillips Highway","geo_precision":"street","state":"FL"},"type":"Feature","geometry":{"type":"Point","coordinates":[-106.303485,39.643179]}},{"properties":{"company":"Boedeker Plastics","city":"Shiner","zip":"77984","product":"Full Line","geo_score":0.444,"address 1":null,"id":"a9ukz09vegr8","address":"904 West 6th St.","geo_precision":"street","state":"TX"},"type":"Feature","geometry":{"type":"Point","coordinates":[-106.303485,39.643179]}},{"properties":{"company":"CA Lawton Company","city":"DePere","zip":"54115-5430","product":"Full Line","geo_score":0.444,"address 1":null,"id":"a9ukz0a74359","address":"1950 Enterprise Drive","geo_precision":"street","state":"WI"},"type":"Feature","geometry":{"type":"Point","coordinates":[-106.303485,39.643179]}},{"properties":{"company":"Cook Compressor","city":"Louisville","zip":"40201","product":"Full Line","geo_score":0.444,"address 1":"PO Box 1038","id":"a9ukz0ayh130","address":"970 S. 8th St.","geo_precision":"street","state":"KY"},"type":"Feature","geometry":{"type":"Point","coordinates":[-106.303485,39.643179]}},{"properties":{"company":"CMT Materials, Inc.","city":"Attleboro","zip":"02703","product":"Full Line","geo_score":0.444,"address 1":null,"id":"a9ukz02dywlb","address":"107 Frank Mossberg Drive","geo_precision":"street","state":"MA"},"type":"Feature","geometry":{"type":"Point","coordinates":[-106.303485,39.643179]}},{"properties":{"company":"Cope Plastics","city":"Bollingbrook","zip":"60440-3557","product":"Full Line","geo_score":0.444,"address 1":null,"id":"a9ukz0co04dd","address":"One Territorial Court","geo_precision":"street","state":"IL"},"type":"Feature","geometry":{"type":"Point","coordinates":[-106.303485,39.643179]}},{"properties":{"company":"Cope Plastics","city":"Fargo","zip":"58104","product":"Full Line","geo_score":0.444,"address 1":null,"id":"a9ukz03ytsq8","address":"3331 S. University Drive","geo_precision":"street","state":"ND"},"type":"Feature","geometry":{"type":"Point","coordinates":[-106.303485,39.643179]}},{"properties":{"company":"Cope Plastics","city":"Godfrey","zip":"62035","product":"Full Line","geo_score":0.444,"address 1":"PO Box 129","id":"a9ukz038le2i","address":"4441 Industrial Drive","geo_precision":"street","state":"IL"},"type":"Feature","geometry":{"type":"Point","coordinates":[-106.303485,39.643179]}},{"properties":{"company":"Cope Plastics","city":"Hazelwood","zip":"63042","product":"Full Line","geo_score":0.444,"address 1":null,"id":"a9ukz02hm6qv","address":"651 Lambert Pointe Drive","geo_precision":"street","state":"MO"},"type":"Feature","geometry":{"type":"Point","coordinates":[-106.303485,39.643179]}},{"properties":{"company":"Cope Plastics","city":"Hiawatha","zip":"52233","product":"Full Line","geo_score":0.444,"address 1":null,"id":"a9ukz08488ob","address":"920 N. Compton Drive","geo_precision":"street","state":"IA"},"type":"Feature","geometry":{"type":"Point","coordinates":[-106.303485,39.643179]}},{"properties":{"company":"Cope Plastics","city":"Huntsville","zip":"35824","product":"Full Line","geo_score":0.444,"address 1":null,"id":"a9ukz02k79ti","address":"2995 Wall Triana Highway A47","geo_precision":"street","state":"AL"},"type":"Feature","geometry":{"type":"Point","coordinates":[-106.303485,39.643179]}},{"properties":{"company":"Cope Plastics","city":"Kansas City","zip":"66106","product":"Full Line","geo_score":0.444,"address 1":null,"id":"a9ukz04x9285","address":"1521 S. 45th St.","geo_precision":"street","state":"KS"},"type":"Feature","geometry":{"type":"Point","coordinates":[-106.303485,39.643179]}},{"properties":{"company":"Cope Plastics","city":"Maumelle","zip":"72113-6176","product":"Full Line","geo_score":0.444,"address 1":null,"id":"a9ukz0212yvx","address":"1600 Murphy Drive","geo_precision":"street","state":"AR"},"type":"Feature","geometry":{"type":"Point","coordinates":[-106.303485,39.643179]}},{"properties":{"company":"Cope Plastics","city":"Louisville","zip":"40299","product":"Full Line","geo_score":0.444,"address 1":null,"id":"a9ukz0ahzleo","address":"1729 Research Drive","geo_precision":"street","state":"KY"},"type":"Feature","geometry":{"type":"Point","coordinates":[-106.303485,39.643179]}},{"properties":{"company":"Cope Plastics","city":"Memphis","zip":"38134-7666","product":"Full Line","geo_score":0.444,"address 1":"Suite 110","id":"a9ukz0257bty","address":"6399 Shelby View Drive","geo_precision":"street","state":"TN"},"type":"Feature","geometry":{"type":"Point","coordinates":[-106.303485,39.643179]}},{"properties":{"company":"Cope Plastics","city":"Oklahoma City","zip":"73105","product":"Full Line","geo_score":0.444,"address 1":null,"id":"a9ukz03ljzkz","address":"310 NE 31st St.","geo_precision":"street","state":"OK"},"type":"Feature","geometry":{"type":"Point","coordinates":[-106.303485,39.643179]}},{"properties":{"company":"Cope Plastics","city":"Omaha","zip":"68144","product":"Full Line","geo_score":0.444,"address 1":null,"id":"a9ukz0fgn3dh","address":"14535 Grover St.","geo_precision":"street","state":"NE"},"type":"Feature","geometry":{"type":"Point","coordinates":[-106.303485,39.643179]}},{"properties":{"company":"Cope Plastics","city":"East Peoria","zip":"61611","product":"Full Line","geo_score":0.444,"address 1":null,"id":"a9ukz0e8md5q","address":"630 High Point Lane","geo_precision":"street","state":"IL"},"type":"Feature","geometry":{"type":"Point","coordinates":[-106.303485,39.643179]}},{"properties":{"company":"Cope Plastics","city":"Rock Island","zip":"61201","product":"Full Line","geo_score":0.444,"address 1":null,"id":"a9ukz06tiota","address":"8110 42nd St. West","geo_precision":"street","state":"IL"},"type":"Feature","geometry":{"type":"Point","coordinates":[-106.303485,39.643179]}},{"properties":{"company":"Cope Plastics","city":"Vadnais Heights","zip":"55110","product":"Full Line","geo_score":0.444,"address 1":"Suite 150","id":"a9ukz0ecd3a1","address":"980 Bernwood Avenue East","geo_precision":"street","state":"MN"},"type":"Feature","geometry":{"type":"Point","coordinates":[-106.303485,39.643179]}},{"properties":{"company":"Cope Plastics","city":"Topeka","zip":"66609","product":"Full Line","geo_score":0.444,"address 1":null,"id":"a9ukz00gbx6f","address":"1751 SW 41st St.","geo_precision":"street","state":"KS"},"type":"Feature","geometry":{"type":"Point","coordinates":[-106.303485,39.643179]}},{"properties":{"company":"Cope Plastics","city":"Waukesha","zip":"53186","product":"Full Line","geo_score":0.444,"address 1":null,"id":"a9ukz01ongpi","address":"N30 W22377 Green Rd.","geo_precision":"street","state":"WI"},"type":"Feature","geometry":{"type":"Point","coordinates":[-106.303485,39.643179]}},{"properties":{"company":"Crown Plastics","city":"Plymouth","zip":"55441","product":"PE","geo_score":0.322,"address 1":null,"id":"a9ukz04gmif6","address":"12615 16th Ave. N","geo_precision":"street","state":"MN"},"type":"Feature","geometry":{"type":"Point","coordinates":[-155.0474,19.73071]}},{"properties":{"company":"Curbell Plastics","city":"Ashland","zip":"23005-8124","product":"PE","geo_score":0.322,"address 1":"Suite 800","id":"a9ukz01xmsxd","address":"10402 Lakeridge Parkway","geo_precision":"street","state":"VA"},"type":"Feature","geometry":{"type":"Point","coordinates":[-155.0474,19.73071]}},{"properties":{"company":"Curbell Plastics","city":"Moorestown","zip":"08057","product":"Full Line","geo_score":0.444,"address 1":null,"id":"a9ukz0cnoqvx","address":"844 N. Lenola Rd.","geo_precision":"street","state":"NJ"},"type":"Feature","geometry":{"type":"Point","coordinates":[-106.303485,39.643179]}},{"properties":{"company":"Cutting Board Factory","city":"Carbondale","zip":"18407","product":"PE","geo_score":0.322,"address 1":null,"id":"a9ukz06h9loj","address":"10 Enterprise Drive","geo_precision":"street","state":"PA"},"type":"Feature","geometry":{"type":"Point","coordinates":[-155.0474,19.73071]}},{"properties":{"company":"Diversified Plastics","city":"Missoula","zip":"59808","product":"Full Line","geo_score":0.444,"address 1":null,"id":"a9ukz072h9jo","address":"3721 Grant Creek Rd.","geo_precision":"street","state":"MT"},"type":"Feature","geometry":{"type":"Point","coordinates":[-106.303485,39.643179]}},{"properties":{"company":"Drake Plastics, Ltd.","city":"Cypress","zip":"77429","product":"Full Line","geo_score":0.444,"address 1":null,"id":"a9ukz075fpqe","address":"14869 Grant Rd.","geo_precision":"street","state":"TX"},"type":"Feature","geometry":{"type":"Point","coordinates":[-106.303485,39.643179]}},{"properties":{"company":"Dresser-Rand","city":"Olean","zip":"14760-9560","product":"Full Line","geo_score":0.444,"address 1":null,"id":"a9ukz0bcb8o4","address":"500 Paul Clark Drive","geo_precision":"street","state":"NY"},"type":"Feature","geometry":{"type":"Point","coordinates":[-106.303485,39.643179]}},{"properties":{"company":"Dresser-Rand","city":"Seattle","zip":"98108","product":"Full Line","geo_score":0.444,"address 1":null,"id":"a9ukz0b3ehdo","address":"225 South Lucille St.","geo_precision":"street","state":"WA"},"type":"Feature","geometry":{"type":"Point","coordinates":[-106.303485,39.643179]}},{"properties":{"company":"E. Jordan Brookes","city":"Fremont","zip":"94538","product":"Full Line","geo_score":0.444,"address 1":null,"id":"a9ukz0f0o27r","address":"4121 Business Center Drive","geo_precision":"street","state":"CA"},"type":"Feature","geometry":{"type":"Point","coordinates":[-106.303485,39.643179]}},{"properties":{"company":"E. Jordan Brookes","city":"Santa Fe Springs","zip":"90670-4038","product":"Full Line","geo_score":0.444,"address 1":null,"id":"a9ukz08k0w11","address":"10634 Shoemaker Ave.","geo_precision":"street","state":"CA"},"type":"Feature","geometry":{"type":"Point","coordinates":[-106.303485,39.643179]}},{"properties":{"company":"Elastomer Engineering, Inc.","city":"Sioux City","zip":"51101","product":"PE","geo_score":0.322,"address 1":null,"id":"a9ukz0c6o6ul","address":"801 Steuben St.","geo_precision":"street","state":"IA"},"type":"Feature","geometry":{"type":"Point","coordinates":[-155.0474,19.73071]}},{"properties":{"company":"Elliott Co.","city":"Houston","zip":"77043-2498 (77210)","product":"Full Line","geo_score":0.444,"address 1":"PO Box 4366","id":"a9ukz0dnh4g4","address":"2001 W. Sam Houston Pkwy. N.","geo_precision":"street","state":"TX"},"type":"Feature","geometry":{"type":"Point","coordinates":[-106.303485,39.643179]}},{"properties":{"company":"Elliott Co.","city":"Jeannette","zip":"15644","product":"Full Line","geo_score":0.444,"address 1":"PO Box 710","id":"a9ukz04b20x1","address":"901 N. 4th St., Mail Drop 14-21 AP","geo_precision":"street","state":"PA"},"type":"Feature","geometry":{"type":"Point","coordinates":[-106.303485,39.643179]}},{"properties":{"company":"Elliott Co. - Service Warehouse","city":"Jeannette","zip":"15644","product":"Full Line","geo_score":0.444,"address 1":"Route 130","id":"a9ukyzzsy16v","address":"901 N. 4th St., Mail Drop 14-21 AP","geo_precision":"street","state":"PA"},"type":"Feature","geometry":{"type":"Point","coordinates":[-106.303485,39.643179]}},{"properties":{"company":"EMCO Industrial Plastics","city":"Cedar Grove","zip":"07009","product":"Full Line","geo_score":0.444,"address 1":null,"id":"a9ukz0adwqky","address":"99 Commerce Rd.","geo_precision":"street","state":"NJ"},"type":"Feature","geometry":{"type":"Point","coordinates":[-106.303485,39.643179]}},{"properties":{"company":"Eptam","city":"Northfield","zip":"03276","product":"Full Line","geo_score":0.444,"address 1":null,"id":"a9ukz0edbe15","address":"2 Riverside Business Park","geo_precision":"street","state":"NH"},"type":"Feature","geometry":{"type":"Point","coordinates":[-106.303485,39.643179]}},{"properties":{"company":"Eriks USA","city":"Ft. Worth","zip":"76155","product":"Full Line","geo_score":0.444,"address 1":null,"id":"a9ukz0978gsm","address":"15600 Trinity Blvd.","geo_precision":"street","state":"TX"},"type":"Feature","geometry":{"type":"Point","coordinates":[-106.303485,39.643179]}},{"properties":{"company":"Eriks USA","city":"New Berlin","zip":"53151","product":"Full Line","geo_score":0.444,"address 1":null,"id":"a9ukz0ctax7l","address":"5330 S. Emmer Drive","geo_precision":"street","state":"WI"},"type":"Feature","geometry":{"type":"Point","coordinates":[-106.303485,39.643179]}},{"properties":{"company":"ETEC Durawear, Inc.","city":"Birmingham","zip":"35210","product":"PE","geo_score":0.322,"address 1":null,"id":"a9ukz0d3htg1","address":"2598 Alton Rd.","geo_precision":"street","state":"AL"},"type":"Feature","geometry":{"type":"Point","coordinates":[-155.0474,19.73071]}},{"properties":{"company":"Exotic Rubber &amp; Plastics","city":"Freeland","zip":"48623","product":"Full Line","geo_score":0.444,"address 1":null,"id":"a9ukz07xeq6z","address":"10359 Hercules Drive","geo_precision":"street","state":"MI"},"type":"Feature","geometry":{"type":"Point","coordinates":[-106.303485,39.643179]}},{"properties":{"company":"Exotic Rubber &amp; Plastics","city":"Farmington Hills","zip":"48335","product":"Full Line","geo_score":0.444,"address 1":null,"id":"a9ukz0ezpb88","address":"34700 Grand River Ave.","geo_precision":"street","state":"MI"},"type":"Feature","geometry":{"type":"Point","coordinates":[-106.303485,39.643179]}},{"properties":{"company":"Fabco Plastics Wholesale Ltd.","city":"Maple, ON","zip":"L6A1T3","product":"PE","geo_score":0.322,"address 1":null,"id":"a9ukz08d91om","address":"2175-A Teston Rd.","geo_precision":"street","state":"Canada"},"type":"Feature","geometry":{"type":"Point","coordinates":[-155.0474,19.73071]}},{"properties":{"company":"FB Wright Co.","city":"Bridgeville","zip":"15017","product":"PE","geo_score":0.322,"address 1":null,"id":"a9ukz0fs2oky","address":"98 Vanadium Rd.","geo_precision":"street","state":"PA"},"type":"Feature","geometry":{"type":"Point","coordinates":[-155.0474,19.73071]}},{"properties":{"company":"Alro Steel","city":"Livonia","zip":"48180","product":"Full Line","geo_score":0.444,"address 1":null,"id":"a9ukz00kkklw","address":"34401 Schoucraft","geo_precision":"street","state":"MI"},"type":"Feature","geometry":{"type":"Point","coordinates":[-106.303485,39.643179]}},{"properties":{"company":"FB Wright Co.","city":"Hamilton","zip":"45011","product":"PE","geo_score":0.322,"address 1":null,"id":"a9ukz00ewy01","address":"4689 Ashley Drive","geo_precision":"street","state":"OH"},"type":"Feature","geometry":{"type":"Point","coordinates":[-155.0474,19.73071]}},{"properties":{"company":"FB Wright Co.","city":"Dearborn","zip":"48120","product":"PE","geo_score":0.322,"address 1":null,"id":"a9ukz037szg7","address":"9999 Mercier St.","geo_precision":"street","state":"MI"},"type":"Feature","geometry":{"type":"Point","coordinates":[-155.0474,19.73071]}},{"properties":{"company":"FB Wright Co.","city":"Kentwood","zip":"49512","product":"PE","geo_score":0.322,"address 1":null,"id":"a9ukz02k3e18","address":"3854 44th St. SE","geo_precision":"street","state":"MI"},"type":"Feature","geometry":{"type":"Point","coordinates":[-155.0474,19.73071]}},{"properties":{"company":"FB Wright Co.","city":"Saginaw","zip":"48601","product":"PE","geo_score":0.322,"address 1":null,"id":"a9ukz0c35dxn","address":"3424 East St.","geo_precision":"street","state":"MI"},"type":"Feature","geometry":{"type":"Point","coordinates":[-155.0474,19.73071]}},{"properties":{"company":"FKI Logistex, Inc.","city":"Danville","zip":"40422","product":"PE","geo_score":0.322,"address 1":null,"id":"a9ukyzzwk5r9","address":"1524 Lebanon Road","geo_precision":"street","state":"KY"},"type":"Feature","geometry":{"type":"Point","coordinates":[-155.0474,19.73071]}},{"properties":{"company":"Flexicon, Inc.","city":"Bethlehem","zip":"18020-8006","product":"Full Line","geo_score":0.444,"address 1":null,"id":"a9ukyzzmdgi4","address":"2400 Emrick Blvd.","geo_precision":"street","state":"PA"},"type":"Feature","geometry":{"type":"Point","coordinates":[-106.303485,39.643179]}},{"properties":{"company":"FLN Mar Rubber &amp; Plastics","city":"Holyoke","zip":"01041","product":"PE","geo_score":0.322,"address 1":null,"id":"a9ukz05ihss4","address":"102 Cabot St.","geo_precision":"street","state":"MA"},"type":"Feature","geometry":{"type":"Point","coordinates":[-155.0474,19.73071]}},{"properties":{"company":"France Compressor Products","city":"Brantford, ON","zip":"N3T5P9","product":"Full Line","geo_score":0.444,"address 1":"PO Box 636","id":"a9ukz04u3zpv","address":"124 Shaver St.","geo_precision":"street","state":"Canada"},"type":"Feature","geometry":{"type":"Point","coordinates":[-106.303485,39.643179]}},{"properties":{"company":"Garland Mfg. Co.","city":"Saco","zip":"04072","product":"PE","geo_score":0.322,"address 1":"PO Box 538","id":"a9ukz0blrse5","address":"Industrial Park Rd. N","geo_precision":"street","state":"ME"},"type":"Feature","geometry":{"type":"Point","coordinates":[-155.0474,19.73071]}},{"properties":{"company":"GE Infrastructure Sensing, Inc.","city":"Schenectady","zip":"12301","product":"Full Line","geo_score":0.444,"address 1":null,"id":"a9ukz03ridjk","address":"PO Box 810","geo_precision":"street","state":"NY"},"type":"Feature","geometry":{"type":"Point","coordinates":[-106.303485,39.643179]}},{"properties":{"company":"Gemini Plastics Supply, Inc.","city":"DePere","zip":"54115-5337","product":"Full Line","geo_score":0.444,"address 1":"PO Box 5337","id":"a9ukz06pj3d9","address":"1333 Viking Lane","geo_precision":"street","state":"WI"},"type":"Feature","geometry":{"type":"Point","coordinates":[-106.303485,39.643179]}},{"properties":{"company":"General Rubber &amp; Plastics","city":"Bristol","zip":"37620","product":"PE","geo_score":0.322,"address 1":null,"id":"a9ukz029j6vc","address":"2120 Industrial Blvd.","geo_precision":"street","state":"TN"},"type":"Feature","geometry":{"type":"Point","coordinates":[-155.0474,19.73071]}},{"properties":{"company":"General Rubber &amp; Plastics","city":"Elizabethtown","zip":"42701","product":"PE","geo_score":0.322,"address 1":null,"id":"a9ukz0304e64","address":"205 Corporate Drive","geo_precision":"street","state":"KY"},"type":"Feature","geometry":{"type":"Point","coordinates":[-155.0474,19.73071]}},{"properties":{"company":"General Rubber &amp; Plastics","city":"Evansville","zip":"47711","product":"PE","geo_score":0.322,"address 1":"Station A","id":"a9ukz0g1u1n4","address":"1902 N. Kentucky Ave.","geo_precision":"street","state":"IN"},"type":"Feature","geometry":{"type":"Point","coordinates":[-155.0474,19.73071]}},{"properties":{"company":"General Rubber &amp; Plastics","city":"Paducah","zip":"42001","product":"PE","geo_score":0.322,"address 1":null,"id":"a9ukz0dmu53h","address":"3840 Industrial Drive","geo_precision":"street","state":"KY"},"type":"Feature","geometry":{"type":"Point","coordinates":[-155.0474,19.73071]}},{"properties":{"company":"General Rubber &amp; Plastics","city":"Louisville","zip":"40213 (40217)","product":"PE","geo_score":0.322,"address 1":"PO Box 17204","id":"a9ukz00czs51","address":"3118 S. Preston St.","geo_precision":"street","state":"KY"},"type":"Feature","geometry":{"type":"Point","coordinates":[-155.0474,19.73071]}},{"properties":{"company":"General Rubber &amp; Plastics","city":"London","zip":"40741","product":"PE","geo_score":0.322,"address 1":null,"id":"a9ukz0ctgiuf","address":"51 Morentown Rd. East","geo_precision":"street","state":"KY"},"type":"Feature","geometry":{"type":"Point","coordinates":[-155.0474,19.73071]}},{"properties":{"company":"General Rubber &amp; Plastics","city":"Lexington","zip":"40511 (40583)","product":"PE","geo_score":0.322,"address 1":"PO Box 12737","id":"a9ukz0ap48tf","address":"1016 Majuan Rd.","geo_precision":"street","state":"KY"},"type":"Feature","geometry":{"type":"Point","coordinates":[-155.0474,19.73071]}},{"properties":{"company":"General Rubber &amp; Plastics","city":"Florence","zip":"41042","product":"PE","geo_score":0.322,"address 1":null,"id":"a9ukz08yvenb","address":"7745 Foundation Drive","geo_precision":"street","state":"KY"},"type":"Feature","geometry":{"type":"Point","coordinates":[-155.0474,19.73071]}},{"properties":{"company":"George Fischer, Inc.","city":"Tustin","zip":"92780-7285","product":"Full Line","geo_score":0.444,"address 1":null,"id":"a9ukz0ek2ilp","address":"2882 Dow Ave.","geo_precision":"street","state":"CA"},"type":"Feature","geometry":{"type":"Point","coordinates":[-106.303485,39.643179]}},{"properties":{"company":"Groupe Poly Alto","city":"Quebec, QC","zip":"G2C2J2","product":"PE","geo_score":0.322,"address 1":null,"id":"a9ukz0c5i2sd","address":"3825 Rue Jean Marchand","geo_precision":"street","state":"Canada"},"type":"Feature","geometry":{"type":"Point","coordinates":[-155.0474,19.73071]}},{"properties":{"company":"HP Manufacturing","city":"Cleveland","zip":"44115","product":"Full Line","geo_score":0.444,"address 1":null,"id":"a9ukz0fidju1","address":"3705 Carnegie Ave.","geo_precision":"street","state":"OH"},"type":"Feature","geometry":{"type":"Point","coordinates":[-106.303485,39.643179]}},{"properties":{"company":"Hi-Tech Seals","city":"Edmonton, AB","zip":"T6E6R5","product":"Full Line","geo_score":0.444,"address 1":null,"id":"a9ukz0g0rjmy","address":"9211 42st Ave.","geo_precision":"street","state":"Canada"},"type":"Feature","geometry":{"type":"Point","coordinates":[-106.303485,39.643179]}},{"properties":{"company":"Houston Dynamics","city":"Houston","zip":"77012-3704","product":"Full Line","geo_score":0.444,"address 1":null,"id":"a9ukz0fnr3lz","address":"8150 Lawndale","geo_precision":"street","state":"TX"},"type":"Feature","geometry":{"type":"Point","coordinates":[-106.303485,39.643179]}},{"properties":{"company":"Industrial Plastics","city":"Woburn","zip":"01801","product":"PE","geo_score":0.322,"address 1":null,"id":"a9ukz0b85d4g","address":"9 Presidential Way","geo_precision":"street","state":"MA"},"type":"Feature","geometry":{"type":"Point","coordinates":[-155.0474,19.73071]}},{"properties":{"company":"Industrial Products Distributors","city":"Seymour","zip":"47274","product":"Full Line","geo_score":0.444,"address 1":null,"id":"a9ukz0a642tn","address":"1003 C. West Brown St.","geo_precision":"street","state":"IN"},"type":"Feature","geometry":{"type":"Point","coordinates":[-106.303485,39.643179]}},{"properties":{"company":"Insulfab","city":"Spartansburg","zip":"29301","product":"Full Line","geo_score":0.444,"address 1":null,"id":"a9ukz05i43xm","address":"834 Hayne St.","geo_precision":"street","state":"SC"},"type":"Feature","geometry":{"type":"Point","coordinates":[-106.303485,39.643179]}},{"properties":{"company":"Interstate Plastics","city":"Pelham","zip":"35124","product":"Full Line","geo_score":0.444,"address 1":null,"id":"a9ukz05kbd20","address":"122 Corporate Way","geo_precision":"street","state":"AL"},"type":"Feature","geometry":{"type":"Point","coordinates":[-106.303485,39.643179]}},{"properties":{"company":"Interstate Plastics","city":"Austin","zip":"78721","product":"Full Line","geo_score":0.444,"address 1":"Suite 790","id":"a9ukz095m23p","address":"3417 Ed Bluestein Blvd.","geo_precision":"street","state":"TX"},"type":"Feature","geometry":{"type":"Point","coordinates":[-106.303485,39.643179]}},{"properties":{"company":"Interstate Plastics","city":"Boise","zip":"83709","product":"Full Line","geo_score":0.444,"address 1":null,"id":"a9ukz099wrfa","address":"2201 S. Centurion Place","geo_precision":"street","state":"ID"},"type":"Feature","geometry":{"type":"Point","coordinates":[-106.303485,39.643179]}},{"properties":{"company":"Interstate Plastics","city":"Kent","zip":"98032","product":"Full Line","geo_score":0.444,"address 1":null,"id":"a9ukz05loyut","address":"22435 68th Ave. South","geo_precision":"street","state":"WA"},"type":"Feature","geometry":{"type":"Point","coordinates":[-106.303485,39.643179]}},{"properties":{"company":"Interstate Plastics","city":"Sacramento","zip":"95815","product":"Full Line","geo_score":0.444,"address 1":null,"id":"a9ukz0e2m84e","address":"330 Commerce Circle","geo_precision":"street","state":"CA"},"type":"Feature","geometry":{"type":"Point","coordinates":[-106.303485,39.643179]}},{"properties":{"company":"Interstate Plastics","city":"San Leandro","zip":"94577","product":"Full Line","geo_score":0.444,"address 1":null,"id":"a9ukz06lmait","address":"2065 Williams St.","geo_precision":"street","state":"CA"},"type":"Feature","geometry":{"type":"Point","coordinates":[-106.303485,39.643179]}},{"properties":{"company":"JMS Plastics Supply, Inc.","city":"Neptune","zip":"07753","product":"PE","geo_score":0.322,"address 1":"3535 Rte. 66, Bldg. 4","id":"a9ukz08z4hzh","address":"Div. of JMS Berkshire Resources","geo_precision":"street","state":"NJ"},"type":"Feature","geometry":{"type":"Point","coordinates":[-155.0474,19.73071]}},{"properties":{"company":"Johnston Industrial Plastics","city":"Edmonton, AB","zip":"T6B2L1","product":"Full Line","geo_score":0.444,"address 1":null,"id":"a9ukz0f4ntsp","address":"4724 91ST Avenue","geo_precision":"street","state":"Canada"},"type":"Feature","geometry":{"type":"Point","coordinates":[-106.303485,39.643179]}},{"properties":{"company":"Johnston Industrial Plastics","city":"Lachine, QC","zip":"H8T3J7","product":"Full Line","geo_score":0.444,"address 1":null,"id":"a9ukz078lca0","address":"1916 32nd Ave.","geo_precision":"street","state":"Canada"},"type":"Feature","geometry":{"type":"Point","coordinates":[-106.303485,39.643179]}},{"properties":{"company":"Johnston Industrial Plastics","city":"Toronto, ON","zip":"M8V2K3","product":"Full Line","geo_score":0.444,"address 1":null,"id":"a9ukz03hyyze","address":"20 Fleeceline Rd.","geo_precision":"street","state":"Canada"},"type":"Feature","geometry":{"type":"Point","coordinates":[-106.303485,39.643179]}},{"properties":{"company":"Johnston Industrial Plastics","city":"Winnipeg, MB","zip":"R2X2W6","product":"Full Line","geo_score":0.444,"address 1":null,"id":"a9ukz00i8n95","address":"81 Paramount Rd.","geo_precision":"street","state":"Canada"},"type":"Feature","geometry":{"type":"Point","coordinates":[-106.303485,39.643179]}},{"properties":{"company":"Jomar Limitada Importadora","city":"Santiago","zip":null,"product":"PE","geo_score":0.322,"address 1":null,"id":"a9ukz057aepr","address":"Y Comercializadora","geo_precision":"street","state":"Chile"},"type":"Feature","geometry":{"type":"Point","coordinates":[-155.0474,19.73071]}},{"properties":{"company":"K&amp;L Precision Plastics","city":"Richardson","zip":"75081","product":"Full Line","geo_score":0.444,"address 1":null,"id":"a9ukz0c8f7jn","address":"410 N. Grove Rd.","geo_precision":"street","state":"TX"},"type":"Feature","geometry":{"type":"Point","coordinates":[-106.303485,39.643179]}},{"properties":{"company":"King &amp; Bungard Lumber Co., Inc.","city":"Markleton","zip":"15551","product":"PE","geo_score":0.322,"address 1":null,"id":"a9ukz059tm9b","address":"668 Casselman Rd.","geo_precision":"street","state":"PA"},"type":"Feature","geometry":{"type":"Point","coordinates":[-155.0474,19.73071]}},{"properties":{"company":"Konrady Plastics, Inc.","city":"Portage","zip":"46368","product":"Full Line","geo_score":0.444,"address 1":null,"id":"a9ukz0934hfo","address":"1780 Coppes Ct.","geo_precision":"street","state":"IN"},"type":"Feature","geometry":{"type":"Point","coordinates":[-106.303485,39.643179]}},{"properties":{"company":"Laird Plastics","city":"Denver","zip":"80219","product":"Add","geo_score":0.452,"address 1":"Suite G","id":"a9ukz07qyyz7","address":"700 W. 48th Ave.","geo_precision":"street","state":"CO"},"type":"Feature","geometry":{"type":"Point","coordinates":[-76.329003,39.62475]}},{"properties":{"company":"Laird Plastics","city":"Lousiville","zip":"40228","product":"Full Line","geo_score":0.444,"address 1":null,"id":"a9ukz01me4lr","address":"5412 Shepherdsville Rd.","geo_precision":"street","state":"KY"},"type":"Feature","geometry":{"type":"Point","coordinates":[-106.303485,39.643179]}},{"properties":{"company":"Laird Plastics","city":"Maryland Heights","zip":"63043","product":"Full Line","geo_score":0.444,"address 1":null,"id":"a9ukz0f5xxk4","address":"3128 Riverport Tech Center Drive","geo_precision":"street","state":"MO"},"type":"Feature","geometry":{"type":"Point","coordinates":[-106.303485,39.643179]}},{"properties":{"company":"Laird Plastics","city":"Stowe","zip":"44224","product":"Full Line","geo_score":0.444,"address 1":null,"id":"a9ukz0fac9f1","address":"4700 Hudson Drive","geo_precision":"street","state":"OH"},"type":"Feature","geometry":{"type":"Point","coordinates":[-106.303485,39.643179]}},{"properties":{"company":"Laird Plastics","city":"Austell","zip":"30168","product":"Full Line","geo_score":0.444,"address 1":"Suite 100","id":"a9ukz007680e","address":"8110 Troon Circle","geo_precision":"street","state":"GA"},"type":"Feature","geometry":{"type":"Point","coordinates":[-106.303485,39.643179]}},{"properties":{"company":"Laird Plastics","city":"Austin","zip":"78758","product":"PE","geo_score":0.322,"address 1":null,"id":"a9ukz0bkeamr","address":"2200 Denton Drive #103","geo_precision":"street","state":"TX"},"type":"Feature","geometry":{"type":"Point","coordinates":[-155.0474,19.73071]}},{"properties":{"company":"Laird Plastics","city":"Baltimore","zip":"21237","product":"Full Line","geo_score":0.444,"address 1":null,"id":"a9ukz0ahyjfi","address":"8991 Yellow Brick Rd.","geo_precision":"street","state":"MD"},"type":"Feature","geometry":{"type":"Point","coordinates":[-106.303485,39.643179]}},{"properties":{"company":"Laird Plastics","city":"Calgary, AB","zip":"T2A6T2","product":"PE","geo_score":0.322,"address 1":null,"id":"a9ukz060nm8i","address":"2926 3rd Ave. NE","geo_precision":"street","state":"Canada"},"type":"Feature","geometry":{"type":"Point","coordinates":[-155.0474,19.73071]}},{"properties":{"company":"Laird Plastics","city":"Charlotte","zip":"28269","product":"PE","geo_score":0.322,"address 1":null,"id":"a9ukz0b52vrl","address":"6100 F. Harris Technical Blvd.","geo_precision":"street","state":"NC"},"type":"Feature","geometry":{"type":"Point","coordinates":[-155.0474,19.73071]}},{"properties":{"company":"Laird Plastics","city":"Chelmsford","zip":"01824","product":"Full Line","geo_score":0.444,"address 1":null,"id":"a9ukz02upb9g","address":"101 Brick Kiln Rd. #3","geo_precision":"street","state":"MA"},"type":"Feature","geometry":{"type":"Point","coordinates":[-106.303485,39.643179]}},{"properties":{"company":"Laird Plastics","city":"Bensenville","zip":"60106","product":"Full Line","geo_score":0.444,"address 1":null,"id":"a9ukz09ipxos","address":"1141 Ellis Ave.","geo_precision":"street","state":"IL"},"type":"Feature","geometry":{"type":"Point","coordinates":[-106.303485,39.643179]}},{"properties":{"company":"Laird Plastics","city":"Columbus","zip":"43228","product":"Full Line","geo_score":0.444,"address 1":null,"id":"a9ukz02ycogp","address":"717 Hadley Drive","geo_precision":"street","state":"OH"},"type":"Feature","geometry":{"type":"Point","coordinates":[-106.303485,39.643179]}},{"properties":{"company":"Laird Plastics","city":"Dallas","zip":"75220","product":"Add","geo_score":0.452,"address 1":null,"id":"a9ukz03elk02","address":"10737 King William Drive","geo_precision":"street","state":"TX"},"type":"Feature","geometry":{"type":"Point","coordinates":[-76.329003,39.62475]}},{"properties":{"company":"Laird Plastics","city":"Dayton","zip":"45404","product":"Full Line","geo_score":0.444,"address 1":null,"id":"a9ukz0d5gd5o","address":"2066 Valley St.","geo_precision":"street","state":"OH"},"type":"Feature","geometry":{"type":"Point","coordinates":[-106.303485,39.643179]}},{"properties":{"company":"Laird Plastics","city":"Warren","zip":"48089-1539","product":"Full Line","geo_score":0.444,"address 1":null,"id":"a9ukz010l86t","address":"26403 Groesbeck Highway","geo_precision":"street","state":"MI"},"type":"Feature","geometry":{"type":"Point","coordinates":[-106.303485,39.643179]}},{"properties":{"company":"Laird Plastics","city":"Edison","zip":"08837","product":"Full Line","geo_score":0.444,"address 1":"Raritan Center Business Park","id":"a9ukz0144fla","address":"135 Fieldcrest Ave.","geo_precision":"street","state":"NJ"},"type":"Feature","geometry":{"type":"Point","coordinates":[-106.303485,39.643179]}},{"properties":{"company":"Laird Plastics","city":"Elk Grove","zip":"95758","product":"PE","geo_score":0.322,"address 1":null,"id":"a9ukz04vmt0z","address":"3200 Dwight Road #500","geo_precision":"street","state":"CA"},"type":"Feature","geometry":{"type":"Point","coordinates":[-155.0474,19.73071]}},{"properties":{"company":"Laird Plastics","city":"Grand Rapids","zip":"49512","product":"Full Line","geo_score":0.444,"address 1":"Suite 309","id":"a9ukz00h17r1","address":"3839 East Paris Ave. SE","geo_precision":"street","state":"MI"},"type":"Feature","geometry":{"type":"Point","coordinates":[-106.303485,39.643179]}},{"properties":{"company":"Laird Plastics","city":"Enfield","zip":"06082","product":"Full Line","geo_score":0.444,"address 1":null,"id":"a9ukz07jyh81","address":"135 Freshwater Blvd.","geo_precision":"street","state":"CT"},"type":"Feature","geometry":{"type":"Point","coordinates":[-106.303485,39.643179]}},{"properties":{"company":"Laird Plastics","city":"Houston","zip":"77018","product":"Add","geo_score":0.452,"address 1":null,"id":"a9ukz0g2meum","address":"555 Garden Oaks Blvd.","geo_precision":"street","state":"TX"},"type":"Feature","geometry":{"type":"Point","coordinates":[-76.329003,39.62475]}},{"properties":{"company":"Laird Plastics","city":"Indianapolis","zip":"46226","product":"Full Line","geo_score":0.444,"address 1":null,"id":"a9ukyzznfa4u","address":"3131 N. Franklin Rd.","geo_precision":"street","state":"IN"},"type":"Feature","geometry":{"type":"Point","coordinates":[-106.303485,39.643179]}},{"properties":{"company":"Laird Plastics","city":"Kansas City","zip":"64117","product":"Full Line","geo_score":0.444,"address 1":"Suite C","id":"a9ukz0cppp2b","address":"3901 NE 33rd Terrace","geo_precision":"street","state":"MO"},"type":"Feature","geometry":{"type":"Point","coordinates":[-106.303485,39.643179]}},{"properties":{"company":"Laird Plastics","city":"Las Vegas","zip":"89119","product":"PE","geo_score":0.322,"address 1":"Suite C","id":"a9ukz0bbwqsx","address":"1151 Grier Drive","geo_precision":"street","state":"NV"},"type":"Feature","geometry":{"type":"Point","coordinates":[-155.0474,19.73071]}},{"properties":{"company":"Laird Plastics","city":"DeForest","zip":"53532","product":"Full Line","geo_score":0.444,"address 1":"Unit C","id":"a9ukz0enazll","address":"5969 Haase Rd.","geo_precision":"street","state":"WI"},"type":"Feature","geometry":{"type":"Point","coordinates":[-106.303485,39.643179]}},{"properties":{"company":"Laird Plastics","city":"Miami","zip":"33169","product":"Full Line","geo_score":0.444,"address 1":null,"id":"a9ukz0510gzy","address":"15825 NW 15 Avenue","geo_precision":"street","state":"FL"},"type":"Feature","geometry":{"type":"Point","coordinates":[-106.303485,39.643179]}},{"properties":{"company":"Laird Plastics","city":"Arden Hills","zip":"55112","product":"Full Line","geo_score":0.444,"address 1":null,"id":"a9ukz0b3sbnr","address":"4300 Round Lake Rd.","geo_precision":"street","state":"MN"},"type":"Feature","geometry":{"type":"Point","coordinates":[-106.303485,39.643179]}},{"properties":{"company":"Laird Plastics","city":"Moncton, NB","zip":"E1E1E4","product":"PE","geo_score":0.322,"address 1":null,"id":"a9ukz04ys300","address":"155 Henri Dunant St.","geo_precision":"street","state":"Canada"},"type":"Feature","geometry":{"type":"Point","coordinates":[-155.0474,19.73071]}},{"properties":{"company":"Laird Plastics","city":"Ville D'Anjou, QC","zip":"H1J3A9","product":"PE","geo_score":0.322,"address 1":null,"id":"a9ukz02wytq3","address":"9220 Boul Des Sciences","geo_precision":"street","state":"Canada"},"type":"Feature","geometry":{"type":"Point","coordinates":[-155.0474,19.73071]}},{"properties":{"company":"Laird Plastics","city":"Westbury","zip":"11590","product":"Full Line","geo_score":0.444,"address 1":null,"id":"a9ukz01ju0l0","address":"123 Fost St.","geo_precision":"street","state":"NY"},"type":"Feature","geometry":{"type":"Point","coordinates":[-106.303485,39.643179]}},{"properties":{"company":"Laird Plastics","city":"Orlando","zip":"32811","product":"Full Line","geo_score":0.444,"address 1":"#114","id":"a9ukz01nukhw","address":"4240 LB McLeod Rd.","geo_precision":"street","state":"FL"},"type":"Feature","geometry":{"type":"Point","coordinates":[-106.303485,39.643179]}},{"properties":{"company":"Laird Plastics","city":"Ottawa, ON","zip":"K1G0Y9","product":"PE","geo_score":0.322,"address 1":null,"id":"a9ukz0a46axo","address":"Units #6 &amp; #7","geo_precision":"street","state":"Canada"},"type":"Feature","geometry":{"type":"Point","coordinates":[-155.0474,19.73071]}},{"properties":{"company":"Laird Plastics","city":"Bristol","zip":"19007","product":"Full Line","geo_score":0.444,"address 1":null,"id":"a9ukz0c5qrss","address":"211 Sinclair St.","geo_precision":"street","state":"PA"},"type":"Feature","geometry":{"type":"Point","coordinates":[-106.303485,39.643179]}},{"properties":{"company":"Laird Plastics","city":"Phoenix","zip":"85004","product":"Add","geo_score":0.452,"address 1":null,"id":"a9ukyzzyk8vv","address":"301 E. Watkins Drive","geo_precision":"street","state":"AZ"},"type":"Feature","geometry":{"type":"Point","coordinates":[-76.329003,39.62475]}},{"properties":{"company":"Laird Plastics","city":"Gibsonia","zip":"15044","product":"Full Line","geo_score":0.444,"address 1":null,"id":"a9ukz01zbteu","address":"4384 Gibsonia Rd.","geo_precision":"street","state":"PA"},"type":"Feature","geometry":{"type":"Point","coordinates":[-106.303485,39.643179]}},{"properties":{"company":"Laird Plastics","city":"Portland","zip":"97202","product":"Full Line","geo_score":0.444,"address 1":null,"id":"a9ukz0dp8thl","address":"2718 SE Raymond St.","geo_precision":"street","state":"OR"},"type":"Feature","geometry":{"type":"Point","coordinates":[-106.303485,39.643179]}},{"properties":{"company":"Laird Plastics","city":"Saint Foy, QC","zip":"G1X4G3","product":"PE","geo_score":0.322,"address 1":null,"id":"a9ukz08dky9k","address":"2930 Rue Watt","geo_precision":"street","state":"Canada"},"type":"Feature","geometry":{"type":"Point","coordinates":[-155.0474,19.73071]}},{"properties":{"company":"Laird Plastics","city":"Rochester","zip":"14606","product":"Full Line","geo_score":0.444,"address 1":null,"id":"a9ukz04gyuf1","address":"1640 Emerson St.","geo_precision":"street","state":"NY"},"type":"Feature","geometry":{"type":"Point","coordinates":[-106.303485,39.643179]}},{"properties":{"company":"Laird Plastics","city":"Salt Lake City","zip":"84104","product":"Full Line","geo_score":0.444,"address 1":"Suite 100","id":"a9ukz0ar5vfa","address":"1232 S. Gladiola St.","geo_precision":"street","state":"UT"},"type":"Feature","geometry":{"type":"Point","coordinates":[-106.303485,39.643179]}},{"properties":{"company":"Laird Plastics","city":"San Antonio","zip":"78217","product":"Add","geo_score":0.452,"address 1":null,"id":"a9ukz0aejs21","address":"4646 Perrin Creek Drive","geo_precision":"street","state":"TX"},"type":"Feature","geometry":{"type":"Point","coordinates":[-76.329003,39.62475]}},{"properties":{"company":"Laird Plastics","city":"Santa Fe Springs","zip":"90670","product":"PE","geo_score":0.322,"address 1":null,"id":"a9ukz0fifqs2","address":"8708 Dice Rd.","geo_precision":"street","state":"CA"},"type":"Feature","geometry":{"type":"Point","coordinates":[-155.0474,19.73071]}},{"properties":{"company":"Laird Plastics","city":"Seattle","zip":"98108","product":"Add","geo_score":0.452,"address 1":null,"id":"a9ukz0agga89","address":"650 South Industrial Way","geo_precision":"street","state":"WA"},"type":"Feature","geometry":{"type":"Point","coordinates":[-76.329003,39.62475]}},{"properties":{"company":"Laird Plastics","city":"Spokane","zip":"99212","product":"Add","geo_score":0.452,"address 1":null,"id":"a9ukz098ylqa","address":"N. 1521 Thierman St.","geo_precision":"street","state":"WA"},"type":"Feature","geometry":{"type":"Point","coordinates":[-76.329003,39.62475]}},{"properties":{"company":"Laird Plastics","city":"Surrey, BC","zip":"V4N4G1","product":"Full Line","geo_score":0.444,"address 1":"Unit # B5","id":"a9ukz0casj4f","address":"9275 194th St.","geo_precision":"street","state":"Canada"},"type":"Feature","geometry":{"type":"Point","coordinates":[-106.303485,39.643179]}},{"properties":{"company":"Laird Plastics","city":"E. Syracuse","zip":"13057","product":"Full Line","geo_score":0.444,"address 1":null,"id":"a9ukz0edtlgl","address":"18 Corporate Circle","geo_precision":"street","state":"NY"},"type":"Feature","geometry":{"type":"Point","coordinates":[-106.303485,39.643179]}},{"properties":{"company":"Laird Plastics","city":"Tampa","zip":"33619","product":"Full Line","geo_score":0.444,"address 1":null,"id":"a9ukz09mdzd2","address":"8320 E. Adamo, #12","geo_precision":"street","state":"FL"},"type":"Feature","geometry":{"type":"Point","coordinates":[-106.303485,39.643179]}},{"properties":{"company":"Laird Plastics","city":"Mississauga, ON","zip":"L5T2Y6","product":"PE","geo_score":0.322,"address 1":null,"id":"a9ukz00fprox","address":"75 Aventura Court","geo_precision":"street","state":"Canada"},"type":"Feature","geometry":{"type":"Point","coordinates":[-155.0474,19.73071]}},{"properties":{"company":"Laird Plastics","city":"Winnipeg, MB","zip":"R2X2V7","product":"PE","geo_score":0.322,"address 1":null,"id":"a9ukz040t914","address":"8 Plymouth St.","geo_precision":"street","state":"Canada"},"type":"Feature","geometry":{"type":"Point","coordinates":[-155.0474,19.73071]}},{"properties":{"company":"Lake Country Corp.","city":"Mayville","zip":"53050","product":"PE","geo_score":0.322,"address 1":null,"id":"a9ukz00gjd06","address":"605 Horicon St.","geo_precision":"street","state":"WI"},"type":"Feature","geometry":{"type":"Point","coordinates":[-155.0474,19.73071]}},{"properties":{"company":"Laminated Plastics","city":"Billerica","zip":"01862","product":"Full Line","geo_score":0.444,"address 1":null,"id":"a9ukz010g66m","address":"7 Ececutive Park Drive","geo_precision":"street","state":"MA"},"type":"Feature","geometry":{"type":"Point","coordinates":[-106.303485,39.643179]}},{"properties":{"company":"Lehigh Valley Plastics","city":"Bethlehem","zip":"18017","product":"Full Line","geo_score":0.444,"address 1":null,"id":"a9ukz0c6cbnj","address":"187 North Commerce Way","geo_precision":"street","state":"PA"},"type":"Feature","geometry":{"type":"Point","coordinates":[-106.303485,39.643179]}},{"properties":{"company":"Linatex Corp.","city":"Gallatin","zip":"37066","product":"PE","geo_score":0.322,"address 1":null,"id":"a9ukz0ex05y5","address":"1550 Airport Rd.","geo_precision":"street","state":"TN"},"type":"Feature","geometry":{"type":"Point","coordinates":[-155.0474,19.73071]}},{"properties":{"company":"Link Tech, Inc.","city":"Bangor","zip":"49013","product":"PE","geo_score":0.322,"address 1":null,"id":"a9ukz04z34sh","address":"59648 M 43 Highway","geo_precision":"street","state":"MI"},"type":"Feature","geometry":{"type":"Point","coordinates":[-155.0474,19.73071]}},{"properties":{"company":"Maljohn Co., Ltd.","city":"Hannon, ON","zip":"L0R1P0","product":"PE","geo_score":0.322,"address 1":null,"id":"a9ukz01qglt4","address":"183 Hendershot Rd., RR1","geo_precision":"street","state":"Canada"},"type":"Feature","geometry":{"type":"Point","coordinates":[-155.0474,19.73071]}},{"properties":{"company":"Martin Sprocket &amp; Gears","city":"Danielsville","zip":"18038-2067","product":"Full Line","geo_score":0.444,"address 1":null,"id":"a9ukz01w5dm7","address":"3376 Delps Rd.","geo_precision":"street","state":"PA"},"type":"Feature","geometry":{"type":"Point","coordinates":[-106.303485,39.643179]}},{"properties":{"company":"Maxi Lift, Inc.","city":"Addison","zip":"75001","product":"PE","geo_score":0.322,"address 1":"PO Box 700008","id":"a9ukz0a9qfaj","address":"16400 Midway Rd.","geo_precision":"street","state":"TX"},"type":"Feature","geometry":{"type":"Point","coordinates":[-155.0474,19.73071]}},{"properties":{"company":"Maxon Lift","city":"Tijuane, Baja","zip":null,"product":"Full Line","geo_score":0.444,"address 1":"Parque Ind'l El Florido","id":"a9ukz03qfnx8","address":"BulevarInsurgentes #20541","geo_precision":"street","state":"CA, Mexico"},"type":"Feature","geometry":{"type":"Point","coordinates":[-106.303485,39.643179]}},{"properties":{"company":"McMaster-Carr","city":"Atlanta","zip":"30336-2852","product":"Full Line","geo_score":0.444,"address 1":null,"id":"a9ukz00qsccg","address":"6100 Fulton Industrial Blvd.","geo_precision":"street","state":"GA"},"type":"Feature","geometry":{"type":"Point","coordinates":[-106.303485,39.643179]}},{"properties":{"company":"McMaster-Carr","city":"Aurora","zip":"44202","product":"Full Line","geo_score":0.444,"address 1":null,"id":"a9ukz048su5j","address":"200 Aurora Industrial Parkway","geo_precision":"street","state":"OH"},"type":"Feature","geometry":{"type":"Point","coordinates":[-106.303485,39.643179]}},{"properties":{"company":"McMaster-Carr","city":"Elmhurst","zip":"60126-2081","product":"Full Line","geo_score":0.444,"address 1":null,"id":"a9ukz069obiz","address":"600 County Line Rd.","geo_precision":"street","state":"IL"},"type":"Feature","geometry":{"type":"Point","coordinates":[-106.303485,39.643179]}},{"properties":{"company":"McMaster-Carr","city":"Robbinsille","zip":"08691-2345","product":"Full Line","geo_score":0.444,"address 1":null,"id":"a9ukz01atvmg","address":"200 New Canton Way","geo_precision":"street","state":"NJ"},"type":"Feature","geometry":{"type":"Point","coordinates":[-106.303485,39.643179]}},{"properties":{"company":"McMaster-Carr","city":"Santa Fe Springs","zip":"90670-2932","product":"Full Line","geo_score":0.444,"address 1":null,"id":"a9ukz00xchkb","address":"9630 Norwalk Blvd.","geo_precision":"street","state":"CA"},"type":"Feature","geometry":{"type":"Point","coordinates":[-106.303485,39.643179]}},{"properties":{"company":"Mecanicad","city":"Rouyn-Noranda, QC","zip":"J9Y0A3","product":"Full Line","geo_score":0.444,"address 1":null,"id":"a9ukz0anlapv","address":"115, Jacques-Bibeau St.","geo_precision":"street","state":"Canada"},"type":"Feature","geometry":{"type":"Point","coordinates":[-106.303485,39.643179]}},{"properties":{"company":"Midland Plastics","city":"Machesny Park","zip":"61115","product":"Full Line","geo_score":0.444,"address 1":null,"id":"a9ukz03vsrnj","address":"7861 Burden Rd.","geo_precision":"street","state":"IL"},"type":"Feature","geometry":{"type":"Point","coordinates":[-106.303485,39.643179]}},{"properties":{"company":"Midland Plastics","city":"New Berlin","zip":"53151","product":"Full Line","geo_score":0.444,"address 1":null,"id":"a9ukz00t0mfa","address":"5405 W. Westridge Court","geo_precision":"street","state":"WI"},"type":"Feature","geometry":{"type":"Point","coordinates":[-106.303485,39.643179]}},{"properties":{"company":"Midland Plastics","city":"Davenport","zip":"52807","product":"Full Line","geo_score":0.444,"address 1":null,"id":"a9ukz08cx1jm","address":"5060 Grand Ave.","geo_precision":"street","state":"IA"},"type":"Feature","geometry":{"type":"Point","coordinates":[-106.303485,39.643179]}},{"properties":{"company":"Midland Plastics","city":"Green Bay","zip":"54304","product":"Full Line","geo_score":0.444,"address 1":null,"id":"a9ukz0acmaq6","address":"2955 Ramada Way","geo_precision":"street","state":"WI"},"type":"Feature","geometry":{"type":"Point","coordinates":[-106.303485,39.643179]}},{"properties":{"company":"Midland Plastics","city":"Madison","zip":"53716","product":"Full Line","geo_score":0.444,"address 1":null,"id":"a9ukz0b62pv0","address":"6360 Copps Ave.","geo_precision":"street","state":"WI"},"type":"Feature","geometry":{"type":"Point","coordinates":[-106.303485,39.643179]}},{"properties":{"company":"Midland Plastics","city":"Weston","zip":"54476-4511","product":"Full Line","geo_score":0.444,"address 1":"Suite A","id":"a9ukz0eyh81x","address":"7208 Synergy Ct.","geo_precision":"street","state":"WI"},"type":"Feature","geometry":{"type":"Point","coordinates":[-106.303485,39.643179]}},{"properties":{"company":"Midwest Plastics Supply, Inc.","city":"Wichita","zip":"67211","product":"Full Line","geo_score":0.444,"address 1":null,"id":"a9ukz08flv64","address":"2248 South Mead","geo_precision":"street","state":"KS"},"type":"Feature","geometry":{"type":"Point","coordinates":[-106.303485,39.643179]}},{"properties":{"company":"MSM, Inc.","city":"Williamstown","zip":"26187","product":"Full Line","geo_score":0.444,"address 1":null,"id":"a9ukyzzv7n2r","address":"Route 2, Box 154-1","geo_precision":"street","state":"WV"},"type":"Feature","geometry":{"type":"Point","coordinates":[-106.303485,39.643179]}},{"properties":{"company":"Munnell &amp; Sherrill","city":"Arcata","zip":"95521","product":"PE","geo_score":0.322,"address 1":null,"id":"a9ukz001bwjm","address":"322 South G St.","geo_precision":"street","state":"CA"},"type":"Feature","geometry":{"type":"Point","coordinates":[-155.0474,19.73071]}},{"properties":{"company":"Munnell &amp; Sherrill","city":"Eugene","zip":"97402","product":"PE","geo_score":0.322,"address 1":null,"id":"a9ukz02q5jlh","address":"975 Wilson St.","geo_precision":"street","state":"OR"},"type":"Feature","geometry":{"type":"Point","coordinates":[-155.0474,19.73071]}},{"properties":{"company":"Munnell &amp; Sherrill","city":"Medford","zip":"97504","product":"PE","geo_score":0.322,"address 1":null,"id":"a9ukz0afccz6","address":"2080 Commerce Drive","geo_precision":"street","state":"OR"},"type":"Feature","geometry":{"type":"Point","coordinates":[-155.0474,19.73071]}},{"properties":{"company":"Munnell &amp; Sherrill","city":"Portland","zip":"97213-4901","product":"PE","geo_score":0.322,"address 1":null,"id":"a9ukz02lnngk","address":"1163 NE 63rd St.","geo_precision":"street","state":"OR"},"type":"Feature","geometry":{"type":"Point","coordinates":[-155.0474,19.73071]}},{"properties":{"company":"National Shoe Specialties, Ltd.","city":"Scarborough, ON","zip":"M1V1E7","product":"PE","geo_score":0.322,"address 1":null,"id":"a9ukz07brz09","address":"3015 Kennedy Rd.","geo_precision":"street","state":"Canada"},"type":"Feature","geometry":{"type":"Point","coordinates":[-155.0474,19.73071]}},{"properties":{"company":"Nationwide Plastics","city":"Dallas","zip":"75236","product":"Add","geo_score":0.452,"address 1":null,"id":"a9ukz0609rjb","address":"4949 Joseph Hardin Drive","geo_precision":"street","state":"TX"},"type":"Feature","geometry":{"type":"Point","coordinates":[-76.329003,39.62475]}},{"properties":{"company":"Nationwide Plastics","city":"Houston","zip":"77043","product":"Add","geo_score":0.452,"address 1":"Suite 214","id":"a9ukz08xwto8","address":"1812 Brittmoore Rd.","geo_precision":"street","state":"TX"},"type":"Feature","geometry":{"type":"Point","coordinates":[-76.329003,39.62475]}},{"properties":{"company":"Nationwide Plastics","city":"Brandon","zip":"39042","product":"Add","geo_score":0.452,"address 1":"PO Box 1206","id":"a9ukz0ds3yfq","address":"1018 Highway 471","geo_precision":"street","state":"MS"},"type":"Feature","geometry":{"type":"Point","coordinates":[-76.329003,39.62475]}},{"properties":{"company":"Norcen Industries, Inc.","city":"Jersey Shore","zip":"17740","product":"Full Line","geo_score":0.444,"address 1":"Buttorff Industrial Park","id":"a9ukz009e03i","address":"130 Shaffer Lane","geo_precision":"street","state":"PA"},"type":"Feature","geometry":{"type":"Point","coordinates":[-106.303485,39.643179]}},{"properties":{"company":"Norrell, Inc.","city":"Memphis","zip":"38118","product":"PE","geo_score":0.322,"address 1":null,"id":"a9ukz0b34187","address":"3496 Winhoma Drive","geo_precision":"street","state":"TN"},"type":"Feature","geometry":{"type":"Point","coordinates":[-155.0474,19.73071]}},{"properties":{"company":"Nott Company","city":"Arden Hills","zip":"55112-1961","product":"PE","geo_score":0.322,"address 1":null,"id":"a9ukz0b344wc","address":"4480 Round Lake Rd. W","geo_precision":"street","state":"MN"},"type":"Feature","geometry":{"type":"Point","coordinates":[-155.0474,19.73071]}},{"properties":{"company":"Nott Company","city":"Urbandale","zip":"50322","product":"PE","geo_score":0.322,"address 1":null,"id":"a9ukz06o2xq3","address":"4401 121st St.","geo_precision":"street","state":"IA"},"type":"Feature","geometry":{"type":"Point","coordinates":[-155.0474,19.73071]}},{"properties":{"company":"Nova Pro Industrial Supply, Ltd.","city":"Thunder Bay, ON","zip":"P7B6M5","product":"PE","geo_score":0.322,"address 1":null,"id":"a9ukz05f11j1","address":"1228 Amber Drive","geo_precision":"street","state":"Canada"},"type":"Feature","geometry":{"type":"Point","coordinates":[-155.0474,19.73071]}},{"properties":{"company":"OEM Components","city":"Houston","zip":"77039","product":"Full Line","geo_score":0.444,"address 1":null,"id":"a9ukz01myyhy","address":"14535 Chrisman Rd.","geo_precision":"street","state":"TX"},"type":"Feature","geometry":{"type":"Point","coordinates":[-106.303485,39.643179]}},{"properties":{"company":"Offshore Traders, Inc.","city":"Miami","zip":"33155","product":"PE","geo_score":0.322,"address 1":null,"id":"a9ukz0aogito","address":"4828 SW 72 Ave.","geo_precision":"street","state":"FL"},"type":"Feature","geometry":{"type":"Point","coordinates":[-155.0474,19.73071]}},{"properties":{"company":"Palco Plastics, Inc.","city":"Whitman","zip":"02382","product":"PE","geo_score":0.322,"address 1":null,"id":"a9ukz0ccupfg","address":"183 Bedford St., Route 18","geo_precision":"street","state":"MA"},"type":"Feature","geometry":{"type":"Point","coordinates":[-155.0474,19.73071]}},{"properties":{"company":"Paramont Machine Co.","city":"New Philadelphia","zip":"44663","product":"Full Line","geo_score":0.444,"address 1":null,"id":"a9ukz04emmz5","address":"963 Commercial Ave.","geo_precision":"street","state":"OH"},"type":"Feature","geometry":{"type":"Point","coordinates":[-106.303485,39.643179]}},{"properties":{"company":"Pena Plas Company","city":"Jessup","zip":"18434","product":"Full Line","geo_score":0.444,"address 1":null,"id":"a9ukz060uhjz","address":"Mid Valley Industrial Park","geo_precision":"street","state":"PA"},"type":"Feature","geometry":{"type":"Point","coordinates":[-106.303485,39.643179]}},{"properties":{"company":"Piedmont Components","city":"Ware Shoals","zip":"29692","product":"Full Line","geo_score":0.444,"address 1":null,"id":"a9ukz02slrpg","address":"2930 Nation Road","geo_precision":"street","state":"SC"},"type":"Feature","geometry":{"type":"Point","coordinates":[-106.303485,39.643179]}},{"properties":{"company":"Piedmont Plastics","city":"Akron","zip":"44306","product":"Full Line","geo_score":0.444,"address 1":null,"id":"a9ukz0433ntj","address":"1185 E. Waterloo Rd.","geo_precision":"street","state":"OH"},"type":"Feature","geometry":{"type":"Point","coordinates":[-106.303485,39.643179]}},{"properties":{"company":"Piedmont Plastics","city":"Eldridge","zip":"21075","product":"Full Line","geo_score":0.444,"address 1":"Suite # 450","id":"a9ukz0cwa1rj","address":"7045 Troy Hill Drive","geo_precision":"street","state":"MD"},"type":"Feature","geometry":{"type":"Point","coordinates":[-106.303485,39.643179]}},{"properties":{"company":"Piedmont Plastics","city":"Bolingbrook","zip":"60440","product":"Full Line","geo_score":0.444,"address 1":"Suite C","id":"a9ukz06rv5jl","address":"375 W. South Frontage Road","geo_precision":"street","state":"IL"},"type":"Feature","geometry":{"type":"Point","coordinates":[-106.303485,39.643179]}},{"properties":{"company":"Piedmont Plastics","city":"Charlotte","zip":"28269","product":"Full Line","geo_score":0.444,"address 1":null,"id":"a9ukz0etjnwm","address":"5010 West W.T. Harris Blvd.","geo_precision":"street","state":"NC"},"type":"Feature","geometry":{"type":"Point","coordinates":[-106.303485,39.643179]}},{"properties":{"company":"Piedmont Plastics","city":"Cincinnati","zip":"45242","product":"Full Line","geo_score":0.444,"address 1":null,"id":"a9ukz040mim1","address":"10880 Kenwood Rd.","geo_precision":"street","state":"OH"},"type":"Feature","geometry":{"type":"Point","coordinates":[-106.303485,39.643179]}},{"properties":{"company":"Piedmont Plastics","city":"Columbus","zip":"43229","product":"Full Line","geo_score":0.444,"address 1":null,"id":"a9ukz05im9to","address":"460-A Schrock Rd.","geo_precision":"street","state":"OH"},"type":"Feature","geometry":{"type":"Point","coordinates":[-106.303485,39.643179]}},{"properties":{"company":"Piedmont Plastics","city":"Cranberry Township","zip":"16066-6449","product":"Full Line","geo_score":0.444,"address 1":null,"id":"a9ukz09jmtf5","address":"514 Thompson Park Drive","geo_precision":"street","state":"PA"},"type":"Feature","geometry":{"type":"Point","coordinates":[-106.303485,39.643179]}},{"properties":{"company":"Piedmont Plastics","city":"Daytona Beach","zip":"32117","product":"Full Line","geo_score":0.444,"address 1":null,"id":"a9ukz0dos8y4","address":"2175 Mason Ave.","geo_precision":"street","state":"FL"},"type":"Feature","geometry":{"type":"Point","coordinates":[-106.303485,39.643179]}},{"properties":{"company":"Piedmont Plastics","city":"Grand Rapids","zip":"49548","product":"Full Line","geo_score":0.444,"address 1":null,"id":"a9ukz00ifpt8","address":"7650 Caterpillar Drive, SW","geo_precision":"street","state":"MI"},"type":"Feature","geometry":{"type":"Point","coordinates":[-106.303485,39.643179]}},{"properties":{"company":"Piedmont Plastics","city":"Greensboro","zip":"27406","product":"Full Line","geo_score":0.444,"address 1":null,"id":"a9ukz0bh3671","address":"2606 Phoenix Drive","geo_precision":"street","state":"NC"},"type":"Feature","geometry":{"type":"Point","coordinates":[-106.303485,39.643179]}},{"properties":{"company":"Piedmont Plastics","city":"Greenville","zip":"29607","product":"Full Line","geo_score":0.444,"address 1":null,"id":"a9ukz04dk3zg","address":"25 Brookfield Oaks Drive","geo_precision":"street","state":"SC"},"type":"Feature","geometry":{"type":"Point","coordinates":[-106.303485,39.643179]}},{"properties":{"company":"Piedmont Plastics","city":"Harahan","zip":"70123","product":"Full Line","geo_score":0.444,"address 1":null,"id":"a9ukz02isij3","address":"5800 F. Jefferson Highway","geo_precision":"street","state":"LA"},"type":"Feature","geometry":{"type":"Point","coordinates":[-106.303485,39.643179]}},{"properties":{"company":"Piedmont Plastics","city":"Knoxville","zip":"37918","product":"Full Line","geo_score":0.444,"address 1":"Suite 102","id":"a9ukz069nun9","address":"2567 Prime Way Drive","geo_precision":"street","state":"TN"},"type":"Feature","geometry":{"type":"Point","coordinates":[-106.303485,39.643179]}},{"properties":{"company":"Piedmont Plastics","city":"Memphis","zip":"38115","product":"Full Line","geo_score":0.444,"address 1":"Suite 105","id":"a9ukyzzvpaob","address":"4105 Hickory Hill Rd.","geo_precision":"street","state":"TN"},"type":"Feature","geometry":{"type":"Point","coordinates":[-106.303485,39.643179]}},{"properties":{"company":"Piedmont Plastics","city":"Morrisville","zip":"27560","product":"Full Line","geo_score":0.444,"address 1":null,"id":"a9ukz0cmjot6","address":"324-B Park Noll Drive","geo_precision":"street","state":"NC"},"type":"Feature","geometry":{"type":"Point","coordinates":[-106.303485,39.643179]}},{"properties":{"company":"Piedmont Plastics","city":"LaVergne","zip":"37086","product":"Full Line","geo_score":0.444,"address 1":"Suite 3101","id":"a9ukz08h10kc","address":"3001 Centre Point Drive","geo_precision":"street","state":"TN"},"type":"Feature","geometry":{"type":"Point","coordinates":[-106.303485,39.643179]}},{"properties":{"company":"Piedmont Plastics","city":"Pelham","zip":"35124","product":"Full Line","geo_score":0.444,"address 1":null,"id":"a9ukz0ctfyi0","address":"285-G Cahaba Valley Parkway, North","geo_precision":"street","state":"AL"},"type":"Feature","geometry":{"type":"Point","coordinates":[-106.303485,39.643179]}},{"properties":{"company":"Piedmont Plastics","city":"Pompano Beach","zip":"33064","product":"Full Line","geo_score":0.444,"address 1":null,"id":"a9ukz061m2hb","address":"3147 North Andrews Ave, Ext.","geo_precision":"street","state":"FL"},"type":"Feature","geometry":{"type":"Point","coordinates":[-106.303485,39.643179]}},{"properties":{"company":"Piedmont Plastics","city":"Richmond","zip":"23234","product":"Full Line","geo_score":0.444,"address 1":null,"id":"a9ukyzzry5wp","address":"5050 Commerce Rd.","geo_precision":"street","state":"VA"},"type":"Feature","geometry":{"type":"Point","coordinates":[-106.303485,39.643179]}},{"properties":{"company":"Piedmont Plastics","city":"Lawrenceville","zip":"30043","product":"Full Line","geo_score":0.444,"address 1":null,"id":"a9ukz0f194ae","address":"2410 Tech Center Parkway","geo_precision":"street","state":"GA"},"type":"Feature","geometry":{"type":"Point","coordinates":[-106.303485,39.643179]}},{"properties":{"company":"Piedmont Plastics","city":"Columbia","zip":"29201","product":"Full Line","geo_score":0.444,"address 1":null,"id":"a9ukz0at5eaw","address":"1231 Bluff Rd.","geo_precision":"street","state":"SC"},"type":"Feature","geometry":{"type":"Point","coordinates":[-106.303485,39.643179]}},{"properties":{"company":"Piedmont Plastics","city":"Wheeling","zip":"60090","product":"Full Line","geo_score":0.444,"address 1":null,"id":"a9ukz04895ah","address":"301 Holbrook Drive","geo_precision":"street","state":"IL"},"type":"Feature","geometry":{"type":"Point","coordinates":[-106.303485,39.643179]}},{"properties":{"company":"Piedmont Plastics","city":"Scarborough, ON","zip":"M1X1C3","product":"Full Line","geo_score":0.444,"address 1":null,"id":"a9ukz0d5fyio","address":"938 Tapscott Rd.","geo_precision":"street","state":"Canada"},"type":"Feature","geometry":{"type":"Point","coordinates":[-106.303485,39.643179]}},{"properties":{"company":"Piper Plastics, Inc.","city":"Libertyville","zip":"60048","product":"PE","geo_score":0.322,"address 1":null,"id":"a9ukz0ak1vzw","address":"1840 Enterprise Ct.","geo_precision":"street","state":"IL"},"type":"Feature","geometry":{"type":"Point","coordinates":[-155.0474,19.73071]}},{"properties":{"company":"Plastic Center, Inc.","city":"Exton","zip":"19341","product":"Full Line","geo_score":0.444,"address 1":null,"id":"a9ukz0fmhwok","address":"424 Creamery Way","geo_precision":"street","state":"PA"},"type":"Feature","geometry":{"type":"Point","coordinates":[-106.303485,39.643179]}},{"properties":{"company":"Plastic Machining","city":"Portland","zip":"97230","product":"Full Line","geo_score":0.444,"address 1":null,"id":"a9ukz044vk7o","address":"13145 NE Airport Way","geo_precision":"street","state":"OR"},"type":"Feature","geometry":{"type":"Point","coordinates":[-106.303485,39.643179]}},{"properties":{"company":"Plastic Supply of PA","city":"Pottstown","zip":"19464","product":"PE","geo_score":0.322,"address 1":null,"id":"a9ukz06zd2on","address":"1400 Maple St.","geo_precision":"street","state":"PA"},"type":"Feature","geometry":{"type":"Point","coordinates":[-155.0474,19.73071]}},{"properties":{"company":"Plastruct Canada, Inc.","city":"Vineland, ON","zip":"L0R2C0","product":"PE","geo_score":0.322,"address 1":null,"id":"a9ukz0fw6jti","address":"4305 Spring Creek Rd.","geo_precision":"street","state":"Canada"},"type":"Feature","geometry":{"type":"Point","coordinates":[-155.0474,19.73071]}},{"properties":{"company":"Pobco, Inc.","city":"Worchester","zip":"01603","product":"PE","geo_score":0.322,"address 1":null,"id":"a9ukz05s0443","address":"99 Hope Ave.","geo_precision":"street","state":"MA"},"type":"Feature","geometry":{"type":"Point","coordinates":[-155.0474,19.73071]}},{"properties":{"company":"Poly Tech Industries, Inc.","city":"Monticello","zip":"31064","product":"PE","geo_score":0.322,"address 1":null,"id":"a9ukz00lziuu","address":"238 Industrial Park Drive","geo_precision":"street","state":"GA"},"type":"Feature","geometry":{"type":"Point","coordinates":[-155.0474,19.73071]}},{"properties":{"company":"Polyfab Plastics &amp; Supply, Inc.","city":"Springfield","zip":"65802","product":"PE","geo_score":0.322,"address 1":null,"id":"a9ukz0f7wfsk","address":"820 N. Cedarbrook","geo_precision":"street","state":"MO"},"type":"Feature","geometry":{"type":"Point","coordinates":[-155.0474,19.73071]}},{"properties":{"company":"Port Plastics, Inc.","city":"Chandler","zip":"85225","product":"Full Line","geo_score":0.444,"address 1":null,"id":"a9ukz062l535","address":"3191 N. Washington St.","geo_precision":"street","state":"AZ"},"type":"Feature","geometry":{"type":"Point","coordinates":[-106.303485,39.643179]}},{"properties":{"company":"Port Plastics, Inc.","city":"City of Industry","zip":"91745","product":"Full Line","geo_score":0.444,"address 1":null,"id":"a9ukz054l1bq","address":"15317 Don Julian Rd.","geo_precision":"street","state":"CA"},"type":"Feature","geometry":{"type":"Point","coordinates":[-106.303485,39.643179]}},{"properties":{"company":"Port Plastics, Inc.","city":"Denver","zip":"80239","product":"Full Line","geo_score":0.444,"address 1":null,"id":"a9ukz0d41z5l","address":"5150 Havanna St.","geo_precision":"street","state":"CO"},"type":"Feature","geometry":{"type":"Point","coordinates":[-106.303485,39.643179]}},{"properties":{"company":"Port Plastics, Inc.","city":"Ft. Worth","zip":"76117","product":"Full Line","geo_score":0.444,"address 1":null,"id":"a9ukz006l2vu","address":"6312 Airport Freeway","geo_precision":"street","state":"TX"},"type":"Feature","geometry":{"type":"Point","coordinates":[-106.303485,39.643179]}},{"properties":{"company":"Port Plastics, Inc.","city":"Portland","zip":"97223","product":"Full Line","geo_score":0.444,"address 1":null,"id":"a9ukz00h08uv","address":"7500 SW Tech Center Drive","geo_precision":"street","state":"OR"},"type":"Feature","geometry":{"type":"Point","coordinates":[-106.303485,39.643179]}},{"properties":{"company":"Port Plastics, Inc.","city":"San Diego","zip":"92121","product":"Full Line","geo_score":0.444,"address 1":null,"id":"a9ukz035euv3","address":"5985 Pacific Center Blvd.","geo_precision":"street","state":"CA"},"type":"Feature","geometry":{"type":"Point","coordinates":[-106.303485,39.643179]}},{"properties":{"company":"Port Plastics, Inc.","city":"San Jose","zip":"95131","product":"Full Line","geo_score":0.444,"address 1":"#A","id":"a9ukz0ae47lc","address":"550 E. Trimble Rd.","geo_precision":"street","state":"CA"},"type":"Feature","geometry":{"type":"Point","coordinates":[-106.303485,39.643179]}},{"properties":{"company":"Port Plastics, Inc.","city":"Tukwila","zip":"98188","product":"Full Line","geo_score":0.444,"address 1":null,"id":"a9ukz07jnj07","address":"1228 Andover Park East","geo_precision":"street","state":"WA"},"type":"Feature","geometry":{"type":"Point","coordinates":[-106.303485,39.643179]}},{"properties":{"company":"Port Plastics, Inc.","city":"Chino Hills","zip":"91709","product":"Full Line","geo_score":0.444,"address 1":"Suite 150","id":"a9ukz09owwyx","address":"15325 Fairfield Ranch Rd.","geo_precision":"street","state":"CA"},"type":"Feature","geometry":{"type":"Point","coordinates":[-106.303485,39.643179]}},{"properties":{"company":"Professional Plastics","city":"Orchard Park","zip":"14127","product":"Full Line","geo_score":0.444,"address 1":null,"id":"a9ukz0973jiv","address":"145 Mid-County Drive","geo_precision":"street","state":"NY"},"type":"Feature","geometry":{"type":"Point","coordinates":[-106.303485,39.643179]}},{"properties":{"company":"Professional Plastics","city":"Denver","zip":"80216","product":"Full Line","geo_score":0.444,"address 1":"Unit 313","id":"a9ukz06nx4kj","address":"5855 Stapleton Drive N","geo_precision":"street","state":"CO"},"type":"Feature","geometry":{"type":"Point","coordinates":[-106.303485,39.643179]}},{"properties":{"company":"Professional Plastics","city":"Fullerton","zip":"92831","product":"Full Line","geo_score":0.444,"address 1":null,"id":"a9ukz01sunvk","address":"1810 E. Valencia Drive","geo_precision":"street","state":"CA"},"type":"Feature","geometry":{"type":"Point","coordinates":[-106.303485,39.643179]}},{"properties":{"company":"Professional Plastics","city":"Houston","zip":"77071","product":"Full Line","geo_score":0.444,"address 1":"Suite 100, Building 5","id":"a9ukz00aqvm6","address":"10641 S. Sam Houston Parkway W.","geo_precision":"street","state":"TX"},"type":"Feature","geometry":{"type":"Point","coordinates":[-106.303485,39.643179]}},{"properties":{"company":"Professional Plastics","city":"Kalispell","zip":"59901","product":"Full Line","geo_score":0.444,"address 1":"Unit A","id":"a9ukz0b937v0","address":"468 Ash Road","geo_precision":"street","state":"MT"},"type":"Feature","geometry":{"type":"Point","coordinates":[-106.303485,39.643179]}},{"properties":{"company":"Professional Plastics","city":"Tukwila","zip":"98188","product":"Full Line","geo_score":0.444,"address 1":null,"id":"a9ukz01tahdm","address":"6233 Segale Park Drive D","geo_precision":"street","state":"WA"},"type":"Feature","geometry":{"type":"Point","coordinates":[-106.303485,39.643179]}},{"properties":{"company":"Professional Plastics","city":"Ogden","zip":"84401","product":"Full Line","geo_score":0.444,"address 1":null,"id":"a9ukz057u8ui","address":"2670 Commerce Way","geo_precision":"street","state":"UT"},"type":"Feature","geometry":{"type":"Point","coordinates":[-106.303485,39.643179]}},{"properties":{"company":"Professional Plastics","city":"Brooklyn Heights","zip":"44131","product":"Full Line","geo_score":0.444,"address 1":"Suite 12","id":"a9ukz0cp6qpo","address":"800 Resource Drive","geo_precision":"street","state":"OH"},"type":"Feature","geometry":{"type":"Point","coordinates":[-106.303485,39.643179]}},{"properties":{"company":"Professional Plastics","city":"Phoenix","zip":"85040-2843","product":"Full Line","geo_score":0.444,"address 1":null,"id":"a9ukz025mgfl","address":"4449 South 38th Place","geo_precision":"street","state":"AZ"},"type":"Feature","geometry":{"type":"Point","coordinates":[-106.303485,39.643179]}},{"properties":{"company":"Queen City Polymers, Inc.","city":"Dayton","zip":"45439","product":"PE","geo_score":0.322,"address 1":null,"id":"a9ukz0ctkjeo","address":"2277 B Arbor Blvd.","geo_precision":"street","state":"OH"},"type":"Feature","geometry":{"type":"Point","coordinates":[-155.0474,19.73071]}},{"properties":{"company":"Professional Plastics","city":"Tualatin","zip":"97062","product":"Full Line","geo_score":0.444,"address 1":null,"id":"a9ukz0fvp6dm","address":"19741 SW 95th Place","geo_precision":"street","state":"OR"},"type":"Feature","geometry":{"type":"Point","coordinates":[-106.303485,39.643179]}},{"properties":{"company":"Professional Plastics","city":"San Jose","zip":"95131","product":"Full Line","geo_score":0.444,"address 1":null,"id":"a9ukyzzrkj67","address":"2175 Kruse Drive","geo_precision":"street","state":"CA"},"type":"Feature","geometry":{"type":"Point","coordinates":[-106.303485,39.643179]}},{"properties":{"company":"Professional Plastics","city":"San Diego","zip":"92111","product":"Full Line","geo_score":0.444,"address 1":null,"id":"a9ukz04zuuig","address":"8334 Clairmont Mesa Blvd, #210","geo_precision":"street","state":"CA"},"type":"Feature","geometry":{"type":"Point","coordinates":[-106.303485,39.643179]}},{"properties":{"company":"Professional Plastics","city":"W. Sacramento","zip":"95691","product":"Full Line","geo_score":0.444,"address 1":null,"id":"a9ukz00d9cpu","address":"2940 Ramco Street, #100","geo_precision":"street","state":"CA"},"type":"Feature","geometry":{"type":"Point","coordinates":[-106.303485,39.643179]}},{"properties":{"company":"Professional Plastics","city":"Richardson","zip":"75081","product":"Full Line","geo_score":0.444,"address 1":null,"id":"a9ukz0al9xu6","address":"1371 N. Glenville Drive","geo_precision":"street","state":"TX"},"type":"Feature","geometry":{"type":"Point","coordinates":[-106.303485,39.643179]}},{"properties":{"company":"Queen City Polymers, Inc.","city":"West Chester","zip":"45069","product":"PE","geo_score":0.322,"address 1":null,"id":"a9ukz0ewsq02","address":"6101 Schumacher Park Drive","geo_precision":"street","state":"OH"},"type":"Feature","geometry":{"type":"Point","coordinates":[-155.0474,19.73071]}},{"properties":{"company":"Reading Plastic Fabricators","city":"Reading","zip":"19605","product":"Full Line","geo_score":0.444,"address 1":null,"id":"a9ukz06topy5","address":"94A Dries Rd.","geo_precision":"street","state":"PA"},"type":"Feature","geometry":{"type":"Point","coordinates":[-106.303485,39.643179]}},{"properties":{"company":"Redwood Plastics","city":"Edmonton, AB","zip":"T6B3L2","product":"PE","geo_score":0.322,"address 1":null,"id":"a9ukz0cjqx2f","address":"7035-56 Ave.","geo_precision":"street","state":"Canada"},"type":"Feature","geometry":{"type":"Point","coordinates":[-155.0474,19.73071]}},{"properties":{"company":"Redwood Plastics","city":"Langley, BC","zip":"V4W3X5","product":"PE","geo_score":0.322,"address 1":null,"id":"a9ukz09s94sz","address":"26688 56th Ave.","geo_precision":"street","state":"Canada"},"type":"Feature","geometry":{"type":"Point","coordinates":[-155.0474,19.73071]}},{"properties":{"company":"Redwood Plastics","city":"Prince George, BC","zip":"V2N1B2","product":"PE","geo_score":0.322,"address 1":null,"id":"a9ukz02elbsq","address":"3989 18th Ave.","geo_precision":"street","state":"Canada"},"type":"Feature","geometry":{"type":"Point","coordinates":[-155.0474,19.73071]}},{"properties":{"company":"Redwood Plastics","city":"Spokane","zip":"99206","product":"PE","geo_score":0.322,"address 1":"Suite 1","id":"a9ukz0306r5i","address":"11303 E. Montgomery","geo_precision":"street","state":"WA"},"type":"Feature","geometry":{"type":"Point","coordinates":[-155.0474,19.73071]}},{"properties":{"company":"Redwood Plastics","city":"Stockbridge","zip":"30281","product":"PE","geo_score":0.322,"address 1":"Suite 100","id":"a9ukz09ufuxv","address":"171 Andrew Drive","geo_precision":"street","state":"GA"},"type":"Feature","geometry":{"type":"Point","coordinates":[-155.0474,19.73071]}},{"properties":{"company":"Redwood Plastics","city":"Woodland","zip":"98674","product":"PE","geo_score":0.322,"address 1":null,"id":"a9ukz0cs66f0","address":"1901 Schurman Way","geo_precision":"street","state":"WA"},"type":"Feature","geometry":{"type":"Point","coordinates":[-155.0474,19.73071]}},{"properties":{"company":"Piedmont Plastics","city":"Albuquerque","zip":"87107","product":"Full Line","geo_score":0.444,"address 1":null,"id":"a9ukz00u2siv","address":"3455 Princeton NE","geo_precision":"street","state":"NM"},"type":"Feature","geometry":{"type":"Point","coordinates":[-106.303485,39.643179]}},{"properties":{"company":"Piedmont Plastics","city":"El Paso","zip":"79935","product":"Full Line","geo_score":0.444,"address 1":null,"id":"a9ukz02sjh2x","address":"10871 Pellicano Drive","geo_precision":"street","state":"TX"},"type":"Feature","geometry":{"type":"Point","coordinates":[-106.303485,39.643179]}},{"properties":{"company":"Piedmont Plastics","city":"LaMirada","zip":"90638","product":"Full Line","geo_score":0.444,"address 1":null,"id":"a9ukz04czc37","address":"17000 Valley View Ave.","geo_precision":"street","state":"CA"},"type":"Feature","geometry":{"type":"Point","coordinates":[-106.303485,39.643179]}},{"properties":{"company":"Piedmont Plastics","city":"Littleton","zip":"80120","product":"Full Line","geo_score":0.444,"address 1":null,"id":"a9ukz08rrp3x","address":"5265 S. Rio Grande","geo_precision":"street","state":"CO"},"type":"Feature","geometry":{"type":"Point","coordinates":[-106.303485,39.643179]}},{"properties":{"company":"Piedmont Plastics","city":"Oakland","zip":"94621","product":"Full Line","geo_score":0.444,"address 1":null,"id":"a9ukz05erfd2","address":"7307 Edgewater Drive","geo_precision":"street","state":"CA"},"type":"Feature","geometry":{"type":"Point","coordinates":[-106.303485,39.643179]}},{"properties":{"company":"Piedmont Plastics","city":"Phoenix","zip":"85040","product":"Full Line","geo_score":0.444,"address 1":null,"id":"a9ukz096c1u5","address":"4401 East Baseline Rd., #103","geo_precision":"street","state":"AZ"},"type":"Feature","geometry":{"type":"Point","coordinates":[-106.303485,39.643179]}},{"properties":{"company":"Piedmont Plastics","city":"San Diego","zip":"92126","product":"Full Line","geo_score":0.444,"address 1":null,"id":"a9ukz06v21mf","address":"9040-A Activity Road","geo_precision":"street","state":"CA"},"type":"Feature","geometry":{"type":"Point","coordinates":[-106.303485,39.643179]}},{"properties":{"company":"Regal Plastics","city":"Austin","zip":"78758","product":"Delete","geo_score":0.399,"address 1":null,"id":"a9ukz04gywl5","address":"9311 Metric Blvd.","geo_precision":"street","state":"TX"},"type":"Feature","geometry":{"type":"Point","coordinates":[-81.557676,34.535241]}},{"properties":{"company":"Regal Plastics","city":"Clive","zip":"50325","product":"PE","geo_score":0.322,"address 1":null,"id":"a9ukz0f1l1w7","address":"8165 University Blvd.","geo_precision":"street","state":"IA"},"type":"Feature","geometry":{"type":"Point","coordinates":[-155.0474,19.73071]}},{"properties":{"company":"Regal Plastics","city":"Dallas","zip":"75229","product":"Delete","geo_score":0.399,"address 1":null,"id":"a9ukz04q4cbt","address":"2356 Merrell Rd.","geo_precision":"street","state":"TX"},"type":"Feature","geometry":{"type":"Point","coordinates":[-81.557676,34.535241]}},{"properties":{"company":"Regal Plastics","city":"Houston","zip":"77055","product":"Delete","geo_score":0.399,"address 1":null,"id":"a9ukz0f4nh2s","address":"1700 Wirt Rd.","geo_precision":"street","state":"TX"},"type":"Feature","geometry":{"type":"Point","coordinates":[-81.557676,34.535241]}},{"properties":{"company":"Regal Plastics","city":"Joplin","zip":"64801","product":"PE","geo_score":0.322,"address 1":null,"id":"a9ukz07dpnxn","address":"601 East Ninth St.","geo_precision":"street","state":"MO"},"type":"Feature","geometry":{"type":"Point","coordinates":[-155.0474,19.73071]}},{"properties":{"company":"Regal Plastics","city":"Nashville","zip":"37210","product":"PE","geo_score":0.322,"address 1":null,"id":"a9ukz02hyhl7","address":"1055 Elm Hill Pike","geo_precision":"street","state":"TN"},"type":"Feature","geometry":{"type":"Point","coordinates":[-155.0474,19.73071]}},{"properties":{"company":"Regal Plastics","city":"North Kansas City","zip":"64116","product":"Full Line","geo_score":0.444,"address 1":null,"id":"a9ukz01pngf5","address":"1500 Burlington","geo_precision":"street","state":"MO"},"type":"Feature","geometry":{"type":"Point","coordinates":[-106.303485,39.643179]}},{"properties":{"company":"Regal Plastics","city":"Oklahoma City","zip":"73127","product":"PE","geo_score":0.322,"address 1":null,"id":"a9ukz00gusnn","address":"9342 W. Reno","geo_precision":"street","state":"OK"},"type":"Feature","geometry":{"type":"Point","coordinates":[-155.0474,19.73071]}},{"properties":{"company":"Regal Plastics","city":"Papillion","zip":"68046","product":"PE","geo_score":0.322,"address 1":null,"id":"a9ukz0fn2u95","address":"522 North Polk St.","geo_precision":"street","state":"NE"},"type":"Feature","geometry":{"type":"Point","coordinates":[-155.0474,19.73071]}},{"properties":{"company":"Regal Plastics","city":"Saint Louis","zip":"63132","product":"PE","geo_score":0.322,"address 1":null,"id":"a9ukyzzslouh","address":"1456 Ashby Rd.","geo_precision":"street","state":"MO"},"type":"Feature","geometry":{"type":"Point","coordinates":[-155.0474,19.73071]}},{"properties":{"company":"Regal Plastics","city":"San Antonio","zip":"78218","product":"Delete","geo_score":0.399,"address 1":null,"id":"a9ukz0fzj78c","address":"4041 Rittman Rd.","geo_precision":"street","state":"TX"},"type":"Feature","geometry":{"type":"Point","coordinates":[-81.557676,34.535241]}},{"properties":{"company":"Regal Plastics","city":"Shreveport","zip":"71109","product":"Full Line","geo_score":0.444,"address 1":null,"id":"a9ukz07r3dvc","address":"4321 Greenwood Rd.","geo_precision":"street","state":"LA"},"type":"Feature","geometry":{"type":"Point","coordinates":[-106.303485,39.643179]}},{"properties":{"company":"Regal Plastics","city":"Springfield","zip":"65802","product":"PE","geo_score":0.322,"address 1":null,"id":"a9ukz08g0b8u","address":"1956 E. Phelps","geo_precision":"street","state":"MO"},"type":"Feature","geometry":{"type":"Point","coordinates":[-155.0474,19.73071]}},{"properties":{"company":"Regal Plastics","city":"Tulsa","zip":"74146","product":"PE","geo_score":0.322,"address 1":null,"id":"a9ukz0bk8i4t","address":"11612 E. 58th St. S","geo_precision":"street","state":"OK"},"type":"Feature","geometry":{"type":"Point","coordinates":[-155.0474,19.73071]}},{"properties":{"company":"Regal Plastics","city":"Wichita","zip":"67214","product":"PE","geo_score":0.322,"address 1":null,"id":"a9ukz0fm04vp","address":"329 N. Indiana","geo_precision":"street","state":"KS"},"type":"Feature","geometry":{"type":"Point","coordinates":[-155.0474,19.73071]}},{"properties":{"company":"Regional Supply, Inc.","city":"Salt Lake City","zip":"84115","product":"PE","geo_score":0.322,"address 1":null,"id":"a9ukz060ay3t","address":"3571 S. 300 W.","geo_precision":"street","state":"UT"},"type":"Feature","geometry":{"type":"Point","coordinates":[-155.0474,19.73071]}},{"properties":{"company":"Richmond Supply Center","city":"Augusta","zip":"30913","product":"PE","geo_score":0.322,"address 1":null,"id":"a9ukz02r3xrf","address":"601 Laney Walker Blvd. Ext.","geo_precision":"street","state":"GA"},"type":"Feature","geometry":{"type":"Point","coordinates":[-155.0474,19.73071]}},{"properties":{"company":"Richwood Industries, Inc.","city":"Huntington","zip":"25704","product":"PE","geo_score":0.322,"address 1":null,"id":"a9ukz0593mi3","address":"707 7th St. W.","geo_precision":"street","state":"WV"},"type":"Feature","geometry":{"type":"Point","coordinates":[-155.0474,19.73071]}},{"properties":{"company":"RL Balconi Co.","city":"Ishpeming","zip":"49849","product":"PE","geo_score":0.322,"address 1":null,"id":"a9ukz0anwdgc","address":"1900 US 41 Highway W.","geo_precision":"street","state":"MI"},"type":"Feature","geometry":{"type":"Point","coordinates":[-155.0474,19.73071]}},{"properties":{"company":"Robco, Inc.","city":"Lasalle, QC","zip":"H8N2W7","product":"Full Line","geo_score":0.444,"address 1":null,"id":"a9ukz047zd6k","address":"7200 St. Patrick","geo_precision":"street","state":"Canada"},"type":"Feature","geometry":{"type":"Point","coordinates":[-106.303485,39.643179]}},{"properties":{"company":"S&amp;L Plastics, Inc.","city":"Nazareth","zip":"18064","product":"PE","geo_score":0.322,"address 1":null,"id":"a9ukz08168rx","address":"2860 Bath Pike","geo_precision":"street","state":"PA"},"type":"Feature","geometry":{"type":"Point","coordinates":[-155.0474,19.73071]}},{"properties":{"company":"SABIC Polymershapes","city":"Austell","zip":"30168","product":"Full Line","geo_score":0.444,"address 1":null,"id":"a9ukz00g0ssq","address":"960-B Six Flags Rd.","geo_precision":"street","state":"GA"},"type":"Feature","geometry":{"type":"Point","coordinates":[-106.303485,39.643179]}},{"properties":{"company":"SABIC Polymershapes","city":"Birmingham","zip":"35222","product":"Full Line","geo_score":0.444,"address 1":null,"id":"a9ukz0d7em86","address":"411 37th St., North","geo_precision":"street","state":"AL"},"type":"Feature","geometry":{"type":"Point","coordinates":[-106.303485,39.643179]}},{"properties":{"company":"SABIC Polymershapes","city":"Brampton, ON","zip":"L6S6G1","product":"Full Line","geo_score":0.444,"address 1":null,"id":"a9ukz03jd2gb","address":"9150 Airport Rd.","geo_precision":"street","state":"Canada"},"type":"Feature","geometry":{"type":"Point","coordinates":[-106.303485,39.643179]}},{"properties":{"company":"SABIC Polymershapes","city":"Bridgeton","zip":"63044","product":"Full Line","geo_score":0.444,"address 1":null,"id":"a9ukz0ervgij","address":"12934 Hollenberg Drive","geo_precision":"street","state":"MO"},"type":"Feature","geometry":{"type":"Point","coordinates":[-106.303485,39.643179]}},{"properties":{"company":"SABIC Polymershapes","city":"Brooklyn Heights","zip":"44131","product":"Full Line","geo_score":0.444,"address 1":null,"id":"a9ukz08472f8","address":"4639-C Van Epps Rd.","geo_precision":"street","state":"OH"},"type":"Feature","geometry":{"type":"Point","coordinates":[-106.303485,39.643179]}},{"properties":{"company":"SABIC Polymershapes","city":"Brooklyn Park","zip":"55445","product":"FullLine","geo_score":0.37,"address 1":null,"id":"a9ukz0c2xrhe","address":"9100 Wyoming Ave, #500","geo_precision":"street","state":"MN"},"type":"Feature","geometry":{"type":"Point","coordinates":[-105.125727,46.843983]}},{"properties":{"company":"SABIC Polymershapes","city":"Calgary, AB","zip":"T2E7E2","product":"Full Line","geo_score":0.444,"address 1":null,"id":"a9ukz0cjf4hr","address":"103, 1440 Aviation Park NE","geo_precision":"street","state":"Canada"},"type":"Feature","geometry":{"type":"Point","coordinates":[-106.303485,39.643179]}},{"properties":{"company":"SABIC Polymershapes","city":"Charlotte","zip":"28206","product":"Full Line","geo_score":0.444,"address 1":null,"id":"a9ukz0avvjpt","address":"3800-A Woodpark Blvd.","geo_precision":"street","state":"NC"},"type":"Feature","geometry":{"type":"Point","coordinates":[-106.303485,39.643179]}},{"properties":{"company":"SABIC Polymershapes","city":"Cincinnati","zip":"45242","product":"Full Line","geo_score":0.444,"address 1":null,"id":"a9ukz0egbrmf","address":"11086 Deerfield Rd.","geo_precision":"street","state":"OH"},"type":"Feature","geometry":{"type":"Point","coordinates":[-106.303485,39.643179]}},{"properties":{"company":"SABIC Polymershapes","city":"Clearwater","zip":"33762","product":"Full Line","geo_score":0.444,"address 1":null,"id":"a9ukz0e3a505","address":"12707 49th St., North","geo_precision":"street","state":"FL"},"type":"Feature","geometry":{"type":"Point","coordinates":[-106.303485,39.643179]}},{"properties":{"company":"SABIC Polymershapes","city":"Columbia","zip":"29201","product":"Full Line","geo_score":0.444,"address 1":null,"id":"a9ukz09tn2wk","address":"2300 Shop Road","geo_precision":"street","state":"SC"},"type":"Feature","geometry":{"type":"Point","coordinates":[-106.303485,39.643179]}},{"properties":{"company":"SABIC Polymershapes","city":"Coppell","zip":"75019","product":"Full Line","geo_score":0.444,"address 1":"Suite 100","id":"a9ukz09gds4b","address":"600 Royal Lane","geo_precision":"street","state":"TX"},"type":"Feature","geometry":{"type":"Point","coordinates":[-106.303485,39.643179]}},{"properties":{"company":"SABIC Polymershapes","city":"Coquitlam, BC","zip":"V3K7B2","product":"Full Line","geo_score":0.444,"address 1":"Unit 104","id":"a9ukz0efetl3","address":"11 Burbidge St.","geo_precision":"street","state":"Canada"},"type":"Feature","geometry":{"type":"Point","coordinates":[-106.303485,39.643179]}},{"properties":{"company":"SABIC Polymershapes","city":"Dartmouth, NS","zip":"B3B1S2","product":"Full Line","geo_score":0.444,"address 1":null,"id":"a9ukz04lvzhn","address":"101 Thornhill Drive","geo_precision":"street","state":"Canada"},"type":"Feature","geometry":{"type":"Point","coordinates":[-106.303485,39.643179]}},{"properties":{"company":"SABIC Polymershapes","city":"Tipp City","zip":"45371","product":"Full Line","geo_score":0.444,"address 1":null,"id":"a9ukz06mlltu","address":"1480 Blauser Drive","geo_precision":"street","state":"OH"},"type":"Feature","geometry":{"type":"Point","coordinates":[-106.303485,39.643179]}},{"properties":{"company":"SABIC Polymershapes","city":"Denver","zip":"80216","product":"Full Line","geo_score":0.444,"address 1":null,"id":"a9ukz07b9tu4","address":"6021 N. Washington St.","geo_precision":"street","state":"CO"},"type":"Feature","geometry":{"type":"Point","coordinates":[-106.303485,39.643179]}},{"properties":{"company":"SABIC Polymershapes","city":"Dorval, QC","zip":"H9P2W3","product":"Full Line","geo_score":0.444,"address 1":null,"id":"a9ukz018hfgo","address":"1665, 55 Ave.","geo_precision":"street","state":"Canada"},"type":"Feature","geometry":{"type":"Point","coordinates":[-106.303485,39.643179]}},{"properties":{"company":"SABIC Polymershapes","city":"Edmonton, AB","zip":"T5M3W2","product":"Full Line","geo_score":0.444,"address 1":null,"id":"a9ukz01rp3su","address":"16536-117th Ave.","geo_precision":"street","state":"Canada"},"type":"Feature","geometry":{"type":"Point","coordinates":[-106.303485,39.643179]}},{"properties":{"company":"SABIC Polymershapes","city":"Elkhart","zip":"46517","product":"Full Line","geo_score":0.444,"address 1":null,"id":"a9ukz03kik5l","address":"28963 Ventura Drive","geo_precision":"street","state":"IN"},"type":"Feature","geometry":{"type":"Point","coordinates":[-106.303485,39.643179]}},{"properties":{"company":"SABIC Polymershapes","city":"Hicksville","zip":"11801","product":"Full Line","geo_score":0.444,"address 1":null,"id":"a9ukz08swtsk","address":"120 Andrews Rd.","geo_precision":"street","state":"NY"},"type":"Feature","geometry":{"type":"Point","coordinates":[-106.303485,39.643179]}},{"properties":{"company":"SABIC Polymershapes","city":"Freedom","zip":"15042","product":"Full Line","geo_score":0.444,"address 1":null,"id":"a9ukz059mkpo","address":"142 Commerce Drive","geo_precision":"street","state":"PA"},"type":"Feature","geometry":{"type":"Point","coordinates":[-106.303485,39.643179]}},{"properties":{"company":"SABIC Polymershapes","city":"Fresno","zip":"93725","product":"Full Line","geo_score":0.444,"address 1":null,"id":"a9ukz07bmipq","address":"3311 E. Central Ave.","geo_precision":"street","state":"CA"},"type":"Feature","geometry":{"type":"Point","coordinates":[-106.303485,39.643179]}},{"properties":{"company":"SABIC Polymershapes","city":"Greenwood","zip":"46143","product":"Full Line","geo_score":0.444,"address 1":"Suite 130","id":"a9ukz0afo2re","address":"2011 Southtech Drive","geo_precision":"street","state":"IN"},"type":"Feature","geometry":{"type":"Point","coordinates":[-106.303485,39.643179]}},{"properties":{"company":"SABIC Polymershapes","city":"Hamden","zip":"06517","product":"Full Line","geo_score":0.444,"address 1":null,"id":"a9ukz07lkauq","address":"2 Hamden Park Drive","geo_precision":"street","state":"CT"},"type":"Feature","geometry":{"type":"Point","coordinates":[-106.303485,39.643179]}},{"properties":{"company":"SABIC Polymershapes","city":"Jacksonville","zip":"32256","product":"Full Line","geo_score":0.444,"address 1":"Suite 110","id":"a9ukyzznaq7g","address":"10255 Fortune Parkway","geo_precision":"street","state":"FL"},"type":"Feature","geometry":{"type":"Point","coordinates":[-106.303485,39.643179]}},{"properties":{"company":"SABIC Polymershapes","city":"Jessup","zip":"20794","product":"Full Line","geo_score":0.444,"address 1":null,"id":"a9ukz05cwg1t","address":"8255 Putuxent Range Rd.","geo_precision":"street","state":"MD"},"type":"Feature","geometry":{"type":"Point","coordinates":[-106.303485,39.643179]}},{"properties":{"company":"SABIC Polymershapes","city":"Kalamazoo","zip":"49001","product":"Full Line","geo_score":0.444,"address 1":null,"id":"a9ukz06ffacg","address":"8233-B Neptune Drive","geo_precision":"street","state":"MI"},"type":"Feature","geometry":{"type":"Point","coordinates":[-106.303485,39.643179]}},{"properties":{"company":"SABIC Polymershapes","city":"Knoxville","zip":"37921","product":"Full Line","geo_score":0.444,"address 1":null,"id":"a9ukz06fsvds","address":"4703 Middlecreek Lane","geo_precision":"street","state":"TN"},"type":"Feature","geometry":{"type":"Point","coordinates":[-106.303485,39.643179]}},{"properties":{"company":"SABIC Polymershapes","city":"Las Vegas","zip":"89118","product":"Full Line","geo_score":0.444,"address 1":"Suite A","id":"a9ukz02eipqx","address":"6435 S. Valley View Blvd.","geo_precision":"street","state":"NV"},"type":"Feature","geometry":{"type":"Point","coordinates":[-106.303485,39.643179]}},{"properties":{"company":"SABIC Polymershapes","city":"Lexington","zip":"40511","product":"Full Line","geo_score":0.444,"address 1":"Suite J","id":"a9ukz0cb8v3x","address":"1847 Mercer Rd.","geo_precision":"street","state":"KY"},"type":"Feature","geometry":{"type":"Point","coordinates":[-106.303485,39.643179]}},{"properties":{"company":"SABIC Polymershapes","city":"London, ON","zip":"N6E1N9","product":"Full Line","geo_score":0.444,"address 1":null,"id":"a9ukz0e9ed7l","address":"1110 Dearness Drive","geo_precision":"street","state":"Canada"},"type":"Feature","geometry":{"type":"Point","coordinates":[-106.303485,39.643179]}},{"properties":{"company":"SABIC Polymershapes","city":"Madison Heights","zip":"48071","product":"Full Line","geo_score":0.444,"address 1":null,"id":"a9ukz02q4dqf","address":"190 Ajax Drive","geo_precision":"street","state":"MI"},"type":"Feature","geometry":{"type":"Point","coordinates":[-106.303485,39.643179]}},{"properties":{"company":"SABIC Polymershapes","city":"Manchester","zip":"03103","product":"Full Line","geo_score":0.444,"address 1":null,"id":"a9ukz00grvjo","address":"3 Perimeter Rd.","geo_precision":"street","state":"NH"},"type":"Feature","geometry":{"type":"Point","coordinates":[-106.303485,39.643179]}},{"properties":{"company":"SABIC Polymershapes","city":"Maumee","zip":"43537","product":"Full Line","geo_score":0.444,"address 1":null,"id":"a9ukz03h0u7f","address":"363 Tomahawk Drive","geo_precision":"street","state":"OH"},"type":"Feature","geometry":{"type":"Point","coordinates":[-106.303485,39.643179]}},{"properties":{"company":"SABIC Polymershapes","city":"Menomonee Falls","zip":"53051","product":"Full Line","geo_score":0.444,"address 1":null,"id":"a9ukz06yiumi","address":"W 142 N 9050 Fountain Blvd.","geo_precision":"street","state":"WI"},"type":"Feature","geometry":{"type":"Point","coordinates":[-106.303485,39.643179]}},{"properties":{"company":"SABIC Polymershapes","city":"Miami Lakes","zip":"33014","product":"Full Line","geo_score":0.444,"address 1":null,"id":"a9ukz030b1k0","address":"5810 NW 163rd St.","geo_precision":"street","state":"FL"},"type":"Feature","geometry":{"type":"Point","coordinates":[-106.303485,39.643179]}},{"properties":{"company":"SABIC Polymershapes","city":"Naperville","zip":"60540","product":"Full Line","geo_score":0.444,"address 1":"Suite 120","id":"a9ukz014nowd","address":"140 Ambassador Drive","geo_precision":"street","state":"IL"},"type":"Feature","geometry":{"type":"Point","coordinates":[-106.303485,39.643179]}},{"properties":{"company":"SABIC Polymershapes","city":"Orlando","zip":"32809","product":"Full Line","geo_score":0.444,"address 1":null,"id":"a9ukz01e6u8b","address":"7481 Presidents Drive","geo_precision":"street","state":"FL"},"type":"Feature","geometry":{"type":"Point","coordinates":[-106.303485,39.643179]}},{"properties":{"company":"SABIC Polymershapes","city":"Ottawa, ON","zip":"K1B5L3","product":"Full Line","geo_score":0.444,"address 1":"Unit 519","id":"a9ukz0drx69j","address":"1250 Old Innes Road","geo_precision":"street","state":"Canada"},"type":"Feature","geometry":{"type":"Point","coordinates":[-106.303485,39.643179]}},{"properties":{"company":"SABIC Polymershapes","city":"Phoenix","zip":"85007","product":"Full Line","geo_score":0.444,"address 1":null,"id":"a9ukz06r3ir9","address":"2120 South 7th Ave.","geo_precision":"street","state":"AZ"},"type":"Feature","geometry":{"type":"Point","coordinates":[-106.303485,39.643179]}},{"properties":{"company":"SABIC Polymershapes","city":"Guaynabo","zip":"00968","product":"Full Line","geo_score":0.444,"address 1":"Calle C, Anexo 2","id":"a9ukz009anmp","address":"Carr. 165 Rexco Industrial Park","geo_precision":"street","state":"PR"},"type":"Feature","geometry":{"type":"Point","coordinates":[-106.303485,39.643179]}},{"properties":{"company":"SABIC Polymershapes","city":"Raleigh","zip":"27610","product":"Full Line","geo_score":0.444,"address 1":"Suite 175","id":"a9ukyzzq3xp3","address":"540 Civic Blvd.","geo_precision":"street","state":"NC"},"type":"Feature","geometry":{"type":"Point","coordinates":[-106.303485,39.643179]}},{"properties":{"company":"SABIC Polymershapes","city":"Richmond","zip":"23230","product":"Full Line","geo_score":0.444,"address 1":null,"id":"a9ukz02dnu06","address":"2115-A North Hamilton St.","geo_precision":"street","state":"VA"},"type":"Feature","geometry":{"type":"Point","coordinates":[-106.303485,39.643179]}},{"properties":{"company":"SABIC Polymershapes","city":"Riverside","zip":"64150","product":"Full Line","geo_score":0.444,"address 1":null,"id":"a9ukz0fku5qo","address":"400 NW Parkway","geo_precision":"street","state":"MO"},"type":"Feature","geometry":{"type":"Point","coordinates":[-106.303485,39.643179]}},{"properties":{"company":"SABIC Polymershapes","city":"Rochester","zip":"14613","product":"Full Line","geo_score":0.444,"address 1":null,"id":"a9ukz0edbb3a","address":"195 La Grange Ave.","geo_precision":"street","state":"NY"},"type":"Feature","geometry":{"type":"Point","coordinates":[-106.303485,39.643179]}},{"properties":{"company":"SABIC Polymershapes","city":"Salt Lake City","zip":"84104","product":"Full Line","geo_score":0.444,"address 1":null,"id":"a9ukz08d5r8f","address":"1365 South Gladiola St.","geo_precision":"street","state":"UT"},"type":"Feature","geometry":{"type":"Point","coordinates":[-106.303485,39.643179]}},{"properties":{"company":"SABIC Polymershapes","city":"Warwick","zip":"02852","product":"Full Line","geo_score":0.444,"address 1":"Unit 3CF","id":"a9ukz05yhzoa","address":"338 Compass Circle","geo_precision":"street","state":"RI"},"type":"Feature","geometry":{"type":"Point","coordinates":[-106.303485,39.643179]}},{"properties":{"company":"SABIC Polymershapes","city":"Broken Arrow","zip":"74012","product":"Full Line","geo_score":0.444,"address 1":null,"id":"a9ukz08gfb2d","address":"2600 C West Albany","geo_precision":"street","state":"OK"},"type":"Feature","geometry":{"type":"Point","coordinates":[-106.303485,39.643179]}},{"properties":{"company":"SABIC Polymershapes","city":"Trevose","zip":"19053","product":"Full Line","geo_score":0.444,"address 1":null,"id":"a9ukz066vhd2","address":"2585 Interplex Drive","geo_precision":"street","state":"PA"},"type":"Feature","geometry":{"type":"Point","coordinates":[-106.303485,39.643179]}},{"properties":{"company":"SABIC Polymershapes","city":"San Diego","zip":"92126","product":"Full Line","geo_score":0.444,"address 1":"Suite A","id":"a9ukz0ccbs78","address":"9369 Dowdy Drive","geo_precision":"street","state":"CA"},"type":"Feature","geometry":{"type":"Point","coordinates":[-106.303485,39.643179]}},{"properties":{"company":"SABIC Polymershapes","city":"Winnipeg, MB","zip":"R3H1H3","product":"Full Line","geo_score":0.444,"address 1":"Unit 5","id":"a9ukz0ejh71s","address":"1725 St. James St.","geo_precision":"street","state":"Canada"},"type":"Feature","geometry":{"type":"Point","coordinates":[-106.303485,39.643179]}},{"properties":{"company":"SABIC Polymershapes","city":"Syracuse","zip":"13204","product":"Full Line","geo_score":0.444,"address 1":null,"id":"a9ukz02cd55h","address":"119 N. Geddes St.","geo_precision":"street","state":"NY"},"type":"Feature","geometry":{"type":"Point","coordinates":[-106.303485,39.643179]}},{"properties":{"company":"SABIC Polymershapes","city":"Stafford","zip":"77477","product":"Full Line","geo_score":0.444,"address 1":null,"id":"a9ukz05pc22n","address":"12315 Parc Crest Drive","geo_precision":"street","state":"TX"},"type":"Feature","geometry":{"type":"Point","coordinates":[-106.303485,39.643179]}},{"properties":{"company":"SABIC Polymershapes","city":"Seattle","zip":"98188","product":"Full Line","geo_score":0.444,"address 1":null,"id":"a9ukz03hhzvy","address":"18292 Andover Park West","geo_precision":"street","state":"WA"},"type":"Feature","geometry":{"type":"Point","coordinates":[-106.303485,39.643179]}},{"properties":{"company":"SABIC Polymershapes","city":"Santa Fe Springs","zip":"90670","product":"Full Line","geo_score":0.444,"address 1":null,"id":"a9ukz02fnmet","address":"9905 Pioneer Blvd.","geo_precision":"street","state":"CA"},"type":"Feature","geometry":{"type":"Point","coordinates":[-106.303485,39.643179]}},{"properties":{"company":"SABIC Polymershapes","city":"San Jose","zip":"95131","product":"Full Line","geo_score":0.444,"address 1":"Suite B","id":"a9ukz0dwslms","address":"2250 Zanker Rd","geo_precision":"street","state":"CA"},"type":"Feature","geometry":{"type":"Point","coordinates":[-106.303485,39.643179]}},{"properties":{"company":"SABIC Polymershapes","city":"Woburn","zip":"01801","product":"Full Line","geo_score":0.444,"address 1":null,"id":"a9ukz09hc6r3","address":"3 Normac Rd.","geo_precision":"street","state":"MA"},"type":"Feature","geometry":{"type":"Point","coordinates":[-106.303485,39.643179]}},{"properties":{"company":"Saint Gobain Performance Plastics","city":"Garden Grove","zip":"92841-1411","product":"PE","geo_score":0.322,"address 1":null,"id":"a9ukz07girzv","address":"7301 Orangewood Ave.","geo_precision":"street","state":"CA"},"type":"Feature","geometry":{"type":"Point","coordinates":[-155.0474,19.73071]}},{"properties":{"company":"Seeger Metal","city":"Toledo","zip":"43608","product":"PE","geo_score":0.322,"address 1":null,"id":"a9ukz06zdepe","address":"1315 E. Manhattan Blvd.","geo_precision":"street","state":"OH"},"type":"Feature","geometry":{"type":"Point","coordinates":[-155.0474,19.73071]}},{"properties":{"company":"Seelye Plastics, Inc.","city":"Bloomington","zip":"55431","product":"Full Line","geo_score":0.444,"address 1":null,"id":"a9ukz037ykhk","address":"9700 Newton Ave. South","geo_precision":"street","state":"MN"},"type":"Feature","geometry":{"type":"Point","coordinates":[-106.303485,39.643179]}},{"properties":{"company":"Seelye Plastics, Inc.","city":"Hiawatha","zip":"52233","product":"Full Line","geo_score":0.444,"address 1":null,"id":"a9ukz04wpv92","address":"1165 Industrial Ave.","geo_precision":"street","state":"IA"},"type":"Feature","geometry":{"type":"Point","coordinates":[-106.303485,39.643179]}},{"properties":{"company":"Seelye Plastics, Inc.","city":"Duluth","zip":"55802","product":"Full Line","geo_score":0.444,"address 1":null,"id":"a9ukz08nf6hw","address":"1230 Port Terminal Drive","geo_precision":"street","state":"MN"},"type":"Feature","geometry":{"type":"Point","coordinates":[-106.303485,39.643179]}},{"properties":{"company":"Sinclair Plastics","city":"Queensbury","zip":"12804","product":"PE","geo_score":0.322,"address 1":null,"id":"a9ukz01j2kxt","address":"85 Boulevard","geo_precision":"street","state":"NY"},"type":"Feature","geometry":{"type":"Point","coordinates":[-155.0474,19.73071]}},{"properties":{"company":"Slideways, Inc.","city":"Worcester","zip":"01605-2039","product":"Full Line","geo_score":0.444,"address 1":null,"id":"a9ukz01lw9n7","address":"705 Plantation St.","geo_precision":"street","state":"MA"},"type":"Feature","geometry":{"type":"Point","coordinates":[-106.303485,39.643179]}},{"properties":{"company":"EPT Systems","city":"Florence","zip":"41042-2841","product":"Full Line","geo_score":0.444,"address 1":null,"id":"a9ukz0cvpsux","address":"7120 New Buffington Rd.","geo_precision":"street","state":"KY"},"type":"Feature","geometry":{"type":"Point","coordinates":[-106.303485,39.643179]}},{"properties":{"company":"Solvay Advanced Polymers","city":"Alpharetta","zip":"30005","product":"Full Line","geo_score":0.444,"address 1":null,"id":"a9ukz0bwspfb","address":"4500 McGinnis Ferry Rd.","geo_precision":"street","state":"GA"},"type":"Feature","geometry":{"type":"Point","coordinates":[-106.303485,39.643179]}},{"properties":{"company":"Soroc Plastics Co.","city":"Burton","zip":"48529","product":"PE","geo_score":0.322,"address 1":null,"id":"a9ukz0eicyvg","address":"4349 S. Dort Highway","geo_precision":"street","state":"MI"},"type":"Feature","geometry":{"type":"Point","coordinates":[-155.0474,19.73071]}},{"properties":{"company":"Spiroflow, Inc.","city":"Monroe","zip":"28110","product":"PE","geo_score":0.322,"address 1":null,"id":"a9ukz07dg7cl","address":"2806 Gray Fox Rd.","geo_precision":"street","state":"NC"},"type":"Feature","geometry":{"type":"Point","coordinates":[-155.0474,19.73071]}},{"properties":{"company":"Superior Plastics, Inc.","city":"Gastonia","zip":"28053","product":"PE","geo_score":0.322,"address 1":null,"id":"a9ukz09d2p79","address":"533 N. Broad St.","geo_precision":"street","state":"NC"},"type":"Feature","geometry":{"type":"Point","coordinates":[-155.0474,19.73071]}},{"properties":{"company":"Technology Sales","city":"Chattanooga","zip":"37406","product":"Full Line","geo_score":0.444,"address 1":null,"id":"a9ukz000hs38","address":"4027 B. South Access Rd.","geo_precision":"street","state":"TN"},"type":"Feature","geometry":{"type":"Point","coordinates":[-106.303485,39.643179]}},{"properties":{"company":"ThyssenKrupp Material NA","city":"Concord, ON","zip":"L4K5C6","product":"Full Line","geo_score":0.444,"address 1":null,"id":"a9ukz01wwz08","address":"2821 Lanstaff Rd.","geo_precision":"street","state":"Canada"},"type":"Feature","geometry":{"type":"Point","coordinates":[-106.303485,39.643179]}},{"properties":{"company":"ThyssenKrupp Material NA","city":"St. Laurent, QC","zip":"HVF1A7","product":"Full Line","geo_score":0.444,"address 1":null,"id":"a9ukz0096o0g","address":"4700 Bois France","geo_precision":"street","state":"Canada"},"type":"Feature","geometry":{"type":"Point","coordinates":[-106.303485,39.643179]}},{"properties":{"company":"Total Plastics","city":"Cranston","zip":"02920-4406","product":"Full Line","geo_score":0.444,"address 1":null,"id":"a9ukz00hw8kk","address":"1518 Pontiac Ave.","geo_precision":"street","state":"RI"},"type":"Feature","geometry":{"type":"Point","coordinates":[-106.303485,39.643179]}},{"properties":{"company":"Total Plastics","city":"Baltimore","zip":"21205","product":"Full Line","geo_score":0.444,"address 1":null,"id":"a9ukz0bmroov","address":"5424 Pulaski Highway","geo_precision":"street","state":"MD"},"type":"Feature","geometry":{"type":"Point","coordinates":[-106.303485,39.643179]}},{"properties":{"company":"Total Plastics","city":"Rochester Hills","zip":"48309","product":"Full Line","geo_score":0.444,"address 1":null,"id":"a9ukz08kzxc0","address":"1661 Northfield Drive","geo_precision":"street","state":"MI"},"type":"Feature","geometry":{"type":"Point","coordinates":[-106.303485,39.643179]}},{"properties":{"company":"Total Plastics","city":"Elk Grove Village","zip":"60007-2116","product":"Full Line","geo_score":0.444,"address 1":null,"id":"a9ukz019mfqp","address":"505 Busse Rd.","geo_precision":"street","state":"IL"},"type":"Feature","geometry":{"type":"Point","coordinates":[-106.303485,39.643179]}},{"properties":{"company":"Total Plastics","city":"Fort Wayne","zip":"46825","product":"Full Line","geo_score":0.444,"address 1":null,"id":"a9ukz02hshw0","address":"75078 Honeywell Drive","geo_precision":"street","state":"IN"},"type":"Feature","geometry":{"type":"Point","coordinates":[-106.303485,39.643179]}},{"properties":{"company":"Total Plastics","city":"Grand Rapids","zip":"49519-9569","product":"Full Line","geo_score":0.444,"address 1":null,"id":"a9ukz04ci2rw","address":"1652 Gezon Parkway SW","geo_precision":"street","state":"MI"},"type":"Feature","geometry":{"type":"Point","coordinates":[-106.303485,39.643179]}},{"properties":{"company":"Total Plastics","city":"Maple Shade","zip":"08052","product":"Full Line","geo_score":0.444,"address 1":null,"id":"a9ukz01ixjd9","address":"1313 Old Kings Highway","geo_precision":"street","state":"NJ"},"type":"Feature","geometry":{"type":"Point","coordinates":[-106.303485,39.643179]}},{"properties":{"company":"Total Plastics","city":"Harrisburg","zip":"17111","product":"Full Line","geo_score":0.444,"address 1":null,"id":"a9ukz045v2a2","address":"7561 Derry St.","geo_precision":"street","state":"PA"},"type":"Feature","geometry":{"type":"Point","coordinates":[-106.303485,39.643179]}},{"properties":{"company":"Total Plastics","city":"Indianapolis","zip":"46226-6511","product":"Full Line","geo_score":0.444,"address 1":null,"id":"a9ukz02k959u","address":"3316 Pagosa Court","geo_precision":"street","state":"IN"},"type":"Feature","geometry":{"type":"Point","coordinates":[-106.303485,39.643179]}},{"properties":{"company":"Total Plastics","city":"Kalamazoo","zip":"49004-3615","product":"Full Line","geo_score":0.444,"address 1":null,"id":"a9ukz09phykt","address":"2810 N. Burdick St.","geo_precision":"street","state":"MI"},"type":"Feature","geometry":{"type":"Point","coordinates":[-106.303485,39.643179]}},{"properties":{"company":"Total Plastics","city":"Alcoa","zip":"37701-3285","product":"Full Line","geo_score":0.444,"address 1":"Suite A","id":"a9ukz0facugg","address":"3311 Northpark Blvd.","geo_precision":"street","state":"TN"},"type":"Feature","geometry":{"type":"Point","coordinates":[-106.303485,39.643179]}},{"properties":{"company":"Total Plastics","city":"Middleburg Heights","zip":"44130","product":"Full Line","geo_score":0.444,"address 1":null,"id":"a9ukz007u504","address":"17851 Englewood Drive","geo_precision":"street","state":"OH"},"type":"Feature","geometry":{"type":"Point","coordinates":[-106.303485,39.643179]}},{"properties":{"company":"Total Plastics","city":"Mt. Vernon","zip":"10550-4518","product":"Full Line","geo_score":0.444,"address 1":null,"id":"a9ukz037lz1p","address":"590 Franklin Ave.","geo_precision":"street","state":"NY"},"type":"Feature","geometry":{"type":"Point","coordinates":[-106.303485,39.643179]}},{"properties":{"company":"Total Plastics","city":"Pittsburgh","zip":"15233-2020","product":"Full Line","geo_score":0.444,"address 1":null,"id":"a9ukz0cc0jrk","address":"1800 Columbus Ave.","geo_precision":"street","state":"PA"},"type":"Feature","geometry":{"type":"Point","coordinates":[-106.303485,39.643179]}},{"properties":{"company":"Total Plastics","city":"Tampa","zip":"33619","product":"Full Line","geo_score":0.444,"address 1":"Suite F","id":"a9ukz0em6fea","address":"203 Kelsey Lane","geo_precision":"street","state":"FL"},"type":"Feature","geometry":{"type":"Point","coordinates":[-106.303485,39.643179]}},{"properties":{"company":"Total Plastics","city":"Worcester","zip":"01608-2135","product":"Full Line","geo_score":0.444,"address 1":null,"id":"a9ukz06wnyyc","address":"70 Quinsigamond Ave.","geo_precision":"street","state":"MA"},"type":"Feature","geometry":{"type":"Point","coordinates":[-106.303485,39.643179]}},{"properties":{"company":"Tramco, Inc.","city":"Wichita","zip":"67214","product":"PE","geo_score":0.322,"address 1":null,"id":"a9ukz05sz3wl","address":"1020 E. 19th St.","geo_precision":"street","state":"KS"},"type":"Feature","geometry":{"type":"Point","coordinates":[-155.0474,19.73071]}},{"properties":{"company":"Trellborg American Variseal Co.","city":"Broomfield","zip":"80020","product":"Full Line","geo_score":0.444,"address 1":null,"id":"a9ukz0652zgq","address":"510 Burbank St.","geo_precision":"street","state":"CO"},"type":"Feature","geometry":{"type":"Point","coordinates":[-106.303485,39.643179]}},{"properties":{"company":"TriStar Plastic Corp.","city":"Denver","zip":"28037","product":"Full Line","geo_score":0.444,"address 1":null,"id":"a9ukz0f24idw","address":"1387 North Highway 16","geo_precision":"street","state":"NC"},"type":"Feature","geometry":{"type":"Point","coordinates":[-106.303485,39.643179]}},{"properties":{"company":"TriStar Plastic Corp.","city":"Shrewsbury","zip":"01545","product":"Full Line","geo_score":0.444,"address 1":null,"id":"a9ukz09adot3","address":"906 Boston Turnpike","geo_precision":"street","state":"MA"},"type":"Feature","geometry":{"type":"Point","coordinates":[-106.303485,39.643179]}},{"properties":{"company":"TriStar Plastic Corp.","city":"Yorba Linda","zip":"92887","product":"Full Line","geo_score":0.444,"address 1":"Unit E","id":"a9ukz0bg7bvo","address":"23655 Via Del Rio","geo_precision":"street","state":"CA"},"type":"Feature","geometry":{"type":"Point","coordinates":[-106.303485,39.643179]}},{"properties":{"company":"TriStar Plastic Corp.","city":"Hoffman Estates","zip":"60169","product":"Full Line","geo_score":0.444,"address 1":"Suite 112","id":"a9ukz0el16nn","address":"2155 Stonington Ave.","geo_precision":"street","state":"IL"},"type":"Feature","geometry":{"type":"Point","coordinates":[-106.303485,39.643179]}},{"properties":{"company":"Trident Plastics","city":"Ivyland","zip":"18974","product":"PE","geo_score":0.322,"address 1":null,"id":"a9ukz00hyxf0","address":"1009 Pulinski Rd.","geo_precision":"street","state":"PA"},"type":"Feature","geometry":{"type":"Point","coordinates":[-155.0474,19.73071]}},{"properties":{"company":"Trident Plastics","city":"Richmond","zip":"23231","product":"PE","geo_score":0.322,"address 1":null,"id":"a9ukz0ez4e8d","address":"5608 Charles City Circle","geo_precision":"street","state":"VA"},"type":"Feature","geometry":{"type":"Point","coordinates":[-155.0474,19.73071]}},{"properties":{"company":"Tulsa Plastics Dist. Co.","city":"Tulsa","zip":"74135","product":"Delete","geo_score":0.399,"address 1":null,"id":"a9ukz09rnvd9","address":"6112 E. 32nd Place","geo_precision":"street","state":"OK"},"type":"Feature","geometry":{"type":"Point","coordinates":[-81.557676,34.535241]}},{"properties":{"company":"Turbo Components &amp; Engineering","city":"Houston","zip":"77075-2216","product":"Full Line","geo_score":0.444,"address 1":null,"id":"a9ukz02wn38k","address":"8730 Meldrum","geo_precision":"street","state":"TX"},"type":"Feature","geometry":{"type":"Point","coordinates":[-106.303485,39.643179]}},{"properties":{"company":"Turbocare, Inc.","city":"Houston","zip":"77047","product":"Full Line","geo_score":0.444,"address 1":null,"id":"a9ukz02l6mup","address":"3100 S. Sam Houston Parkway, E.","geo_precision":"street","state":"TX"},"type":"Feature","geometry":{"type":"Point","coordinates":[-106.303485,39.643179]}},{"properties":{"company":"United Central Industrial Supply","city":"Bristol","zip":"24203","product":"PE","geo_score":0.322,"address 1":null,"id":"a9ukz047glqu","address":"1005 Glenway Ave.","geo_precision":"street","state":"VA"},"type":"Feature","geometry":{"type":"Point","coordinates":[-155.0474,19.73071]}},{"properties":{"company":"Universal Plastics, Inc.","city":"North Canton","zip":"44720","product":"Full Line","geo_score":0.444,"address 1":null,"id":"a9ukz0439t2o","address":"7661 Freedom Ave.","geo_precision":"street","state":"OH"},"type":"Feature","geometry":{"type":"Point","coordinates":[-106.303485,39.643179]}},{"properties":{"company":"Valco Instruments Co., Inc.","city":"Houston","zip":"77255-5603","product":"Full Line","geo_score":0.444,"address 1":"PO Box 55603","id":"a9ukyzzyg26l","address":"6732 Shadyvilla","geo_precision":"street","state":"TX"},"type":"Feature","geometry":{"type":"Point","coordinates":[-106.303485,39.643179]}},{"properties":{"company":"Vanderveer Plastics","city":"Placentia","zip":"92870","product":"Full Line","geo_score":0.444,"address 1":null,"id":"a9ukz04vffim","address":"515 S. Melrose St.","geo_precision":"street","state":"CA"},"type":"Feature","geometry":{"type":"Point","coordinates":[-106.303485,39.643179]}},{"properties":{"company":"Vermont Plastic Specialty","city":"Williston","zip":"05495","product":"PE","geo_score":0.322,"address 1":"PO Box 483","id":"a9ukz06wpnc9","address":"209 Blair Park Rd.","geo_precision":"street","state":"VT"},"type":"Feature","geometry":{"type":"Point","coordinates":[-155.0474,19.73071]}},{"properties":{"company":"Waggoner Plastics","city":"Arlington","zip":"76001","product":"Delete","geo_score":0.399,"address 1":null,"id":"a9ukz04oye08","address":"525 113 Street","geo_precision":"street","state":"TX"},"type":"Feature","geometry":{"type":"Point","coordinates":[-81.557676,34.535241]}},{"properties":{"company":"WS Hampshire","city":"Hampshire","zip":"60140","product":"PE","geo_score":0.322,"address 1":null,"id":"a9ukz0dw9sqb","address":"365 Keyes Ave.","geo_precision":"street","state":"IL"},"type":"Feature","geometry":{"type":"Point","coordinates":[-155.0474,19.73071]}},{"properties":{"company":"Wulftec International, Inc.","city":"Ayers Cliff, QC","zip":"J0B1C0","product":"PE","geo_score":0.322,"address 1":null,"id":"a9ukz05z9orb","address":"209 Railroad St.","geo_precision":"street","state":"Canada"},"type":"Feature","geometry":{"type":"Point","coordinates":[-155.0474,19.73071]}},{"properties":{"company":"Redwood Plastics","city":"Saskatoon, SK","zip":"S7PO2A","product":"PE","geo_score":0.322,"address 1":null,"id":"a9ukz02ldcv9","address":"3549 Millar Ave.","geo_precision":"street","state":"Canada"},"type":"Feature","geometry":{"type":"Point","coordinates":[-155.0474,19.73071]}},{"properties":{"company":"Piedmont Plastics","city":"Albany","zip":"12205","product":"Full Line","geo_score":0.444,"address 1":null,"id":"a9ukz05xe29w","address":"4 Access Road","geo_precision":"street","state":"NY"},"type":"Feature","geometry":{"type":"Point","coordinates":[-106.303485,39.643179]}},{"properties":{"company":"All-State Industries","city":"W. Des Moines","zip":"50265-5532","product":"Full Line","geo_score":0.444,"address 1":null,"id":"a9ukz0aye5r1","address":"520 South 18th St.","geo_precision":"street","state":"IA"},"type":"Feature","geometry":{"type":"Point","coordinates":[-106.303485,39.643179]}},{"properties":{"company":"SABIC Polymershapes","city":"Harahan","zip":"70123","product":"Full Line","geo_score":0.444,"address 1":"Suite W3-284","id":"a9ukz0eq3w4f","address":"5600 Jefferson Highway","geo_precision":"street","state":"LA"},"type":"Feature","geometry":{"type":"Point","coordinates":[-106.303485,39.643179]}},{"properties":{"company":"Laird Plastics","city":"Louisville","zip":"40228","product":"PE","geo_score":0.322,"address 1":null,"id":"a9ukz04jj2nc","address":"5412 Shepherdsville Rd.","geo_precision":"street","state":"KY"},"type":"Feature","geometry":{"type":"Point","coordinates":[-155.0474,19.73071]}},{"properties":{"company":"SABIC Polymershapes","city":"Huntersville","zip":"28078","product":"Full Line","geo_score":0.444,"address 1":null,"id":"a9ukz0cvffln","address":"11515 Vanstory Drive","geo_precision":"street","state":"NC"},"type":"Feature","geometry":{"type":"Point","coordinates":[-106.303485,39.643179]}},{"properties":{"company":"Green Rubber - Kennedy A6","city":"Salinas","zip":"93901","product":"PE","geo_score":0.322,"address 1":null,"id":"a9ukz0eh23ur","address":"1310 Dayton Ave.","geo_precision":"street","state":"CA"},"type":"Feature","geometry":{"type":"Point","coordinates":[-155.0474,19.73071]}},{"properties":{"company":"Piedmont Plastics","city":"Las Vegas","zip":"89113","product":"Full Line","geo_score":0.444,"address 1":null,"id":"a9ukz08gbaih","address":"6560 S. Tioga Way #130","geo_precision":"street","state":"NV"},"type":"Feature","geometry":{"type":"Point","coordinates":[-106.303485,39.643179]}},{"properties":{"company":"Regal Plastics","city":"Waterloo","zip":"50707","product":"PE","geo_score":0.322,"address 1":null,"id":"a9ukz09282js","address":"117 Industrial Drive","geo_precision":"street","state":"IA"},"type":"Feature","geometry":{"type":"Point","coordinates":[-155.0474,19.73071]}},{"properties":{"company":"Piedmont Plastics","city":"Wilsonville","zip":"97070","product":"Full Line","geo_score":0.444,"address 1":"Suite 503","id":"a9ukz098gpb7","address":"26211 SW 95th Ave.","geo_precision":"street","state":"OR"},"type":"Feature","geometry":{"type":"Point","coordinates":[-106.303485,39.643179]}},{"properties":{"company":"Morrison Container Handling Solutions","city":"Glenwood","zip":"60425","product":"PE","geo_score":0.322,"address 1":null,"id":"a9ukz0eb6dwd","address":"335 W. 194th St.","geo_precision":"street","state":"IL"},"type":"Feature","geometry":{"type":"Point","coordinates":[-155.0474,19.73071]}},{"properties":{"company":"California Industrial Rubber","city":"Fresco","zip":"93706","product":"PE","geo_score":0.322,"address 1":null,"id":"a9ukz06byxg3","address":"2732 South Cherry Ave.","geo_precision":"street","state":"CA"},"type":"Feature","geometry":{"type":"Point","coordinates":[-155.0474,19.73071]}},{"properties":{"company":"Laird Plastics","city":"Warwick","zip":"02886","product":"Full Line","geo_score":0.444,"address 1":"Unit A","id":"a9ukz06mmmox","address":"380 Jefferson Blvd.","geo_precision":"street","state":"RI"},"type":"Feature","geometry":{"type":"Point","coordinates":[-106.303485,39.643179]}},{"properties":{"company":"Piedmont Plastics","city":"West Allis","zip":"53214","product":"Full Line","geo_score":0.444,"address 1":null,"id":"a9ukz0cpiyos","address":"127 South 116th St.","geo_precision":"street","state":"WI"},"type":"Feature","geometry":{"type":"Point","coordinates":[-106.303485,39.643179]}},{"properties":{"company":"Northern Plastics Ltd.","city":"Salmon Arm, BC","zip":"V1E2X2","product":"Full Line","geo_score":0.444,"address 1":"Salmon Arm Indus. Pk.","id":"a9ukz04gb3ii","address":"5840 Auto Road SE","geo_precision":"street","state":"Canada"},"type":"Feature","geometry":{"type":"Point","coordinates":[-106.303485,39.643179]}},{"properties":{"company":"Interstate Plastics","city":"Downey","zip":"90242","product":"Full Line","geo_score":0.444,"address 1":"Unit F","id":"a9ukz09gj9p9","address":"12707Rives Ave.","geo_precision":"street","state":"CA"},"type":"Feature","geometry":{"type":"Point","coordinates":[-106.303485,39.643179]}},{"properties":{"company":"Piedmont Plastics","city":"Worcester","zip":"01606","product":"Full Line","geo_score":0.444,"address 1":"Unit #5","id":"a9ukz01a77dq","address":"55 Millbrook Street","geo_precision":"street","state":"MA"},"type":"Feature","geometry":{"type":"Point","coordinates":[-106.303485,39.643179]}},{"properties":{"company":"TriStar Plastic Corp.","city":"Houston","zip":"77065","product":"Full Line","geo_score":0.444,"address 1":"Unit #4","id":"a9ukz0fn1bl5","address":"20220 Hempstead Rd.","geo_precision":"street","state":"TX"},"type":"Feature","geometry":{"type":"Point","coordinates":[-106.303485,39.643179]}},{"properties":{"company":"Calsak Plastics","city":"Blaine","zip":"55014","product":"Full Line","geo_score":0.444,"address 1":"Suite 130","id":"a9ukz01nam4d","address":"3787 95th Ave.","geo_precision":"street","state":"MN"},"type":"Feature","geometry":{"type":"Point","coordinates":[-106.303485,39.643179]}},{"properties":{"company":"Professional Plastics","city":"Smyrna","zip":"30080","product":"Full Line","geo_score":0.444,"address 1":"Building #400-1","id":"a9ukz07luol1","address":"5500 South Cobb Drive","geo_precision":"street","state":"GA"},"type":"Feature","geometry":{"type":"Point","coordinates":[-106.303485,39.643179]}},{"properties":{"company":"Midland Plastics","city":"Des Moines","zip":"50316","product":"Full Line","geo_score":0.444,"address 1":null,"id":"a9ukz03mw6k7","address":"1600 E. Washington","geo_precision":"street","state":"IA"},"type":"Feature","geometry":{"type":"Point","coordinates":[-106.303485,39.643179]}},{"properties":{"company":"SABIC Polymershapes","city":"Fairfield","zip":"07004","product":"Full Line","geo_score":0.444,"address 1":"Unit B","id":"a9ukz05d6z79","address":"24 Stewart Place","geo_precision":"street","state":"NJ"},"type":"Feature","geometry":{"type":"Point","coordinates":[-106.303485,39.643179]}},{"properties":{"company":"Laird Plastics","city":"Baton Rouge","zip":"70809","product":"Add","geo_score":0.452,"address 1":"Suite 2","id":"a9ukz04ykxc4","address":"11800 Industriplex","geo_precision":"street","state":"LA"},"type":"Feature","geometry":{"type":"Point","coordinates":[-76.329003,39.62475]}},{"properties":{"company":"SABIC Polymershapes","city":"North Charleston","zip":"29418","product":"Full Line","geo_score":0.444,"address 1":null,"id":"a9ukz0d52fhf","address":"7281 Investment Drive","geo_precision":"street","state":"SC"},"type":"Feature","geometry":{"type":"Point","coordinates":[-106.303485,39.643179]}},{"properties":{"company":"Sterling Plastics","city":"Blaine","zip":"55449","product":"Full Line","geo_score":0.444,"address 1":null,"id":"a9ukz022mj12","address":"9250 Isanti St. NE","geo_precision":"street","state":"MN"},"type":"Feature","geometry":{"type":"Point","coordinates":[-106.303485,39.643179]}}],"is_temporal":false,"author":{"url":"","metadata":"","contact_name":"","contact_address":"","source":"","contact_phone":""},"source":"","pagination":{"sort":null,"start":0,"total":428,"limit":1000000},"state":"complete","tags":"add,delete,full,line,pe","published":"2014-08-14T14:59:20-04:00","id":290093}