{"type":"FeatureCollection","data_type":"Dataset","url_type":null,"permissions":[{"permissions":{"download":true,"view":true},"group_id":"everyone"}],"classification":null,"title":"Waze Gas Report 2012-11-04 at 21h","count":20,"stream_id":290073,"contributor":{"url":"http://geocommons.com/users/159","name":"ajturner"},"data_attributes":null,"calculation_params":null,"icon_link":null,"link":"http://geocommons.com/overlays/290073.json","extent":[-75.4834,40.5322,-72.7942,40.9086],"geometry_types":["point"],"unique_name":"","name":"Waze Gas Report 2012-11-04 at 21h","feature_count":20,"description":"","next_feature":null,"is_raster":false,"short_classification":"Y","stats":{"lon":{"max":-72.794242,"variance":0.269507278315475,"mean":-74.057215,"stdev":0.519140904105499,"median":-73.990669,"min":-75.483383},"lat":{"max":40.908569,"variance":0.013183462035671,"mean":40.73708075,"stdev":0.114819258121933,"median":40.759785,"min":40.532202}},"features":[{"properties":{"lon":-75.483383,"city":"Allentown","description":"para lisandro ariaa","street":"N Blank St","id":"a9uio1pw4kei","lat":40.601576,"state":"PA"},"type":"Feature","geometry":{"type":"Point","coordinates":[-75.483383,40.601576]}},{"properties":{"lon":-74.291589,"city":null,"description":"5 minute wait at Hess","street":"Fords","id":"a9uio1igumuy","lat":40.532202,"state":null},"type":"Feature","geometry":{"type":"Point","coordinates":[-74.291589,40.532202]}},{"properties":{"lon":-73.990669,"city":"Brooklyn","description":"does anyone know is there gas on 70st and ave o ?","street":"Bay Pkwy","id":"a9uio1nm8ml2","lat":40.604965,"state":"NY"},"type":"Feature","geometry":{"type":"Point","coordinates":[-73.990669,40.604965]}},{"properties":{"lon":-73.946586,"city":"Brooklyn","description":"anyone know if there is a 3 person minimum to get over bridge tomm ?","street":"E 29th St","id":"a9uio1lrfze6","lat":40.619873,"state":"NY"},"type":"Feature","geometry":{"type":"Point","coordinates":[-73.946586,40.619873]}},{"properties":{"lon":-74.056598,"city":"Jersey City","description":"is the holland tunnel open to NYC yet?","street":"Newark Ave","id":"a9uio1tixmu1","lat":40.731577,"state":"NJ"},"type":"Feature","geometry":{"type":"Point","coordinates":[-74.056598,40.731577]}},{"properties":{"lon":-74.008052,"city":"Manhattan","description":"holland tunnel is closed","street":null,"id":"a9uio1nhe0xc","lat":40.723821,"state":"NY"},"type":"Feature","geometry":{"type":"Point","coordinates":[-74.008052,40.723821]}},{"properties":{"lon":-73.900578,"city":"Queens","description":"There is gas at the BP station located at the Van Wyck Expressway Linden Boulevard exit they just filled up with 2 trucks FYI for all my friends and New Yorkers, goodluck.","street":"Bleecker St","id":"a9uio1la5l17","lat":40.711788,"state":"NY"},"type":"Feature","geometry":{"type":"Point","coordinates":[-73.900578,40.711788]}},{"properties":{"lon":-73.815439,"city":"Queens","description":"Any gas in the queens area?","street":"126th St","id":"a9uio1kwtjad","lat":40.68281,"state":"NY"},"type":"Feature","geometry":{"type":"Point","coordinates":[-73.815439,40.68281]}},{"properties":{"lon":-73.590542,"city":"Westbury","description":"Mobil on Jericho Tpk. &amp; Glen Cove road just got a delivery.  line moves fast. about half hour","street":"Wilson Ave","id":"a9uio1pcgea5","lat":40.759785,"state":"NY"},"type":"Feature","geometry":{"type":"Point","coordinates":[-73.590542,40.759785]}},{"properties":{"lon":-73.477588,"city":"Plainview","description":"on a quick moving gas line at Hess on old country rd and Gerhard rd in Plainview.  they got 10,000 gallons at 7:45 tonight.  got on line at 8:20 and expect to get gas about 9:10 based upon speed of line.","street":"Gerhard Rd","id":"a9uio1trdqck","lat":40.770587,"state":"NY"},"type":"Feature","geometry":{"type":"Point","coordinates":[-73.477588,40.770587]}},{"properties":{"lon":-74.577,"city":"Randolph","description":"lukoil rt 10 Randolph open","street":"W Elizabeth Dr","id":"a9uio1kav6q7","lat":40.864329,"state":"NJ"},"type":"Feature","geometry":{"type":"Point","coordinates":[-74.577,40.864329]}},{"properties":{"lon":-73.953787,"city":"Manhattan","description":"so how is the situation with gas in manhattan ? are their still long lines for gas?","street":"W 141 St","id":"a9uio1lk89yc","lat":40.824505,"state":"NY"},"type":"Feature","geometry":{"type":"Point","coordinates":[-73.953787,40.824505]}},{"properties":{"lon":-74.124217,"city":"Elmwood Park","description":"on Essex St (between Rt 80-Rt17)..3 gas stations with very little/no wait!!!","street":"Philip Ave","id":"a9uio1h9b5qr","lat":40.908569,"state":"NJ"},"type":"Feature","geometry":{"type":"Point","coordinates":[-74.124217,40.908569]}},{"properties":{"lon":-73.887602,"city":"Bronx","description":"gas on Jerome  ave near vancourtland  ave bp station","street":"Jerome Ave","id":"a9uio1n4q51p","lat":40.877161,"state":"NY"},"type":"Feature","geometry":{"type":"Point","coordinates":[-73.887602,40.877161]}},{"properties":{"lon":-72.794242,"city":"Manorville","description":"This gas station is amazing only a 20 minute wait very fast moving n they still have lots of gas left","street":null,"id":"a9uio1uivxiu","lat":40.868804,"state":"NY"},"type":"Feature","geometry":{"type":"Point","coordinates":[-72.794242,40.868804]}},{"properties":{"lon":-74.508138,"city":"Franklin","description":"gas here","street":"Easton Ave","id":"a9uio1rraa7u","lat":40.536364,"state":"NJ"},"type":"Feature","geometry":{"type":"Point","coordinates":[-74.508138,40.536364]}},{"properties":{"lon":-74.524534,"city":"Randolph","description":"Sunoco rt 10 denville. no line for gas","street":"State Rte 10","id":"a9uio1nf4vao","lat":40.872634,"state":"NJ"},"type":"Feature","geometry":{"type":"Point","coordinates":[-74.524534,40.872634]}},{"properties":{"lon":-74.224812,"city":"Hillside","description":"Express Fuel on 22 West in Hillside. short wait, about 12 cars in line","street":"US Hwy 22 W","id":"a9uio1nfi6di","lat":40.697759,"state":"NJ"},"type":"Feature","geometry":{"type":"Point","coordinates":[-74.224812,40.697759]}},{"properties":{"lon":-74.0616,"city":"Secaucus","description":"on gas line at turnpike outside the Lincoln  Tunnel. anyone know if there's gas there still?","street":"I-95 S / New Jersey Tpke (toll)","id":"a9uio1m9x55q","lat":40.772157,"state":"NJ"},"type":"Feature","geometry":{"type":"Point","coordinates":[-74.0616,40.772157]}},{"properties":{"lon":-73.927344,"city":"Manhattan","description":"don't like gas shortages, but roads everywhere are empty. love it!","street":"I-278","id":"a9uio1myeg3t","lat":40.780349,"state":"NY"},"type":"Feature","geometry":{"type":"Point","coordinates":[-73.927344,40.780349]}}],"is_temporal":false,"author":{"url":"","metadata":"","contact_name":"","contact_address":"","source":"Waze","contact_phone":""},"source":"","pagination":{"sort":null,"start":0,"total":20,"limit":1000000},"state":"complete","tags":"fuel,sandy","published":"2012-11-04T16:00:00Z","id":290073}