{"type":"FeatureCollection","data_type":"Dataset","url_type":null,"permissions":[{"permissions":{"download":true,"view":true},"group_id":"everyone"}],"classification":null,"title":"Send Hunger Packing Sites","count":29,"stream_id":290516,"contributor":{"url":"http://geocommons.com/users/53770","name":"careandshare"},"data_attributes":null,"calculation_params":null,"icon_link":null,"link":"http://geocommons.com/overlays/290516.json","extent":[-108.904,37.2462,-103.732,38.9061],"geometry_types":["point"],"unique_name":null,"name":"Send Hunger Packing Sites","feature_count":29,"description":"","next_feature":null,"is_raster":false,"short_classification":"Y","stats":{},"features":[{"properties":{"city":"Colorado Springs","county":"El Paso","geo_score":0.604,"zip code":"80906","site":"Meadows Park Community Center","id":"a9vjol7nhday","address":"1943 S. El Paso Ave","geo_precision":"street","state":"CO"},"type":"Feature","geometry":{"type":"Point","coordinates":[-104.813009,38.807881]}},{"properties":{"city":"Colorado Springs","county":"El Paso","geo_score":0.878,"zip code":"80919","site":"Chipita Elementary","id":"a9vjollt8oss","address":"2340 Ramsgate Terrace","geo_precision":"range","state":"CO"},"type":"Feature","geometry":{"type":"Point","coordinates":[-104.871231,38.906142]}},{"properties":{"city":"Colorado Springs","county":"El Paso","geo_score":0.607,"zip code":"80928","site":"Hanover Com. Pantry","id":"a9vjolavra50","address":"17050 S. Peyton Hwy","geo_precision":"street","state":"CO"},"type":"Feature","geometry":{"type":"Point","coordinates":[-104.459521,38.688766]}},{"properties":{"city":"Colorado Springs","county":"El Paso","geo_score":1.0,"zip code":"80909","site":"Yuma Salvation Army","id":"a9vjol99jq6q","address":"908 Yuma Street","geo_precision":"range","state":"CO"},"type":"Feature","geometry":{"type":"Point","coordinates":[-104.77815,38.846129]}},{"properties":{"city":"Fountain","county":"El Paso","geo_score":0.614,"zip code":"80817","site":"Fountain YMCA","id":"a9vjolb3qgl4","address":"301 E. Iowa St","geo_precision":"street","state":"CO"},"type":"Feature","geometry":{"type":"Point","coordinates":[-104.699359,38.683907]}},{"properties":{"city":"Colorado Springs","county":"El Paso","geo_score":0.614,"zip code":"80903","site":"North Middle School","id":"a9vjolmcg4tk","address":"612 E. Yampa Street","geo_precision":"street","state":"CO"},"type":"Feature","geometry":{"type":"Point","coordinates":[-104.819111,38.847768]}},{"properties":{"city":"Colorado Springs","county":"El Paso","geo_score":0.604,"zip code":"80907","site":"Lincoln Elementary School","id":"a9vjoleby3gk","address":"2727 N. Cascade Ave.","geo_precision":"street","state":"CO"},"type":"Feature","geometry":{"type":"Point","coordinates":[-104.82403,38.853291]}},{"properties":{"city":"Colorado Springs","county":"El Paso","geo_score":0.607,"zip code":"80910","site":"Monroe Elementary School","id":"a9vjol71qwi9","address":"12 S. Chelton Road","geo_precision":"street","state":"CO"},"type":"Feature","geometry":{"type":"Point","coordinates":[-104.766322,38.831057]}},{"properties":{"city":"Calhan","county":"El Paso","geo_score":0.602,"zip code":"80808","site":"Ellicott Elementary &amp; Middle School","id":"a9vjolgk1nsg","address":"355 N. Ellicott Hwy","geo_precision":"street","state":"CO"},"type":"Feature","geometry":{"type":"Point","coordinates":[-104.386856,38.832161]}},{"properties":{"city":"Colorado Springs","county":"El Paso","geo_score":0.927,"zip code":"80907","site":"Scholars to Leaders Academy","id":"a9vjolh5rrkp","address":"3115 Larkspur Ave","geo_precision":"range","state":"CO"},"type":"Feature","geometry":{"type":"Point","coordinates":[-104.800802,38.87612]}},{"properties":{"city":"Colorado Springs","county":"El Paso","geo_score":1.0,"zip code":"80915","site":"Evans Elementary","id":"a9vjol75yjot","address":"1675 Winnebago Rd","geo_precision":"range","state":"CO"},"type":"Feature","geometry":{"type":"Point","coordinates":[-104.695483,38.856134]}},{"properties":{"city":"Colorado Springs","county":"El Paso","geo_score":0.607,"zip code":"80903","site":"Helen Hunt Elementary","id":"a9vjolao1tvi","address":"917 E. Moreno Ave","geo_precision":"street","state":"CO"},"type":"Feature","geometry":{"type":"Point","coordinates":[-104.825526,38.825407]}},{"properties":{"city":"Colorado Springs","county":"El Paso","geo_score":0.604,"zip code":"80903","site":"Pikes Peak Prep","id":"a9vjolc8pzyq","address":"525 E. Costilla St","geo_precision":"street","state":"CO"},"type":"Feature","geometry":{"type":"Point","coordinates":[-104.825621,38.828276]}},{"properties":{"city":"Colorado Springs","county":"El Paso","geo_score":1.0,"zip code":"80916","site":"Bricker Elementary School","id":"a9vjolb9h7oc","address":"4880 Dover Drive","geo_precision":"range","state":"CO"},"type":"Feature","geometry":{"type":"Point","coordinates":[-104.737183,38.800346]}},{"properties":{"city":"Rush","county":"El Paso","geo_score":0.619,"zip code":"80833","site":"Miami Yoder School","id":"a9vjol7w86r1","address":"420 S. Rush Rd","geo_precision":"street","state":"CO"},"type":"Feature","geometry":{"type":"Point","coordinates":[-104.091832,38.824821]}},{"properties":{"city":"Pueblo","county":"Pueblo","geo_score":1.0,"zip code":"81004","site":"Sprague B&amp;G Club","id":"a9vjolgn89sa","address":"2601 Sprague Ave","geo_precision":"range","state":"CO"},"type":"Feature","geometry":{"type":"Point","coordinates":[-104.640533,38.240504]}},{"properties":{"city":"Pueblo","county":"Pueblo","geo_score":0.316,"zip code":"81004","site":"Eastside B&amp;G Club","id":"a9vjollrjo1y","address":"625 N. Monument Ave","geo_precision":"street","state":"CO"},"type":"Feature","geometry":{"type":"Point","coordinates":[-104.586393,38.268415]}},{"properties":{"city":"Pueblo","county":"Pueblo","geo_score":0.619,"zip code":"81003","site":"Irving Elementary School","id":"a9vjol9m6orr","address":"1629 W. 21st St","geo_precision":"street","state":"CO"},"type":"Feature","geometry":{"type":"Point","coordinates":[-104.607354,38.287319]}},{"properties":{"city":"Pueblo","county":"Pueblo","geo_score":0.625,"zip code":"81001","site":"Parkview Elementary School","id":"a9vjoljrbpc9","address":"1327 E. 9th St","geo_precision":"street","state":"CO"},"type":"Feature","geometry":{"type":"Point","coordinates":[-104.60039,38.275441]}},{"properties":{"city":"Pueblo","county":"Pueblo","geo_score":0.619,"zip code":"81008","site":"Morton Elementary School","id":"a9vjolb62rlu","address":"1900 W. 31st St","geo_precision":"street","state":"CO"},"type":"Feature","geometry":{"type":"Point","coordinates":[-104.617507,38.300934]}},{"properties":{"city":"Rocky Ford","county":"Otero","geo_score":0.602,"zip code":"81067","site":"Rocky Ford High School","id":"a9vjolc6mhd0","address":"100 W. Washington","geo_precision":"street","state":"CO"},"type":"Feature","geometry":{"type":"Point","coordinates":[-103.732111,38.044194]}},{"properties":{"city":"Manzanola","county":"Otero","geo_score":0.614,"zip code":"81058","site":"Manzanola Elementary School","id":"a9vjol872xv6","address":"200 S. Canal Street","geo_precision":"street","state":"CO"},"type":"Feature","geometry":{"type":"Point","coordinates":[-103.86897,38.108398]}},{"properties":{"city":"Cripple Creek","county":"Teller","geo_score":1.0,"zip code":"80813","site":"Cripple Creek High School - Aspen Mine","id":"a9vjoleshdqs","address":"166 E Bennett Ave","geo_precision":"range","state":"CO"},"type":"Feature","geometry":{"type":"Point","coordinates":[-105.17908,38.746518]}},{"properties":{"city":"Cripple Creek","county":"Teller","geo_score":0.571,"zip code":"80813","site":"Cresson Elementary School","id":"a9vjolco8j4y","address":"410 N. C Street","geo_precision":"street","state":"CO"},"type":"Feature","geometry":{"type":"Point","coordinates":[-105.18629,38.751395]}},{"properties":{"city":"Durango","county":"La Plata","geo_score":0.657,"zip code":"81301","site":"Needham Elementary School","id":"a9vjolfimmap","address":"2425 W. 3rd Ave","geo_precision":"street","state":"CO"},"type":"Feature","geometry":{"type":"Point","coordinates":[-107.867568,37.246168]}},{"properties":{"city":"Durango","county":"La Plata","geo_score":0.985,"zip code":"81301","site":"Animas Valley Elementary School","id":"a9vjoljx0c7w","address":"373 Hermosa Meadows Rod","geo_precision":"range","state":"CO"},"type":"Feature","geometry":{"type":"Point","coordinates":[-107.835815,37.400991]}},{"properties":{"city":"Mancos","county":"Montezuma","geo_score":0.571,"zip code":"81328","site":"Mancos Elementary School","id":"a9vjolile4ii","address":"395 W. Grand Ave","geo_precision":"street","state":"CO"},"type":"Feature","geometry":{"type":"Point","coordinates":[-108.289665,37.345117]}},{"properties":{"city":"Center","county":"Saguache","geo_score":0.604,"zip code":"81125","site":"Center - Haskin Elementary School","id":"a9vjolbvjpun","address":"500 S. Broadway","geo_precision":"street","state":"CO"},"type":"Feature","geometry":{"type":"Point","coordinates":[-106.112316,37.754453]}},{"properties":{"city":"Dove Creek","county":"Dolores","geo_score":1.0,"zip code":"81324","site":"Dove Creek Elementary School","id":"a9vjoln2jbm1","address":"713 Main St","geo_precision":"range","state":"CO"},"type":"Feature","geometry":{"type":"Point","coordinates":[-108.903862,37.76948]}}],"is_temporal":false,"author":{"url":"","metadata":"","contact_name":"","contact_address":"","source":"","contact_phone":""},"source":"","pagination":{"sort":null,"start":0,"total":29,"limit":1000000},"state":"complete","tags":"","published":"2014-08-14T15:58:35-04:00","id":290516}