{"type":"FeatureCollection","data_type":"Dataset Analysis","url_type":null,"permissions":[{"permissions":{"download":true,"view":true},"group_id":"everyone"}],"classification":null,"title":"Filtered Features of 'South Bronx Schools- field' based on 'South Bronx Schools- field'","count":9,"stream_id":291699,"contributor":{"url":"http://geocommons.com/users/54755","name":"Annalapomme"},"data_attributes":null,"calculation_params":{"input":{"min_distance":"10","near_id":"291698","unit":"m","distance":"2000","include_distance":true,"id":"291698"},"calculation":"buffer_intersect"},"icon_link":null,"link":"http://geocommons.com/overlays/291699.json","extent":[-73.9216,40.8139,-73.8841,40.8387],"geometry_types":["point"],"unique_name":null,"name":"Filtered Features of 'South Bronx Schools- field' based on 'South Bronx Schools- field'","feature_count":9,"description":"Dataset created by filtering features of 'South Bronx Schools- field' that are within a buffer of 10 to 2000 m around the features in 'South Bronx Schools- field'","next_feature":null,"is_raster":false,"short_classification":"Y","stats":{"geo_score":{"max":0.857,"variance":1.38666955995881e-32,"mean":0.857,"stdev":1.17756934401283e-16,"min":0.857,"median":0.857},"distance":{"max":1928.87579830522,"variance":920875.583994398,"mean":649.378963872488,"stdev":959.622625824547,"min":9.63054665606523,"median":9.63054665624168}},"features":[{"properties":{"city":"Bronx","school name":"Vida Bogart School for All Children/Hyde Leadership Charter School","geo_score":0.857,"adress":"730 Bryant Avenue","zip code":"10474","id":"a9y83mludmk2","geo_precision":"zip","state":"NY","distance":9.63054665624168},"type":"Feature","geometry":{"type":"Point","coordinates":[-73.884104,40.813929]}},{"properties":{"city":"Bronx","school name":"Bronx Elementary School","geo_score":0.857,"adress":"758 Courtlandt Avenue","zip code":"10451","id":"a9y83mm3ferz","geo_precision":"zip","state":"NY","distance":9.63054665606523},"type":"Feature","geometry":{"type":"Point","coordinates":[-73.920355,40.819329]}},{"properties":{"city":"Bronx","school name":"PS Middle School 31 the William Lloyd Garrison","geo_score":0.857,"adress":"250 East 156th Street","zip code":"10451","id":"a9y83ms96uhp","geo_precision":"zip","state":"NY","distance":9.63054665606523},"type":"Feature","geometry":{"type":"Point","coordinates":[-73.920355,40.819329]}},{"properties":{"city":"Bronx","school name":"PS 186 Walter J Damrosch School","geo_score":0.857,"adress":"750 Jennings Street","zip code":"10459","id":"a9y83mnh4luj","geo_precision":"zip","state":"NY","distance":9.63054665624168},"type":"Feature","geometry":{"type":"Point","coordinates":[-73.893605,40.825629]}},{"properties":{"city":"Bronx","school name":"Harriet Tubman Charter School","geo_score":0.857,"adress":"3565 3rd Avenue","zip code":"10456","id":"a9y83n01aac5","geo_precision":"zip","state":"NY","distance":1928.87579830522},"type":"Feature","geometry":{"type":"Point","coordinates":[-73.908655,40.830529]}},{"properties":{"city":"Bronx","school name":"PS 212","geo_score":0.857,"adress":"1180 Tinton Avenue","zip code":"10456","id":"a9y83mkzjdwe","geo_precision":"zip","state":"NY","distance":1928.87579830522},"type":"Feature","geometry":{"type":"Point","coordinates":[-73.908655,40.830529]}},{"properties":{"city":"Bronx","school name":"PS 17","geo_score":0.857,"adress":"778 Forest Avenue","zip code":"10456","id":"a9y83n0c8ubs","geo_precision":"zip","state":"NY","distance":1928.87579830522},"type":"Feature","geometry":{"type":"Point","coordinates":[-73.908655,40.830529]}},{"properties":{"city":"Bronx","school name":"PS/IS 218 Rafael Hernandez Dual Language Magnet School","geo_score":0.857,"adress":"1220 Gerard Avenue","zip code":"10452","id":"a9y83mprl3td","geo_precision":"zip","state":"NY","distance":9.63054665606523},"type":"Feature","geometry":{"type":"Point","coordinates":[-73.921605,40.838729]}},{"properties":{"city":"Bronx","school name":"PS 170","geo_score":0.857,"adress":"1598 Townsend Avenue","zip code":"10452","id":"a9y83mo5pm3s","geo_precision":"zip","state":"NY","distance":9.63054665606523},"type":"Feature","geometry":{"type":"Point","coordinates":[-73.921605,40.838729]}}],"is_temporal":false,"author":{"url":"","metadata":"","contact_name":"","contact_address":"","source":"","contact_phone":""},"source":"","pagination":{"sort":null,"start":0,"total":9,"limit":1000000},"state":"complete","tags":"","published":"2014-08-14T18:07:16-04:00","id":291699}