{"type":"FeatureCollection","data_type":"Dataset","url_type":null,"permissions":[{"permissions":{"download":true,"view":true},"group_id":"everyone"}],"classification":null,"title":"11_12_12_a","count":17,"stream_id":292715,"contributor":{"url":"http://geocommons.com/users/54675","name":"herzogam"},"data_attributes":null,"calculation_params":null,"icon_link":null,"link":"http://geocommons.com/overlays/292715.json","extent":[-84.5481,39.0917,-84.389,39.3026],"geometry_types":["point"],"unique_name":null,"name":"11_12_12_a","feature_count":17,"description":"","next_feature":null,"is_raster":false,"short_classification":"Y","stats":{"date":{"max":"2012/10/23 01:00:00 -0400","variance":26016538277647.1,"mean":"2012/08/23 05:14:07 -0400","stdev":5100640.96733411,"min":"2012/04/30 01:00:00 -0400","median":"2012/09/21 01:00:00 -0400"}},"features":[{"properties":{"city":"Cincinnati","zip":"45221","time":"23:45","date":{"end_time":"2012/05/05 01:00:01 -0400","original":"Sat May 05 00:00:00 -0400 2012","granularity":"sec","time":"2012/05/05 01:00:00 -0400"},"geo_score":0.429,"crime":"Public Indecency","id":"aa02v566m44h","address":"2900 Block Campus Green Dr","geo_precision":"street","state":"Oh"},"type":"Feature","geometry":{"type":"Point","coordinates":[-84.388961,39.091727]}},{"properties":{"city":"Cincinnati","zip":"45221","time":"13:00","date":{"end_time":"2012/10/23 01:00:01 -0400","original":"Tue Oct 23 00:00:00 -0400 2012","granularity":"sec","time":"2012/10/23 01:00:00 -0400"},"geo_score":0.667,"crime":"Public Indecency","id":"aa02v54d9rzk","address":"2900 Block Woodside Dr.","geo_precision":"range","state":"OH"},"type":"Feature","geometry":{"type":"Point","coordinates":[-84.514793,39.135723]}},{"properties":{"city":"Cincinnati","zip":"45221","time":"14:58","date":{"end_time":"2012/09/24 01:00:01 -0400","original":"Mon Sep 24 00:00:00 -0400 2012","granularity":"sec","time":"2012/09/24 01:00:00 -0400"},"geo_score":0.667,"crime":"Sexual Imposition","id":"aa02v58ecern","address":"2900 Block Woodside Dr.","geo_precision":"range","state":"OH"},"type":"Feature","geometry":{"type":"Point","coordinates":[-84.514793,39.135723]}},{"properties":{"city":"Cincinnati","zip":"45221","time":"14:55","date":{"end_time":"2012/09/24 01:00:01 -0400","original":"Mon Sep 24 00:00:00 -0400 2012","granularity":"sec","time":"2012/09/24 01:00:00 -0400"},"geo_score":0.667,"crime":"Sexual Imposition","id":"aa02v503s1bj","address":"2900 Block Woodside Dr.","geo_precision":"range","state":"OH"},"type":"Feature","geometry":{"type":"Point","coordinates":[-84.514793,39.135723]}},{"properties":{"city":"Cincinnati","zip":"45221","time":"15:50","date":{"end_time":"2012/10/09 01:00:01 -0400","original":"Tue Oct 09 00:00:00 -0400 2012","granularity":"sec","time":"2012/10/09 01:00:00 -0400"},"geo_score":0.561,"crime":"Sexual Imposition","id":"aa02v5ct0kcb","address":"300 Block Clifton Ct.","geo_precision":"street","state":"Oh"},"type":"Feature","geometry":{"type":"Point","coordinates":[-84.512923,39.11463]}},{"properties":{"city":"Cincinnati","zip":"45221","time":"16:30","date":{"end_time":"2012/10/09 01:00:01 -0400","original":"Tue Oct 09 00:00:00 -0400 2012","granularity":"sec","time":"2012/10/09 01:00:00 -0400"},"geo_score":0.415,"crime":"Public Indecency","id":"aa02v51cgkwr","address":"2600 Block McMicken Circle","geo_precision":"street","state":"OH"},"type":"Feature","geometry":{"type":"Point","coordinates":[-84.548104,39.233531]}},{"properties":{"city":"Cincinnati","zip":"45219","time":"11:25","date":{"end_time":"2012/09/24 01:00:01 -0400","original":"Mon Sep 24 00:00:00 -0400 2012","granularity":"sec","time":"2012/09/24 01:00:00 -0400"},"geo_score":0.89,"crime":"Sexual Imposition","id":"aa02v58antm4","address":"200 Block Calhoun St","geo_precision":"range","state":"OH"},"type":"Feature","geometry":{"type":"Point","coordinates":[-84.515226,39.128218]}},{"properties":{"city":"Cincinnati","zip":"45219","time":"16:10","date":{"end_time":"2012/09/12 01:00:01 -0400","original":"Wed Sep 12 00:00:00 -0400 2012","granularity":"sec","time":"2012/09/12 01:00:00 -0400"},"geo_score":0.89,"crime":"Sexual Imposition (forcible)","id":"aa02v5069oev","address":"200 Block Calhoun St","geo_precision":"range","state":"OH"},"type":"Feature","geometry":{"type":"Point","coordinates":[-84.515226,39.128218]}},{"properties":{"city":"Cincinnati","zip":"45219","time":"16:00","date":{"end_time":"2012/09/12 01:00:01 -0400","original":"Wed Sep 12 00:00:00 -0400 2012","granularity":"sec","time":"2012/09/12 01:00:00 -0400"},"geo_score":0.89,"crime":"Sexual Imposition (forcible)","id":"aa02v548ud0r","address":"200 Block Calhoun St","geo_precision":"range","state":"OH"},"type":"Feature","geometry":{"type":"Point","coordinates":[-84.515226,39.128218]}},{"properties":{"city":"Cincinnati","zip":"45219","time":"7:52","date":{"end_time":"2012/06/10 01:00:01 -0400","original":"Sun Jun 10 00:00:00 -0400 2012","granularity":"sec","time":"2012/06/10 01:00:00 -0400"},"geo_score":0.865,"crime":"Sexual Imposition","id":"aa02v5ao5hgk","address":"200 Block Lyon Street","geo_precision":"range","state":"OH"},"type":"Feature","geometry":{"type":"Point","coordinates":[-84.519432,39.127013]}},{"properties":{"city":"Cincinnati","zip":"45219","time":"14:44","date":{"end_time":"2012/04/30 01:00:01 -0400","original":"Mon Apr 30 00:00:00 -0400 2012","granularity":"sec","time":"2012/04/30 01:00:00 -0400"},"geo_score":0.875,"crime":"Sexual Impostion","id":"aa02v5a1vbk5","address":"2400 Block Ohio Ave","geo_precision":"range","state":"OH"},"type":"Feature","geometry":{"type":"Point","coordinates":[-84.515132,39.126754]}},{"properties":{"city":"Cincinnati","zip":"45220","time":"2:23","date":{"end_time":"2012/06/11 01:00:01 -0400","original":"Mon Jun 11 00:00:00 -0400 2012","granularity":"sec","time":"2012/06/11 01:00:00 -0400"},"geo_score":0.883,"crime":"Forcible Rape","id":"aa02v50c3dme","address":"600 Block Riddle Rd","geo_precision":"range","state":"OH"},"type":"Feature","geometry":{"type":"Point","coordinates":[-84.529314,39.13611]}},{"properties":{"city":"Cincinnati","zip":"45219","time":"19:13","date":{"end_time":"2012/10/14 01:00:01 -0400","original":"Sun Oct 14 00:00:00 -0400 2012","granularity":"sec","time":"2012/10/14 01:00:00 -0400"},"geo_score":0.42,"crime":"Forcible Rape","id":"aa02v57vwj12","address":"2500 Block Highland Av","geo_precision":"street","state":"OH"},"type":"Feature","geometry":{"type":"Point","coordinates":[-84.534707,39.302611]}},{"properties":{"city":"Cincinnati","zip":"45219","time":"9:40","date":{"end_time":"2012/09/21 01:00:01 -0400","original":"Fri Sep 21 00:00:00 -0400 2012","granularity":"sec","time":"2012/09/21 01:00:00 -0400"},"geo_score":0.793,"crime":"Public Indecency","id":"aa02v51oljuq","address":"300 Block Goodman St.","geo_precision":"range","state":"Oh"},"type":"Feature","geometry":{"type":"Point","coordinates":[-84.501316,39.13673]}},{"properties":{"city":"Cincinnati","zip":"45219","time":"10:00","date":{"end_time":"2012/10/15 01:00:01 -0400","original":"Mon Oct 15 00:00:00 -0400 2012","granularity":"sec","time":"2012/10/15 01:00:00 -0400"},"geo_score":0.89,"crime":"Sexual Imposition","id":"aa02v55g4vkn","address":"200 Block Goodman St.","geo_precision":"range","state":"OH"},"type":"Feature","geometry":{"type":"Point","coordinates":[-84.503785,39.136801]}},{"properties":{"city":"Cincinnati","zip":"45219","time":"0:00","date":{"end_time":"2012/07/26 01:00:01 -0400","original":"Thu Jul 26 00:00:00 -0400 2012","granularity":"sec","time":"2012/07/26 01:00:00 -0400"},"geo_score":0.89,"crime":"Rape by Force","id":"aa02v4yqwkhj","address":"200 Block Goodman St.","geo_precision":"range","state":"OH"},"type":"Feature","geometry":{"type":"Point","coordinates":[-84.503785,39.136801]}},{"properties":{"city":"Cincinnati","zip":"45229","time":"16:30","date":{"end_time":"2012/08/01 01:00:01 -0400","original":"Wed Aug 01 00:00:00 -0400 2012","granularity":"sec","time":"2012/08/01 01:00:00 -0400"},"geo_score":0.521,"crime":"Sexual Imposition (forcible fondling)","id":"aa02v52ldipl","address":"200 Block Albert Sabin Way","geo_precision":"street","state":"OH"},"type":"Feature","geometry":{"type":"Point","coordinates":[-84.499625,39.161741]}}],"is_temporal":true,"author":{"url":"","metadata":null,"contact_name":null,"contact_address":null,"source":null,"contact_phone":null},"source":"","pagination":{"sort":null,"start":0,"total":17,"limit":1000000},"state":"complete","tags":"","published":"2014-08-14T19:19:08-04:00","id":292715}