{"type":"FeatureCollection","data_type":"Dataset","url_type":null,"permissions":[{"permissions":{"download":true,"view":true},"group_id":"everyone"}],"classification":null,"title":"sexual_offenses_11_12_12","count":17,"stream_id":292752,"contributor":{"url":"http://geocommons.com/users/54675","name":"herzogam"},"data_attributes":null,"calculation_params":null,"icon_link":null,"link":"http://geocommons.com/overlays/292752.json","extent":[-84.5293,39.1268,-84.5013,39.137],"geometry_types":["point"],"unique_name":null,"name":"sexual_offenses_11_12_12","feature_count":17,"description":"","next_feature":null,"is_raster":false,"short_classification":"Y","stats":{"latitude":{"max":39.137,"variance":1.5780782441185e-05,"mean":39.1328237647059,"stdev":0.00397250329656062,"min":39.126754,"median":39.13459},"date":{"max":"2012/10/23 01:00:00 -0400","variance":26016538277647.1,"mean":"2012/08/23 05:14:07 -0400","stdev":5100640.96733411,"min":"2012/04/30 01:00:00 -0400","median":"2012/09/21 01:00:00 -0400"},"longitude":{"max":-84.501316,"variance":5.2728641070014e-05,"mean":-84.5125431,"stdev":0.00726144896491148,"min":-84.529314,"median":-84.5149}},"features":[{"properties":{"city":"Cincinnati","zip":"45221","latitude":39.1352,"time":"23:45","date":{"end_time":"2012/05/05 01:00:01 -0400","original":"Sat May 05 00:00:00 -0400 2012","granularity":"sec","time":"2012/05/05 01:00:00 -0400"},"crime":"Public Indecency","longitude":-84.5131,"id":"aa03y63kr3e0","address":"2900 Block Campus Green Dr","state":"Oh"},"type":"Feature","geometry":{"type":"Point","coordinates":[-84.5131,39.1352]}},{"properties":{"city":"Cincinnati","zip":"45221","latitude":39.13459,"time":"13:00","date":{"end_time":"2012/10/23 01:00:01 -0400","original":"Tue Oct 23 00:00:00 -0400 2012","granularity":"sec","time":"2012/10/23 01:00:00 -0400"},"crime":"Public Indecency","longitude":-84.5149,"id":"aa03y61s7oed","address":"2900 Block Woodside Dr.","state":"OH"},"type":"Feature","geometry":{"type":"Point","coordinates":[-84.5149,39.13459]}},{"properties":{"city":"Cincinnati","zip":"45221","latitude":39.13509,"time":"14:58","date":{"end_time":"2012/09/24 01:00:01 -0400","original":"Mon Sep 24 00:00:00 -0400 2012","granularity":"sec","time":"2012/09/24 01:00:00 -0400"},"crime":"Sexual Imposition","longitude":-84.5149,"id":"aa03y5zpqc8t","address":"2900 Block Woodside Dr.","state":"OH"},"type":"Feature","geometry":{"type":"Point","coordinates":[-84.5149,39.13509]}},{"properties":{"city":"Cincinnati","zip":"45221","latitude":39.13459,"time":"14:55","date":{"end_time":"2012/09/24 01:00:01 -0400","original":"Mon Sep 24 00:00:00 -0400 2012","granularity":"sec","time":"2012/09/24 01:00:00 -0400"},"crime":"Sexual Imposition","longitude":-84.5149,"id":"aa03y5z6wcv6","address":"2900 Block Woodside Dr.","state":"OH"},"type":"Feature","geometry":{"type":"Point","coordinates":[-84.5149,39.13459]}},{"properties":{"city":"Cincinnati","zip":"45221","latitude":39.13492,"time":"15:50","date":{"end_time":"2012/10/09 01:00:01 -0400","original":"Tue Oct 09 00:00:00 -0400 2012","granularity":"sec","time":"2012/10/09 01:00:00 -0400"},"crime":"Sexual Imposition","longitude":-84.5176,"id":"aa03y5wdqlaz","address":"300 Block College Ct.","state":"Oh"},"type":"Feature","geometry":{"type":"Point","coordinates":[-84.5176,39.13492]}},{"properties":{"city":"Cincinnati","zip":"45221","latitude":39.133531,"time":"16:30","date":{"end_time":"2012/10/09 01:00:01 -0400","original":"Tue Oct 09 00:00:00 -0400 2012","granularity":"sec","time":"2012/10/09 01:00:00 -0400"},"crime":"Public Indecency","longitude":-84.51245,"id":"aa03y5yldsap","address":"2600 Block McMicken Circle","state":"OH"},"type":"Feature","geometry":{"type":"Point","coordinates":[-84.51245,39.133531]}},{"properties":{"city":"Cincinnati","zip":"45219","latitude":39.128218,"time":"11:25","date":{"end_time":"2012/09/24 01:00:01 -0400","original":"Mon Sep 24 00:00:00 -0400 2012","granularity":"sec","time":"2012/09/24 01:00:00 -0400"},"crime":"Sexual Imposition","longitude":-84.515226,"id":"aa03y65cmlle","address":"200 Block Calhoun St","state":"OH"},"type":"Feature","geometry":{"type":"Point","coordinates":[-84.515226,39.128218]}},{"properties":{"city":"Cincinnati","zip":"45219","latitude":39.128218,"time":"16:10","date":{"end_time":"2012/09/12 01:00:01 -0400","original":"Wed Sep 12 00:00:00 -0400 2012","granularity":"sec","time":"2012/09/12 01:00:00 -0400"},"crime":"Sexual Imposition (forcible)","longitude":-84.515226,"id":"aa03y5sljbyi","address":"200 Block Calhoun St","state":"OH"},"type":"Feature","geometry":{"type":"Point","coordinates":[-84.515226,39.128218]}},{"properties":{"city":"Cincinnati","zip":"45219","latitude":39.128218,"time":"16:00","date":{"end_time":"2012/09/12 01:00:01 -0400","original":"Wed Sep 12 00:00:00 -0400 2012","granularity":"sec","time":"2012/09/12 01:00:00 -0400"},"crime":"Sexual Imposition (forcible)","longitude":-84.515226,"id":"aa03y64mynuv","address":"200 Block Calhoun St","state":"OH"},"type":"Feature","geometry":{"type":"Point","coordinates":[-84.515226,39.128218]}},{"properties":{"city":"Cincinnati","zip":"45219","latitude":39.127013,"time":"7:52","date":{"end_time":"2012/06/10 01:00:01 -0400","original":"Sun Jun 10 00:00:00 -0400 2012","granularity":"sec","time":"2012/06/10 01:00:00 -0400"},"crime":"Sexual Imposition","longitude":-84.519432,"id":"aa03y5y57vtx","address":"200 Block Lyon Street","state":"OH"},"type":"Feature","geometry":{"type":"Point","coordinates":[-84.519432,39.127013]}},{"properties":{"city":"Cincinnati","zip":"45219","latitude":39.126754,"time":"14:44","date":{"end_time":"2012/04/30 01:00:01 -0400","original":"Mon Apr 30 00:00:00 -0400 2012","granularity":"sec","time":"2012/04/30 01:00:00 -0400"},"crime":"Sexual Impostion","longitude":-84.515132,"id":"aa03y5xbsanh","address":"2400 Block Ohio Ave","state":"OH"},"type":"Feature","geometry":{"type":"Point","coordinates":[-84.515132,39.126754]}},{"properties":{"city":"Cincinnati","zip":"45220","latitude":39.13611,"time":"2:23","date":{"end_time":"2012/06/11 01:00:01 -0400","original":"Mon Jun 11 00:00:00 -0400 2012","granularity":"sec","time":"2012/06/11 01:00:00 -0400"},"crime":"Forcible Rape","longitude":-84.529314,"id":"aa03y658j1zu","address":"600 Block Riddle Rd","state":"OH"},"type":"Feature","geometry":{"type":"Point","coordinates":[-84.529314,39.13611]}},{"properties":{"city":"Cincinnati","zip":"45219","latitude":39.12822,"time":"19:13","date":{"end_time":"2012/10/14 01:00:01 -0400","original":"Sun Oct 14 00:00:00 -0400 2012","granularity":"sec","time":"2012/10/14 01:00:00 -0400"},"crime":"Forcible Rape","longitude":-84.5034707,"id":"aa03y64a9brd","address":"2500 Block Highland Av","state":"OH"},"type":"Feature","geometry":{"type":"Point","coordinates":[-84.5034707,39.12822]}},{"properties":{"city":"Cincinnati","zip":"45219","latitude":39.13673,"time":"9:40","date":{"end_time":"2012/09/21 01:00:01 -0400","original":"Fri Sep 21 00:00:00 -0400 2012","granularity":"sec","time":"2012/09/21 01:00:00 -0400"},"crime":"Public Indecency","longitude":-84.501316,"id":"aa03y603j3eb","address":"300 Block Goodman St.","state":"Oh"},"type":"Feature","geometry":{"type":"Point","coordinates":[-84.501316,39.13673]}},{"properties":{"city":"Cincinnati","zip":"45219","latitude":39.136801,"time":"10:00","date":{"end_time":"2012/10/15 01:00:01 -0400","original":"Mon Oct 15 00:00:00 -0400 2012","granularity":"sec","time":"2012/10/15 01:00:00 -0400"},"crime":"Sexual Imposition","longitude":-84.503785,"id":"aa03y5rc4rv1","address":"200 Block Goodman St.","state":"OH"},"type":"Feature","geometry":{"type":"Point","coordinates":[-84.503785,39.136801]}},{"properties":{"city":"Cincinnati","zip":"45219","latitude":39.136801,"time":"0:00","date":{"end_time":"2012/07/26 01:00:01 -0400","original":"Thu Jul 26 00:00:00 -0400 2012","granularity":"sec","time":"2012/07/26 01:00:00 -0400"},"crime":"Rape by Force","longitude":-84.503785,"id":"aa03y5wj1gbf","address":"200 Block Goodman St.","state":"OH"},"type":"Feature","geometry":{"type":"Point","coordinates":[-84.503785,39.136801]}},{"properties":{"city":"Cincinnati","zip":"45229","latitude":39.137,"time":"16:30","date":{"end_time":"2012/08/01 01:00:01 -0400","original":"Wed Aug 01 00:00:00 -0400 2012","granularity":"sec","time":"2012/08/01 01:00:00 -0400"},"crime":"Sexual Imposition (forcible fondling)","longitude":-84.50347,"id":"aa03y5zfusrq","address":"200 Block Albert Sabin Way","state":"OH"},"type":"Feature","geometry":{"type":"Point","coordinates":[-84.50347,39.137]}}],"is_temporal":true,"author":{"url":"","metadata":null,"contact_name":null,"contact_address":null,"source":null,"contact_phone":null},"source":"","pagination":{"sort":null,"start":0,"total":17,"limit":1000000},"state":"complete","tags":"","published":"2014-08-14T19:21:50-04:00","id":292752}