{"type":"FeatureCollection","data_type":"Dataset","url_type":null,"permissions":[{"permissions":{"download":true,"view":true},"group_id":"everyone"}],"classification":null,"title":"CSV_Version_Linzess_Targets_with_Address_-_Nov_13_2012","count":143,"stream_id":293058,"contributor":{"url":"http://geocommons.com/users/55862","name":"jmizzo"},"data_attributes":null,"calculation_params":null,"icon_link":null,"link":"http://geocommons.com/overlays/293058.json","extent":[-80.4948,40.4344,-77.9567,42.1827],"geometry_types":["point"],"unique_name":null,"name":"CSV_Version_Linzess_Targets_with_Address_-_Nov_13_2012","feature_count":143,"description":"","next_feature":null,"is_raster":false,"short_classification":"Y","stats":{"phone":{"max":8149383310,"variance":2.51131405443753e+18,"mean":6632875227.38793,"stdev":1584712609.41457,"min":4122351020,"median":7247736840}},"features":[{"properties":{"name":"SIMONS, BERNIE","city":"ALIQUIPPA","zip":"15001","geo_score":0.714,"address line 1":"99 BUSS RD","phone":7243786640,"id":"aa0g44q0xa1p","geo_precision":"zip"},"type":"Feature","geometry":{"type":"Point","coordinates":[-80.246172,40.617845]}},{"properties":{"name":"JAHDI, NASROLLAH","city":"AMBRIDGE","zip":"15003","geo_score":0.714,"address line 1":"751 MERCHANT ST","phone":null,"id":"aa0g44r6gh4b","geo_precision":"zip"},"type":"Feature","geometry":{"type":"Point","coordinates":[-80.224782,40.600067]}},{"properties":{"name":"FARLAND, MONICA","city":"BEAVER","zip":"15009","geo_score":0.714,"address line 1":"1211 3RD ST","phone":7247700990,"id":"aa0g44m3t5h7","geo_precision":"zip"},"type":"Feature","geometry":{"type":"Point","coordinates":[-80.328952,40.68451]}},{"properties":{"name":"EVERHART, BRIAN","city":"BEAVER","zip":"15009","geo_score":0.714,"address line 1":"500 SHARON RD","phone":null,"id":"aa0g44rwa5pq","geo_precision":"zip"},"type":"Feature","geometry":{"type":"Point","coordinates":[-80.328952,40.68451]}},{"properties":{"name":"WRIGHT, MATTHEW","city":"BEAVER","zip":"15009","geo_score":0.714,"address line 1":"701 5TH ST","phone":7247740232,"id":"aa0g450qghfo","geo_precision":"zip"},"type":"Feature","geometry":{"type":"Point","coordinates":[-80.328952,40.68451]}},{"properties":{"name":"HERRMANN, SAMANTHA","city":"BEAVER FALLS","zip":"15010","geo_score":0.714,"address line 1":"100 KNOWLSON AVE","phone":7248912100,"id":"aa0g44qnnnya","geo_precision":"zip"},"type":"Feature","geometry":{"type":"Point","coordinates":[-80.325619,40.760621]}},{"properties":{"name":"VENTURA, DOMINIC","city":"BEAVER FALLS","zip":"15010","geo_score":0.714,"address line 1":"100 KNOWLSON AVE","phone":7248912100,"id":"aa0g44z35qsz","geo_precision":"zip"},"type":"Feature","geometry":{"type":"Point","coordinates":[-80.325619,40.760621]}},{"properties":{"name":"MOSKOVITZ, MORRY","city":"BEAVER FALLS","zip":"15010","geo_score":0.714,"address line 1":"100 KNOWLSON AVE","phone":7248912100,"id":"aa0g44rimvr9","geo_precision":"zip"},"type":"Feature","geometry":{"type":"Point","coordinates":[-80.325619,40.760621]}},{"properties":{"name":"MC CLURE, JONATHAN","city":"BEAVER FALLS","zip":"15010","geo_score":0.714,"address line 1":"100 KNOWLSON AVE","phone":7248912100,"id":"aa0g44px4xvu","geo_precision":"zip"},"type":"Feature","geometry":{"type":"Point","coordinates":[-80.325619,40.760621]}},{"properties":{"name":"DAMAZO, ELPIDIO I","city":"BEAVER FALLS","zip":"15010","geo_score":0.714,"address line 1":"619 15TH ST","phone":7248469150,"id":"aa0g44lxxuxc","geo_precision":"zip"},"type":"Feature","geometry":{"type":"Point","coordinates":[-80.325619,40.760621]}},{"properties":{"name":"GRIECO, ROBERT","city":"BEAVER FALLS","zip":"15010","geo_score":0.714,"address line 1":"2620 CONSTITUTION BLVD","phone":7248431498,"id":"aa0g44zii5yd","geo_precision":"zip"},"type":"Feature","geometry":{"type":"Point","coordinates":[-80.325619,40.760621]}},{"properties":{"name":"RODRIGUEZ, JASON","city":"BEAVER FALLS","zip":"15010","geo_score":0.714,"address line 1":"2620 CONSTITUTION BLVD","phone":null,"id":"aa0g44t6c9eq","geo_precision":"zip"},"type":"Feature","geometry":{"type":"Point","coordinates":[-80.325619,40.760621]}},{"properties":{"name":"VINOPAL, APRIL","city":"BEAVER FALLS","zip":"15010","geo_score":0.714,"address line 1":"100 KNOWLSON AVE","phone":7248912100,"id":"aa0g44tpmswk","geo_precision":"zip"},"type":"Feature","geometry":{"type":"Point","coordinates":[-80.325619,40.760621]}},{"properties":{"name":"FADDEN, ROBERT","city":"BEAVER FALLS","zip":"15010","geo_score":0.714,"address line 1":"100 KNOWLSON AVE","phone":7248912100,"id":"aa0g44ybqkus","geo_precision":"zip"},"type":"Feature","geometry":{"type":"Point","coordinates":[-80.325619,40.760621]}},{"properties":{"name":"JEROME-ZAPADKA, KAREN","city":"BEAVER FALLS","zip":"15010","geo_score":0.714,"address line 1":"100 KNOWLSON AVE","phone":null,"id":"aa0g44pnl65e","geo_precision":"zip"},"type":"Feature","geometry":{"type":"Point","coordinates":[-80.325619,40.760621]}},{"properties":{"name":"INGLESE, ROBERTO","city":"BEAVER FALLS","zip":"15010","geo_score":0.714,"address line 1":"100 KNOWLSON AVE","phone":7246525505,"id":"aa0g44nlzrwf","geo_precision":"zip"},"type":"Feature","geometry":{"type":"Point","coordinates":[-80.325619,40.760621]}},{"properties":{"name":"CONNELLY, SEAN","city":"BEAVER FALLS","zip":"15010","geo_score":0.714,"address line 1":"100 KNOWLSON AVE","phone":7248912100,"id":"aa0g44twr3ky","geo_precision":"zip"},"type":"Feature","geometry":{"type":"Point","coordinates":[-80.325619,40.760621]}},{"properties":{"name":"KALENAK, ALEXANDER","city":"BEAVER FALLS","zip":"15010","geo_score":0.714,"address line 1":"2580 CONSTITUTION BLVD","phone":7247736840,"id":"aa0g44qib8wl","geo_precision":"zip"},"type":"Feature","geometry":{"type":"Point","coordinates":[-80.325619,40.760621]}},{"properties":{"name":"PENCE, DAVID","city":"BEAVER FALLS","zip":"15010","geo_score":0.714,"address line 1":"100 KNOWLSON AVE","phone":7248912100,"id":"aa0g450lz5zu","geo_precision":"zip"},"type":"Feature","geometry":{"type":"Point","coordinates":[-80.325619,40.760621]}},{"properties":{"name":"DE JESUS, MICHAEL","city":"BEAVER FALLS","zip":"15010","geo_score":0.714,"address line 1":"100 KNOWLSON AVE","phone":null,"id":"aa0g44mputvg","geo_precision":"zip"},"type":"Feature","geometry":{"type":"Point","coordinates":[-80.325619,40.760621]}},{"properties":{"name":"VICTAIN, MICHELLE","city":"BEAVER FALLS","zip":"15010","geo_score":0.714,"address line 1":"100 KNOWLSON AVE","phone":7248912100,"id":"aa0g44yzx3cs","geo_precision":"zip"},"type":"Feature","geometry":{"type":"Point","coordinates":[-80.325619,40.760621]}},{"properties":{"name":"DEAKIN, SUSAN","city":"GIBSONIA","zip":"15044","geo_score":0.714,"address line 1":"5375 WILLIAM FLYNN HWY","phone":null,"id":"aa0g44ythr90","geo_precision":"zip"},"type":"Feature","geometry":{"type":"Point","coordinates":[-80.024817,40.434436]}},{"properties":{"name":"ZDUNEK, JAY","city":"MIDLAND","zip":"15059","geo_score":0.714,"address line 1":"21 7TH ST","phone":7246434852,"id":"aa0g44qxy15h","geo_precision":"zip"},"type":"Feature","geometry":{"type":"Point","coordinates":[-80.494789,40.679231]}},{"properties":{"name":"ZERNICH, GREGG","city":"MONACA","zip":"15061","geo_score":0.714,"address line 1":"3950 BRODHEAD RD","phone":7247755833,"id":"aa0g44laezs0","geo_precision":"zip"},"type":"Feature","geometry":{"type":"Point","coordinates":[-80.327814,40.656366]}},{"properties":{"name":"HANZLIK, HEATHER","city":"NATRONA HEIGHTS","zip":"15065","geo_score":0.714,"address line 1":"1719 UNION AVE","phone":7242262128,"id":"aa0g44oc2shn","geo_precision":"zip"},"type":"Feature","geometry":{"type":"Point","coordinates":[-79.719492,40.614511]}},{"properties":{"name":"FUNKHOUSER, JAY","city":"NEW BRIGHTON","zip":"15066","geo_score":0.714,"address line 1":"721 5TH AVE","phone":7248465250,"id":"aa0g44swsux3","geo_precision":"zip"},"type":"Feature","geometry":{"type":"Point","coordinates":[-80.315618,40.725621]}},{"properties":{"name":"BAJWA, SURINDER","city":"NEW KENSINGTON","zip":"15068","geo_score":0.714,"address line 1":"305 7TH ST","phone":7243393900,"id":"aa0g44yhfyjo","geo_precision":"zip"},"type":"Feature","geometry":{"type":"Point","coordinates":[-79.723659,40.599789]}},{"properties":{"name":"KICHLER, JOEL","city":"NEW KENSINGTON","zip":"15068","geo_score":0.714,"address line 1":"1 KENSINGTON SQ","phone":7243373531,"id":"aa0g44n4xaq0","geo_precision":"zip"},"type":"Feature","geometry":{"type":"Point","coordinates":[-79.723659,40.599789]}},{"properties":{"name":"FIROZ, HADI","city":"NEW KENSINGTON","zip":"15068","geo_score":0.714,"address line 1":"305 7TH ST","phone":7243393900,"id":"aa0g44lo2l7s","geo_precision":"zip"},"type":"Feature","geometry":{"type":"Point","coordinates":[-79.723659,40.599789]}},{"properties":{"name":"STEINER, DANIEL","city":"LOWER BURRELL","zip":"15068","geo_score":0.714,"address line 1":"1600 WILDLIFE LODGE RD","phone":4128280240,"id":"aa0g44xe31wk","geo_precision":"zip"},"type":"Feature","geometry":{"type":"Point","coordinates":[-79.723659,40.599789]}},{"properties":{"name":"DUNN, ROBERT","city":"NEW KENSINGTON","zip":"15068","geo_score":0.714,"address line 1":"1600 WILDLIFE LODGE RD","phone":7243342000,"id":"aa0g44oqhl45","geo_precision":"zip"},"type":"Feature","geometry":{"type":"Point","coordinates":[-79.723659,40.599789]}},{"properties":{"name":"LIPSITZ, H","city":"TARENTUM","zip":"15084","geo_score":0.714,"address line 1":"301 E 1ST AVE","phone":7242243113,"id":"aa0g44y1bler","geo_precision":"zip"},"type":"Feature","geometry":{"type":"Point","coordinates":[-79.770327,40.596456]}},{"properties":{"name":"GLICK, KENNETH","city":"TARENTUM","zip":"15084","geo_score":0.714,"address line 1":"301 E 1ST AVE","phone":7242243113,"id":"aa0g44r4dyob","geo_precision":"zip"},"type":"Feature","geometry":{"type":"Point","coordinates":[-79.770327,40.596456]}},{"properties":{"name":"FERLAN, LAWRENCE","city":"TARENTUM","zip":"15084","geo_score":0.714,"address line 1":"317 E 1ST AVE","phone":7242262900,"id":"aa0g44tyyrgr","geo_precision":"zip"},"type":"Feature","geometry":{"type":"Point","coordinates":[-79.770327,40.596456]}},{"properties":{"name":"SIVAKUMAR, USHA","city":"TARENTUM","zip":"15084","geo_score":0.714,"address line 1":"415 E 4TH AVE","phone":7242243530,"id":"aa0g44ybrmyb","geo_precision":"zip"},"type":"Feature","geometry":{"type":"Point","coordinates":[-79.770327,40.596456]}},{"properties":{"name":"ASHOK, PUDUCHERI","city":"WEXFORD","zip":"15090","geo_score":0.714,"address line 1":"5500 BROOKTREE RD","phone":7249331420,"id":"aa0g44rofjeo","geo_precision":"zip"},"type":"Feature","geometry":{"type":"Point","coordinates":[-80.024817,40.434436]}},{"properties":{"name":"PHILLIPS, WILLIAM","city":"WEXFORD","zip":"15090","geo_score":0.714,"address line 1":"5500 BROOKTREE RD","phone":7249331420,"id":"aa0g44nwyevf","geo_precision":"zip"},"type":"Feature","geometry":{"type":"Point","coordinates":[-80.024817,40.434436]}},{"properties":{"name":"MLECKO, MICHAEL","city":"WEXFORD","zip":"15090","geo_score":0.714,"address line 1":"5500 BROOKTREE RD","phone":7249331420,"id":"aa0g44ogrs8l","geo_precision":"zip"},"type":"Feature","geometry":{"type":"Point","coordinates":[-80.024817,40.434436]}},{"properties":{"name":"CINCALA, ROBERT","city":"WEXFORD","zip":"15090","geo_score":0.714,"address line 1":"5500 BROOKTREE RD","phone":7249331420,"id":"aa0g44mm9m5b","geo_precision":"zip"},"type":"Feature","geometry":{"type":"Point","coordinates":[-80.024817,40.434436]}},{"properties":{"name":"PILLA, JAMES","city":"CORAOPOLIS","zip":"15108","geo_score":0.714,"address line 1":"725 CHERRINGTON PKWY","phone":4122621000,"id":"aa0g44o521uv","geo_precision":"zip"},"type":"Feature","geometry":{"type":"Point","coordinates":[-80.239226,40.508957]}},{"properties":{"name":"KIM, FRANK","city":"CORAOPOLIS","zip":"15108","geo_score":0.714,"address line 1":"725 CHERRINGTON PKWY","phone":null,"id":"aa0g44pyr5mn","geo_precision":"zip"},"type":"Feature","geometry":{"type":"Point","coordinates":[-80.239226,40.508957]}},{"properties":{"name":"STINE, LESTER JR","city":"CORAOPOLIS","zip":"15108","geo_score":0.714,"address line 1":"725 CHERRINGTON PKWY","phone":4122621000,"id":"aa0g44kys9bd","geo_precision":"zip"},"type":"Feature","geometry":{"type":"Point","coordinates":[-80.239226,40.508957]}},{"properties":{"name":"STANLEY, ERNEST","city":"CORAOPOLIS","zip":"15108","geo_score":0.714,"address line 1":"725 CHERRINGTON PKWY","phone":null,"id":"aa0g44wmeniv","geo_precision":"zip"},"type":"Feature","geometry":{"type":"Point","coordinates":[-80.239226,40.508957]}},{"properties":{"name":"FUSCO, ROBERT","city":"CORAOPOLIS","zip":"15108","geo_score":0.714,"address line 1":"725 CHERRINGTON PKWY","phone":4122621000,"id":"aa0g44vyflx8","geo_precision":"zip"},"type":"Feature","geometry":{"type":"Point","coordinates":[-80.239226,40.508957]}},{"properties":{"name":"KIM, RICHARD","city":"CORAOPOLIS","zip":"15108","geo_score":0.714,"address line 1":"725 CHERRINGTON PKWY","phone":null,"id":"aa0g44y4gvk9","geo_precision":"zip"},"type":"Feature","geometry":{"type":"Point","coordinates":[-80.239226,40.508957]}},{"properties":{"name":"FLANNAGAN, RENEE","city":"CORAOPOLIS","zip":"15108","geo_score":0.714,"address line 1":"725 CHERRINGTON PKWY","phone":null,"id":"aa0g4512whaq","geo_precision":"zip"},"type":"Feature","geometry":{"type":"Point","coordinates":[-80.239226,40.508957]}},{"properties":{"name":"MCPARLANE, KATHRYN","city":"MOON TOWNSHIP","zip":"15108","geo_score":0.714,"address line 1":"725 CHERRINGTON PKWY","phone":4122621000,"id":"aa0g44nfd18r","geo_precision":"zip"},"type":"Feature","geometry":{"type":"Point","coordinates":[-80.239226,40.508957]}},{"properties":{"name":"BUBENHEIM, DANIEL","city":"MC KEES ROCKS","zip":"15136","geo_score":0.714,"address line 1":"1800 PINE HOLLOW RD","phone":null,"id":"aa0g44pd60c9","geo_precision":"zip"},"type":"Feature","geometry":{"type":"Point","coordinates":[-80.065611,40.465624]}},{"properties":{"name":"ROSEMAN, SHARON","city":"SEWICKLEY","zip":"15143","geo_score":0.714,"address line 1":"701 BROAD ST","phone":null,"id":"aa0g44rgvfvz","geo_precision":"zip"},"type":"Feature","geometry":{"type":"Point","coordinates":[-80.158947,40.526457]}},{"properties":{"name":"SHINN, SARAH","city":"SEWICKLEY","zip":"15143","geo_score":0.714,"address line 1":"2591 WEXFORD BAYNE RD","phone":7249352620,"id":"aa0g44yr0ksl","geo_precision":"zip"},"type":"Feature","geometry":{"type":"Point","coordinates":[-80.158947,40.526457]}},{"properties":{"name":"WOOD, JOHN","city":"PITTSBURGH","zip":"15215","geo_score":0.714,"address line 1":"100 DELAFIELD RD","phone":4127841110,"id":"aa0g44ylsdvv","geo_precision":"zip"},"type":"Feature","geometry":{"type":"Point","coordinates":[-79.904773,40.491458]}},{"properties":{"name":"KELLY, THOMAS","city":"PITTSBURGH","zip":"15215","geo_score":0.714,"address line 1":"100 DELAFIELD RD","phone":4127841110,"id":"aa0g44xf9qjv","geo_precision":"zip"},"type":"Feature","geometry":{"type":"Point","coordinates":[-79.904773,40.491458]}},{"properties":{"name":"MULOCK, DAVID","city":"PITTSBURGH","zip":"15215","geo_score":0.714,"address line 1":"100 DELAFIELD RD","phone":4127841110,"id":"aa0g44xte7b5","geo_precision":"zip"},"type":"Feature","geometry":{"type":"Point","coordinates":[-79.904773,40.491458]}},{"properties":{"name":"TRELLIS, DAN","city":"PITTSBURGH","zip":"15215","geo_score":0.714,"address line 1":"100 DELAFIELD RD","phone":4127841110,"id":"aa0g44p29ht2","geo_precision":"zip"},"type":"Feature","geometry":{"type":"Point","coordinates":[-79.904773,40.491458]}},{"properties":{"name":"KONDAVEETI, KOTAYYA","city":"PITTSBURGH","zip":"15224","geo_score":0.714,"address line 1":"4815 LIBERTY AVE","phone":4126210220,"id":"aa0g44wet5a2","geo_precision":"zip"},"type":"Feature","geometry":{"type":"Point","coordinates":[-80.024817,40.434436]}},{"properties":{"name":"SINGH, DALJIT","city":"PITTSBURGH","zip":"15224","geo_score":0.714,"address line 1":"4800 FRIENDSHIP AVE","phone":null,"id":"aa0g44l59he5","geo_precision":"zip"},"type":"Feature","geometry":{"type":"Point","coordinates":[-80.024817,40.434436]}},{"properties":{"name":"KANIA, ROBERT","city":"PITTSBURGH","zip":"15224","geo_score":0.714,"address line 1":"4815 LIBERTY AVE","phone":4126811616,"id":"aa0g4513v01j","geo_precision":"zip"},"type":"Feature","geometry":{"type":"Point","coordinates":[-80.024817,40.434436]}},{"properties":{"name":"KANAKAMEDALA, SATISH","city":"PITTSBURGH","zip":"15224","geo_score":0.714,"address line 1":"4506 PENN AVE","phone":4126832488,"id":"aa0g44ps0blw","geo_precision":"zip"},"type":"Feature","geometry":{"type":"Point","coordinates":[-80.024817,40.434436]}},{"properties":{"name":"AHMAD, SARFRAZ","city":"PITTSBURGH","zip":"15224","geo_score":0.714,"address line 1":"4815 LIBERTY AVE","phone":4126811616,"id":"aa0g44nvfqjs","geo_precision":"zip"},"type":"Feature","geometry":{"type":"Point","coordinates":[-80.024817,40.434436]}},{"properties":{"name":"SHOENTHAL, DONALD JR","city":"PITTSBURGH","zip":"15229","geo_score":0.714,"address line 1":"1020 CENTER AVE","phone":4129313066,"id":"aa0g44quj86f","geo_precision":"zip"},"type":"Feature","geometry":{"type":"Point","coordinates":[-80.050333,40.526735]}},{"properties":{"name":"HEYL, LOUIS","city":"PITTSBURGH","zip":"15229","geo_score":0.714,"address line 1":"1020 CENTER AVE","phone":4129313066,"id":"aa0g44n5aout","geo_precision":"zip"},"type":"Feature","geometry":{"type":"Point","coordinates":[-80.050333,40.526735]}},{"properties":{"name":"PATTERSON, CHERYL","city":"PITTSBURGH","zip":"15232","geo_score":0.714,"address line 1":"5115 CENTRE AVE","phone":4122351020,"id":"aa0g44weyujq","geo_precision":"zip"},"type":"Feature","geometry":{"type":"Point","coordinates":[-79.940885,40.451458]}},{"properties":{"name":"ARNOLD, GEORGE","city":"PITTSBURGH","zip":"15232","geo_score":0.714,"address line 1":"5200 CENTRE AVE","phone":4126212334,"id":"aa0g44zoltr0","geo_precision":"zip"},"type":"Feature","geometry":{"type":"Point","coordinates":[-79.940885,40.451458]}},{"properties":{"name":"DI CROCE, JOSEPH","city":"PITTSBURGH","zip":"15232","geo_score":0.714,"address line 1":"5438 CENTRE AVE","phone":4126823209,"id":"aa0g44tqot4t","geo_precision":"zip"},"type":"Feature","geometry":{"type":"Point","coordinates":[-79.940885,40.451458]}},{"properties":{"name":"BENDER, HELENE","city":"PITTSBURGH","zip":"15232","geo_score":0.714,"address line 1":"5200 CENTRE AVE","phone":4126212334,"id":"aa0g44oblgp4","geo_precision":"zip"},"type":"Feature","geometry":{"type":"Point","coordinates":[-79.940885,40.451458]}},{"properties":{"name":"WEINBERG, LEE","city":"PITTSBURGH","zip":"15232","geo_score":0.714,"address line 1":"5200 CENTRE AVE","phone":4126233105,"id":"aa0g44qg2sq6","geo_precision":"zip"},"type":"Feature","geometry":{"type":"Point","coordinates":[-79.940885,40.451458]}},{"properties":{"name":"MIKULSKI, WENDY","city":"PITTSBURGH","zip":"15232","geo_score":0.714,"address line 1":"5200 CENTRE AVE","phone":4126217777,"id":"aa0g44kufzfr","geo_precision":"zip"},"type":"Feature","geometry":{"type":"Point","coordinates":[-79.940885,40.451458]}},{"properties":{"name":"BRAND, RANDALL","city":"PITTSBURGH","zip":"15232","geo_score":0.714,"address line 1":"5200 CENTRE AVE","phone":null,"id":"aa0g44x5jwcl","geo_precision":"zip"},"type":"Feature","geometry":{"type":"Point","coordinates":[-79.940885,40.451458]}},{"properties":{"name":"DUBNER, HOWARD","city":"PITTSBURGH","zip":"15232","geo_score":0.714,"address line 1":"5200 CENTRE AVE","phone":4126235379,"id":"aa0g44x9b2vm","geo_precision":"zip"},"type":"Feature","geometry":{"type":"Point","coordinates":[-79.940885,40.451458]}},{"properties":{"name":"PATEL, HITENDRA","city":"PITTSBURGH","zip":"15232","geo_score":0.714,"address line 1":"5200 CENTRE AVE","phone":4126217777,"id":"aa0g44uhg7rd","geo_precision":"zip"},"type":"Feature","geometry":{"type":"Point","coordinates":[-79.940885,40.451458]}},{"properties":{"name":"MUSAHL, TINA","city":"PITTSBURGH","zip":"15232","geo_score":0.714,"address line 1":"5200 CENTRE AVE","phone":4126235379,"id":"aa0g44v2fssg","geo_precision":"zip"},"type":"Feature","geometry":{"type":"Point","coordinates":[-79.940885,40.451458]}},{"properties":{"name":"JANARDHANAN, RAVI","city":"PITTSBURGH","zip":"15237","geo_score":0.714,"address line 1":"3285 BABCOCK BLVD","phone":null,"id":"aa0g44vm4i85","geo_precision":"zip"},"type":"Feature","geometry":{"type":"Point","coordinates":[-80.003666,40.531735]}},{"properties":{"name":"SOTOODEHFAR, RAHIM","city":"PITTSBURGH","zip":"15237","geo_score":0.714,"address line 1":"9104 BABCOCK BLVD","phone":4123664402,"id":"aa0g44zzuh2j","geo_precision":"zip"},"type":"Feature","geometry":{"type":"Point","coordinates":[-80.003666,40.531735]}},{"properties":{"name":"POTTER, ROBERT JR","city":"PITTSBURGH","zip":"15237","geo_score":0.714,"address line 1":"5700 CORPORATE DR","phone":4126302670,"id":"aa0g44z0ldlh","geo_precision":"zip"},"type":"Feature","geometry":{"type":"Point","coordinates":[-80.003666,40.531735]}},{"properties":{"name":"FAGHFOORY, KATIE","city":"PITTSBURGH","zip":"15237","geo_score":0.714,"address line 1":"9335 MCKNIGHT RD","phone":null,"id":"aa0g44sbe9yi","geo_precision":"zip"},"type":"Feature","geometry":{"type":"Point","coordinates":[-80.003666,40.531735]}},{"properties":{"name":"THOMAS, ANDREW","city":"PITTSBURGH","zip":"15237","geo_score":0.714,"address line 1":"3285 BABCOCK BLVD","phone":4123180075,"id":"aa0g44rp5yd9","geo_precision":"zip"},"type":"Feature","geometry":{"type":"Point","coordinates":[-80.003666,40.531735]}},{"properties":{"name":"LEMLEY, DIANA","city":"PITTSBURGH","zip":"15238","geo_score":0.714,"address line 1":"207 GLEN HAVEN LN","phone":4125521122,"id":"aa0g44s9solt","geo_precision":"zip"},"type":"Feature","geometry":{"type":"Point","coordinates":[-79.888663,40.577012]}},{"properties":{"name":"VARINDANI, MAHESH","city":"BLAWNOX","zip":"15238","geo_score":0.714,"address line 1":"307 FREEPORT RD","phone":4128280100,"id":"aa0g44seq27m","geo_precision":"zip"},"type":"Feature","geometry":{"type":"Point","coordinates":[-79.888663,40.577012]}},{"properties":{"name":"KERNICH, JOSEPH","city":"PUNXSUTAWNEY","zip":"15767","geo_score":0.714,"address line 1":"83 HILLCREST DR","phone":8149383310,"id":"aa0g44vt9uik","geo_precision":"zip"},"type":"Feature","geometry":{"type":"Point","coordinates":[-78.850032,40.904786]}},{"properties":{"name":"WITHERITE-RIEG, LISA","city":"PUNXSUTAWNEY","zip":"15767","geo_score":0.714,"address line 1":"83 HILLCREST DR","phone":8149383310,"id":"aa0g44ow3mdk","geo_precision":"zip"},"type":"Feature","geometry":{"type":"Point","coordinates":[-78.850032,40.904786]}},{"properties":{"name":"CHAMBERS, DEBORAH","city":"BROOKVILLE","zip":"15825","geo_score":0.714,"address line 1":"298 MAIN ST","phone":8148495288,"id":"aa0g44uflvik","geo_precision":"zip"},"type":"Feature","geometry":{"type":"Point","coordinates":[-79.14615,41.177842]}},{"properties":{"name":"SNEERINGER, THOMAS","city":"BROOKVILLE","zip":"15825","geo_score":0.714,"address line 1":"477 ROUTE 28","phone":8148493035,"id":"aa0g44zp1d3w","geo_precision":"zip"},"type":"Feature","geometry":{"type":"Point","coordinates":[-79.14615,41.177842]}},{"properties":{"name":"KAKABADZE, SHALVA","city":"REYNOLDSVILLE","zip":"15851","geo_score":0.714,"address line 1":"5 N 3RD ST","phone":8146538222,"id":"aa0g44ypswhs","geo_precision":"zip"},"type":"Feature","geometry":{"type":"Point","coordinates":[-78.890311,41.025341]}},{"properties":{"name":"TORRE, HENRY","city":"REYNOLDSVILLE","zip":"15851","geo_score":0.714,"address line 1":"5 N 3RD ST","phone":8146539373,"id":"aa0g44q3ze30","geo_precision":"zip"},"type":"Feature","geometry":{"type":"Point","coordinates":[-78.890311,41.025341]}},{"properties":{"name":"GORDON, DANIEL","city":"REYNOLDSVILLE","zip":"15851","geo_score":0.714,"address line 1":"674 WISHAW RD","phone":8146537687,"id":"aa0g44mdhd0j","geo_precision":"zip"},"type":"Feature","geometry":{"type":"Point","coordinates":[-78.890311,41.025341]}},{"properties":{"name":"SORG, MAURUS","city":"SAINT MARYS","zip":"15857","geo_score":0.714,"address line 1":"136 STATE ST","phone":null,"id":"aa0g450jfkh5","geo_precision":"zip"},"type":"Feature","geometry":{"type":"Point","coordinates":[-78.563356,41.437284]}},{"properties":{"name":"CIENCIVA, ROSEMARIA","city":"SAINT MARYS","zip":"15857","geo_score":0.714,"address line 1":"136 STATE ST","phone":8147816758,"id":"aa0g44x10e8b","geo_precision":"zip"},"type":"Feature","geometry":{"type":"Point","coordinates":[-78.563356,41.437284]}},{"properties":{"name":"CHANNAPATI, THIPPESWAMY","city":"BUTLER","zip":"16001","geo_score":0.714,"address line 1":"342 N MAIN ST","phone":7242828011,"id":"aa0g44wodcib","geo_precision":"zip"},"type":"Feature","geometry":{"type":"Point","coordinates":[-79.906999,40.904231]}},{"properties":{"name":"LATUSKA, RICHARD","city":"BUTLER","zip":"16001","geo_score":0.714,"address line 1":"102 TECHNOLOGY DR","phone":7244820095,"id":"aa0g44qyrmxt","geo_precision":"zip"},"type":"Feature","geometry":{"type":"Point","coordinates":[-79.906999,40.904231]}},{"properties":{"name":"WALTERS, DONALD","city":"BUTLER","zip":"16001","geo_score":0.714,"address line 1":"104 TECHNOLOGY DR","phone":7244826062,"id":"aa0g44xao0p5","geo_precision":"zip"},"type":"Feature","geometry":{"type":"Point","coordinates":[-79.906999,40.904231]}},{"properties":{"name":"SARGENT, STEPHEN","city":"BUTLER","zip":"16001","geo_score":0.714,"address line 1":"480 E JEFFERSON ST","phone":7242822668,"id":"aa0g44yujm8y","geo_precision":"zip"},"type":"Feature","geometry":{"type":"Point","coordinates":[-79.906999,40.904231]}},{"properties":{"name":"SHETTER, THOMAS","city":"BUTLER","zip":"16001","geo_score":0.714,"address line 1":"480 E JEFFERSON ST","phone":4195223372,"id":"aa0g44rzlnmu","geo_precision":"zip"},"type":"Feature","geometry":{"type":"Point","coordinates":[-79.906999,40.904231]}},{"properties":{"name":"MOLLOY, PETER","city":"BUTLER","zip":"16001","geo_score":0.714,"address line 1":"102 TECHNOLOGY DR","phone":4126811616,"id":"aa0g44qfxsf7","geo_precision":"zip"},"type":"Feature","geometry":{"type":"Point","coordinates":[-79.906999,40.904231]}},{"properties":{"name":"TROTTA, MICHAEL","city":"BUTLER","zip":"16001","geo_score":0.714,"address line 1":"480 E JEFFERSON ST","phone":4809697311,"id":"aa0g44l2fh0i","geo_precision":"zip"},"type":"Feature","geometry":{"type":"Point","coordinates":[-79.906999,40.904231]}},{"properties":{"name":"ROCCHI, JOHN","city":"BUTLER","zip":"16001","geo_score":0.714,"address line 1":"480 E JEFFERSON ST","phone":7242824504,"id":"aa0g450bqr95","geo_precision":"zip"},"type":"Feature","geometry":{"type":"Point","coordinates":[-79.906999,40.904231]}},{"properties":{"name":"STEPANOW, SAMUEL","city":"CRANBERRY TWP","zip":"16066","geo_score":0.714,"address line 1":"213 EXECUTIVE DR","phone":7247729797,"id":"aa0g44x91pli","geo_precision":"zip"},"type":"Feature","geometry":{"type":"Point","coordinates":[-80.104597,40.709713]}},{"properties":{"name":"BURICK, SHEILA","city":"NEW CASTLE","zip":"16101","geo_score":0.714,"address line 1":"1112 S MILL ST","phone":7246584564,"id":"aa0g44wq3rg5","geo_precision":"zip"},"type":"Feature","geometry":{"type":"Point","coordinates":[-80.382843,40.953395]}},{"properties":{"name":"MAGDA, JERZY","city":"NEW CASTLE","zip":"16105","geo_score":0.714,"address line 1":"125 ENCLAVE DR","phone":7246586656,"id":"aa0g4513hekf","geo_precision":"zip"},"type":"Feature","geometry":{"type":"Point","coordinates":[-80.312286,41.087282]}},{"properties":{"name":"MEDRANO-COLEMAN, SILVIA","city":"NEW CASTLE","zip":"16105","geo_score":0.714,"address line 1":"125 ENCLAVE DR","phone":null,"id":"aa0g44m40vya","geo_precision":"zip"},"type":"Feature","geometry":{"type":"Point","coordinates":[-80.312286,41.087282]}},{"properties":{"name":"MULTARI, ROBERT","city":"FARRELL","zip":"16121","geo_score":0.714,"address line 1":"2120 LIKENS LN","phone":7249813731,"id":"aa0g44rl0647","geo_precision":"zip"},"type":"Feature","geometry":{"type":"Point","coordinates":[-80.487821,41.210606]}},{"properties":{"name":"WORKS, KIRK","city":"GREENVILLE","zip":"16125","geo_score":0.714,"address line 1":"125 N MAIN ST","phone":7245888089,"id":"aa0g44uucxlt","geo_precision":"zip"},"type":"Feature","geometry":{"type":"Point","coordinates":[-80.398957,41.379777]}},{"properties":{"name":"HOYT, DAVID","city":"MERCER","zip":"16137","geo_score":0.714,"address line 1":"400 W BUTLER ST","phone":7244588754,"id":"aa0g44r3idd0","geo_precision":"zip"},"type":"Feature","geometry":{"type":"Point","coordinates":[-80.173395,41.166726]}},{"properties":{"name":"KALIK, JOSEPH","city":"HERMITAGE","zip":"16148","geo_score":0.714,"address line 1":"295 N KERRWOOD DR","phone":null,"id":"aa0g44lx0zky","geo_precision":"zip"},"type":"Feature","geometry":{"type":"Point","coordinates":[-80.438887,41.221984]}},{"properties":{"name":"VALLABH, SAGAR","city":"HERMITAGE","zip":"16148","geo_score":0.714,"address line 1":"2501 SHENANGO VALLEY FWY","phone":7249830223,"id":"aa0g44n8rwgj","geo_precision":"zip"},"type":"Feature","geometry":{"type":"Point","coordinates":[-80.438887,41.221984]}},{"properties":{"name":"D'AURIA, CHARLES","city":"HERMITAGE","zip":"16148","geo_score":0.714,"address line 1":"480 N KERRWOOD DR","phone":7249810823,"id":"aa0g44tcoin7","geo_precision":"zip"},"type":"Feature","geometry":{"type":"Point","coordinates":[-80.438887,41.221984]}},{"properties":{"name":"PUCHARICH, FRANCES","city":"HERMITAGE","zip":"16148","geo_score":0.714,"address line 1":"2151 SHENANGO VALLEY FWY","phone":7249815613,"id":"aa0g44m5w0o7","geo_precision":"zip"},"type":"Feature","geometry":{"type":"Point","coordinates":[-80.438887,41.221984]}},{"properties":{"name":"CONTE HARPER, LAURA","city":"HERMITAGE","zip":"16148","geo_score":0.714,"address line 1":"752 BROOKSHIRE DR","phone":7249818883,"id":"aa0g44xnroqo","geo_precision":"zip"},"type":"Feature","geometry":{"type":"Point","coordinates":[-80.438887,41.221984]}},{"properties":{"name":"MILLER, SHARON","city":"HERMITAGE","zip":"16148","geo_score":0.714,"address line 1":"752 BROOKSHIRE DR","phone":7249818883,"id":"aa0g44nd0vlk","geo_precision":"zip"},"type":"Feature","geometry":{"type":"Point","coordinates":[-80.438887,41.221984]}},{"properties":{"name":"EZIASHI, JAMES","city":"HERMITAGE","zip":"16148","geo_score":0.714,"address line 1":"2501 SHENANGO VALLEY FWY","phone":7249830223,"id":"aa0g44vb7lt9","geo_precision":"zip"},"type":"Feature","geometry":{"type":"Point","coordinates":[-80.438887,41.221984]}},{"properties":{"name":"MERCURIO, RICHARD","city":"KITTANNING","zip":"16201","geo_score":0.714,"address line 1":"198 WEST GATE DR","phone":7245431735,"id":"aa0g44syn3dm","geo_precision":"zip"},"type":"Feature","geometry":{"type":"Point","coordinates":[-79.371153,40.780342]}},{"properties":{"name":"VOGAN, CLIFFORD","city":"COWANSVILLE","zip":"16218","geo_score":0.714,"address line 1":"882 EAST BRADY RD","phone":7245485605,"id":"aa0g44pb7qt1","geo_precision":"zip"},"type":"Feature","geometry":{"type":"Point","coordinates":[-79.64227,40.941175]}},{"properties":{"name":"MCCANN, WILLIAM JR","city":"FORD CITY","zip":"16226","geo_score":0.714,"address line 1":"432 3RD AVE","phone":7247639200,"id":"aa0g44s87q1a","geo_precision":"zip"},"type":"Feature","geometry":{"type":"Point","coordinates":[-79.458098,40.670065]}},{"properties":{"name":"DRATLER, MARVIN","city":"MEADVILLE","zip":"16335","geo_score":0.714,"address line 1":"1012 WATER ST","phone":8143366157,"id":"aa0g44q1syua","geo_precision":"zip"},"type":"Feature","geometry":{"type":"Point","coordinates":[-80.04089,41.681167]}},{"properties":{"name":"PATEL, NITIN","city":"MEADVILLE","zip":"16335","geo_score":0.714,"address line 1":"1012 WATER ST","phone":8143366157,"id":"aa0g44xq2ojm","geo_precision":"zip"},"type":"Feature","geometry":{"type":"Point","coordinates":[-80.04089,41.681167]}},{"properties":{"name":"WIMER, BETH","city":"MEADVILLE","zip":"16335","geo_score":0.714,"address line 1":"1012 WATER ST","phone":8143366157,"id":"aa0g44yiz06k","geo_precision":"zip"},"type":"Feature","geometry":{"type":"Point","coordinates":[-80.04089,41.681167]}},{"properties":{"name":"DECKER, MARTIN","city":"MEADVILLE","zip":"16335","geo_score":0.714,"address line 1":"105 MEAD AVE","phone":8143371144,"id":"aa0g44xz2g3d","geo_precision":"zip"},"type":"Feature","geometry":{"type":"Point","coordinates":[-80.04089,41.681167]}},{"properties":{"name":"ANDRES, DAVID","city":"SENECA","zip":"16346","geo_score":0.714,"address line 1":"3742 STATE ROUTE 257","phone":null,"id":"aa0g44kr5whj","geo_precision":"zip"},"type":"Feature","geometry":{"type":"Point","coordinates":[-79.707212,41.378581]}},{"properties":{"name":"KENNEY, GERARD","city":"SENECA","zip":"16346","geo_score":0.714,"address line 1":"3744 STATE ROUTE 257","phone":8146778922,"id":"aa0g44py7y52","geo_precision":"zip"},"type":"Feature","geometry":{"type":"Point","coordinates":[-79.707212,41.378581]}},{"properties":{"name":"PADALINO, MICHAEL","city":"SENECA","zip":"16346","geo_score":0.714,"address line 1":"3744 STATE ROUTE 257","phone":8146776700,"id":"aa0g44zeqb2a","geo_precision":"zip"},"type":"Feature","geometry":{"type":"Point","coordinates":[-79.707212,41.378581]}},{"properties":{"name":"CHESAR, THOMAS JR","city":"TITUSVILLE","zip":"16354","geo_score":0.714,"address line 1":"335 W OAK ST","phone":8148273814,"id":"aa0g44nwr5zy","geo_precision":"zip"},"type":"Feature","geometry":{"type":"Point","coordinates":[-79.720068,41.661775]}},{"properties":{"name":"PROY, BERNARD","city":"CORRY","zip":"16407","geo_score":0.714,"address line 1":"315 YORK ST","phone":8146644661,"id":"aa0g450lg3go","geo_precision":"zip"},"type":"Feature","geometry":{"type":"Point","coordinates":[-79.569495,41.845613]}},{"properties":{"name":"DUDZINSKI, JOHN","city":"NORTH EAST","zip":"16428","geo_score":0.714,"address line 1":"115 E MAIN ST","phone":null,"id":"aa0g44pl9opu","geo_precision":"zip"},"type":"Feature","geometry":{"type":"Point","coordinates":[-79.862829,42.116167]}},{"properties":{"name":"BALMER, JOHN","city":"SPARTANSBURG","zip":"16434","geo_score":0.714,"address line 1":"132 MECHANIC ST","phone":null,"id":"aa0g44x9takj","geo_precision":"zip"},"type":"Feature","geometry":{"type":"Point","coordinates":[-79.565329,41.798669]}},{"properties":{"name":"PHELPS, JENNIFER","city":"SPARTANSBURG","zip":"16434","geo_score":0.714,"address line 1":"132 MECHANIC ST","phone":8146547334,"id":"aa0g44sdubtl","geo_precision":"zip"},"type":"Feature","geometry":{"type":"Point","coordinates":[-79.565329,41.798669]}},{"properties":{"name":"KHERA, DINESH","city":"ERIE","zip":"16502","geo_score":0.714,"address line 1":"2315 MYRTLE ST","phone":8144522767,"id":"aa0g44mlfodx","geo_precision":"zip"},"type":"Feature","geometry":{"type":"Point","coordinates":[-80.100931,42.110357]}},{"properties":{"name":"ABOGUNDE, SEGUN","city":"ERIE","zip":"16502","geo_score":0.714,"address line 1":"2315 MYRTLE ST","phone":null,"id":"aa0g44uubgke","geo_precision":"zip"},"type":"Feature","geometry":{"type":"Point","coordinates":[-80.100931,42.110357]}},{"properties":{"name":"DELL, CHELSIE","city":"ERIE","zip":"16502","geo_score":0.714,"address line 1":"2315 MYRTLE ST","phone":8144522767,"id":"aa0g44ppyl90","geo_precision":"zip"},"type":"Feature","geometry":{"type":"Point","coordinates":[-80.100931,42.110357]}},{"properties":{"name":"PATEL, VINOD","city":"ERIE","zip":"16505","geo_score":0.714,"address line 1":"2501 W 12TH ST","phone":null,"id":"aa0g44pgjsc3","geo_precision":"zip"},"type":"Feature","geometry":{"type":"Point","coordinates":[-80.173673,42.092002]}},{"properties":{"name":"NEER, GARY","city":"ERIE","zip":"16505","geo_score":0.714,"address line 1":"1600 PENINSULA DR","phone":8148777035,"id":"aa0g44qwqhfh","geo_precision":"zip"},"type":"Feature","geometry":{"type":"Point","coordinates":[-80.173673,42.092002]}},{"properties":{"name":"MASTERS, THOMAS","city":"ERIE","zip":"16506","geo_score":0.714,"address line 1":"2828 STERRETTANIA RD","phone":8148339700,"id":"aa0g44lzr0kb","geo_precision":"zip"},"type":"Feature","geometry":{"type":"Point","coordinates":[-80.140894,42.08089]}},{"properties":{"name":"LEVY, DAVID","city":"ERIE","zip":"16507","geo_score":0.714,"address line 1":"100 PEACH ST","phone":8144567733,"id":"aa0g44y26lia","geo_precision":"zip"},"type":"Feature","geometry":{"type":"Point","coordinates":[-80.084042,42.134257]}},{"properties":{"name":"SCHWARTZ, ROBERT","city":"ERIE","zip":"16507","geo_score":0.714,"address line 1":"100 PEACH ST","phone":8144567733,"id":"aa0g44s5gm9n","geo_precision":"zip"},"type":"Feature","geometry":{"type":"Point","coordinates":[-80.084042,42.134257]}},{"properties":{"name":"SALEH, NEAM","city":"ERIE","zip":"16507","geo_score":0.714,"address line 1":"215 HOLLAND ST","phone":8148775510,"id":"aa0g44uy60kr","geo_precision":"zip"},"type":"Feature","geometry":{"type":"Point","coordinates":[-80.084042,42.134257]}},{"properties":{"name":"HENRY, SCOTT","city":"ERIE","zip":"16507","geo_score":0.714,"address line 1":"100 PEACH ST","phone":8144567733,"id":"aa0g44v3qkie","geo_precision":"zip"},"type":"Feature","geometry":{"type":"Point","coordinates":[-80.084042,42.134257]}},{"properties":{"name":"WISMER, WILLIAM","city":"ERIE","zip":"16508","geo_score":0.714,"address line 1":"2010 W 38TH ST","phone":null,"id":"aa0g44ofqez5","geo_precision":"zip"},"type":"Feature","geometry":{"type":"Point","coordinates":[-80.09283,42.097156]}},{"properties":{"name":"MC ALLISTER, RAYMOND","city":"ERIE","zip":"16508","geo_score":0.714,"address line 1":"3330 PEACH ST","phone":8148775570,"id":"aa0g44txubj7","geo_precision":"zip"},"type":"Feature","geometry":{"type":"Point","coordinates":[-80.09283,42.097156]}},{"properties":{"name":"FIERRO, VINCENT JR","city":"ERIE","zip":"16509","geo_score":0.714,"address line 1":"5451 PEACH ST","phone":8148663986,"id":"aa0g450vgpbn","geo_precision":"zip"},"type":"Feature","geometry":{"type":"Point","coordinates":[-80.201452,42.068391]}},{"properties":{"name":"KIEL, ROBERT","city":"ERIE","zip":"16509","geo_score":0.714,"address line 1":"4906 RICHMOND ST","phone":8148642949,"id":"aa0g44vqqqkq","geo_precision":"zip"},"type":"Feature","geometry":{"type":"Point","coordinates":[-80.201452,42.068391]}},{"properties":{"name":"HELMS, JARED","city":"ERIE","zip":"16509","geo_score":0.714,"address line 1":"5515 PEACH ST","phone":8148688252,"id":"aa0g44kywzbf","geo_precision":"zip"},"type":"Feature","geometry":{"type":"Point","coordinates":[-80.201452,42.068391]}},{"properties":{"name":"BUNTIC, VLADISLAVA","city":"ERIE","zip":"16544","geo_score":0.714,"address line 1":"232 W 25TH ST","phone":null,"id":"aa0g44lsns7m","geo_precision":"zip"},"type":"Feature","geometry":{"type":"Point","coordinates":[-80.064915,42.182748]}},{"properties":{"name":"SALEH, KAMRAN","city":"BRADFORD","zip":"16701","geo_score":0.714,"address line 1":"24 W WASHINGTON ST","phone":8143681000,"id":"aa0g44qxm3d0","geo_precision":"zip"},"type":"Feature","geometry":{"type":"Point","coordinates":[-78.617249,41.975063]}},{"properties":{"name":"TRONETTI, JASON","city":"PORT ALLEGANY","zip":"16743","geo_score":0.714,"address line 1":"45 N PINE ST","phone":8146429655,"id":"aa0g44lvqdtz","geo_precision":"zip"},"type":"Feature","geometry":{"type":"Point","coordinates":[-78.20501,41.788954]}},{"properties":{"name":"PRASAD, SAKET","city":"COUDERSPORT","zip":"16915","geo_score":0.714,"address line 1":"1001 E 2ND ST","phone":null,"id":"aa0g44mpz804","geo_precision":"zip"},"type":"Feature","geometry":{"type":"Point","coordinates":[-77.956692,41.776165]}}],"is_temporal":false,"author":{"url":"","metadata":null,"contact_name":null,"contact_address":null,"source":null,"contact_phone":null},"source":"","pagination":{"sort":null,"start":0,"total":143,"limit":1000000},"state":"complete","tags":"","published":"2014-08-14T19:39:13-04:00","id":293058}