{"type":"FeatureCollection","data_type":"Dataset","url_type":null,"permissions":[{"permissions":{"download":true,"edit":true,"view":true},"group_id":42518},{"permissions":{"download":true,"view":true},"group_id":"everyone"}],"classification":null,"title":"REO Dist LND MTD Nov 13","count":16,"stream_id":293361,"contributor":{"url":"http://geocommons.com/users/39447","name":"sam.felipe"},"data_attributes":null,"calculation_params":null,"icon_link":null,"link":"http://geocommons.com/overlays/293361.json","extent":[-122.416,33.1273,-116.258,38.6407],"geometry_types":["point"],"unique_name":null,"name":"REO Dist LND MTD Nov 13","feature_count":16,"description":"","next_feature":null,"is_raster":false,"short_classification":"Y","stats":{},"features":[{"properties":{"city":"San Francisco","zip":"94110","region":"South Northern California","geo_score":0.902,"filenumber":"01180-8849","branchoffice":"Turlock","id":"aa0icnlpmebz","address":"881 Moultrie Street","geo_precision":"range"},"type":"Feature","geometry":{"type":"Point","coordinates":[-122.416248,37.733258]}},{"properties":{"city":"San Francisco","zip":"94110","region":"South Northern California","geo_score":0.902,"filenumber":"01180-8850","branchoffice":"Turlock","id":"aa0icnr58hgq","address":"885 Moultrie Street","geo_precision":"range"},"type":"Feature","geometry":{"type":"Point","coordinates":[-122.416247,37.733272]}},{"properties":{"city":"San Jose","zip":"95124","region":"South Northern California","geo_score":0.902,"filenumber":"01180-9146","branchoffice":"Campbell","id":"aa0icnfh478j","address":"1722 MERRILL LOOP","geo_precision":"range"},"type":"Feature","geometry":{"type":"Point","coordinates":[-121.904091,37.242633]}},{"properties":{"city":"Escondido","zip":"92025","region":"So. California","geo_score":0.421,"filenumber":"01180-9170","branchoffice":"Carlsbad","id":"aa0icnd8yer3","address":"1010 East Washington Avenue #69","geo_precision":"street"},"type":"Feature","geometry":{"type":"Point","coordinates":[-117.082657,33.127327]}},{"properties":{"city":"Bethel Island","zip":"94511","region":"North Northern California","geo_score":0.849,"filenumber":"01180-9264","branchoffice":"Danville","id":"aa0icnme9hll","address":"3955 WILLOW ROAD","geo_precision":"range"},"type":"Feature","geometry":{"type":"Point","coordinates":[-121.625398,38.035798]}},{"properties":{"city":"Santa Barbara","zip":"93101","region":"Central California","geo_score":0.429,"filenumber":"01180-9287","branchoffice":"Bakersfield","id":"aa0icncrhgu1","address":"1424 LAGUNA STREET #C","geo_precision":"street"},"type":"Feature","geometry":{"type":"Point","coordinates":[-119.689208,34.41976]}},{"properties":{"city":"Victorville","zip":"92395","region":"Inland Empire","geo_score":0.5,"filenumber":"01180-9300","branchoffice":"Victorville","id":"aa0icnsls5gy","address":"16671 COUNTRY RANCH COURT","geo_precision":"street"},"type":"Feature","geometry":{"type":"Point","coordinates":[-117.374003,34.479252]}},{"properties":{"city":"Oakland","zip":"94619","region":"North Northern California","geo_score":0.902,"filenumber":"01180-9476","branchoffice":"Danville","id":"aa0icnlkp67o","address":"3719 Quigley Street","geo_precision":"range"},"type":"Feature","geometry":{"type":"Point","coordinates":[-122.199893,37.789868]}},{"properties":{"city":"Sacramento","zip":"95821","region":"South Northern California","geo_score":0.902,"filenumber":"01180-9479","branchoffice":"Turlock","id":"aa0icnpd0o28","address":"4100 DENA WAY","geo_precision":"range"},"type":"Feature","geometry":{"type":"Point","coordinates":[-121.353967,38.640663]}},{"properties":{"city":"Riverside","zip":"92507","region":"Inland Empire","geo_score":0.61,"filenumber":"01180-9862","branchoffice":"Riverside","id":"aa0icnj6kdvn","address":"375 Central Avenue #149","geo_precision":"range"},"type":"Feature","geometry":{"type":"Point","coordinates":[-117.310621,33.958106]}},{"properties":{"city":"Indio","zip":"92201","region":"Inland Empire","geo_score":0.902,"filenumber":"01180-10208","branchoffice":"Palm Desert","id":"aa0icnquex5k","address":"43104 Kenya Drive","geo_precision":"range"},"type":"Feature","geometry":{"type":"Point","coordinates":[-116.258337,33.733439]}},{"properties":{"city":"Los Angeles","zip":"90039","region":"Los Angeles - Ventura California","geo_score":0.415,"filenumber":"01180-10221","branchoffice":"Glendale","id":"aa0icniuhhig","address":"2344 Fletcher Drive #113","geo_precision":"street"},"type":"Feature","geometry":{"type":"Point","coordinates":[-118.258384,34.104859]}},{"properties":{"city":"Los Angeles","zip":"91343","region":"Los Angeles - Ventura California","geo_score":0.831,"filenumber":"01180-10536","branchoffice":"Glendale","id":"aa0icnks1gm2","address":"9157 NOBLE AVENUE","geo_precision":"range"},"type":"Feature","geometry":{"type":"Point","coordinates":[-118.461112,34.235521]}},{"properties":{"city":"Vacaville","zip":"95687","region":"North Northern California","geo_score":0.902,"filenumber":"01180-10537","branchoffice":"Danville","id":"aa0icnfuiqgj","address":"106 MARNA DRIVE","geo_precision":"range"},"type":"Feature","geometry":{"type":"Point","coordinates":[-121.963105,38.334568]}},{"properties":{"city":"Santa Barbara","zip":"93111","region":"Central California","geo_score":0.902,"filenumber":"01180-10540","branchoffice":"Bakersfield","id":"aa0icno5bd5t","address":"406 Evonshire Avenue","geo_precision":"range"},"type":"Feature","geometry":{"type":"Point","coordinates":[-119.790956,34.432983]}},{"properties":{"city":"Tujunga","zip":"91042","region":"Los Angeles - Ventura California","geo_score":0.415,"filenumber":"01180-10675","branchoffice":"Glendale","id":"aa0icncppx3v","address":"10260 PLAINVIEW #6","geo_precision":"street"},"type":"Feature","geometry":{"type":"Point","coordinates":[-118.29804,34.251782]}}],"is_temporal":false,"author":{"url":"","metadata":"","contact_name":"","contact_address":"","source":"","contact_phone":""},"source":"","pagination":{"sort":null,"start":0,"total":16,"limit":1000000},"state":"complete","tags":"stca","published":"2014-08-14T20:00:54-04:00","id":293361}