{"type":"FeatureCollection","data_type":"Dataset","url_type":null,"permissions":[{"permissions":{"download":true,"view":true},"group_id":"everyone"}],"classification":null,"title":"states3","count":51,"stream_id":294620,"contributor":{"url":"http://geocommons.com/users/55959","name":"lordsaroman"},"data_attributes":null,"calculation_params":null,"icon_link":null,"link":"http://geocommons.com/overlays/294620.json","extent":[-118.386,-24.8333,115.817,53.0833],"geometry_types":["point"],"unique_name":null,"name":"states3","feature_count":51,"description":"","next_feature":null,"is_raster":false,"short_classification":"Y","stats":{"total fund - m":{"max":466.6,"variance":6358.67930196079,"mean":51.2901960784314,"stdev":79.7413274404232,"min":2.9,"median":25.3}},"features":[{"properties":{"city":"Juneau","country":"US","geo_score":0.0,"total fund - m":9.4,"id":"aa1iaj8berho","geo_precision":"unmatched","state":"AK"},"type":"Feature","geometry":null},{"properties":{"city":"Montgomery","country":"US","geo_score":0.0,"total fund - m":25.1,"id":"aa1iajbxtsdw","geo_precision":"unmatched","state":"AL"},"type":"Feature","geometry":null},{"properties":{"city":"Little Rock","country":"US","geo_score":0.857,"total fund - m":17.7,"id":"aa1iajf0yd2x","geo_precision":"zip","state":"AR"},"type":"Feature","geometry":{"type":"Point","coordinates":[-59.2666667,-24.8333333]}},{"properties":{"city":"Phoenix","country":"US","geo_score":0.857,"total fund - m":34.2,"id":"aa1iaj43dh3z","geo_precision":"zip","state":"AZ"},"type":"Feature","geometry":{"type":"Point","coordinates":[46.5430556,39.7611111]}},{"properties":{"city":"Sacramento","country":"US","geo_score":0.857,"total fund - m":466.6,"id":"aa1iaj6t8te0","geo_precision":"zip","state":"CA"},"type":"Feature","geometry":{"type":"Point","coordinates":[-118.385598186,50.449832005]}},{"properties":{"city":"Denver","country":"US","geo_score":0.0,"total fund - m":42.0,"id":"aa1iaj8tk2t0","geo_precision":"unmatched","state":"CO"},"type":"Feature","geometry":null},{"properties":{"city":"Hartford","country":"US","geo_score":0.0,"total fund - m":23.1,"id":"aa1iaj57r4iq","geo_precision":"unmatched","state":"CT"},"type":"Feature","geometry":null},{"properties":{"city":null,"country":"US","geo_score":0.0,"total fund - m":4.5,"id":"aa1iajcduad1","geo_precision":"unmatched","state":"DC"},"type":"Feature","geometry":null},{"properties":{"city":"Dover","country":"US","geo_score":0.857,"total fund - m":7.6,"id":"aa1iaj78kt8a","geo_precision":"zip","state":"DE"},"type":"Feature","geometry":{"type":"Point","coordinates":[7.3666667,53.0833333]}},{"properties":{"city":"Tallahassee","country":"US","geo_score":0.0,"total fund - m":126.6,"id":"aa1iaj6vlxk8","geo_precision":"unmatched","state":"FL"},"type":"Feature","geometry":null},{"properties":{"city":"Atlanta","country":"US","geo_score":0.0,"total fund - m":68.5,"id":"aa1iaj8hvfvy","geo_precision":"unmatched","state":"GA"},"type":"Feature","geometry":null},{"properties":{"city":"Honolulu","country":"US","geo_score":0.0,"total fund - m":8.8,"id":"aa1iaj70giuz","geo_precision":"unmatched","state":"HI"},"type":"Feature","geometry":null},{"properties":{"city":"Des Moines","country":"US","geo_score":0.0,"total fund - m":23.1,"id":"aa1iaj4hbau3","geo_precision":"unmatched","state":"IA"},"type":"Feature","geometry":null},{"properties":{"city":"Boise","country":"US","geo_score":0.857,"total fund - m":11.7,"id":"aa1iaj4egg84","geo_precision":"zip","state":"ID"},"type":"Feature","geometry":{"type":"Point","coordinates":[115.8166667,-1.8]}},{"properties":{"city":"Springfield","country":"US","geo_score":0.0,"total fund - m":97.9,"id":"aa1iajji2iae","geo_precision":"unmatched","state":"IL"},"type":"Feature","geometry":null},{"properties":{"city":"Indianapolis","country":"US","geo_score":0.0,"total fund - m":25.8,"id":"aa1iajalnnkb","geo_precision":"unmatched","state":"IN"},"type":"Feature","geometry":null},{"properties":{"city":"Topeka","country":"US","geo_score":0.0,"total fund - m":13.5,"id":"aa1iaj88vksp","geo_precision":"unmatched","state":"KS"},"type":"Feature","geometry":null},{"properties":{"city":"Frankfort","country":"US","geo_score":0.0,"total fund - m":26.8,"id":"aa1iajjb5sq9","geo_precision":"unmatched","state":"KY"},"type":"Feature","geometry":null},{"properties":{"city":"Baton Rouge","country":"US","geo_score":0.0,"total fund - m":24.3,"id":"aa1iajeqrh37","geo_precision":"unmatched","state":"LA"},"type":"Feature","geometry":null},{"properties":{"city":"Boston","country":"US","geo_score":0.857,"total fund - m":38.7,"id":"aa1iajd0eer7","geo_precision":"zip","state":"MA"},"type":"Feature","geometry":{"type":"Point","coordinates":[-4.23,34.11]}},{"properties":{"city":"Annapolis","country":"US","geo_score":0.0,"total fund - m":37.6,"id":"aa1iajiwakhp","geo_precision":"unmatched","state":"MD"},"type":"Feature","geometry":null},{"properties":{"city":"Augusta","country":"US","geo_score":0.0,"total fund - m":10.8,"id":"aa1iajkiwe6x","geo_precision":"unmatched","state":"ME"},"type":"Feature","geometry":null},{"properties":{"city":"Lansing","country":"US","geo_score":0.0,"total fund - m":49.3,"id":"aa1iajdlq6hj","geo_precision":"unmatched","state":"MI"},"type":"Feature","geometry":null},{"properties":{"city":"Saint Paul","country":"US","geo_score":0.857,"total fund - m":49.2,"id":"aa1iajgz83gv","geo_precision":"zip","state":"MN"},"type":"Feature","geometry":{"type":"Point","coordinates":[103.839340209961,46.0860906404336]}},{"properties":{"city":"Jefferson City","country":"US","geo_score":0.0,"total fund - m":45.8,"id":"aa1iajfjbmuk","geo_precision":"unmatched","state":"MO"},"type":"Feature","geometry":null},{"properties":{"city":"Jackson","country":"US","geo_score":0.0,"total fund - m":20.8,"id":"aa1iaj92he4e","geo_precision":"unmatched","state":"MS"},"type":"Feature","geometry":null},{"properties":{"city":"Helena","country":"US","geo_score":0.0,"total fund - m":7.9,"id":"aa1iajbbji7h","geo_precision":"unmatched","state":"MT"},"type":"Feature","geometry":null},{"properties":{"city":"Raleigh","country":"US","geo_score":0.0,"total fund - m":72.2,"id":"aa1iajc4swwp","geo_precision":"unmatched","state":"NC"},"type":"Feature","geometry":null},{"properties":{"city":"Bismarck","country":"US","geo_score":0.0,"total fund - m":3.2,"id":"aa1iajbsh555","geo_precision":"unmatched","state":"ND"},"type":"Feature","geometry":null},{"properties":{"city":"Lincoln","country":"US","geo_score":0.857,"total fund - m":8.6,"id":"aa1iaj5t8gyn","geo_precision":"zip","state":"NE"},"type":"Feature","geometry":{"type":"Point","coordinates":[1.2033,13.6944]}},{"properties":{"city":"Concord","country":"US","geo_score":0.0,"total fund - m":5.9,"id":"aa1iajc2sbdo","geo_precision":"unmatched","state":"NH"},"type":"Feature","geometry":null},{"properties":{"city":"Trenton","country":"US","geo_score":0.0,"total fund - m":81.1,"id":"aa1iajad5c89","geo_precision":"unmatched","state":"NJ"},"type":"Feature","geometry":null},{"properties":{"city":"Santa Fe","country":"US","geo_score":0.0,"total fund - m":21.7,"id":"aa1iaj6dc5s6","geo_precision":"unmatched","state":"NM"},"type":"Feature","geometry":null},{"properties":{"city":"Carson City","country":"US","geo_score":0.0,"total fund - m":25.3,"id":"aa1iajjycz0f","geo_precision":"unmatched","state":"NV"},"type":"Feature","geometry":null},{"properties":{"city":"Albany","country":"US","geo_score":0.0,"total fund - m":315.4,"id":"aa1iajj7igw5","geo_precision":"unmatched","state":"NY"},"type":"Feature","geometry":null},{"properties":{"city":"Columbus","country":"US","geo_score":0.0,"total fund - m":145.3,"id":"aa1iaj5odd4r","geo_precision":"unmatched","state":"OH"},"type":"Feature","geometry":null},{"properties":{"city":"Oklahoma City","country":"US","geo_score":0.0,"total fund - m":17.0,"id":"aa1iaj4ecnuw","geo_precision":"unmatched","state":"OK"},"type":"Feature","geometry":null},{"properties":{"city":"Salem","country":"US","geo_score":0.0,"total fund - m":55.8,"id":"aa1iajbdl7qg","geo_precision":"unmatched","state":"OR"},"type":"Feature","geometry":null},{"properties":{"city":"Harrisburg","country":"US","geo_score":0.0,"total fund - m":75.6,"id":"aa1iaj9ccntc","geo_precision":"unmatched","state":"PA"},"type":"Feature","geometry":null},{"properties":{"city":"Providence","country":"US","geo_score":0.0,"total fund - m":7.5,"id":"aa1iajhuynol","geo_precision":"unmatched","state":"RI"},"type":"Feature","geometry":null},{"properties":{"city":"Columbia","country":"US","geo_score":0.0,"total fund - m":25.9,"id":"aa1iaj8a767u","geo_precision":"unmatched","state":"SC"},"type":"Feature","geometry":null},{"properties":{"city":"Pierre","country":"US","geo_score":0.857,"total fund - m":7.9,"id":"aa1iajg7ue8r","geo_precision":"zip","state":"SD"},"type":"Feature","geometry":{"type":"Point","coordinates":[32.5391667,4.4472222]}},{"properties":{"city":"Nashville","country":"US","geo_score":0.0,"total fund - m":33.7,"id":"aa1iajercef0","geo_precision":"unmatched","state":"TN"},"type":"Feature","geometry":null},{"properties":{"city":"Austin","country":"US","geo_score":0.0,"total fund - m":170.7,"id":"aa1iaji1djsq","geo_precision":"unmatched","state":"TX"},"type":"Feature","geometry":null},{"properties":{"city":"Salt Lake City","country":"US","geo_score":0.0,"total fund - m":20.0,"id":"aa1iajiwkznb","geo_precision":"unmatched","state":"UT"},"type":"Feature","geometry":null},{"properties":{"city":"Richmond","country":"US","geo_score":0.0,"total fund - m":55.0,"id":"aa1iajgykcg7","geo_precision":"unmatched","state":"VA"},"type":"Feature","geometry":null},{"properties":{"city":"Montpelier","country":"US","geo_score":0.0,"total fund - m":2.9,"id":"aa1iaj5k15yq","geo_precision":"unmatched","state":"VT"},"type":"Feature","geometry":null},{"properties":{"city":"Olympia","country":"US","geo_score":0.0,"total fund - m":57.4,"id":"aa1iaj7vonlu","geo_precision":"unmatched","state":"WA"},"type":"Feature","geometry":null},{"properties":{"city":"Madison","country":"US","geo_score":0.0,"total fund - m":73.9,"id":"aa1iajitp7k0","geo_precision":"unmatched","state":"WI"},"type":"Feature","geometry":null},{"properties":{"city":"Charleston","country":"US","geo_score":0.0,"total fund - m":10.4,"id":"aa1iaj6gk603","geo_precision":"unmatched","state":"WV"},"type":"Feature","geometry":null},{"properties":{"city":"Cheyenne","country":"US","geo_score":0.0,"total fund - m":6.1,"id":"aa1iajjuk120","geo_precision":"unmatched","state":"WY"},"type":"Feature","geometry":null}],"is_temporal":false,"author":{"url":"","metadata":null,"contact_name":null,"contact_address":null,"source":null,"contact_phone":null},"source":"","pagination":{"sort":null,"start":0,"total":51,"limit":1000000},"state":"complete","tags":"","published":"2014-08-14T21:15:35-04:00","id":294620}