{"type":"FeatureCollection","data_type":"Dataset Analysis","url_type":null,"permissions":[{"permissions":{"download":true,"view":true},"group_id":"everyone"}],"classification":null,"title":"Merge of 'Center for Disease Control, Behavioral Risk Factor Surveillance System, USA,  2006' into 'Behavioral Health'","count":193,"stream_id":295312,"contributor":{"url":"http://geocommons.com/users/56201","name":"fzerihun"},"data_attributes":null,"calculation_params":{"calculation":"union","input":{"source2":295311,"merge":"none","source1":246628}},"icon_link":null,"link":"http://geocommons.com/overlays/295312.json","extent":[-159.307,19.7208,-70.2553,48.1958],"geometry_types":["point"],"unique_name":null,"name":"Merge of 'Center for Disease Control, Behavioral Risk Factor Surveillance System, USA,  2006' into 'Behavioral Health'","feature_count":193,"description":"Dataset derived by merging the features of 'Center for Disease Control, Behavioral Risk Factor Surveillance System, USA,  2006' into 'Behavioral Health'","next_feature":null,"is_raster":false,"short_classification":"Y","stats":{"Do you hav":{"max":93.8,"variance":27.7527578671329,"mean":85.4729166666667,"stdev":5.26808863508701,"min":60.9,"median":86.3},"During the":{"max":31.4,"variance":16.7351354895105,"mean":22.10625,"stdev":4.09085999387788,"min":12.9,"median":21.9},"Women aged":{"max":36.2,"variance":26.0906118881119,"mean":18.4708333333333,"stdev":5.10789701228518,"min":0.0,"median":18.5},"Heavy drin":{"max":10.7,"variance":2.54214403651904,"mean":5.01736111111111,"stdev":1.59441024724474,"min":1.0,"median":4.9},"Binge drin":{"max":24.8,"variance":9.80208041958042,"mean":15.0791666666667,"stdev":3.13082743369551,"min":5.5,"median":15.0},"geo_score":{"max":1.0,"variance":0.00781070833333335,"mean":0.959571428571429,"stdev":0.0883782118699702,"min":0.571,"median":1.0},"Weight cla":{"max":51.0,"variance":16.2977578671329,"mean":38.78125,"stdev":4.03704816259763,"min":23.3,"median":38.7},"Have you e":{"max":12.7,"variance":2.81303758741259,"mean":7.56041666666667,"stdev":1.67721125306641,"min":3.8,"median":7.5},"Adults who":{"max":95.5,"variance":1.96908313908314,"mean":91.7027777777778,"stdev":1.40324022857212,"min":87.9,"median":91.7},"Adults age":{"max":80.9,"variance":365.124147241647,"mean":63.7319444444445,"stdev":19.1082219801228,"min":0.0,"median":68.8},"City code0":{"max":34672.0,"variance":106575230.152098,"mean":16043.7916666667,"stdev":10323.5279896021,"min":675.0,"median":15228.0},"How is you":{"max":28.8,"variance":11.206130050505,"mean":21.7326388888889,"stdev":3.34755583232081,"min":11.5,"median":21.7},"Men aged 4":{"max":66.9,"variance":333.383212412587,"mean":47.48125,"stdev":18.2587845272512,"min":0.0,"median":53.4},"Adults tha":{"max":72.2,"variance":36.1673072066822,"mean":56.4243055555556,"stdev":6.01392610585483,"min":36.1,"median":56.1},"Visited th":{"max":82.1,"variance":31.0974805749806,"mean":70.9236111111111,"stdev":5.57651150585925,"min":56.7,"median":70.8},"Health Sta":{"max":91.8,"variance":10.3636009129759,"mean":85.3368055555556,"stdev":3.21925471390133,"min":75.7,"median":85.6},"Four Level":{"max":23.6,"variance":14.3815306915307,"mean":14.4472222222222,"stdev":3.79229886632511,"min":4.8,"median":14.8}},"features":[{"properties":{"city":"Las Vegas","Do you hav":null,"During the":null,"Women aged":null,"zip":"891693005","Heavy drin":null,"county":"Clark","Binge drin":null,"geo_score":1.0,"Weight cla":null,"Have you e":null,"Adults who":null,"Adults age":null,"City code0":null,"How is you":null,"Men aged 4":null,"individual or practice name":"Adelson Clinic For Drug Abuse Treatment &amp; Research","provider speciality":"IP Mental Hlth/Substance Abuse","id":"a61zztsho766","address":"3661 S Maryland Pkwy","geo_precision":"range","STATE0":null,"Name0":null,"state":"NV","Adults tha":null,"Visited th":null,"Health Sta":null,"Four Level":null},"type":"Feature","geometry":{"type":"Point","coordinates":[-115.137306,36.122864]}},{"properties":{"city":"Las Vegas","Do you hav":null,"During the":null,"Women aged":null,"zip":"891064189","Heavy drin":null,"county":"Clark","Binge drin":null,"geo_score":1.0,"Weight cla":null,"Have you e":null,"Adults who":null,"Adults age":null,"City code0":null,"How is you":null,"Men aged 4":null,"individual or practice name":"Apex Medical Center","provider speciality":"Psychiatry","id":"a61zztuydbyp","address":"1701 Bearden Dr","geo_precision":"range","STATE0":null,"Name0":null,"state":"NV","Adults tha":null,"Visited th":null,"Health Sta":null,"Four Level":null},"type":"Feature","geometry":{"type":"Point","coordinates":[-115.165211,36.161924]}},{"properties":{"city":"Pahrump","Do you hav":null,"During the":null,"Women aged":null,"zip":"890484737","Heavy drin":null,"county":"Nye","Binge drin":null,"geo_score":0.902,"Weight cla":null,"Have you e":null,"Adults who":null,"Adults age":null,"City code0":null,"How is you":null,"Men aged 4":null,"individual or practice name":"Associated Psychiatric Svcs","provider speciality":"Psychiatry","id":"a61zztkxj2da","address":"2620 Acoma Ave","geo_precision":"range","STATE0":null,"Name0":null,"state":"NV","Adults tha":null,"Visited th":null,"Health Sta":null,"Four Level":null},"type":"Feature","geometry":{"type":"Point","coordinates":[-115.968741,36.194621]}},{"properties":{"city":"Las Vegas","Do you hav":null,"During the":null,"Women aged":null,"zip":"891196139","Heavy drin":null,"county":"Clark","Binge drin":null,"geo_score":1.0,"Weight cla":null,"Have you e":null,"Adults who":null,"Adults age":null,"City code0":null,"How is you":null,"Men aged 4":null,"individual or practice name":"Bilingual Behavioral Services","provider speciality":"Behavioral Health Group","id":"a61zztojx1f5","address":"4660 S Eastern Ave","geo_precision":"range","STATE0":null,"Name0":null,"state":"NV","Adults tha":null,"Visited th":null,"Health Sta":null,"Four Level":null},"type":"Feature","geometry":{"type":"Point","coordinates":[-115.11901,36.104389]}},{"properties":{"city":"Las Vegas","Do you hav":null,"During the":null,"Women aged":null,"zip":"891012407","Heavy drin":null,"county":"Clark","Binge drin":null,"geo_score":1.0,"Weight cla":null,"Have you e":null,"Adults who":null,"Adults age":null,"City code0":null,"How is you":null,"Men aged 4":null,"individual or practice name":"Boys Town Nevada","provider speciality":"OP Mental Hlth/Substance Abuse","id":"a61zztv8lwvn","address":"821 N Mojave Rd","geo_precision":"range","STATE0":null,"Name0":null,"state":"NV","Adults tha":null,"Visited th":null,"Health Sta":null,"Four Level":null},"type":"Feature","geometry":{"type":"Point","coordinates":[-115.106239,36.178099]}},{"properties":{"city":"Las Vegas","Do you hav":null,"During the":null,"Women aged":null,"zip":"891465306","Heavy drin":null,"county":"Clark","Binge drin":null,"geo_score":1.0,"Weight cla":null,"Have you e":null,"Adults who":null,"Adults age":null,"City code0":null,"How is you":null,"Men aged 4":null,"individual or practice name":"Comprehensive Psychological Services","provider speciality":"Psychology","id":"a61zzto1e8d6","address":"2740 S Jones Blvd","geo_precision":"range","STATE0":null,"Name0":null,"state":"NV","Adults tha":null,"Visited th":null,"Health Sta":null,"Four Level":null},"type":"Feature","geometry":{"type":"Point","coordinates":[-115.225174,36.139683]}},{"properties":{"city":"Henderson","Do you hav":null,"During the":null,"Women aged":null,"zip":"890746178","Heavy drin":null,"county":"Clark","Binge drin":null,"geo_score":0.913,"Weight cla":null,"Have you e":null,"Adults who":null,"Adults age":null,"City code0":null,"How is you":null,"Men aged 4":null,"individual or practice name":"Creative Mental Health, LLC","provider speciality":"Lic Clinical Social Worker","id":"a61zztvu2hp4","address":"701 N Green Valley Pkwy","geo_precision":"range","STATE0":null,"Name0":null,"state":"NV","Adults tha":null,"Visited th":null,"Health Sta":null,"Four Level":null},"type":"Feature","geometry":{"type":"Point","coordinates":[-115.085706,36.027005]}},{"properties":{"city":"Las Vegas","Do you hav":null,"During the":null,"Women aged":null,"zip":"891173064","Heavy drin":null,"county":"Clark","Binge drin":null,"geo_score":1.0,"Weight cla":null,"Have you e":null,"Adults who":null,"Adults age":null,"City code0":null,"How is you":null,"Men aged 4":null,"individual or practice name":"Creative Therapies","provider speciality":"Behavioral Health Group","id":"a61zztrq2rog","address":"2560 Montessouri St.","geo_precision":"range","STATE0":null,"Name0":null,"state":"NV","Adults tha":null,"Visited th":null,"Health Sta":null,"Four Level":null},"type":"Feature","geometry":{"type":"Point","coordinates":[-115.247408,36.142915]}},{"properties":{"city":"Las Vegas","Do you hav":null,"During the":null,"Women aged":null,"zip":"891465611","Heavy drin":null,"county":"Clark","Binge drin":null,"geo_score":0.967,"Weight cla":null,"Have you e":null,"Adults who":null,"Adults age":null,"City code0":null,"How is you":null,"Men aged 4":null,"individual or practice name":"Eldora Medical Associates","provider speciality":"Psychiatry","id":"a61zztlo0lhl","address":"6039 Eldora Ave","geo_precision":"range","STATE0":null,"Name0":null,"state":"NV","Adults tha":null,"Visited th":null,"Health Sta":null,"Four Level":null},"type":"Feature","geometry":{"type":"Point","coordinates":[-115.224284,36.14048]}},{"properties":{"city":"Las Vegas","Do you hav":null,"During the":null,"Women aged":null,"zip":"891130157","Heavy drin":null,"county":"Clark","Binge drin":null,"geo_score":1.0,"Weight cla":null,"Have you e":null,"Adults who":null,"Adults age":null,"City code0":null,"How is you":null,"Men aged 4":null,"individual or practice name":"Harder Medical Inc","provider speciality":"Psychology","id":"a61zztvpnz9w","address":"4955 S Durango Dr","geo_precision":"range","STATE0":null,"Name0":null,"state":"NV","Adults tha":null,"Visited th":null,"Health Sta":null,"Four Level":null},"type":"Feature","geometry":{"type":"Point","coordinates":[-115.279255,36.099052]}},{"properties":{"city":"Las Vegas","Do you hav":null,"During the":null,"Women aged":null,"zip":"891020166","Heavy drin":null,"county":"Clark","Binge drin":null,"geo_score":0.707,"Weight cla":null,"Have you e":null,"Adults who":null,"Adults age":null,"City code0":null,"How is you":null,"Men aged 4":null,"individual or practice name":"Heads Up Guidance And Wellness Centers Of Nevada","provider speciality":"Behavioral Health Group","id":"a61zztsqnvlv","address":"2801 S Valley View","geo_precision":"range","STATE0":null,"Name0":null,"state":"NV","Adults tha":null,"Visited th":null,"Health Sta":null,"Four Level":null},"type":"Feature","geometry":{"type":"Point","coordinates":[-115.111476,36.161642]}},{"properties":{"city":"Las Vegas","Do you hav":null,"During the":null,"Women aged":null,"zip":"89102","Heavy drin":null,"county":"Clark","Binge drin":null,"geo_score":1.0,"Weight cla":null,"Have you e":null,"Adults who":null,"Adults age":null,"City code0":null,"How is you":null,"Men aged 4":null,"individual or practice name":"HOPE Counseling Services, LLC","provider speciality":"Behavioral Health Group","id":"a61zztujgbs0","address":"2820 W Charleston Blvd","geo_precision":"range","STATE0":null,"Name0":null,"state":"NV","Adults tha":null,"Visited th":null,"Health Sta":null,"Four Level":null},"type":"Feature","geometry":{"type":"Point","coordinates":[-115.179149,36.158921]}},{"properties":{"city":"Las Vegas","Do you hav":null,"During the":null,"Women aged":null,"zip":"891232847","Heavy drin":null,"county":"Clark","Binge drin":null,"geo_score":1.0,"Weight cla":null,"Have you e":null,"Adults who":null,"Adults age":null,"City code0":null,"How is you":null,"Men aged 4":null,"individual or practice name":"Jaime T Austin","provider speciality":"Psychology","id":"a61zztun15dq","address":"8540 S Eastern Ave","geo_precision":"range","STATE0":null,"Name0":null,"state":"NV","Adults tha":null,"Visited th":null,"Health Sta":null,"Four Level":null},"type":"Feature","geometry":{"type":"Point","coordinates":[-115.11837,36.033658]}},{"properties":{"city":"Las Vegas","Do you hav":null,"During the":null,"Women aged":null,"zip":"891197427","Heavy drin":null,"county":"Clark","Binge drin":null,"geo_score":1.0,"Weight cla":null,"Have you e":null,"Adults who":null,"Adults age":null,"City code0":null,"How is you":null,"Men aged 4":null,"individual or practice name":"Maple Star Nevada-Las Vegas","provider speciality":"Behavioral Health Group","id":"a61zztld6fyr","address":"1050 E Flamingo Rd","geo_precision":"range","STATE0":null,"Name0":null,"state":"NV","Adults tha":null,"Visited th":null,"Health Sta":null,"Four Level":null},"type":"Feature","geometry":{"type":"Point","coordinates":[-115.141173,36.114605]}},{"properties":{"city":"Las Vegas","Do you hav":null,"During the":null,"Women aged":null,"zip":"891289017","Heavy drin":null,"county":"Clark","Binge drin":null,"geo_score":0.571,"Weight cla":null,"Have you e":null,"Adults who":null,"Adults age":null,"City code0":null,"How is you":null,"Men aged 4":null,"individual or practice name":"Medschool Associates South","provider speciality":"Lic Clinical Social Worker","id":"a61zztraxavv","address":"2410 Fire Mesa St","geo_precision":"street","STATE0":null,"Name0":null,"state":"NV","Adults tha":null,"Visited th":null,"Health Sta":null,"Four Level":null},"type":"Feature","geometry":{"type":"Point","coordinates":[-115.248243,36.180537]}},{"properties":{"city":"Las Vegas","Do you hav":null,"During the":null,"Women aged":null,"zip":"891033304","Heavy drin":null,"county":"Clark","Binge drin":null,"geo_score":1.0,"Weight cla":null,"Have you e":null,"Adults who":null,"Adults age":null,"City code0":null,"How is you":null,"Men aged 4":null,"individual or practice name":"Montevista Hospital","provider speciality":"Psychiatric Hospital","id":"a61zzu12tn2m","address":"5900 W Rochelle Ave","geo_precision":"range","STATE0":null,"Name0":null,"state":"NV","Adults tha":null,"Visited th":null,"Health Sta":null,"Four Level":null},"type":"Feature","geometry":{"type":"Point","coordinates":[-115.222281,36.110953]}},{"properties":{"city":"Las Vegas","Do you hav":null,"During the":null,"Women aged":null,"zip":"891693211","Heavy drin":null,"county":"Clark","Binge drin":null,"geo_score":1.0,"Weight cla":null,"Have you e":null,"Adults who":null,"Adults age":null,"City code0":null,"How is you":null,"Men aged 4":null,"individual or practice name":"Neurology Specialists","provider speciality":"Neurology","id":"a61zzu10xekv","address":"2020 E Desert Inn Rd","geo_precision":"range","STATE0":null,"Name0":null,"state":"NV","Adults tha":null,"Visited th":null,"Health Sta":null,"Four Level":null},"type":"Feature","geometry":{"type":"Point","coordinates":[-115.124927,36.129856]}},{"properties":{"city":"North Las Vegas","Do you hav":null,"During the":null,"Women aged":null,"zip":"890328222","Heavy drin":null,"county":"Clark","Binge drin":null,"geo_score":0.805,"Weight cla":null,"Have you e":null,"Adults who":null,"Adults age":null,"City code0":null,"How is you":null,"Men aged 4":null,"individual or practice name":"New Beginnings Behavioral Treatment Agency","provider speciality":"Behavioral Health Group","id":"a61zztx005ye","address":"3450 W Cheyenne Ave","geo_precision":"street","STATE0":null,"Name0":null,"state":"NV","Adults tha":null,"Visited th":null,"Health Sta":null,"Four Level":null},"type":"Feature","geometry":{"type":"Point","coordinates":[-115.180816,36.217581]}},{"properties":{"city":"North Las Vegas","Do you hav":null,"During the":null,"Women aged":null,"zip":"890306512","Heavy drin":null,"county":"Clark","Binge drin":null,"geo_score":1.0,"Weight cla":null,"Have you e":null,"Adults who":null,"Adults age":null,"City code0":null,"How is you":null,"Men aged 4":null,"individual or practice name":"New Beginnings Counseling Ctr","provider speciality":"OP Mental Hlth/Substance Abuse","id":"a61zztq35kxk","address":"2700 E Lake Mead Blvd","geo_precision":"range","STATE0":null,"Name0":null,"state":"NV","Adults tha":null,"Visited th":null,"Health Sta":null,"Four Level":null},"type":"Feature","geometry":{"type":"Point","coordinates":[-115.112338,36.195869]}},{"properties":{"city":"North Las Vegas","Do you hav":null,"During the":null,"Women aged":null,"zip":"890323831","Heavy drin":null,"county":"Clark","Binge drin":null,"geo_score":1.0,"Weight cla":null,"Have you e":null,"Adults who":null,"Adults age":null,"City code0":null,"How is you":null,"Men aged 4":null,"individual or practice name":"Phases","provider speciality":"Behavioral Health Group","id":"a61zztwacpiy","address":"2755 W Cheyenne Ave","geo_precision":"range","STATE0":null,"Name0":null,"state":"NV","Adults tha":null,"Visited th":null,"Health Sta":null,"Four Level":null},"type":"Feature","geometry":{"type":"Point","coordinates":[-115.178053,36.217603]}},{"properties":{"city":"Las Vegas","Do you hav":null,"During the":null,"Women aged":null,"zip":"891031237","Heavy drin":null,"county":"Clark","Binge drin":null,"geo_score":1.0,"Weight cla":null,"Have you e":null,"Adults who":null,"Adults age":null,"City code0":null,"How is you":null,"Men aged 4":null,"individual or practice name":"Red Rock Behavioral Health Hospital","provider speciality":"Psychiatric Hospital","id":"a61zztofdj0s","address":"5975 W Twain Ave","geo_precision":"range","STATE0":null,"Name0":null,"state":"NV","Adults tha":null,"Visited th":null,"Health Sta":null,"Four Level":null},"type":"Feature","geometry":{"type":"Point","coordinates":[-115.223365,36.12185]}},{"properties":{"city":"Las Vegas","Do you hav":null,"During the":null,"Women aged":null,"zip":"891192314","Heavy drin":null,"county":"Clark","Binge drin":null,"geo_score":1.0,"Weight cla":null,"Have you e":null,"Adults who":null,"Adults age":null,"City code0":null,"How is you":null,"Men aged 4":null,"individual or practice name":"Ron Zedek MD","provider speciality":"Psychiatry","id":"a61zztxz72v0","address":"5329 S Eastern Ave","geo_precision":"range","STATE0":null,"Name0":null,"state":"NV","Adults tha":null,"Visited th":null,"Health Sta":null,"Four Level":null},"type":"Feature","geometry":{"type":"Point","coordinates":[-115.118883,36.092609]}},{"properties":{"city":"Las Vegas","Do you hav":null,"During the":null,"Women aged":null,"zip":"891460361","Heavy drin":null,"county":"Clark","Binge drin":null,"geo_score":1.0,"Weight cla":null,"Have you e":null,"Adults who":null,"Adults age":null,"City code0":null,"How is you":null,"Men aged 4":null,"individual or practice name":"Scott A Rubin","provider speciality":"Psychiatry","id":"a61zztxrq3jp","address":"5440 W Sahara Ave","geo_precision":"range","STATE0":null,"Name0":null,"state":"NV","Adults tha":null,"Visited th":null,"Health Sta":null,"Four Level":null},"type":"Feature","geometry":{"type":"Point","coordinates":[-115.216953,36.144386]}},{"properties":{"city":"Las Vegas","Do you hav":null,"During the":null,"Women aged":null,"zip":"891463307","Heavy drin":null,"county":"Clark","Binge drin":null,"geo_score":1.0,"Weight cla":null,"Have you e":null,"Adults who":null,"Adults age":null,"City code0":null,"How is you":null,"Men aged 4":null,"individual or practice name":"Spring Mountain Sahara","provider speciality":"Psychiatric Hospital","id":"a61zzttp4nsg","address":"5460 W Sahara Ave","geo_precision":"range","STATE0":null,"Name0":null,"state":"NV","Adults tha":null,"Visited th":null,"Health Sta":null,"Four Level":null},"type":"Feature","geometry":{"type":"Point","coordinates":[-115.21715,36.144383]}},{"properties":{"city":"Las Vegas","Do you hav":null,"During the":null,"Women aged":null,"zip":"891173816","Heavy drin":null,"county":"Clark","Binge drin":null,"geo_score":0.963,"Weight cla":null,"Have you e":null,"Adults who":null,"Adults age":null,"City code0":null,"How is you":null,"Men aged 4":null,"individual or practice name":"Spring Mountain Treatment Center","provider speciality":"Psychiatric Hospital","id":"a61zztq343f2","address":"7000 Spring Mountian Rd","geo_precision":"range","STATE0":null,"Name0":null,"state":"NV","Adults tha":null,"Visited th":null,"Health Sta":null,"Four Level":null},"type":"Feature","geometry":{"type":"Point","coordinates":[-115.245236,36.1257]}},{"properties":{"city":"Las Vegas","Do you hav":null,"During the":null,"Women aged":null,"zip":"891130156","Heavy drin":null,"county":"Clark","Binge drin":null,"geo_score":1.0,"Weight cla":null,"Have you e":null,"Adults who":null,"Adults age":null,"City code0":null,"How is you":null,"Men aged 4":null,"individual or practice name":"Stephanie Holland","provider speciality":"Behavioral Health Group","id":"a61zztqamuiw","address":"4955 S Durango Dr","geo_precision":"range","STATE0":null,"Name0":null,"state":"NV","Adults tha":null,"Visited th":null,"Health Sta":null,"Four Level":null},"type":"Feature","geometry":{"type":"Point","coordinates":[-115.279255,36.099052]}},{"properties":{"city":"Las Vegas","Do you hav":null,"During the":null,"Women aged":null,"zip":"891280439","Heavy drin":null,"county":"Clark","Binge drin":null,"geo_score":1.0,"Weight cla":null,"Have you e":null,"Adults who":null,"Adults age":null,"City code0":null,"How is you":null,"Men aged 4":null,"individual or practice name":"Adams, Melissa K.","provider speciality":"Lic Marriage/Family Therapist","id":"a61zztyiwger","address":"7200 Cathedral Rock Dr","geo_precision":"range","STATE0":null,"Name0":null,"state":"NV","Adults tha":null,"Visited th":null,"Health Sta":null,"Four Level":null},"type":"Feature","geometry":{"type":"Point","coordinates":[-115.249184,36.204928]}},{"properties":{"city":"Las Vegas","Do you hav":null,"During the":null,"Women aged":null,"zip":"891172506","Heavy drin":null,"county":"Clark","Binge drin":null,"geo_score":0.808,"Weight cla":null,"Have you e":null,"Adults who":null,"Adults age":null,"City code0":null,"How is you":null,"Men aged 4":null,"individual or practice name":"Aleksic, Paul M.","provider speciality":"Psychology","id":"a61zztm1294n","address":"3230 S Buffalo Dr","geo_precision":"street","STATE0":null,"Name0":null,"state":"NV","Adults tha":null,"Visited th":null,"Health Sta":null,"Four Level":null},"type":"Feature","geometry":{"type":"Point","coordinates":[-115.260983,36.130974]}},{"properties":{"city":"Las Vegas","Do you hav":null,"During the":null,"Women aged":null,"zip":"891280439","Heavy drin":null,"county":"Clark","Binge drin":null,"geo_score":1.0,"Weight cla":null,"Have you e":null,"Adults who":null,"Adults age":null,"City code0":null,"How is you":null,"Men aged 4":null,"individual or practice name":"Brassfield, Patricia","provider speciality":"Psychology","id":"a61zztos3fv5","address":"7200 Cathedral Rock Dr","geo_precision":"range","STATE0":null,"Name0":null,"state":"NV","Adults tha":null,"Visited th":null,"Health Sta":null,"Four Level":null},"type":"Feature","geometry":{"type":"Point","coordinates":[-115.249184,36.204928]}},{"properties":{"city":"Las Vegas","Do you hav":null,"During the":null,"Women aged":null,"zip":"891202830","Heavy drin":null,"county":"Clark","Binge drin":null,"geo_score":1.0,"Weight cla":null,"Have you e":null,"Adults who":null,"Adults age":null,"City code0":null,"How is you":null,"Men aged 4":null,"individual or practice name":"Carter, Margaret P.","provider speciality":"Lic Marriage/Family Therapist","id":"a61zzu0rn9ga","address":"6550 S Pecos Rd","geo_precision":"range","STATE0":null,"Name0":null,"state":"NV","Adults tha":null,"Visited th":null,"Health Sta":null,"Four Level":null},"type":"Feature","geometry":{"type":"Point","coordinates":[-115.100791,36.070699]}},{"properties":{"city":"Henderson","Do you hav":null,"During the":null,"Women aged":null,"zip":"890142632","Heavy drin":null,"county":"Clark","Binge drin":null,"geo_score":1.0,"Weight cla":null,"Have you e":null,"Adults who":null,"Adults age":null,"City code0":null,"How is you":null,"Men aged 4":null,"individual or practice name":"Cartwright, Stephanie L.","provider speciality":"Lic Clinical Social Worker","id":"a61zztx5hat2","address":"600 Whitney Ranch Dr","geo_precision":"range","STATE0":null,"Name0":null,"state":"NV","Adults tha":null,"Visited th":null,"Health Sta":null,"Four Level":null},"type":"Feature","geometry":{"type":"Point","coordinates":[-115.052657,36.063694]}},{"properties":{"city":"Las Vegas","Do you hav":null,"During the":null,"Women aged":null,"zip":"891465306","Heavy drin":null,"county":"Clark","Binge drin":null,"geo_score":1.0,"Weight cla":null,"Have you e":null,"Adults who":null,"Adults age":null,"City code0":null,"How is you":null,"Men aged 4":null,"individual or practice name":"Corcoran, Leslie E.","provider speciality":"Lic Marriage/Family Therapist","id":"a61zztqrx6nf","address":"2740 S Jones Blvd","geo_precision":"range","STATE0":null,"Name0":null,"state":"NV","Adults tha":null,"Visited th":null,"Health Sta":null,"Four Level":null},"type":"Feature","geometry":{"type":"Point","coordinates":[-115.225174,36.139683]}},{"properties":{"city":"Las Vegas","Do you hav":null,"During the":null,"Women aged":null,"zip":"891280818","Heavy drin":null,"county":"Clark","Binge drin":null,"geo_score":1.0,"Weight cla":null,"Have you e":null,"Adults who":null,"Adults age":null,"City code0":null,"How is you":null,"Men aged 4":null,"individual or practice name":"Cornelius, Cheryl","provider speciality":"Lic Marriage/Family Therapist","id":"a61zztxfsw8i","address":"7375 Prairie Falcon Rd","geo_precision":"range","STATE0":null,"Name0":null,"state":"NV","Adults tha":null,"Visited th":null,"Health Sta":null,"Four Level":null},"type":"Feature","geometry":{"type":"Point","coordinates":[-115.253386,36.206597]}},{"properties":{"city":"Las Vegas","Do you hav":null,"During the":null,"Women aged":null,"zip":"891466596","Heavy drin":null,"county":"Clark","Binge drin":null,"geo_score":1.0,"Weight cla":null,"Have you e":null,"Adults who":null,"Adults age":null,"City code0":null,"How is you":null,"Men aged 4":null,"individual or practice name":"Crabb, Yangcha P.","provider speciality":"Psychology","id":"a61zztl925se","address":"3311 S Rainbow Blvd","geo_precision":"range","STATE0":null,"Name0":null,"state":"NV","Adults tha":null,"Visited th":null,"Health Sta":null,"Four Level":null},"type":"Feature","geometry":{"type":"Point","coordinates":[-115.24298,36.129282]}},{"properties":{"city":"Las Vegas","Do you hav":null,"During the":null,"Women aged":null,"zip":"891202828","Heavy drin":null,"county":"Clark","Binge drin":null,"geo_score":0.902,"Weight cla":null,"Have you e":null,"Adults who":null,"Adults age":null,"City code0":null,"How is you":null,"Men aged 4":null,"individual or practice name":"Daniel, Sue E.","provider speciality":"Lic Marriage/Family Therapist","id":"a61zztlqvto4","address":"6550 S Pecos Rd Bldg","geo_precision":"range","STATE0":null,"Name0":null,"state":"NV","Adults tha":null,"Visited th":null,"Health Sta":null,"Four Level":null},"type":"Feature","geometry":{"type":"Point","coordinates":[-115.100791,36.070699]}},{"properties":{"city":"Las Vegas","Do you hav":null,"During the":null,"Women aged":null,"zip":"891460361","Heavy drin":null,"county":"Clark","Binge drin":null,"geo_score":1.0,"Weight cla":null,"Have you e":null,"Adults who":null,"Adults age":null,"City code0":null,"How is you":null,"Men aged 4":null,"individual or practice name":"Del Rosario, Alex V.","provider speciality":"Geriatric Psychiatry","id":"a61zztv2j1uu","address":"5440 W Sahara Ave","geo_precision":"range","STATE0":null,"Name0":null,"state":"NV","Adults tha":null,"Visited th":null,"Health Sta":null,"Four Level":null},"type":"Feature","geometry":{"type":"Point","coordinates":[-115.216953,36.144386]}},{"properties":{"city":"Las Vegas","Do you hav":null,"During the":null,"Women aged":null,"zip":"891202201","Heavy drin":null,"county":"Clark","Binge drin":null,"geo_score":0.971,"Weight cla":null,"Have you e":null,"Adults who":null,"Adults age":null,"City code0":null,"How is you":null,"Men aged 4":null,"individual or practice name":"Doncaster, Maria G.","provider speciality":"Psychology","id":"a61zztvk28ti","address":"3440 E Russull Rd","geo_precision":"range","STATE0":null,"Name0":null,"state":"NV","Adults tha":null,"Visited th":null,"Health Sta":null,"Four Level":null},"type":"Feature","geometry":{"type":"Point","coordinates":[-115.100026,36.086271]}},{"properties":{"city":"Las Vegas","Do you hav":null,"During the":null,"Women aged":null,"zip":"891280807","Heavy drin":null,"county":"Clark","Binge drin":null,"geo_score":1.0,"Weight cla":null,"Have you e":null,"Adults who":null,"Adults age":null,"City code0":null,"How is you":null,"Men aged 4":null,"individual or practice name":"Donovan-Vaughn, B Diane","provider speciality":"Lic Professional Counselor","id":"a61zztvczpcn","address":"7365 Prairie Falcon Rd","geo_precision":"range","STATE0":null,"Name0":null,"state":"NV","Adults tha":null,"Visited th":null,"Health Sta":null,"Four Level":null},"type":"Feature","geometry":{"type":"Point","coordinates":[-115.253023,36.20655]}},{"properties":{"city":"Las Vegas","Do you hav":null,"During the":null,"Women aged":null,"zip":"891171572","Heavy drin":null,"county":"Clark","Binge drin":null,"geo_score":1.0,"Weight cla":null,"Have you e":null,"Adults who":null,"Adults age":null,"City code0":null,"How is you":null,"Men aged 4":null,"individual or practice name":"Guevara, Amy F.","provider speciality":"Psychology","id":"a61zztoiqy31","address":"7351 W Charleston Blvd","geo_precision":"range","STATE0":null,"Name0":null,"state":"NV","Adults tha":null,"Visited th":null,"Health Sta":null,"Four Level":null},"type":"Feature","geometry":{"type":"Point","coordinates":[-115.253958,36.159106]}},{"properties":{"city":"Las Vegas","Do you hav":null,"During the":null,"Women aged":null,"zip":"891287674","Heavy drin":null,"county":"Clark","Binge drin":null,"geo_score":1.0,"Weight cla":null,"Have you e":null,"Adults who":null,"Adults age":null,"City code0":null,"How is you":null,"Men aged 4":null,"individual or practice name":"Hood-Jackson, Susan A.","provider speciality":"Psychology","id":"a61zztlzeqzq","address":"8430 W Lake Mead Blvd","geo_precision":"range","STATE0":null,"Name0":null,"state":"NV","Adults tha":null,"Visited th":null,"Health Sta":null,"Four Level":null},"type":"Feature","geometry":{"type":"Point","coordinates":[-115.279237,36.198075]}},{"properties":{"city":"Las Vegas","Do you hav":null,"During the":null,"Women aged":null,"zip":"891465611","Heavy drin":null,"county":"Clark","Binge drin":null,"geo_score":0.967,"Weight cla":null,"Have you e":null,"Adults who":null,"Adults age":null,"City code0":null,"How is you":null,"Men aged 4":null,"individual or practice name":"Jouni, Nabil","provider speciality":"Psychiatry","id":"a61zztmeff07","address":"6039 Eldora Ave","geo_precision":"range","STATE0":null,"Name0":null,"state":"NV","Adults tha":null,"Visited th":null,"Health Sta":null,"Four Level":null},"type":"Feature","geometry":{"type":"Point","coordinates":[-115.224284,36.14048]}},{"properties":{"city":"Las Vegas","Do you hav":null,"During the":null,"Women aged":null,"zip":"891280260","Heavy drin":null,"county":"Clark","Binge drin":null,"geo_score":1.0,"Weight cla":null,"Have you e":null,"Adults who":null,"Adults age":null,"City code0":null,"How is you":null,"Men aged 4":null,"individual or practice name":"Kissner, Allen J.","provider speciality":"Lic Clinical Social Worker","id":"a61zztouekig","address":"7310 Smoke Ranch Rd","geo_precision":"range","STATE0":null,"Name0":null,"state":"NV","Adults tha":null,"Visited th":null,"Health Sta":null,"Four Level":null},"type":"Feature","geometry":{"type":"Point","coordinates":[-115.255808,36.203469]}},{"properties":{"city":"Las Vegas","Do you hav":null,"During the":null,"Women aged":null,"zip":"891132235","Heavy drin":null,"county":"Clark","Binge drin":null,"geo_score":0.807,"Weight cla":null,"Have you e":null,"Adults who":null,"Adults age":null,"City code0":null,"How is you":null,"Men aged 4":null,"individual or practice name":"Nagy, Shamim N.","provider speciality":"Psychiatry","id":"a61zztp7v6qy","address":"8285 W Arby Ave","geo_precision":"street","STATE0":null,"Name0":null,"state":"NV","Adults tha":null,"Visited th":null,"Health Sta":null,"Four Level":null},"type":"Feature","geometry":{"type":"Point","coordinates":[-115.274685,36.059267]}},{"properties":{"city":"Las Vegas","Do you hav":null,"During the":null,"Women aged":null,"zip":"891207219","Heavy drin":null,"county":"Clark","Binge drin":null,"geo_score":1.0,"Weight cla":null,"Have you e":null,"Adults who":null,"Adults age":null,"City code0":null,"How is you":null,"Men aged 4":null,"individual or practice name":"Ngo, Renee L.","provider speciality":"Psychiatry","id":"a61zzu04jj09","address":"3680 E Sunset Rd","geo_precision":"range","STATE0":null,"Name0":null,"state":"NV","Adults tha":null,"Visited th":null,"Health Sta":null,"Four Level":null},"type":"Feature","geometry":{"type":"Point","coordinates":[-115.094057,36.071301]}},{"properties":{"city":"Las Vegas","Do you hav":null,"During the":null,"Women aged":null,"zip":"891460361","Heavy drin":null,"county":"Clark","Binge drin":null,"geo_score":1.0,"Weight cla":null,"Have you e":null,"Adults who":null,"Adults age":null,"City code0":null,"How is you":null,"Men aged 4":null,"individual or practice name":"Nwapa, Emmanuel","provider speciality":"Psychiatry","id":"a61zzu1cumbu","address":"5440 W Sahara Ave","geo_precision":"range","STATE0":null,"Name0":null,"state":"NV","Adults tha":null,"Visited th":null,"Health Sta":null,"Four Level":null},"type":"Feature","geometry":{"type":"Point","coordinates":[-115.216953,36.144386]}},{"properties":{"city":"Las Vegas","Do you hav":null,"During the":null,"Women aged":null,"zip":"891460361","Heavy drin":null,"county":"Clark","Binge drin":null,"geo_score":1.0,"Weight cla":null,"Have you e":null,"Adults who":null,"Adults age":null,"City code0":null,"How is you":null,"Men aged 4":null,"individual or practice name":"Nwapa, Emmanuel","provider speciality":"Psychiatry","id":"a61zztqmp3gg","address":"5440 W Sahara Ave","geo_precision":"range","STATE0":null,"Name0":null,"state":"NV","Adults tha":null,"Visited th":null,"Health Sta":null,"Four Level":null},"type":"Feature","geometry":{"type":"Point","coordinates":[-115.216953,36.144386]}},{"properties":{"city":"Las Vegas","Do you hav":null,"During the":null,"Women aged":null,"zip":"891494597","Heavy drin":null,"county":"Clark","Binge drin":null,"geo_score":0.809,"Weight cla":null,"Have you e":null,"Adults who":null,"Adults age":null,"City code0":null,"How is you":null,"Men aged 4":null,"individual or practice name":"Nwokike, Jerome N.","provider speciality":"Psychiatry","id":"a61zztt32z1o","address":"6850 N Durango Dr","geo_precision":"street","STATE0":null,"Name0":null,"state":"NV","Adults tha":null,"Visited th":null,"Health Sta":null,"Four Level":null},"type":"Feature","geometry":{"type":"Point","coordinates":[-115.27865,36.284525]}},{"properties":{"city":"Las Vegas","Do you hav":null,"During the":null,"Women aged":null,"zip":"891465632","Heavy drin":null,"county":"Clark","Binge drin":null,"geo_score":1.0,"Weight cla":null,"Have you e":null,"Adults who":null,"Adults age":null,"City code0":null,"How is you":null,"Men aged 4":null,"individual or practice name":"Rosenman, Eugene","provider speciality":"Psychiatry","id":"a61zztmb9mpb","address":"2775 S Jones Blvd","geo_precision":"range","STATE0":null,"Name0":null,"state":"NV","Adults tha":null,"Visited th":null,"Health Sta":null,"Four Level":null},"type":"Feature","geometry":{"type":"Point","coordinates":[-115.225163,36.139027]}},{"properties":{"city":"Las Vegas","Do you hav":null,"During the":null,"Women aged":null,"zip":"891280804","Heavy drin":null,"county":"Clark","Binge drin":null,"geo_score":0.927,"Weight cla":null,"Have you e":null,"Adults who":null,"Adults age":null,"City code0":null,"How is you":null,"Men aged 4":null,"individual or practice name":"Sklar, Linda C.","provider speciality":"Lic Clinical Social Worker","id":"a61zztywqgon","address":"2441 Tech Ctr Ct","geo_precision":"range","STATE0":null,"Name0":null,"state":"NV","Adults tha":null,"Visited th":null,"Health Sta":null,"Four Level":null},"type":"Feature","geometry":{"type":"Point","coordinates":[-115.253675,36.203782]}},{"properties":{"Do you hav":91.8,"During the":18.1,"Women aged":12.8,"city":null,"Heavy drin":6.0,"zip":null,"Binge drin":15.9,"county":null,"geo_score":null,"Weight cla":38.3,"Have you e":8.0,"Adults who":92.6,"Adults age":0.0,"City code0":11457.0,"How is you":22.7,"Men aged 4":0.0,"individual or practice name":null,"provider speciality":null,"id":"a673fccldedi","STATE0":"OH","Name0":"Akron","address":null,"geo_precision":null,"Adults tha":53.5,"Visited th":70.5,"Health Sta":90.1,"Four Level":15.1,"state":null},"type":"Feature","geometry":{"type":"Point","coordinates":[-81.5190124511719,41.0814476013184]}},{"properties":{"Do you hav":83.4,"During the":19.2,"Women aged":21.9,"city":null,"Heavy drin":4.4,"zip":null,"Binge drin":13.0,"county":null,"geo_score":null,"Weight cla":41.6,"Have you e":6.4,"Adults who":91.4,"Adults age":67.3,"City code0":27386.0,"How is you":25.4,"Men aged 4":51.3,"individual or practice name":null,"provider speciality":null,"id":"a673fcj5gws9","STATE0":"NM","Name0":"Albuquerq","address":null,"geo_precision":null,"Adults tha":60.5,"Visited th":68.9,"Health Sta":85.3,"Four Level":13.4,"state":null},"type":"Feature","geometry":{"type":"Point","coordinates":[-106.651138305664,35.0844841003418]}},{"properties":{"Do you hav":88.4,"During the":22.0,"Women aged":15.2,"city":null,"Heavy drin":10.7,"zip":null,"Binge drin":20.9,"county":null,"geo_score":null,"Weight cla":33.1,"Have you e":9.2,"Adults who":89.4,"Adults age":67.1,"City code0":9295.0,"How is you":23.5,"Men aged 4":0.0,"individual or practice name":null,"provider speciality":null,"id":"a673fc9zyvid","STATE0":"PA","Name0":"Allentown","address":null,"geo_precision":null,"Adults tha":48.5,"Visited th":67.3,"Health Sta":85.2,"Four Level":16.4,"state":null},"type":"Feature","geometry":{"type":"Point","coordinates":[-75.4901885986328,40.6084251403809]}},{"properties":{"Do you hav":82.8,"During the":24.0,"Women aged":14.6,"city":null,"Heavy drin":3.4,"zip":null,"Binge drin":11.1,"county":null,"geo_score":null,"Weight cla":42.3,"Have you e":7.8,"Adults who":92.7,"Adults age":70.5,"City code0":24255.0,"How is you":19.6,"Men aged 4":63.5,"individual or practice name":null,"provider speciality":null,"id":"a673fcdrcmru","STATE0":"NC","Name0":"Asheville","address":null,"geo_precision":null,"Adults tha":53.1,"Visited th":63.4,"Health Sta":81.2,"Four Level":18.5,"state":null},"type":"Feature","geometry":{"type":"Point","coordinates":[-82.5540161132812,35.6009407043457]}},{"properties":{"Do you hav":83.5,"During the":31.4,"Women aged":20.4,"city":null,"Heavy drin":3.4,"zip":null,"Binge drin":9.8,"county":null,"geo_score":null,"Weight cla":23.3,"Have you e":12.7,"Adults who":91.6,"Adults age":0.0,"City code0":12616.0,"How is you":11.5,"Men aged 4":0.0,"individual or practice name":null,"provider speciality":null,"id":"a673fcey5cqd","STATE0":"OH","Name0":"Ashland","address":null,"geo_precision":null,"Adults tha":36.1,"Visited th":59.8,"Health Sta":75.7,"Four Level":20.2,"state":null},"type":"Feature","geometry":{"type":"Point","coordinates":[-82.3182144165039,40.8686676025391]}},{"properties":{"Do you hav":85.9,"During the":21.0,"Women aged":16.2,"city":null,"Heavy drin":4.4,"zip":null,"Binge drin":12.9,"county":null,"geo_score":null,"Weight cla":39.4,"Have you e":7.5,"Adults who":92.3,"Adults age":63.5,"City code0":28023.0,"How is you":25.2,"Men aged 4":58.5,"individual or practice name":null,"provider speciality":null,"id":"a673fclkvrgn","STATE0":"GA","Name0":"Atlanta","address":null,"geo_precision":null,"Adults tha":58.8,"Visited th":73.6,"Health Sta":88.3,"Four Level":11.2,"state":null},"type":"Feature","geometry":{"type":"Point","coordinates":[-84.3879852294922,33.7489967346191]}},{"properties":{"Do you hav":86.3,"During the":26.8,"Women aged":14.2,"city":null,"Heavy drin":3.3,"zip":null,"Binge drin":15.8,"county":null,"geo_score":null,"Weight cla":38.5,"Have you e":9.1,"Adults who":92.4,"Adults age":63.9,"City code0":12263.0,"How is you":22.3,"Men aged 4":60.5,"individual or practice name":null,"provider speciality":null,"id":"a673fchhvjsj","STATE0":"NJ","Name0":"Atlantic","address":null,"geo_precision":null,"Adults tha":48.8,"Visited th":77.3,"Health Sta":80.7,"Four Level":14.9,"state":null},"type":"Feature","geometry":{"type":"Point","coordinates":[-74.4229278564453,39.3642883300781]}},{"properties":{"Do you hav":84.9,"During the":26.9,"Women aged":17.5,"city":null,"Heavy drin":3.6,"zip":null,"Binge drin":13.0,"county":null,"geo_score":null,"Weight cla":33.7,"Have you e":8.8,"Adults who":92.1,"Adults age":68.8,"City code0":27796.0,"How is you":18.9,"Men aged 4":64.7,"individual or practice name":null,"provider speciality":null,"id":"a673fclm86mg","STATE0":"GA","Name0":"Augusta","address":null,"geo_precision":null,"Adults tha":54.6,"Visited th":70.7,"Health Sta":81.7,"Four Level":16.1,"state":null},"type":"Feature","geometry":{"type":"Point","coordinates":[-81.9638595581055,33.4733467102051]}},{"properties":{"Do you hav":80.0,"During the":21.6,"Women aged":17.0,"city":null,"Heavy drin":5.2,"zip":null,"Binge drin":20.3,"county":null,"geo_score":null,"Weight cla":40.0,"Have you e":6.7,"Adults who":92.9,"Adults age":71.7,"City code0":33534.0,"How is you":24.1,"Men aged 4":52.4,"individual or practice name":null,"provider speciality":null,"id":"a673fcgk4xy0","STATE0":"TX","Name0":"Austin","address":null,"geo_precision":null,"Adults tha":62.5,"Visited th":66.7,"Health Sta":89.9,"Four Level":12.1,"state":null},"type":"Feature","geometry":{"type":"Point","coordinates":[-97.7430648803711,30.267147064209]}},{"properties":{"Do you hav":90.3,"During the":23.5,"Women aged":14.6,"city":null,"Heavy drin":5.2,"zip":null,"Binge drin":15.4,"county":null,"geo_score":null,"Weight cla":39.0,"Have you e":8.3,"Adults who":91.4,"Adults age":65.4,"City code0":13990.0,"How is you":23.2,"Men aged 4":55.8,"individual or practice name":null,"provider speciality":null,"id":"a673fcfpz9qq","STATE0":"MD","Name0":"Baltimore","address":null,"geo_precision":null,"Adults tha":57.6,"Visited th":76.0,"Health Sta":86.8,"Four Level":14.5,"state":null},"type":"Feature","geometry":{"type":"Point","coordinates":[-76.612190246582,39.2903861999512]}},{"properties":{"Do you hav":88.2,"During the":17.8,"Women aged":13.2,"city":null,"Heavy drin":7.9,"zip":null,"Binge drin":16.5,"county":null,"geo_score":null,"Weight cla":41.4,"Have you e":6.7,"Adults who":91.7,"Adults age":77.4,"City code0":2401.0,"How is you":24.9,"Men aged 4":43.6,"individual or practice name":null,"provider speciality":null,"id":"a673fc809qmq","STATE0":"VT","Name0":"Barre","address":null,"geo_precision":null,"Adults tha":50.5,"Visited th":74.9,"Health Sta":90.5,"Four Level":14.9,"state":null},"type":"Feature","geometry":{"type":"Point","coordinates":[-72.5020523071289,44.1970024108887]}},{"properties":{"Do you hav":79.7,"During the":30.1,"Women aged":15.1,"city":null,"Heavy drin":5.8,"zip":null,"Binge drin":14.4,"county":null,"geo_score":null,"Weight cla":39.7,"Have you e":7.3,"Adults who":94.7,"Adults age":62.2,"City code0":33104.0,"How is you":20.9,"Men aged 4":56.4,"individual or practice name":null,"provider speciality":null,"id":"a673fca552oi","STATE0":"LA","Name0":"Baton Rou","address":null,"geo_precision":null,"Adults tha":54.0,"Visited th":67.8,"Health Sta":84.7,"Four Level":17.1,"state":null},"type":"Feature","geometry":{"type":"Point","coordinates":[-91.1545486450195,30.4507503509521]}},{"properties":{"Do you hav":92.2,"During the":18.6,"Women aged":17.4,"city":null,"Heavy drin":5.0,"zip":null,"Binge drin":12.8,"county":null,"geo_score":null,"Weight cla":47.1,"Have you e":5.4,"Adults who":90.5,"Adults age":73.8,"City code0":15023.0,"How is you":28.4,"Men aged 4":53.8,"individual or practice name":null,"provider speciality":null,"id":"a673fcdl776y","STATE0":"MD","Name0":"Bethesda","address":null,"geo_precision":null,"Adults tha":65.1,"Visited th":79.2,"Health Sta":89.8,"Four Level":6.6,"state":null},"type":"Feature","geometry":{"type":"Point","coordinates":[-77.0995788574219,38.9809875488281]}},{"properties":{"Do you hav":87.8,"During the":16.8,"Women aged":26.2,"city":null,"Heavy drin":3.7,"zip":null,"Binge drin":13.5,"county":null,"geo_score":null,"Weight cla":34.6,"Have you e":4.6,"Adults who":91.9,"Adults age":78.6,"City code0":3931.0,"How is you":20.4,"Men aged 4":66.7,"individual or practice name":null,"provider speciality":null,"id":"a673fcewv88n","STATE0":"MT","Name0":"Billings","address":null,"geo_precision":null,"Adults tha":60.7,"Visited th":72.0,"Health Sta":85.6,"Four Level":12.9,"state":null},"type":"Feature","geometry":{"type":"Point","coordinates":[-108.500686645508,45.7832794189453]}},{"properties":{"Do you hav":84.6,"During the":26.0,"Women aged":16.5,"city":null,"Heavy drin":5.1,"zip":null,"Binge drin":12.6,"county":null,"geo_score":null,"Weight cla":35.5,"Have you e":10.4,"Adults who":91.8,"Adults age":60.5,"City code0":28867.0,"How is you":20.8,"Men aged 4":64.5,"individual or practice name":null,"provider speciality":null,"id":"a673fck96rnh","STATE0":"AL","Name0":"Birmingha","address":null,"geo_precision":null,"Adults tha":47.7,"Visited th":69.0,"Health Sta":80.2,"Four Level":17.4,"state":null},"type":"Feature","geometry":{"type":"Point","coordinates":[-86.802490234375,33.5206680297852]}},{"properties":{"Do you hav":90.8,"During the":19.1,"Women aged":20.9,"city":null,"Heavy drin":4.0,"zip":null,"Binge drin":18.1,"county":null,"geo_score":null,"Weight cla":38.3,"Have you e":6.0,"Adults who":92.6,"Adults age":67.3,"City code0":3088.0,"How is you":20.8,"Men aged 4":53.9,"individual or practice name":null,"provider speciality":null,"id":"a673fck160j8","STATE0":"ND","Name0":"Bismarck","address":null,"geo_precision":null,"Adults tha":59.6,"Visited th":76.3,"Health Sta":88.7,"Four Level":15.8,"state":null},"type":"Feature","geometry":{"type":"Point","coordinates":[-100.783737182617,46.8083229064941]}},{"properties":{"Do you hav":81.7,"During the":18.9,"Women aged":25.3,"city":null,"Heavy drin":5.0,"zip":null,"Binge drin":15.7,"county":null,"geo_score":null,"Weight cla":41.6,"Have you e":6.5,"Adults who":90.3,"Adults age":63.9,"City code0":24758.0,"How is you":21.0,"Men aged 4":52.0,"individual or practice name":null,"provider speciality":null,"id":"a673fckuj1tc","STATE0":"OK","Name0":"Boise Cit","address":null,"geo_precision":null,"Adults tha":61.3,"Visited th":69.8,"Health Sta":87.3,"Four Level":14.3,"state":null},"type":"Feature","geometry":{"type":"Point","coordinates":[-102.513244628906,36.7294616699219]}},{"properties":{"Do you hav":89.2,"During the":21.4,"Women aged":12.3,"city":null,"Heavy drin":5.5,"zip":null,"Binge drin":18.6,"county":null,"geo_score":null,"Weight cla":44.2,"Have you e":7.5,"Adults who":91.4,"Adults age":71.3,"City code0":3898.0,"How is you":26.0,"Men aged 4":55.5,"individual or practice name":null,"provider speciality":null,"id":"a673fcat6qjo","STATE0":"MA","Name0":"Boston","address":null,"geo_precision":null,"Adults tha":55.3,"Visited th":77.3,"Health Sta":86.4,"Four Level":11.9,"state":null},"type":"Feature","geometry":{"type":"Point","coordinates":[-71.0597763061523,42.3584289550781]}},{"properties":{"Do you hav":87.4,"During the":16.4,"Women aged":17.1,"city":null,"Heavy drin":6.1,"zip":null,"Binge drin":16.4,"county":null,"geo_score":null,"Weight cla":35.1,"Have you e":8.0,"Adults who":90.3,"Adults age":71.5,"City code0":675.0,"How is you":20.3,"Men aged 4":54.8,"individual or practice name":null,"provider speciality":null,"id":"a673fcj5oea9","STATE0":"WA","Name0":"Bremerton","address":null,"geo_precision":null,"Adults tha":59.5,"Visited th":70.3,"Health Sta":85.7,"Four Level":14.3,"state":null},"type":"Feature","geometry":{"type":"Point","coordinates":[-122.63264465332,47.5673179626465]}},{"properties":{"Do you hav":87.9,"During the":19.0,"Women aged":16.3,"city":null,"Heavy drin":5.4,"zip":null,"Binge drin":14.5,"county":null,"geo_score":null,"Weight cla":46.2,"Have you e":5.9,"Adults who":91.3,"Adults age":71.6,"City code0":6697.0,"How is you":27.5,"Men aged 4":60.3,"individual or practice name":null,"provider speciality":null,"id":"a673fcgv62x9","STATE0":"CT","Name0":"Bridgepor","address":null,"geo_precision":null,"Adults tha":61.5,"Visited th":80.4,"Health Sta":89.1,"Four Level":9.6,"state":null},"type":"Feature","geometry":{"type":"Point","coordinates":[-73.204833984375,41.1670341491699]}},{"properties":{"Do you hav":92.9,"During the":15.6,"Women aged":17.8,"city":null,"Heavy drin":7.5,"zip":null,"Binge drin":17.0,"county":null,"geo_score":null,"Weight cla":46.1,"Have you e":4.5,"Adults who":91.5,"Adults age":73.6,"City code0":2293.0,"How is you":27.7,"Men aged 4":46.8,"individual or practice name":null,"provider speciality":null,"id":"a673fc8ji2xf","STATE0":"VT","Name0":"Burlingto","address":null,"geo_precision":null,"Adults tha":63.8,"Visited th":78.5,"Health Sta":91.8,"Four Level":11.8,"state":null},"type":"Feature","geometry":{"type":"Point","coordinates":[-73.2120742797852,44.4758796691895]}},{"properties":{"Do you hav":93.0,"During the":19.0,"Women aged":10.1,"city":null,"Heavy drin":5.1,"zip":null,"Binge drin":14.6,"county":null,"geo_score":null,"Weight cla":50.5,"Have you e":5.6,"Adults who":91.0,"Adults age":77.1,"City code0":3893.0,"How is you":26.3,"Men aged 4":54.3,"individual or practice name":null,"provider speciality":null,"id":"a673fch2te2k","STATE0":"MA","Name0":"Cambridge","address":null,"geo_precision":null,"Adults tha":61.1,"Visited th":80.4,"Health Sta":89.7,"Four Level":8.8,"state":null},"type":"Feature","geometry":{"type":"Point","coordinates":[-71.1056060791016,42.3750953674316]}},{"properties":{"Do you hav":89.4,"During the":27.4,"Women aged":19.3,"city":null,"Heavy drin":6.0,"zip":null,"Binge drin":16.8,"county":null,"geo_score":null,"Weight cla":38.2,"Have you e":8.0,"Adults who":91.5,"Adults age":70.8,"City code0":10976.0,"How is you":21.8,"Men aged 4":52.8,"individual or practice name":null,"provider speciality":null,"id":"a673fc5woh0x","STATE0":"NJ","Name0":"Camden","address":null,"geo_precision":null,"Adults tha":53.0,"Visited th":74.8,"Health Sta":84.7,"Four Level":14.8,"state":null},"type":"Feature","geometry":{"type":"Point","coordinates":[-75.1196212768555,39.9259452819824]}},{"properties":{"Do you hav":82.4,"During the":24.7,"Women aged":25.3,"city":null,"Heavy drin":6.6,"zip":null,"Binge drin":16.2,"county":null,"geo_score":null,"Weight cla":37.6,"Have you e":7.6,"Adults who":91.4,"Adults age":68.7,"City code0":10110.0,"How is you":19.1,"Men aged 4":62.7,"individual or practice name":null,"provider speciality":null,"id":"a673fcgvxgox","STATE0":"WY","Name0":"Casper","address":null,"geo_precision":null,"Adults tha":53.6,"Visited th":68.0,"Health Sta":84.6,"Four Level":23.5,"state":null},"type":"Feature","geometry":{"type":"Point","coordinates":[-106.313079833984,42.8666343688965]}},{"properties":{"Do you hav":88.5,"During the":23.1,"Women aged":22.1,"city":null,"Heavy drin":3.2,"zip":null,"Binge drin":10.6,"county":null,"geo_score":null,"Weight cla":33.5,"Have you e":11.5,"Adults who":91.8,"Adults age":70.2,"City code0":18629.0,"How is you":15.5,"Men aged 4":58.2,"individual or practice name":null,"provider speciality":null,"id":"a673fc8aajxr","STATE0":"WV","Name0":"Charlesto","address":null,"geo_precision":null,"Adults tha":45.6,"Visited th":64.9,"Health Sta":76.4,"Four Level":17.9,"state":null},"type":"Feature","geometry":{"type":"Point","coordinates":[-81.6326293945312,38.3498191833496]}},{"properties":{"Do you hav":85.2,"During the":18.8,"Women aged":18.9,"city":null,"Heavy drin":7.0,"zip":null,"Binge drin":19.1,"county":null,"geo_score":null,"Weight cla":37.2,"Have you e":7.8,"Adults who":92.7,"Adults age":62.6,"City code0":28284.0,"How is you":19.2,"Men aged 4":57.9,"individual or practice name":null,"provider speciality":null,"id":"a673fchkv6an","STATE0":"SC","Name0":"Charlesto","address":null,"geo_precision":null,"Adults tha":55.3,"Visited th":68.9,"Health Sta":88.1,"Four Level":17.8,"state":null},"type":"Feature","geometry":{"type":"Point","coordinates":[-79.9309158325195,32.7765655517578]}},{"properties":{"Do you hav":84.1,"During the":21.2,"Women aged":16.8,"city":null,"Heavy drin":4.1,"zip":null,"Binge drin":14.6,"county":null,"geo_score":null,"Weight cla":39.2,"Have you e":7.7,"Adults who":94.7,"Adults age":65.7,"City code0":24351.0,"How is you":23.3,"Men aged 4":53.6,"individual or practice name":null,"provider speciality":null,"id":"a673fc8mefjc","STATE0":"NC","Name0":"Charlotte","address":null,"geo_precision":null,"Adults tha":56.8,"Visited th":69.2,"Health Sta":84.4,"Four Level":13.4,"state":null},"type":"Feature","geometry":{"type":"Point","coordinates":[-80.8431243896484,35.2270812988281]}},{"properties":{"Do you hav":86.6,"During the":19.4,"Women aged":18.3,"city":null,"Heavy drin":4.2,"zip":null,"Binge drin":15.5,"county":null,"geo_score":null,"Weight cla":36.1,"Have you e":7.2,"Adults who":91.4,"Adults age":72.3,"City code0":15548.0,"How is you":21.1,"Men aged 4":58.3,"individual or practice name":null,"provider speciality":null,"id":"a673fcfhdyv0","STATE0":"WY","Name0":"Cheyenne","address":null,"geo_precision":null,"Adults tha":58.9,"Visited th":73.8,"Health Sta":88.8,"Four Level":14.2,"state":null},"type":"Feature","geometry":{"type":"Point","coordinates":[-104.820243835449,41.1399803161621]}},{"properties":{"Do you hav":83.6,"During the":22.6,"Women aged":20.4,"city":null,"Heavy drin":5.6,"zip":null,"Binge drin":19.5,"county":null,"geo_score":null,"Weight cla":39.0,"Have you e":7.6,"Adults who":91.7,"Adults age":60.3,"City code0":11787.0,"How is you":20.5,"Men aged 4":46.2,"individual or practice name":null,"provider speciality":null,"id":"a673fcdzugis","STATE0":"IL","Name0":"Chicago","address":null,"geo_precision":null,"Adults tha":56.2,"Visited th":69.5,"Health Sta":84.2,"Four Level":12.1,"state":null},"type":"Feature","geometry":{"type":"Point","coordinates":[-87.6500549316406,41.8500328063965]}},{"properties":{"Do you hav":86.0,"During the":24.0,"Women aged":17.6,"city":null,"Heavy drin":3.0,"zip":null,"Binge drin":16.0,"county":null,"geo_score":null,"Weight cla":42.3,"Have you e":4.3,"Adults who":90.2,"Adults age":0.0,"City code0":17801.0,"How is you":20.4,"Men aged 4":0.0,"individual or practice name":null,"provider speciality":null,"id":"a673fcfv60qi","STATE0":"OH","Name0":"Cincinnat","address":null,"geo_precision":null,"Adults tha":53.5,"Visited th":71.7,"Health Sta":86.4,"Four Level":19.0,"state":null},"type":"Feature","geometry":{"type":"Point","coordinates":[-84.4568786621094,39.1620025634766]}},{"properties":{"Do you hav":88.6,"During the":22.4,"Women aged":16.0,"city":null,"Heavy drin":5.5,"zip":null,"Binge drin":15.5,"county":null,"geo_score":null,"Weight cla":37.4,"Have you e":6.3,"Adults who":90.1,"Adults age":71.5,"City code0":10172.0,"How is you":22.3,"Men aged 4":0.0,"individual or practice name":null,"provider speciality":null,"id":"a673fc74guth","STATE0":"OH","Name0":"Cleveland","address":null,"geo_precision":null,"Adults tha":52.3,"Visited th":75.4,"Health Sta":85.5,"Four Level":15.0,"state":null},"type":"Feature","geometry":{"type":"Point","coordinates":[-81.6954116821289,41.4994888305664]}},{"properties":{"Do you hav":84.1,"During the":15.1,"Women aged":22.5,"city":null,"Heavy drin":3.8,"zip":null,"Binge drin":13.9,"county":null,"geo_score":null,"Weight cla":45.2,"Have you e":4.9,"Adults who":92.3,"Adults age":74.0,"City code0":20958.0,"How is you":25.8,"Men aged 4":53.2,"individual or practice name":null,"provider speciality":null,"id":"a673fccgpl5k","STATE0":"CO","Name0":"Colorado","address":null,"geo_precision":null,"Adults tha":67.4,"Visited th":73.0,"Health Sta":90.2,"Four Level":13.1,"state":null},"type":"Feature","geometry":{"type":"Point","coordinates":[-104.821357727051,38.8338813781738]}},{"properties":{"Do you hav":88.3,"During the":21.3,"Women aged":18.9,"city":null,"Heavy drin":5.8,"zip":null,"Binge drin":16.2,"county":null,"geo_score":null,"Weight cla":37.5,"Have you e":9.8,"Adults who":93.0,"Adults age":65.2,"City code0":26381.0,"How is you":23.4,"Men aged 4":59.1,"individual or practice name":null,"provider speciality":null,"id":"a673fc6ty4lz","STATE0":"SC","Name0":"Columbia","address":null,"geo_precision":null,"Adults tha":54.4,"Visited th":70.1,"Health Sta":84.4,"Four Level":12.7,"state":null},"type":"Feature","geometry":{"type":"Point","coordinates":[-81.0348205566406,34.0007171630859]}},{"properties":{"Do you hav":90.0,"During the":18.2,"Women aged":16.5,"city":null,"Heavy drin":4.0,"zip":null,"Binge drin":12.0,"county":null,"geo_score":null,"Weight cla":39.5,"Have you e":8.3,"Adults who":91.9,"Adults age":76.0,"City code0":3094.0,"How is you":28.7,"Men aged 4":50.7,"individual or practice name":null,"provider speciality":null,"id":"a673fc9rfc2d","STATE0":"NH","Name0":"Concord","address":null,"geo_precision":null,"Adults tha":57.4,"Visited th":76.5,"Health Sta":89.2,"Four Level":10.9,"state":null},"type":"Feature","geometry":{"type":"Point","coordinates":[-71.5375823974609,43.2081413269043]}},{"properties":{"Do you hav":81.0,"During the":22.7,"Women aged":19.3,"city":null,"Heavy drin":5.3,"zip":null,"Binge drin":15.9,"county":null,"geo_score":null,"Weight cla":42.9,"Have you e":5.3,"Adults who":95.5,"Adults age":0.0,"City code0":30888.0,"How is you":28.2,"Men aged 4":0.0,"individual or practice name":null,"provider speciality":null,"id":"a673fc7c6x04","STATE0":"TX","Name0":"Dallas","address":null,"geo_precision":null,"Adults tha":66.0,"Visited th":69.1,"Health Sta":85.4,"Four Level":8.6,"state":null},"type":"Feature","geometry":{"type":"Point","coordinates":[-96.8002853393555,32.7834587097168]}},{"properties":{"Do you hav":89.1,"During the":26.1,"Women aged":20.2,"city":null,"Heavy drin":3.6,"zip":null,"Binge drin":12.3,"county":null,"geo_score":null,"Weight cla":38.1,"Have you e":7.3,"Adults who":91.2,"Adults age":0.0,"City code0":16343.0,"How is you":20.6,"Men aged 4":0.0,"individual or practice name":null,"provider speciality":null,"id":"a673fcksf2ik","STATE0":"OH","Name0":"Dayton","address":null,"geo_precision":null,"Adults tha":52.2,"Visited th":70.7,"Health Sta":86.6,"Four Level":16.0,"state":null},"type":"Feature","geometry":{"type":"Point","coordinates":[-84.1916122436523,39.7589454650879]}},{"properties":{"Do you hav":86.0,"During the":16.8,"Women aged":20.3,"city":null,"Heavy drin":5.2,"zip":null,"Binge drin":17.4,"county":null,"geo_score":null,"Weight cla":44.0,"Have you e":5.4,"Adults who":91.7,"Adults age":80.9,"City code0":18801.0,"How is you":21.7,"Men aged 4":56.0,"individual or practice name":null,"provider speciality":null,"id":"a673fchmpi58","STATE0":"CO","Name0":"Denver","address":null,"geo_precision":null,"Adults tha":65.2,"Visited th":72.7,"Health Sta":89.3,"Four Level":11.7,"state":null},"type":"Feature","geometry":{"type":"Point","coordinates":[-104.984703063965,39.7391586303711]}},{"properties":{"Do you hav":91.0,"During the":20.8,"Women aged":14.8,"city":null,"Heavy drin":6.0,"zip":null,"Binge drin":17.9,"county":null,"geo_score":null,"Weight cla":39.0,"Have you e":6.1,"Adults who":94.1,"Adults age":75.6,"City code0":14123.0,"How is you":23.1,"Men aged 4":50.1,"individual or practice name":null,"provider speciality":null,"id":"a673fc8qz9rb","STATE0":"IA","Name0":"Des Moine","address":null,"geo_precision":null,"Adults tha":65.4,"Visited th":77.8,"Health Sta":89.4,"Four Level":16.3,"state":null},"type":"Feature","geometry":{"type":"Point","coordinates":[-93.6091079711914,41.6005477905273]}},{"properties":{"Do you hav":86.3,"During the":29.3,"Women aged":17.1,"city":null,"Heavy drin":3.9,"zip":null,"Binge drin":15.2,"county":null,"geo_score":null,"Weight cla":33.5,"Have you e":12.3,"Adults who":89.7,"Adults age":62.7,"City code0":8667.0,"How is you":17.4,"Men aged 4":54.5,"individual or practice name":null,"provider speciality":null,"id":"a673fc7xmy3x","STATE0":"MI","Name0":"Detroit","address":null,"geo_precision":null,"Adults tha":50.1,"Visited th":70.7,"Health Sta":82.6,"Four Level":21.4,"state":null},"type":"Feature","geometry":{"type":"Point","coordinates":[-83.0457534790039,42.331428527832]}},{"properties":{"Do you hav":90.8,"During the":25.3,"Women aged":13.7,"city":null,"Heavy drin":4.9,"zip":null,"Binge drin":16.5,"county":null,"geo_score":null,"Weight cla":36.5,"Have you e":9.7,"Adults who":89.7,"Adults age":68.2,"City code0":13684.0,"How is you":21.2,"Men aged 4":65.4,"individual or practice name":null,"provider speciality":null,"id":"a673fcccfgjy","STATE0":"DE","Name0":"Dover","address":null,"geo_precision":null,"Adults tha":52.4,"Visited th":73.4,"Health Sta":87.3,"Four Level":17.3,"state":null},"type":"Feature","geometry":{"type":"Point","coordinates":[-75.5243682861328,39.1581687927246]}},{"properties":{"Do you hav":81.6,"During the":20.6,"Women aged":10.7,"city":null,"Heavy drin":3.1,"zip":null,"Binge drin":11.5,"county":null,"geo_score":null,"Weight cla":42.0,"Have you e":6.8,"Adults who":93.9,"Adults age":73.1,"City code0":22428.0,"How is you":24.0,"Men aged 4":53.9,"individual or practice name":null,"provider speciality":null,"id":"a673fckwog29","STATE0":"NC","Name0":"Durham","address":null,"geo_precision":null,"Adults tha":56.1,"Visited th":68.8,"Health Sta":84.2,"Four Level":10.4,"state":null},"type":"Feature","geometry":{"type":"Point","coordinates":[-78.8986206054688,35.9940338134766]}},{"properties":{"Do you hav":88.0,"During the":24.3,"Women aged":21.5,"city":null,"Heavy drin":3.3,"zip":null,"Binge drin":12.5,"county":null,"geo_score":null,"Weight cla":40.6,"Have you e":7.0,"Adults who":93.6,"Adults age":68.8,"City code0":8846.0,"How is you":22.3,"Men aged 4":58.1,"individual or practice name":null,"provider speciality":null,"id":"a673fckg230k","STATE0":"NJ","Name0":"Edison","address":null,"geo_precision":null,"Adults tha":55.2,"Visited th":74.3,"Health Sta":85.4,"Four Level":11.2,"state":null},"type":"Feature","geometry":{"type":"Point","coordinates":[-74.3688812255859,40.5288696289062]}},{"properties":{"Do you hav":60.9,"During the":31.4,"Women aged":16.5,"city":null,"Heavy drin":3.5,"zip":null,"Binge drin":12.3,"county":null,"geo_score":null,"Weight cla":35.2,"Have you e":9.7,"Adults who":94.9,"Adults age":55.8,"City code0":31950.0,"How is you":20.3,"Men aged 4":0.0,"individual or practice name":null,"provider speciality":null,"id":"a673fchj6akv","STATE0":"TX","Name0":"El Paso","address":null,"geo_precision":null,"Adults tha":59.9,"Visited th":59.2,"Health Sta":78.3,"Four Level":5.1,"state":null},"type":"Feature","geometry":{"type":"Point","coordinates":[-106.486930847168,31.7587184906006]}},{"properties":{"Do you hav":90.7,"During the":23.5,"Women aged":11.2,"city":null,"Heavy drin":4.7,"zip":null,"Binge drin":16.5,"county":null,"geo_score":null,"Weight cla":40.3,"Have you e":5.9,"Adults who":87.9,"Adults age":71.2,"City code0":3148.0,"How is you":24.1,"Men aged 4":58.4,"individual or practice name":null,"provider speciality":null,"id":"a673fckiyvj8","STATE0":"NH","Name0":"Epping","address":null,"geo_precision":null,"Adults tha":55.1,"Visited th":79.0,"Health Sta":85.7,"Four Level":10.0,"state":null},"type":"Feature","geometry":{"type":"Point","coordinates":[-71.080436706543,43.0388145446777]}},{"properties":{"Do you hav":81.8,"During the":16.3,"Women aged":17.6,"city":null,"Heavy drin":4.3,"zip":null,"Binge drin":14.9,"county":null,"geo_score":null,"Weight cla":38.7,"Have you e":6.2,"Adults who":90.9,"Adults age":72.1,"City code0":3542.0,"How is you":21.3,"Men aged 4":50.5,"individual or practice name":null,"provider speciality":null,"id":"a673fci3bv4e","STATE0":"OR","Name0":"Eugene","address":null,"geo_precision":null,"Adults tha":60.8,"Visited th":67.8,"Health Sta":85.1,"Four Level":11.4,"state":null},"type":"Feature","geometry":{"type":"Point","coordinates":[-123.086761474609,44.0520668029785]}},{"properties":{"Do you hav":90.4,"During the":23.9,"Women aged":18.6,"city":null,"Heavy drin":6.2,"zip":null,"Binge drin":24.8,"county":null,"geo_score":null,"Weight cla":40.0,"Have you e":4.9,"Adults who":94.5,"Adults age":0.0,"City code0":2968.0,"How is you":23.9,"Men aged 4":0.0,"individual or practice name":null,"provider speciality":null,"id":"a673fcd8q9nv","STATE0":"ND","Name0":"Fargo","address":null,"geo_precision":null,"Adults tha":63.4,"Visited th":81.5,"Health Sta":86.6,"Four Level":17.3,"state":null},"type":"Feature","geometry":{"type":"Point","coordinates":[-96.789794921875,46.8771858215332]}},{"properties":{"Do you hav":70.6,"During the":21.9,"Women aged":30.5,"city":null,"Heavy drin":3.6,"zip":null,"Binge drin":9.7,"county":null,"geo_score":null,"Weight cla":36.3,"Have you e":6.3,"Adults who":91.6,"Adults age":75.1,"City code0":24280.0,"How is you":18.8,"Men aged 4":0.0,"individual or practice name":null,"provider speciality":null,"id":"a673fc8fywgq","STATE0":"NM","Name0":"Farmingto","address":null,"geo_precision":null,"Adults tha":52.4,"Visited th":62.2,"Health Sta":81.4,"Four Level":15.0,"state":null},"type":"Feature","geometry":{"type":"Point","coordinates":[-108.218696594238,36.7280654907227]}},{"properties":{"Do you hav":80.4,"During the":21.4,"Women aged":9.3,"city":null,"Heavy drin":4.3,"zip":null,"Binge drin":13.3,"county":null,"geo_score":null,"Weight cla":28.6,"Have you e":9.9,"Adults who":91.7,"Adults age":72.8,"City code0":24018.0,"How is you":16.3,"Men aged 4":0.0,"individual or practice name":null,"provider speciality":null,"id":"a673fccgn7t0","STATE0":"NC","Name0":"Fayettevi","address":null,"geo_precision":null,"Adults tha":49.0,"Visited th":67.7,"Health Sta":86.1,"Four Level":23.4,"state":null},"type":"Feature","geometry":{"type":"Point","coordinates":[-78.8783569335938,35.0526657104492]}},{"properties":{"Do you hav":82.0,"During the":22.5,"Women aged":30.0,"city":null,"Heavy drin":4.8,"zip":null,"Binge drin":13.9,"county":null,"geo_score":null,"Weight cla":41.5,"Have you e":5.8,"Adults who":89.3,"Adults age":62.3,"City code0":25628.0,"How is you":18.7,"Men aged 4":50.5,"individual or practice name":null,"provider speciality":null,"id":"a673fc5ird8o","STATE0":"AR","Name0":"Fayettevi","address":null,"geo_precision":null,"Adults tha":54.3,"Visited th":63.6,"Health Sta":85.3,"Four Level":18.9,"state":null},"type":"Feature","geometry":{"type":"Point","coordinates":[-94.1574249267578,36.0625801086426]}},{"properties":{"Do you hav":82.9,"During the":26.7,"Women aged":0.0,"city":null,"Heavy drin":3.8,"zip":null,"Binge drin":14.3,"county":null,"geo_score":null,"Weight cla":32.8,"Have you e":8.2,"Adults who":92.5,"Adults age":0.0,"City code0":31014.0,"How is you":23.7,"Men aged 4":0.0,"individual or practice name":null,"provider speciality":null,"id":"a673fcft0lgw","STATE0":"TX","Name0":"Fort Wort","address":null,"geo_precision":null,"Adults tha":62.4,"Visited th":68.9,"Health Sta":86.3,"Four Level":16.7,"state":null},"type":"Feature","geometry":{"type":"Point","coordinates":[-97.3208541870117,32.7254104614258]}},{"properties":{"Do you hav":84.7,"During the":17.4,"Women aged":17.0,"city":null,"Heavy drin":5.7,"zip":null,"Binge drin":14.6,"county":null,"geo_score":null,"Weight cla":38.4,"Have you e":7.6,"Adults who":89.3,"Adults age":70.7,"City code0":1871.0,"How is you":17.2,"Men aged 4":57.3,"individual or practice name":null,"provider speciality":null,"id":"a673fcaxpttq","STATE0":"MT","Name0":"Great Fal","address":null,"geo_precision":null,"Adults tha":54.0,"Visited th":65.2,"Health Sta":85.0,"Four Level":17.7,"state":null},"type":"Feature","geometry":{"type":"Point","coordinates":[-111.300811767578,47.5002365112305]}},{"properties":{"Do you hav":81.2,"During the":20.9,"Women aged":14.6,"city":null,"Heavy drin":4.0,"zip":null,"Binge drin":12.4,"county":null,"geo_score":null,"Weight cla":39.3,"Have you e":9.1,"Adults who":93.5,"Adults age":70.6,"City code0":22619.0,"How is you":17.4,"Men aged 4":56.1,"individual or practice name":null,"provider speciality":null,"id":"a673fc9j9op2","STATE0":"NC","Name0":"Greensbor","address":null,"geo_precision":null,"Adults tha":49.3,"Visited th":66.3,"Health Sta":85.0,"Four Level":16.7,"state":null},"type":"Feature","geometry":{"type":"Point","coordinates":[-79.7919769287109,36.0726356506348]}},{"properties":{"Do you hav":86.5,"During the":22.1,"Women aged":20.3,"city":null,"Heavy drin":3.1,"zip":null,"Binge drin":9.7,"county":null,"geo_score":null,"Weight cla":38.5,"Have you e":6.7,"Adults who":93.3,"Adults age":64.1,"City code0":25395.0,"How is you":19.3,"Men aged 4":50.0,"individual or practice name":null,"provider speciality":null,"id":"a673fc7d9a8l","STATE0":"SC","Name0":"Greenvill","address":null,"geo_precision":null,"Adults tha":49.2,"Visited th":71.4,"Health Sta":85.5,"Four Level":15.8,"state":null},"type":"Feature","geometry":{"type":"Point","coordinates":[-82.3940200805664,34.8526191711426]}},{"properties":{"Do you hav":86.9,"During the":26.4,"Women aged":13.9,"city":null,"Heavy drin":5.0,"zip":null,"Binge drin":17.2,"county":null,"geo_score":null,"Weight cla":35.7,"Have you e":10.3,"Adults who":92.3,"Adults age":65.7,"City code0":13695.0,"How is you":18.8,"Men aged 4":58.1,"individual or practice name":null,"provider speciality":null,"id":"a673fcjj9oqq","STATE0":"MD","Name0":"Hagerstow","address":null,"geo_precision":null,"Adults tha":55.1,"Visited th":69.5,"Health Sta":84.6,"Four Level":23.3,"state":null},"type":"Feature","geometry":{"type":"Point","coordinates":[-77.7200012207031,39.6417655944824]}},{"properties":{"Do you hav":91.4,"During the":18.3,"Women aged":12.6,"city":null,"Heavy drin":5.2,"zip":null,"Binge drin":15.3,"county":null,"geo_score":null,"Weight cla":40.6,"Have you e":6.2,"Adults who":89.6,"Adults age":68.4,"City code0":5503.0,"How is you":24.6,"Men aged 4":53.4,"individual or practice name":null,"provider speciality":null,"id":"a673fcdcxc17","STATE0":"CT","Name0":"Hartford","address":null,"geo_precision":null,"Adults tha":61.1,"Visited th":82.1,"Health Sta":89.6,"Four Level":10.7,"state":null},"type":"Feature","geometry":{"type":"Point","coordinates":[-72.6850967407227,41.7637100219727]}},{"properties":{"Do you hav":82.8,"During the":26.9,"Women aged":26.7,"city":null,"Heavy drin":3.9,"zip":null,"Binge drin":10.9,"county":null,"geo_score":null,"Weight cla":37.9,"Have you e":10.5,"Adults who":94.0,"Adults age":67.7,"City code0":23665.0,"How is you":17.4,"Men aged 4":60.0,"individual or practice name":null,"provider speciality":null,"id":"a673fcldxgbx","STATE0":"NC","Name0":"Hickory","address":null,"geo_precision":null,"Adults tha":46.9,"Visited th":63.8,"Health Sta":77.7,"Four Level":21.3,"state":null},"type":"Feature","geometry":{"type":"Point","coordinates":[-81.3412017822266,35.7331924438477]}},{"properties":{"Do you hav":86.3,"During the":19.4,"Women aged":19.6,"city":null,"Heavy drin":8.6,"zip":null,"Binge drin":17.8,"county":null,"geo_score":null,"Weight cla":44.1,"Have you e":7.1,"Adults who":91.4,"Adults age":66.3,"City code0":26128.0,"How is you":18.9,"Men aged 4":40.2,"individual or practice name":null,"provider speciality":null,"id":"a673fcacxgi1","STATE0":"HI","Name0":"Hilo","address":null,"geo_precision":null,"Adults tha":54.0,"Visited th":68.1,"Health Sta":83.7,"Four Level":15.0,"state":null},"type":"Feature","geometry":{"type":"Point","coordinates":[-155.081588745117,19.7207870483398]}},{"properties":{"Do you hav":79.7,"During the":19.9,"Women aged":17.2,"city":null,"Heavy drin":7.9,"zip":null,"Binge drin":21.2,"county":null,"geo_score":null,"Weight cla":40.9,"Have you e":7.6,"Adults who":92.0,"Adults age":65.1,"City code0":29339.0,"How is you":20.4,"Men aged 4":64.1,"individual or practice name":null,"provider speciality":null,"id":"a673fc97beh7","STATE0":"SC","Name0":"Hilton He","address":null,"geo_precision":null,"Adults tha":54.9,"Visited th":70.3,"Health Sta":88.5,"Four Level":14.3,"state":null},"type":"Feature","geometry":{"type":"Point","coordinates":[-80.7526092529297,32.2163162231445]}},{"properties":{"Do you hav":93.6,"During the":19.5,"Women aged":18.7,"city":null,"Heavy drin":5.7,"zip":null,"Binge drin":17.7,"county":null,"geo_score":null,"Weight cla":43.7,"Have you e":8.2,"Adults who":92.1,"Adults age":76.9,"City code0":20798.0,"How is you":17.8,"Men aged 4":39.7,"individual or practice name":null,"provider speciality":null,"id":"a673fcik6wlb","STATE0":"HI","Name0":"Honolulu","address":null,"geo_precision":null,"Adults tha":60.6,"Visited th":75.4,"Health Sta":85.6,"Four Level":12.4,"state":null},"type":"Feature","geometry":{"type":"Point","coordinates":[-157.855560302734,21.3037757873535]}},{"properties":{"Do you hav":77.1,"During the":30.9,"Women aged":0.0,"city":null,"Heavy drin":4.2,"zip":null,"Binge drin":13.7,"county":null,"geo_score":null,"Weight cla":41.1,"Have you e":5.8,"Adults who":91.3,"Adults age":0.0,"City code0":33823.0,"How is you":24.2,"Men aged 4":0.0,"individual or practice name":null,"provider speciality":null,"id":"a673fcj3er3c","STATE0":"TX","Name0":"Houston","address":null,"geo_precision":null,"Adults tha":52.6,"Visited th":67.0,"Health Sta":81.7,"Four Level":10.5,"state":null},"type":"Feature","geometry":{"type":"Point","coordinates":[-95.3632736206055,29.7632884979248]}},{"properties":{"Do you hav":85.2,"During the":25.1,"Women aged":22.3,"city":null,"Heavy drin":4.0,"zip":null,"Binge drin":14.9,"county":null,"geo_score":null,"Weight cla":38.8,"Have you e":7.0,"Adults who":92.3,"Adults age":70.1,"City code0":16939.0,"How is you":19.7,"Men aged 4":53.0,"individual or practice name":null,"provider speciality":null,"id":"a673fc8ryiyk","STATE0":"IN","Name0":"Indianapo","address":null,"geo_precision":null,"Adults tha":57.4,"Visited th":68.9,"Health Sta":85.6,"Four Level":17.3,"state":null},"type":"Feature","geometry":{"type":"Point","coordinates":[-86.1582870483398,39.7684478759766]}},{"properties":{"Do you hav":82.0,"During the":29.4,"Women aged":23.3,"city":null,"Heavy drin":4.8,"zip":null,"Binge drin":8.9,"county":null,"geo_score":null,"Weight cla":33.7,"Have you e":8.9,"Adults who":92.9,"Adults age":61.8,"City code0":9347.0,"How is you":19.7,"Men aged 4":52.9,"individual or practice name":null,"provider speciality":null,"id":"a673fc5r07cw","STATE0":"MI","Name0":"Jackson","address":null,"geo_precision":null,"Adults tha":45.0,"Visited th":64.5,"Health Sta":81.4,"Four Level":15.8,"state":null},"type":"Feature","geometry":{"type":"Point","coordinates":[-84.4013442993164,42.2458648681641]}},{"properties":{"Do you hav":85.0,"During the":25.1,"Women aged":17.0,"city":null,"Heavy drin":5.7,"zip":null,"Binge drin":16.5,"county":null,"geo_score":null,"Weight cla":36.8,"Have you e":9.4,"Adults who":91.3,"Adults age":64.6,"City code0":31883.0,"How is you":23.9,"Men aged 4":60.7,"individual or practice name":null,"provider speciality":null,"id":"a673fc9ia6jp","STATE0":"FL","Name0":"Jacksonvi","address":null,"geo_precision":null,"Adults tha":54.6,"Visited th":73.4,"Health Sta":83.9,"Four Level":16.6,"state":null},"type":"Feature","geometry":{"type":"Point","coordinates":[-81.655647277832,30.3321781158447]}},{"properties":{"Do you hav":86.3,"During the":18.1,"Women aged":22.0,"city":null,"Heavy drin":9.2,"zip":null,"Binge drin":16.2,"county":null,"geo_score":null,"Weight cla":43.8,"Have you e":8.5,"Adults who":91.6,"Adults age":68.3,"City code0":23055.0,"How is you":22.6,"Men aged 4":41.9,"individual or practice name":null,"provider speciality":null,"id":"a673fcdyyns8","STATE0":"HI","Name0":"Kahului","address":null,"geo_precision":null,"Adults tha":54.8,"Visited th":70.9,"Health Sta":86.3,"Four Level":14.8,"state":null},"type":"Feature","geometry":{"type":"Point","coordinates":[-156.456527709961,20.8706302642822]}},{"properties":{"Do you hav":80.9,"During the":17.6,"Women aged":19.0,"city":null,"Heavy drin":6.5,"zip":null,"Binge drin":17.4,"county":null,"geo_score":null,"Weight cla":43.5,"Have you e":3.8,"Adults who":93.4,"Adults age":63.9,"City code0":1079.0,"How is you":26.6,"Men aged 4":53.6,"individual or practice name":null,"provider speciality":null,"id":"a673fcea88gd","STATE0":"MT","Name0":"Kalispell","address":null,"geo_precision":null,"Adults tha":55.9,"Visited th":62.5,"Health Sta":89.0,"Four Level":13.1,"state":null},"type":"Feature","geometry":{"type":"Point","coordinates":[-114.31290435791,48.1957893371582]}},{"properties":{"Do you hav":87.4,"During the":20.8,"Women aged":21.4,"city":null,"Heavy drin":3.8,"zip":null,"Binge drin":14.8,"county":null,"geo_score":null,"Weight cla":36.7,"Have you e":6.5,"Adults who":92.3,"Adults age":70.6,"City code0":20157.0,"How is you":20.7,"Men aged 4":56.3,"individual or practice name":null,"provider speciality":null,"id":"a673fcg65xdl","STATE0":"MO","Name0":"Kansas Ci","address":null,"geo_precision":null,"Adults tha":59.5,"Visited th":69.7,"Health Sta":86.5,"Four Level":14.5,"state":null},"type":"Feature","geometry":{"type":"Point","coordinates":[-94.5785675048828,39.099723815918]}},{"properties":{"Do you hav":90.7,"During the":17.7,"Women aged":22.6,"city":null,"Heavy drin":7.7,"zip":null,"Binge drin":18.6,"county":null,"geo_score":null,"Weight cla":42.4,"Have you e":10.8,"Adults who":91.6,"Adults age":80.9,"City code0":17084.0,"How is you":18.9,"Men aged 4":39.8,"individual or practice name":null,"provider speciality":null,"id":"a673fc7u58h4","STATE0":"HI","Name0":"Kapaa","address":null,"geo_precision":null,"Adults tha":58.6,"Visited th":70.1,"Health Sta":83.1,"Four Level":13.5,"state":null},"type":"Feature","geometry":{"type":"Point","coordinates":[-159.306686401367,22.07541847229]}},{"properties":{"Do you hav":85.9,"During the":21.2,"Women aged":17.5,"city":null,"Heavy drin":5.0,"zip":null,"Binge drin":12.1,"county":null,"geo_score":null,"Weight cla":39.9,"Have you e":7.6,"Adults who":90.7,"Adults age":75.7,"City code0":3595.0,"How is you":22.7,"Men aged 4":59.3,"individual or practice name":null,"provider speciality":null,"id":"a673fcb36dw3","STATE0":"NH","Name0":"Keene","address":null,"geo_precision":null,"Adults tha":54.5,"Visited th":75.2,"Health Sta":88.5,"Four Level":17.0,"state":null},"type":"Feature","geometry":{"type":"Point","coordinates":[-72.2781372070312,42.9336891174316]}},{"properties":{"Do you hav":85.8,"During the":21.6,"Women aged":18.1,"city":null,"Heavy drin":2.8,"zip":null,"Binge drin":10.4,"county":null,"geo_score":null,"Weight cla":37.5,"Have you e":7.3,"Adults who":93.2,"Adults age":69.1,"City code0":2103.0,"How is you":19.0,"Men aged 4":55.9,"individual or practice name":null,"provider speciality":null,"id":"a673fchv08yf","STATE0":"WA","Name0":"Kennewick","address":null,"geo_precision":null,"Adults tha":60.4,"Visited th":70.9,"Health Sta":85.4,"Four Level":11.9,"state":null},"type":"Feature","geometry":{"type":"Point","coordinates":[-119.137229919434,46.2112464904785]}},{"properties":{"Do you hav":68.5,"During the":27.1,"Women aged":27.1,"city":null,"Heavy drin":5.2,"zip":null,"Binge drin":16.3,"county":null,"geo_score":null,"Weight cla":35.7,"Have you e":7.2,"Adults who":90.0,"Adults age":55.9,"City code0":31278.0,"How is you":18.8,"Men aged 4":43.8,"individual or practice name":null,"provider speciality":null,"id":"a673fc9sy67d","STATE0":"NM","Name0":"Las Cruce","address":null,"geo_precision":null,"Adults tha":59.8,"Visited th":60.8,"Health Sta":79.7,"Four Level":10.5,"state":null},"type":"Feature","geometry":{"type":"Point","coordinates":[-106.778335571289,32.3123168945312]}},{"properties":{"Do you hav":77.2,"During the":28.4,"Women aged":25.9,"city":null,"Heavy drin":4.6,"zip":null,"Binge drin":14.6,"county":null,"geo_score":null,"Weight cla":36.1,"Have you e":7.7,"Adults who":92.6,"Adults age":54.1,"City code0":23907.0,"How is you":18.7,"Men aged 4":53.0,"individual or practice name":null,"provider speciality":null,"id":"a673fcb32ss8","STATE0":"NV","Name0":"Las Vegas","address":null,"geo_precision":null,"Adults tha":52.2,"Visited th":67.1,"Health Sta":80.7,"Four Level":15.4,"state":null},"type":"Feature","geometry":{"type":"Point","coordinates":[-115.137222290039,36.1749687194824]}},{"properties":{"Do you hav":84.8,"During the":18.5,"Women aged":20.1,"city":null,"Heavy drin":6.8,"zip":null,"Binge drin":17.5,"county":null,"geo_score":null,"Weight cla":41.0,"Have you e":6.9,"Adults who":90.3,"Adults age":73.5,"City code0":2851.0,"How is you":25.2,"Men aged 4":50.2,"individual or practice name":null,"provider speciality":null,"id":"a673fclki13h","STATE0":"NH","Name0":"Lebanon","address":null,"geo_precision":null,"Adults tha":56.3,"Visited th":71.4,"Health Sta":89.2,"Four Level":14.1,"state":null},"type":"Feature","geometry":{"type":"Point","coordinates":[-72.2517547607422,43.6422920227051]}},{"properties":{"Do you hav":87.1,"During the":19.2,"Women aged":27.2,"city":null,"Heavy drin":6.8,"zip":null,"Binge drin":20.7,"county":null,"geo_score":null,"Weight cla":33.2,"Have you e":7.8,"Adults who":89.9,"Adults age":69.9,"City code0":2247.0,"How is you":19.8,"Men aged 4":47.6,"individual or practice name":null,"provider speciality":null,"id":"a673fciri0rf","STATE0":"ID","Name0":"Lewiston","address":null,"geo_precision":null,"Adults tha":56.5,"Visited th":61.6,"Health Sta":84.3,"Four Level":19.0,"state":null},"type":"Feature","geometry":{"type":"Point","coordinates":[-117.01766204834,46.4165573120117]}},{"properties":{"Do you hav":91.3,"During the":16.5,"Women aged":15.2,"city":null,"Heavy drin":2.8,"zip":null,"Binge drin":21.1,"county":null,"geo_score":null,"Weight cla":40.5,"Have you e":6.2,"Adults who":90.1,"Adults age":72.8,"City code0":16492.0,"How is you":24.3,"Men aged 4":45.0,"individual or practice name":null,"provider speciality":null,"id":"a673fc8hmbje","STATE0":"NE","Name0":"Lincoln","address":null,"geo_precision":null,"Adults tha":72.1,"Visited th":79.4,"Health Sta":90.5,"Four Level":12.7,"state":null},"type":"Feature","geometry":{"type":"Point","coordinates":[-96.6669616699219,40.7999992370605]}},{"properties":{"Do you hav":84.6,"During the":26.9,"Women aged":20.0,"city":null,"Heavy drin":5.5,"zip":null,"Binge drin":13.3,"county":null,"geo_score":null,"Weight cla":34.2,"Have you e":7.7,"Adults who":91.9,"Adults age":68.5,"City code0":27863.0,"How is you":19.6,"Men aged 4":58.2,"individual or practice name":null,"provider speciality":null,"id":"a673fch49a57","STATE0":"AR","Name0":"Little Ro","address":null,"geo_precision":null,"Adults tha":53.9,"Visited th":70.9,"Health Sta":83.3,"Four Level":15.3,"state":null},"type":"Feature","geometry":{"type":"Point","coordinates":[-92.2895889282227,34.7464828491211]}},{"properties":{"Do you hav":75.7,"During the":24.7,"Women aged":15.5,"city":null,"Heavy drin":4.4,"zip":null,"Binge drin":13.0,"county":null,"geo_score":null,"Weight cla":41.9,"Have you e":9.8,"Adults who":93.8,"Adults age":63.8,"City code0":26535.0,"How is you":16.7,"Men aged 4":55.3,"individual or practice name":null,"provider speciality":null,"id":"a673fchpvet2","STATE0":"CA","Name0":"Los Angel","address":null,"geo_precision":null,"Adults tha":52.7,"Visited th":64.7,"Health Sta":76.5,"Four Level":9.4,"state":null},"type":"Feature","geometry":{"type":"Point","coordinates":[-118.243690490723,34.0522308349609]}},{"properties":{"Do you hav":87.3,"During the":27.1,"Women aged":17.7,"city":null,"Heavy drin":4.1,"zip":null,"Binge drin":12.7,"county":null,"geo_score":null,"Weight cla":33.4,"Have you e":9.8,"Adults who":92.3,"Adults age":71.6,"City code0":20233.0,"How is you":16.4,"Men aged 4":51.2,"individual or practice name":null,"provider speciality":null,"id":"a673fch64qth","STATE0":"KY","Name0":"Louisvill","address":null,"geo_precision":null,"Adults tha":51.0,"Visited th":69.3,"Health Sta":82.2,"Four Level":23.6,"state":null},"type":"Feature","geometry":{"type":"Point","coordinates":[-85.7593994140625,38.2542419433594]}},{"properties":{"Do you hav":77.6,"During the":26.9,"Women aged":20.3,"city":null,"Heavy drin":5.0,"zip":null,"Binge drin":14.6,"county":null,"geo_score":null,"Weight cla":36.8,"Have you e":6.2,"Adults who":91.0,"Adults age":67.0,"City code0":29958.0,"How is you":20.9,"Men aged 4":0.0,"individual or practice name":null,"provider speciality":null,"id":"a673fclkdi6w","STATE0":"TX","Name0":"Lubbock","address":null,"geo_precision":null,"Adults tha":62.3,"Visited th":56.7,"Health Sta":84.0,"Four Level":15.3,"state":null},"type":"Feature","geometry":{"type":"Point","coordinates":[-101.855163574219,33.5778656005859]}},{"properties":{"Do you hav":91.0,"During the":19.4,"Women aged":17.3,"city":null,"Heavy drin":5.5,"zip":null,"Binge drin":16.4,"county":null,"geo_score":null,"Weight cla":39.4,"Have you e":6.7,"Adults who":90.5,"Adults age":71.0,"City code0":3281.0,"How is you":26.6,"Men aged 4":51.0,"individual or practice name":null,"provider speciality":null,"id":"a673fcl3envz","STATE0":"NH","Name0":"Mancheste","address":null,"geo_precision":null,"Adults tha":62.0,"Visited th":79.5,"Health Sta":89.4,"Four Level":12.8,"state":null},"type":"Feature","geometry":{"type":"Point","coordinates":[-71.4547882080078,42.9956436157227]}},{"properties":{"Do you hav":86.4,"During the":30.3,"Women aged":20.5,"city":null,"Heavy drin":5.2,"zip":null,"Binge drin":10.4,"county":null,"geo_score":null,"Weight cla":35.6,"Have you e":9.3,"Adults who":92.2,"Adults age":0.0,"City code0":26663.0,"How is you":17.7,"Men aged 4":57.8,"individual or practice name":null,"provider speciality":null,"id":"a673fcbbc7ro","STATE0":"TN","Name0":"Memphis","address":null,"geo_precision":null,"Adults tha":49.3,"Visited th":63.1,"Health Sta":82.0,"Four Level":16.2,"state":null},"type":"Feature","geometry":{"type":"Point","coordinates":[-90.0489807128906,35.1495323181152]}},{"properties":{"Do you hav":79.1,"During the":24.7,"Women aged":18.0,"city":null,"Heavy drin":4.8,"zip":null,"Binge drin":12.6,"county":null,"geo_score":null,"Weight cla":39.7,"Have you e":7.8,"Adults who":94.5,"Adults age":54.2,"City code0":34672.0,"How is you":27.9,"Men aged 4":56.7,"individual or practice name":null,"provider speciality":null,"id":"a673fc6dwxtu","STATE0":"FL","Name0":"Miami","address":null,"geo_precision":null,"Adults tha":50.1,"Visited th":72.6,"Health Sta":84.0,"Four Level":10.9,"state":null},"type":"Feature","geometry":{"type":"Point","coordinates":[-80.1936645507812,25.7742671966553]}},{"properties":{"Do you hav":89.4,"During the":19.1,"Women aged":16.3,"city":null,"Heavy drin":6.9,"zip":null,"Binge drin":20.0,"county":null,"geo_score":null,"Weight cla":37.5,"Have you e":4.6,"Adults who":91.2,"Adults age":78.4,"City code0":8539.0,"How is you":20.7,"Men aged 4":53.9,"individual or practice name":null,"provider speciality":null,"id":"a673fchy14gi","STATE0":"WI","Name0":"Milwaukee","address":null,"geo_precision":null,"Adults tha":61.3,"Visited th":75.9,"Health Sta":87.9,"Four Level":13.0,"state":null},"type":"Feature","geometry":{"type":"Point","coordinates":[-87.9064712524414,43.0389060974121]}},{"properties":{"Do you hav":92.7,"During the":12.9,"Women aged":15.7,"city":null,"Heavy drin":3.9,"zip":null,"Binge drin":16.8,"county":null,"geo_score":null,"Weight cla":38.9,"Have you e":4.9,"Adults who":91.1,"Adults age":78.2,"City code0":5430.0,"How is you":24.0,"Men aged 4":45.7,"individual or practice name":null,"provider speciality":null,"id":"a673fchpsx1p","STATE0":"MN","Name0":"Minneapol","address":null,"geo_precision":null,"Adults tha":68.2,"Visited th":81.3,"Health Sta":90.6,"Four Level":13.0,"state":null},"type":"Feature","geometry":{"type":"Point","coordinates":[-93.2638320922852,44.9799652099609]}},{"properties":{"Do you hav":83.4,"During the":14.2,"Women aged":20.0,"city":null,"Heavy drin":5.1,"zip":null,"Binge drin":15.8,"county":null,"geo_score":null,"Weight cla":45.4,"Have you e":4.7,"Adults who":90.8,"Adults age":74.5,"City code0":2190.0,"How is you":25.1,"Men aged 4":0.0,"individual or practice name":null,"provider speciality":null,"id":"a673fc702mt3","STATE0":"MT","Name0":"Missoula","address":null,"geo_precision":null,"Adults tha":60.9,"Visited th":69.9,"Health Sta":88.8,"Four Level":10.0,"state":null},"type":"Feature","geometry":{"type":"Point","coordinates":[-113.994003295898,46.872142791748]}},{"properties":{"Do you hav":78.6,"During the":24.7,"Women aged":21.7,"city":null,"Heavy drin":8.4,"zip":null,"Binge drin":18.5,"county":null,"geo_score":null,"Weight cla":38.7,"Have you e":8.7,"Adults who":90.5,"Adults age":67.5,"City code0":26202.0,"How is you":16.5,"Men aged 4":58.8,"individual or practice name":null,"provider speciality":null,"id":"a673fcfm0xw0","STATE0":"SC","Name0":"Myrtle Be","address":null,"geo_precision":null,"Adults tha":44.9,"Visited th":64.1,"Health Sta":82.4,"Four Level":23.4,"state":null},"type":"Feature","geometry":{"type":"Point","coordinates":[-78.8866882324219,33.6890602111816]}},{"properties":{"Do you hav":89.4,"During the":22.5,"Women aged":21.9,"city":null,"Heavy drin":3.5,"zip":null,"Binge drin":11.4,"county":null,"geo_score":null,"Weight cla":32.2,"Have you e":9.6,"Adults who":93.2,"Adults age":72.1,"City code0":24352.0,"How is you":28.2,"Men aged 4":48.7,"individual or practice name":null,"provider speciality":null,"id":"a673fckt3cgh","STATE0":"TN","Name0":"Nashville","address":null,"geo_precision":null,"Adults tha":56.4,"Visited th":72.2,"Health Sta":84.4,"Four Level":16.9,"state":null},"type":"Feature","geometry":{"type":"Point","coordinates":[-86.7841262817383,36.1658935546875]}},{"properties":{"Do you hav":93.8,"During the":21.9,"Women aged":19.0,"city":null,"Heavy drin":5.2,"zip":null,"Binge drin":15.3,"county":null,"geo_score":null,"Weight cla":42.2,"Have you e":7.9,"Adults who":93.3,"Adults age":66.8,"City code0":4650.0,"How is you":21.0,"Men aged 4":62.8,"individual or practice name":null,"provider speciality":null,"id":"a673fc8regu0","STATE0":"NY","Name0":"Nassau","address":null,"geo_precision":null,"Adults tha":54.1,"Visited th":81.5,"Health Sta":85.7,"Four Level":8.7,"state":null},"type":"Feature","geometry":{"type":"Point","coordinates":[-73.6101150512695,42.5159111022949]}},{"properties":{"Do you hav":89.1,"During the":22.5,"Women aged":17.6,"city":null,"Heavy drin":4.8,"zip":null,"Binge drin":13.8,"county":null,"geo_score":null,"Weight cla":38.1,"Have you e":7.9,"Adults who":92.0,"Adults age":73.5,"City code0":6337.0,"How is you":26.1,"Men aged 4":53.4,"individual or practice name":null,"provider speciality":null,"id":"a673fcdvhuvb","STATE0":"CT","Name0":"New Haven","address":null,"geo_precision":null,"Adults tha":55.8,"Visited th":79.2,"Health Sta":86.7,"Four Level":14.5,"state":null},"type":"Feature","geometry":{"type":"Point","coordinates":[-72.9281616210938,41.3081550598145]}},{"properties":{"Do you hav":79.1,"During the":30.6,"Women aged":18.0,"city":null,"Heavy drin":5.7,"zip":null,"Binge drin":14.1,"county":null,"geo_score":null,"Weight cla":37.4,"Have you e":8.5,"Adults who":93.7,"Adults age":64.9,"City code0":33396.0,"How is you":23.8,"Men aged 4":56.3,"individual or practice name":null,"provider speciality":null,"id":"a673fc625d8m","STATE0":"LA","Name0":"New Orlea","address":null,"geo_precision":null,"Adults tha":55.6,"Visited th":66.5,"Health Sta":82.3,"Four Level":16.2,"state":null},"type":"Feature","geometry":{"type":"Point","coordinates":[-90.075065612793,29.9546432495117]}},{"properties":{"Do you hav":84.0,"During the":29.3,"Women aged":18.2,"city":null,"Heavy drin":4.7,"zip":null,"Binge drin":14.1,"county":null,"geo_score":null,"Weight cla":44.0,"Have you e":7.3,"Adults who":92.1,"Adults age":59.7,"City code0":8272.0,"How is you":21.7,"Men aged 4":55.6,"individual or practice name":null,"provider speciality":null,"id":"a673fc7k6f4c","STATE0":"NY","Name0":"New York","address":null,"geo_precision":null,"Adults tha":50.6,"Visited th":72.2,"Health Sta":82.0,"Four Level":10.2,"state":null},"type":"Feature","geometry":{"type":"Point","coordinates":[-74.005973815918,40.7142715454102]}},{"properties":{"Do you hav":85.5,"During the":27.9,"Women aged":20.2,"city":null,"Heavy drin":4.7,"zip":null,"Binge drin":13.8,"county":null,"geo_score":null,"Weight cla":41.2,"Have you e":7.3,"Adults who":93.1,"Adults age":61.3,"City code0":8320.0,"How is you":23.2,"Men aged 4":51.9,"individual or practice name":null,"provider speciality":null,"id":"a673fc913942","STATE0":"NJ","Name0":"Newark","address":null,"geo_precision":null,"Adults tha":53.0,"Visited th":76.5,"Health Sta":84.4,"Four Level":10.3,"state":null},"type":"Feature","geometry":{"type":"Point","coordinates":[-74.1723709106445,40.7356643676758]}},{"properties":{"Do you hav":89.5,"During the":17.3,"Women aged":12.6,"city":null,"Heavy drin":6.3,"zip":null,"Binge drin":15.5,"county":null,"geo_score":null,"Weight cla":38.1,"Have you e":5.9,"Adults who":90.1,"Adults age":66.1,"City code0":5646.0,"How is you":23.6,"Men aged 4":54.9,"individual or practice name":null,"provider speciality":null,"id":"a673fcf4abvh","STATE0":"CT","Name0":"Norwich","address":null,"geo_precision":null,"Adults tha":60.6,"Visited th":78.6,"Health Sta":88.0,"Four Level":14.7,"state":null},"type":"Feature","geometry":{"type":"Point","coordinates":[-72.0759124755859,41.5242691040039]}},{"properties":{"Do you hav":89.2,"During the":22.1,"Women aged":18.3,"city":null,"Heavy drin":5.6,"zip":null,"Binge drin":12.7,"county":null,"geo_score":null,"Weight cla":37.5,"Have you e":9.4,"Adults who":92.3,"Adults age":72.1,"City code0":12676.0,"How is you":24.8,"Men aged 4":65.1,"individual or practice name":null,"provider speciality":null,"id":"a673fc6rji7i","STATE0":"NJ","Name0":"Ocean Cit","address":null,"geo_precision":null,"Adults tha":48.9,"Visited th":74.1,"Health Sta":83.7,"Four Level":18.7,"state":null},"type":"Feature","geometry":{"type":"Point","coordinates":[-74.5746002197266,39.2776145935059]}},{"properties":{"Do you hav":90.6,"During the":17.9,"Women aged":27.0,"city":null,"Heavy drin":2.7,"zip":null,"Binge drin":9.8,"county":null,"geo_score":null,"Weight cla":42.0,"Have you e":5.8,"Adults who":92.0,"Adults age":71.4,"City code0":13877.0,"How is you":24.0,"Men aged 4":47.0,"individual or practice name":null,"provider speciality":null,"id":"a673fccazojn","STATE0":"UT","Name0":"Ogden","address":null,"geo_precision":null,"Adults tha":70.7,"Visited th":74.5,"Health Sta":87.0,"Four Level":7.2,"state":null},"type":"Feature","geometry":{"type":"Point","coordinates":[-111.973838806152,41.2230033874512]}},{"properties":{"Do you hav":80.0,"During the":28.3,"Women aged":23.8,"city":null,"Heavy drin":4.5,"zip":null,"Binge drin":15.8,"county":null,"geo_score":null,"Weight cla":37.4,"Have you e":9.1,"Adults who":90.3,"Adults age":68.4,"City code0":26981.0,"How is you":18.8,"Men aged 4":52.6,"individual or practice name":null,"provider speciality":null,"id":"a673fckkmh12","STATE0":"OK","Name0":"Oklahoma","address":null,"geo_precision":null,"Adults tha":54.4,"Visited th":61.1,"Health Sta":81.5,"Four Level":17.0,"state":null},"type":"Feature","geometry":{"type":"Point","coordinates":[-97.5164260864258,35.4675598144531]}},{"properties":{"Do you hav":88.0,"During the":14.6,"Women aged":19.4,"city":null,"Heavy drin":4.8,"zip":null,"Binge drin":14.1,"county":null,"geo_score":null,"Weight cla":40.1,"Have you e":6.7,"Adults who":90.1,"Adults age":71.8,"City code0":975.0,"How is you":21.7,"Men aged 4":50.0,"individual or practice name":null,"provider speciality":null,"id":"a673fcb0gs3j","STATE0":"WA","Name0":"Olympia","address":null,"geo_precision":null,"Adults tha":61.9,"Visited th":73.0,"Health Sta":88.8,"Four Level":16.4,"state":null},"type":"Feature","geometry":{"type":"Point","coordinates":[-122.900688171387,47.0378761291504]}},{"properties":{"Do you hav":86.8,"During the":20.8,"Women aged":20.2,"city":null,"Heavy drin":3.5,"zip":null,"Binge drin":18.1,"county":null,"geo_score":null,"Weight cla":36.1,"Have you e":8.2,"Adults who":91.1,"Adults age":74.6,"City code0":15277.0,"How is you":20.1,"Men aged 4":53.5,"individual or practice name":null,"provider speciality":null,"id":"a673fcjuid7l","STATE0":"NE","Name0":"Omaha","address":null,"geo_precision":null,"Adults tha":61.3,"Visited th":74.5,"Health Sta":87.6,"Four Level":15.5,"state":null},"type":"Feature","geometry":{"type":"Point","coordinates":[-95.9377899169922,41.2586097717285]}},{"properties":{"Do you hav":81.0,"During the":19.6,"Women aged":18.7,"city":null,"Heavy drin":3.8,"zip":null,"Binge drin":13.6,"county":null,"geo_score":null,"Weight cla":41.8,"Have you e":8.1,"Adults who":92.8,"Adults age":64.1,"City code0":33514.0,"How is you":25.2,"Men aged 4":66.9,"individual or practice name":null,"provider speciality":null,"id":"a673fcjjtm7n","STATE0":"FL","Name0":"Orlando","address":null,"geo_precision":null,"Adults tha":53.2,"Visited th":68.8,"Health Sta":84.9,"Four Level":15.1,"state":null},"type":"Feature","geometry":{"type":"Point","coordinates":[-81.3792343139648,28.5383396148682]}},{"properties":{"Do you hav":89.9,"During the":25.7,"Women aged":15.3,"city":null,"Heavy drin":3.8,"zip":null,"Binge drin":16.1,"county":null,"geo_score":null,"Weight cla":43.3,"Have you e":7.2,"Adults who":89.5,"Adults age":64.9,"City code0":10924.0,"How is you":24.4,"Men aged 4":53.5,"individual or practice name":null,"provider speciality":null,"id":"a673fck7kgvq","STATE0":"PA","Name0":"Philadelp","address":null,"geo_precision":null,"Adults tha":54.3,"Visited th":70.8,"Health Sta":86.6,"Four Level":15.2,"state":null},"type":"Feature","geometry":{"type":"Point","coordinates":[-75.1637878417969,39.952335357666]}},{"properties":{"Do you hav":80.8,"During the":21.8,"Women aged":18.8,"city":null,"Heavy drin":6.0,"zip":null,"Binge drin":16.2,"county":null,"geo_score":null,"Weight cla":41.6,"Have you e":8.7,"Adults who":91.1,"Adults age":64.0,"City code0":29187.0,"How is you":22.4,"Men aged 4":56.0,"individual or practice name":null,"provider speciality":null,"id":"a673fc7qgj5v","STATE0":"AZ","Name0":"Phoenix","address":null,"geo_precision":null,"Adults tha":61.7,"Visited th":69.0,"Health Sta":83.4,"Four Level":12.2,"state":null},"type":"Feature","geometry":{"type":"Point","coordinates":[-112.074035644531,33.448371887207]}},{"properties":{"Do you hav":89.5,"During the":23.2,"Women aged":22.4,"city":null,"Heavy drin":4.2,"zip":null,"Binge drin":15.7,"county":null,"geo_score":null,"Weight cla":38.3,"Have you e":8.0,"Adults who":91.2,"Adults age":66.9,"City code0":12691.0,"How is you":20.2,"Men aged 4":57.4,"individual or practice name":null,"provider speciality":null,"id":"a673fc7cvorh","STATE0":"PA","Name0":"Pittsburg","address":null,"geo_precision":null,"Adults tha":46.3,"Visited th":69.8,"Health Sta":86.3,"Four Level":17.3,"state":null},"type":"Feature","geometry":{"type":"Point","coordinates":[-79.9958877563477,40.4406280517578]}},{"properties":{"Do you hav":86.0,"During the":14.6,"Women aged":16.9,"city":null,"Heavy drin":5.6,"zip":null,"Binge drin":14.5,"county":null,"geo_score":null,"Weight cla":38.9,"Have you e":5.9,"Adults who":89.1,"Adults age":71.6,"City code0":2150.0,"How is you":23.7,"Men aged 4":47.8,"individual or practice name":null,"provider speciality":null,"id":"a673fcjfl9ap","STATE0":"OR","Name0":"Portland","address":null,"geo_precision":null,"Adults tha":64.3,"Visited th":71.3,"Health Sta":86.8,"Four Level":12.1,"state":null},"type":"Feature","geometry":{"type":"Point","coordinates":[-122.676208496094,45.5234489440918]}},{"properties":{"Do you hav":93.2,"During the":18.7,"Women aged":17.1,"city":null,"Heavy drin":6.6,"zip":null,"Binge drin":18.3,"county":null,"geo_score":null,"Weight cla":42.2,"Have you e":6.4,"Adults who":91.9,"Adults age":74.6,"City code0":2347.0,"How is you":26.8,"Men aged 4":50.0,"individual or practice name":null,"provider speciality":null,"id":"a673fcd99zsu","STATE0":"ME","Name0":"Portland","address":null,"geo_precision":null,"Adults tha":59.5,"Visited th":74.8,"Health Sta":88.3,"Four Level":13.8,"state":null},"type":"Feature","geometry":{"type":"Point","coordinates":[-70.2553176879883,43.6614723205566]}},{"properties":{"Do you hav":89.4,"During the":24.9,"Women aged":12.8,"city":null,"Heavy drin":6.0,"zip":null,"Binge drin":17.9,"county":null,"geo_score":null,"Weight cla":39.2,"Have you e":7.4,"Adults who":89.5,"Adults age":71.5,"City code0":4845.0,"How is you":21.8,"Men aged 4":58.4,"individual or practice name":null,"provider speciality":null,"id":"a673fch8fnkt","STATE0":"RI","Name0":"Providenc","address":null,"geo_precision":null,"Adults tha":55.2,"Visited th":78.5,"Health Sta":85.6,"Four Level":16.0,"state":null},"type":"Feature","geometry":{"type":"Point","coordinates":[-71.4128341674805,41.8239898681641]}},{"properties":{"Do you hav":87.1,"During the":17.3,"Women aged":36.2,"city":null,"Heavy drin":1.0,"zip":null,"Binge drin":5.5,"county":null,"geo_score":null,"Weight cla":45.8,"Have you e":3.9,"Adults who":91.4,"Adults age":69.5,"City code0":16460.0,"How is you":22.5,"Men aged 4":45.6,"individual or practice name":null,"provider speciality":null,"id":"a673fc8ubash","STATE0":"UT","Name0":"Provo","address":null,"geo_precision":null,"Adults tha":72.2,"Visited th":72.3,"Health Sta":88.3,"Four Level":4.8,"state":null},"type":"Feature","geometry":{"type":"Point","coordinates":[-111.658538818359,40.2338447570801]}},{"properties":{"Do you hav":87.6,"During the":16.7,"Women aged":14.2,"city":null,"Heavy drin":3.7,"zip":null,"Binge drin":11.4,"county":null,"geo_score":null,"Weight cla":36.4,"Have you e":7.4,"Adults who":94.6,"Adults age":77.7,"City code0":22741.0,"How is you":24.5,"Men aged 4":55.2,"individual or practice name":null,"provider speciality":null,"id":"a673fc8tvppb","STATE0":"NC","Name0":"Raleigh","address":null,"geo_precision":null,"Adults tha":62.8,"Visited th":73.8,"Health Sta":88.0,"Four Level":10.9,"state":null},"type":"Feature","geometry":{"type":"Point","coordinates":[-78.6386184692383,35.7720909118652]}},{"properties":{"Do you hav":80.1,"During the":21.4,"Women aged":23.2,"city":null,"Heavy drin":9.4,"zip":null,"Binge drin":18.1,"county":null,"geo_score":null,"Weight cla":38.4,"Have you e":7.5,"Adults who":91.4,"Adults age":62.7,"City code0":15228.0,"How is you":21.2,"Men aged 4":48.3,"individual or practice name":null,"provider speciality":null,"id":"a673fcl481gz","STATE0":"NV","Name0":"Reno","address":null,"geo_precision":null,"Adults tha":59.2,"Visited th":65.3,"Health Sta":84.2,"Four Level":13.3,"state":null},"type":"Feature","geometry":{"type":"Point","coordinates":[-119.813804626465,39.5296325683594]}},{"properties":{"Do you hav":90.3,"During the":18.9,"Women aged":16.4,"city":null,"Heavy drin":3.5,"zip":null,"Binge drin":14.9,"county":null,"geo_score":null,"Weight cla":37.0,"Have you e":7.5,"Adults who":91.3,"Adults age":65.2,"City code0":18565.0,"How is you":24.2,"Men aged 4":51.2,"individual or practice name":null,"provider speciality":null,"id":"a673fc90dx34","STATE0":"VA","Name0":"Richmond","address":null,"geo_precision":null,"Adults tha":60.9,"Visited th":74.9,"Health Sta":86.5,"Four Level":16.3,"state":null},"type":"Feature","geometry":{"type":"Point","coordinates":[-77.4602661132812,37.5537567138672]}},{"properties":{"Do you hav":84.5,"During the":29.8,"Women aged":22.3,"city":null,"Heavy drin":4.8,"zip":null,"Binge drin":12.7,"county":null,"geo_score":null,"Weight cla":36.1,"Have you e":7.9,"Adults who":91.8,"Adults age":57.5,"City code0":27125.0,"How is you":18.8,"Men aged 4":46.7,"individual or practice name":null,"provider speciality":null,"id":"a673fccw7onv","STATE0":"CA","Name0":"Riverside","address":null,"geo_precision":null,"Adults tha":51.6,"Visited th":64.2,"Health Sta":79.9,"Four Level":9.7,"state":null},"type":"Feature","geometry":{"type":"Point","coordinates":[-117.396156311035,33.9533462524414]}},{"properties":{"Do you hav":88.2,"During the":18.6,"Women aged":16.2,"city":null,"Heavy drin":7.2,"zip":null,"Binge drin":17.4,"county":null,"geo_score":null,"Weight cla":41.9,"Have you e":6.6,"Adults who":90.1,"Adults age":69.5,"City code0":3070.0,"How is you":21.1,"Men aged 4":51.3,"individual or practice name":null,"provider speciality":null,"id":"a673fc6o0kwh","STATE0":"VT","Name0":"Rutland","address":null,"geo_precision":null,"Adults tha":51.0,"Visited th":69.2,"Health Sta":85.2,"Four Level":18.6,"state":null},"type":"Feature","geometry":{"type":"Point","coordinates":[-72.9726104736328,43.6106300354004]}},{"properties":{"Do you hav":90.2,"During the":20.6,"Women aged":21.5,"city":null,"Heavy drin":7.7,"zip":null,"Binge drin":19.3,"county":null,"geo_score":null,"Weight cla":40.4,"Have you e":6.9,"Adults who":91.8,"Adults age":72.1,"City code0":20616.0,"How is you":19.0,"Men aged 4":49.8,"individual or practice name":null,"provider speciality":null,"id":"a673fcbtmfep","STATE0":"MO","Name0":"Saint Lou","address":null,"geo_precision":null,"Adults tha":57.2,"Visited th":66.2,"Health Sta":86.7,"Four Level":16.9,"state":null},"type":"Feature","geometry":{"type":"Point","coordinates":[-90.1978912353516,38.627269744873]}},{"properties":{"Do you hav":85.0,"During the":20.0,"Women aged":23.4,"city":null,"Heavy drin":3.1,"zip":null,"Binge drin":11.7,"county":null,"geo_score":null,"Weight cla":45.7,"Have you e":6.3,"Adults who":90.2,"Adults age":74.2,"City code0":15091.0,"How is you":25.8,"Men aged 4":46.2,"individual or practice name":null,"provider speciality":null,"id":"a673fcd64c9a","STATE0":"UT","Name0":"Salt Lake","address":null,"geo_precision":null,"Adults tha":66.8,"Visited th":70.1,"Health Sta":86.6,"Four Level":7.8,"state":null},"type":"Feature","geometry":{"type":"Point","coordinates":[-111.891052246094,40.7607765197754]}},{"properties":{"Do you hav":74.1,"During the":24.8,"Women aged":21.6,"city":null,"Heavy drin":8.9,"zip":null,"Binge drin":19.9,"county":null,"geo_score":null,"Weight cla":32.3,"Have you e":8.9,"Adults who":92.7,"Adults age":64.5,"City code0":34113.0,"How is you":20.1,"Men aged 4":53.8,"individual or practice name":null,"provider speciality":null,"id":"a673fckc3i1o","STATE0":"TX","Name0":"San Anton","address":null,"geo_precision":null,"Adults tha":60.9,"Visited th":59.4,"Health Sta":80.1,"Four Level":13.5,"state":null},"type":"Feature","geometry":{"type":"Point","coordinates":[-98.4936294555664,29.4241218566895]}},{"properties":{"Do you hav":81.7,"During the":25.3,"Women aged":23.1,"city":null,"Heavy drin":5.6,"zip":null,"Binge drin":15.6,"county":null,"geo_score":null,"Weight cla":36.4,"Have you e":6.8,"Adults who":92.9,"Adults age":68.1,"City code0":29175.0,"How is you":25.0,"Men aged 4":51.4,"individual or practice name":null,"provider speciality":null,"id":"a673fccpja46","STATE0":"CA","Name0":"San Diego","address":null,"geo_precision":null,"Adults tha":58.1,"Visited th":72.5,"Health Sta":83.1,"Four Level":6.4,"state":null},"type":"Feature","geometry":{"type":"Point","coordinates":[-117.157257080078,32.7153282165527]}},{"properties":{"Do you hav":86.6,"During the":15.6,"Women aged":11.3,"city":null,"Heavy drin":7.5,"zip":null,"Binge drin":19.9,"county":null,"geo_score":null,"Weight cla":46.5,"Have you e":5.8,"Adults who":92.1,"Adults age":69.1,"City code0":18144.0,"How is you":28.8,"Men aged 4":39.5,"individual or practice name":null,"provider speciality":null,"id":"a673fc97hk1k","STATE0":"CA","Name0":"San Franc","address":null,"geo_precision":null,"Adults tha":61.5,"Visited th":76.9,"Health Sta":86.6,"Four Level":8.7,"state":null},"type":"Feature","geometry":{"type":"Point","coordinates":[-122.419410705566,37.7749328613281]}},{"properties":{"Do you hav":81.4,"During the":20.5,"Women aged":28.6,"city":null,"Heavy drin":5.9,"zip":null,"Binge drin":14.2,"county":null,"geo_score":null,"Weight cla":51.0,"Have you e":5.1,"Adults who":91.1,"Adults age":60.9,"City code0":26236.0,"How is you":27.3,"Men aged 4":56.4,"individual or practice name":null,"provider speciality":null,"id":"a673fc65tmud","STATE0":"NM","Name0":"Santa Fe","address":null,"geo_precision":null,"Adults tha":60.4,"Visited th":72.4,"Health Sta":85.2,"Four Level":12.0,"state":null},"type":"Feature","geometry":{"type":"Point","coordinates":[-105.937797546387,35.6869697570801]}},{"properties":{"Do you hav":87.1,"During the":26.5,"Women aged":30.9,"city":null,"Heavy drin":1.8,"zip":null,"Binge drin":12.0,"county":null,"geo_score":null,"Weight cla":33.5,"Have you e":9.2,"Adults who":92.7,"Adults age":70.3,"City code0":13740.0,"How is you":17.7,"Men aged 4":49.1,"individual or practice name":null,"provider speciality":null,"id":"a673fchs5nu7","STATE0":"NE","Name0":"Scottsblu","address":null,"geo_precision":null,"Adults tha":49.8,"Visited th":60.5,"Health Sta":81.0,"Four Level":12.9,"state":null},"type":"Feature","geometry":{"type":"Point","coordinates":[-103.667167663574,41.8666343688965]}},{"properties":{"Do you hav":92.1,"During the":24.4,"Women aged":23.1,"city":null,"Heavy drin":6.2,"zip":null,"Binge drin":21.6,"county":null,"geo_score":null,"Weight cla":39.9,"Have you e":8.0,"Adults who":93.3,"Adults age":61.0,"City code0":7449.0,"How is you":15.9,"Men aged 4":53.8,"individual or practice name":null,"provider speciality":null,"id":"a673fca5pvts","STATE0":"PA","Name0":"Scranton","address":null,"geo_precision":null,"Adults tha":45.9,"Visited th":74.1,"Health Sta":83.4,"Four Level":20.6,"state":null},"type":"Feature","geometry":{"type":"Point","coordinates":[-75.6624145507812,41.4089698791504]}},{"properties":{"Do you hav":87.6,"During the":24.0,"Women aged":13.1,"city":null,"Heavy drin":8.7,"zip":null,"Binge drin":17.5,"county":null,"geo_score":null,"Weight cla":33.0,"Have you e":9.3,"Adults who":90.9,"Adults age":65.9,"City code0":15030.0,"How is you":16.6,"Men aged 4":59.6,"individual or practice name":null,"provider speciality":null,"id":"a673fckql0ar","STATE0":"DE","Name0":"Seaford","address":null,"geo_precision":null,"Adults tha":43.8,"Visited th":69.5,"Health Sta":85.1,"Four Level":20.9,"state":null},"type":"Feature","geometry":{"type":"Point","coordinates":[-75.6110382080078,38.6412239074707]}},{"properties":{"Do you hav":87.3,"During the":15.0,"Women aged":18.9,"city":null,"Heavy drin":5.1,"zip":null,"Binge drin":13.9,"county":null,"geo_score":null,"Weight cla":42.8,"Have you e":6.8,"Adults who":92.1,"Adults age":71.8,"City code0":685.0,"How is you":23.8,"Men aged 4":45.1,"individual or practice name":null,"provider speciality":null,"id":"a673fc9uww7z","STATE0":"WA","Name0":"Seattle","address":null,"geo_precision":null,"Adults tha":66.2,"Visited th":75.3,"Health Sta":88.7,"Four Level":9.6,"state":null},"type":"Feature","geometry":{"type":"Point","coordinates":[-122.332069396973,47.6062126159668]}},{"properties":{"Do you hav":79.6,"During the":23.6,"Women aged":19.7,"city":null,"Heavy drin":4.0,"zip":null,"Binge drin":9.5,"county":null,"geo_score":null,"Weight cla":38.0,"Have you e":9.0,"Adults who":94.1,"Adults age":65.5,"City code0":31072.0,"How is you":20.0,"Men aged 4":57.8,"individual or practice name":null,"provider speciality":null,"id":"a673fc5l975x","STATE0":"LA","Name0":"Shrevepor","address":null,"geo_precision":null,"Adults tha":49.8,"Visited th":64.0,"Health Sta":84.6,"Four Level":18.1,"state":null},"type":"Feature","geometry":{"type":"Point","coordinates":[-93.7501754760742,32.5251541137695]}},{"properties":{"Do you hav":92.0,"During the":19.8,"Women aged":18.8,"city":null,"Heavy drin":3.9,"zip":null,"Binge drin":17.3,"county":null,"geo_score":null,"Weight cla":35.1,"Have you e":6.5,"Adults who":92.0,"Adults age":79.4,"City code0":8722.0,"How is you":24.5,"Men aged 4":53.8,"individual or practice name":null,"provider speciality":null,"id":"a673fcfa9ksz","STATE0":"SD","Name0":"Sioux Fal","address":null,"geo_precision":null,"Adults tha":63.6,"Visited th":73.2,"Health Sta":91.2,"Four Level":14.6,"state":null},"type":"Feature","geometry":{"type":"Point","coordinates":[-96.700325012207,43.5499725341797]}},{"properties":{"Do you hav":83.4,"During the":18.1,"Women aged":20.7,"city":null,"Heavy drin":5.9,"zip":null,"Binge drin":16.5,"county":null,"geo_score":null,"Weight cla":35.7,"Have you e":8.7,"Adults who":90.1,"Adults age":68.8,"City code0":1184.0,"How is you":16.8,"Men aged 4":48.6,"individual or practice name":null,"provider speciality":null,"id":"a673fccjrdib","STATE0":"WA","Name0":"Spokane","address":null,"geo_precision":null,"Adults tha":59.9,"Visited th":67.8,"Health Sta":86.1,"Four Level":18.9,"state":null},"type":"Feature","geometry":{"type":"Point","coordinates":[-117.426048278809,47.6587829589844]}},{"properties":{"Do you hav":92.8,"During the":23.9,"Women aged":12.7,"city":null,"Heavy drin":5.7,"zip":null,"Binge drin":19.4,"county":null,"geo_score":null,"Weight cla":38.8,"Have you e":7.1,"Adults who":89.4,"Adults age":71.1,"City code0":4878.0,"How is you":20.6,"Men aged 4":52.1,"individual or practice name":null,"provider speciality":null,"id":"a673fc7mhtge","STATE0":"MA","Name0":"Springfie","address":null,"geo_precision":null,"Adults tha":53.7,"Visited th":76.2,"Health Sta":86.1,"Four Level":13.4,"state":null},"type":"Feature","geometry":{"type":"Point","coordinates":[-72.5898132324219,42.1014862060547]}},{"properties":{"Do you hav":83.6,"During the":19.6,"Women aged":20.0,"city":null,"Heavy drin":5.1,"zip":null,"Binge drin":15.0,"county":null,"geo_score":null,"Weight cla":36.1,"Have you e":7.5,"Adults who":91.2,"Adults age":64.3,"City code0":896.0,"How is you":17.2,"Men aged 4":46.4,"individual or practice name":null,"provider speciality":null,"id":"a673fch2whfw","STATE0":"WA","Name0":"Tacoma","address":null,"geo_precision":null,"Adults tha":59.5,"Visited th":70.1,"Health Sta":84.4,"Four Level":14.3,"state":null},"type":"Feature","geometry":{"type":"Point","coordinates":[-122.444297790527,47.2528800964355]}},{"properties":{"Do you hav":81.6,"During the":26.1,"Women aged":15.4,"city":null,"Heavy drin":4.7,"zip":null,"Binge drin":15.7,"county":null,"geo_score":null,"Weight cla":40.9,"Have you e":9.5,"Adults who":90.9,"Adults age":65.8,"City code0":34056.0,"How is you":22.7,"Men aged 4":65.6,"individual or practice name":null,"provider speciality":null,"id":"a673fckgpx8c","STATE0":"FL","Name0":"Tampa","address":null,"geo_precision":null,"Adults tha":47.1,"Visited th":68.0,"Health Sta":81.7,"Four Level":17.9,"state":null},"type":"Feature","geometry":{"type":"Point","coordinates":[-82.4584274291992,27.9475193023682]}},{"properties":{"Do you hav":91.1,"During the":21.6,"Women aged":19.5,"city":null,"Heavy drin":4.4,"zip":null,"Binge drin":23.6,"county":null,"geo_score":null,"Weight cla":34.4,"Have you e":6.5,"Adults who":90.2,"Adults age":0.0,"City code0":10628.0,"How is you":16.8,"Men aged 4":0.0,"individual or practice name":null,"provider speciality":null,"id":"a673fc96vfok","STATE0":"OH","Name0":"Toledo","address":null,"geo_precision":null,"Adults tha":60.8,"Visited th":78.9,"Health Sta":87.5,"Four Level":15.6,"state":null},"type":"Feature","geometry":{"type":"Point","coordinates":[-83.5552139282227,41.6639404296875]}},{"properties":{"Do you hav":87.2,"During the":23.2,"Women aged":20.0,"city":null,"Heavy drin":1.8,"zip":null,"Binge drin":12.0,"county":null,"geo_score":null,"Weight cla":34.2,"Have you e":8.7,"Adults who":91.3,"Adults age":72.5,"City code0":20476.0,"How is you":19.0,"Men aged 4":55.6,"individual or practice name":null,"provider speciality":null,"id":"a673fcft259s","STATE0":"KS","Name0":"Topeka","address":null,"geo_precision":null,"Adults tha":54.7,"Visited th":71.5,"Health Sta":85.2,"Four Level":18.8,"state":null},"type":"Feature","geometry":{"type":"Point","coordinates":[-95.6780395507812,39.0483283996582]}},{"properties":{"Do you hav":90.3,"During the":21.4,"Women aged":15.1,"city":null,"Heavy drin":3.1,"zip":null,"Binge drin":12.7,"county":null,"geo_score":null,"Weight cla":41.5,"Have you e":7.0,"Adults who":88.7,"Adults age":76.2,"City code0":9816.0,"How is you":24.6,"Men aged 4":53.5,"individual or practice name":null,"provider speciality":null,"id":"a673fcd7vzad","STATE0":"NJ","Name0":"Trenton","address":null,"geo_precision":null,"Adults tha":57.4,"Visited th":79.0,"Health Sta":86.5,"Four Level":11.2,"state":null},"type":"Feature","geometry":{"type":"Point","coordinates":[-74.7429351806641,40.2170524597168]}},{"properties":{"Do you hav":79.8,"During the":22.5,"Women aged":17.2,"city":null,"Heavy drin":5.0,"zip":null,"Binge drin":13.8,"county":null,"geo_score":null,"Weight cla":39.3,"Have you e":8.6,"Adults who":91.5,"Adults age":71.2,"City code0":30909.0,"How is you":25.5,"Men aged 4":54.9,"individual or practice name":null,"provider speciality":null,"id":"a673fc96vzyd","STATE0":"AZ","Name0":"Tucson","address":null,"geo_precision":null,"Adults tha":56.8,"Visited th":69.7,"Health Sta":85.6,"Four Level":9.0,"state":null},"type":"Feature","geometry":{"type":"Point","coordinates":[-110.926475524902,32.2217445373535]}},{"properties":{"Do you hav":79.6,"During the":27.6,"Women aged":25.6,"city":null,"Heavy drin":3.5,"zip":null,"Binge drin":13.6,"county":null,"geo_score":null,"Weight cla":36.7,"Have you e":10.4,"Adults who":92.4,"Adults age":72.7,"City code0":25625.0,"How is you":19.7,"Men aged 4":51.9,"individual or practice name":null,"provider speciality":null,"id":"a673fckwv6ca","STATE0":"OK","Name0":"Tulsa","address":null,"geo_precision":null,"Adults tha":51.4,"Visited th":58.3,"Health Sta":80.8,"Four Level":19.2,"state":null},"type":"Feature","geometry":{"type":"Point","coordinates":[-95.9927749633789,36.153980255127]}},{"properties":{"Do you hav":85.0,"During the":22.1,"Women aged":18.5,"city":null,"Heavy drin":3.9,"zip":null,"Binge drin":16.8,"county":null,"geo_score":null,"Weight cla":36.8,"Have you e":5.4,"Adults who":91.1,"Adults age":70.1,"City code0":6416.0,"How is you":20.8,"Men aged 4":52.0,"individual or practice name":null,"provider speciality":null,"id":"a673fcesdwbv","STATE0":"SD","Name0":"Union Cen","address":null,"geo_precision":null,"Adults tha":56.8,"Visited th":72.0,"Health Sta":88.7,"Four Level":16.9,"state":null},"type":"Feature","geometry":{"type":"Point","coordinates":[-102.666572570801,44.5599555969238]}},{"properties":{"Do you hav":89.9,"During the":20.7,"Women aged":18.3,"city":null,"Heavy drin":6.8,"zip":null,"Binge drin":16.2,"county":null,"geo_score":null,"Weight cla":38.4,"Have you e":6.0,"Adults who":91.5,"Adults age":64.8,"City code0":19325.0,"How is you":22.8,"Men aged 4":56.8,"individual or practice name":null,"provider speciality":null,"id":"a673fca4a9tr","STATE0":"VA","Name0":"Virginia","address":null,"geo_precision":null,"Adults tha":66.8,"Visited th":75.0,"Health Sta":90.3,"Four Level":15.5,"state":null},"type":"Feature","geometry":{"type":"Point","coordinates":[-75.9779815673828,36.8529281616211]}},{"properties":{"Do you hav":89.4,"During the":19.0,"Women aged":19.3,"city":null,"Heavy drin":5.8,"zip":null,"Binge drin":17.6,"county":null,"geo_score":null,"Weight cla":37.9,"Have you e":7.4,"Adults who":92.0,"Adults age":67.9,"City code0":8358.0,"How is you":19.3,"Men aged 4":59.9,"individual or practice name":null,"provider speciality":null,"id":"a673fcie95lw","STATE0":"MI","Name0":"Warren","address":null,"geo_precision":null,"Adults tha":60.9,"Visited th":80.2,"Health Sta":87.4,"Four Level":12.5,"state":null},"type":"Feature","geometry":{"type":"Point","coordinates":[-83.027702331543,42.4775390625]}},{"properties":{"Do you hav":90.7,"During the":18.7,"Women aged":18.3,"city":null,"Heavy drin":4.1,"zip":null,"Binge drin":11.3,"county":null,"geo_score":null,"Weight cla":40.9,"Have you e":8.4,"Adults who":92.3,"Adults age":68.9,"City code0":15212.0,"How is you":25.5,"Men aged 4":50.2,"individual or practice name":null,"provider speciality":null,"id":"a673fcadd22s","STATE0":"DC","Name0":"Washingto","address":null,"geo_precision":null,"Adults tha":60.6,"Visited th":74.5,"Health Sta":87.4,"Four Level":11.1,"state":null},"type":"Feature","geometry":{"type":"Point","coordinates":[-77.0363693237305,38.8951110839844]}},{"properties":{"Do you hav":72.8,"During the":22.8,"Women aged":20.4,"city":null,"Heavy drin":3.7,"zip":null,"Binge drin":11.5,"county":null,"geo_score":null,"Weight cla":39.8,"Have you e":6.6,"Adults who":90.4,"Adults age":72.8,"City code0":1028.0,"How is you":20.1,"Men aged 4":51.5,"individual or practice name":null,"provider speciality":null,"id":"a673fca0o9mn","STATE0":"WA","Name0":"Wenatchee","address":null,"geo_precision":null,"Adults tha":55.2,"Visited th":65.0,"Health Sta":82.9,"Four Level":11.3,"state":null},"type":"Feature","geometry":{"type":"Point","coordinates":[-120.310356140137,47.4234580993652]}},{"properties":{"Do you hav":88.5,"During the":23.2,"Women aged":20.2,"city":null,"Heavy drin":4.2,"zip":null,"Binge drin":12.5,"county":null,"geo_score":null,"Weight cla":36.4,"Have you e":8.5,"Adults who":91.9,"Adults age":74.5,"City code0":23154.0,"How is you":21.2,"Men aged 4":55.1,"individual or practice name":null,"provider speciality":null,"id":"a673fcgv7o5x","STATE0":"KS","Name0":"Wichita","address":null,"geo_precision":null,"Adults tha":59.7,"Visited th":74.7,"Health Sta":85.9,"Four Level":15.6,"state":null},"type":"Feature","geometry":{"type":"Point","coordinates":[-97.3375396728516,37.6922340393066]}},{"properties":{"Do you hav":80.8,"During the":20.1,"Women aged":14.8,"city":null,"Heavy drin":3.6,"zip":null,"Binge drin":13.6,"county":null,"geo_score":null,"Weight cla":38.1,"Have you e":8.2,"Adults who":92.7,"Adults age":74.2,"City code0":25009.0,"How is you":23.6,"Men aged 4":61.2,"individual or practice name":null,"provider speciality":null,"id":"a673fcbrvjc5","STATE0":"NC","Name0":"Wilmingto","address":null,"geo_precision":null,"Adults tha":53.1,"Visited th":70.8,"Health Sta":85.5,"Four Level":15.2,"state":null},"type":"Feature","geometry":{"type":"Point","coordinates":[-77.944709777832,34.2257308959961]}},{"properties":{"Do you hav":90.8,"During the":21.9,"Women aged":14.8,"city":null,"Heavy drin":7.1,"zip":null,"Binge drin":18.7,"county":null,"geo_score":null,"Weight cla":36.4,"Have you e":7.1,"Adults who":90.3,"Adults age":67.4,"City code0":11880.0,"How is you":23.5,"Men aged 4":54.6,"individual or practice name":null,"provider speciality":null,"id":"a673fchhm1lf","STATE0":"DE","Name0":"Wilmingto","address":null,"geo_precision":null,"Adults tha":57.7,"Visited th":78.0,"Health Sta":88.6,"Four Level":16.6,"state":null},"type":"Feature","geometry":{"type":"Point","coordinates":[-75.5465850830078,39.7459449768066]}},{"properties":{"Do you hav":84.6,"During the":22.9,"Women aged":15.3,"city":null,"Heavy drin":3.7,"zip":null,"Binge drin":8.9,"county":null,"geo_score":null,"Weight cla":40.9,"Have you e":8.7,"Adults who":93.5,"Adults age":72.5,"City code0":22734.0,"How is you":21.7,"Men aged 4":46.8,"individual or practice name":null,"provider speciality":null,"id":"a673fclh4ake","STATE0":"NC","Name0":"Winston-S","address":null,"geo_precision":null,"Adults tha":51.6,"Visited th":67.8,"Health Sta":83.8,"Four Level":20.1,"state":null},"type":"Feature","geometry":{"type":"Point","coordinates":[-80.2442092895508,36.0998573303223]}},{"properties":{"Do you hav":91.4,"During the":20.7,"Women aged":14.7,"city":null,"Heavy drin":6.1,"zip":null,"Binge drin":17.8,"county":null,"geo_score":null,"Weight cla":40.3,"Have you e":6.9,"Adults who":89.8,"Adults age":72.8,"City code0":4342.0,"How is you":24.9,"Men aged 4":58.0,"individual or practice name":null,"provider speciality":null,"id":"a673fcct55e0","STATE0":"MA","Name0":"Worcester","address":null,"geo_precision":null,"Adults tha":56.0,"Visited th":78.4,"Health Sta":87.0,"Four Level":18.0,"state":null},"type":"Feature","geometry":{"type":"Point","coordinates":[-71.8022994995117,42.2625923156738]}},{"properties":{"Do you hav":77.9,"During the":24.6,"Women aged":19.5,"city":null,"Heavy drin":3.0,"zip":null,"Binge drin":10.8,"county":null,"geo_score":null,"Weight cla":34.1,"Have you e":10.1,"Adults who":91.6,"Adults age":73.7,"City code0":1594.0,"How is you":15.0,"Men aged 4":52.0,"individual or practice name":null,"provider speciality":null,"id":"a673fcfpjjq2","STATE0":"WA","Name0":"Yakima","address":null,"geo_precision":null,"Adults tha":59.1,"Visited th":60.6,"Health Sta":78.9,"Four Level":12.2,"state":null},"type":"Feature","geometry":{"type":"Point","coordinates":[-120.505897521973,46.6020660400391]}},{"properties":{"Do you hav":84.4,"During the":22.3,"Women aged":0.0,"city":null,"Heavy drin":4.0,"zip":null,"Binge drin":14.0,"county":null,"geo_score":null,"Weight cla":33.0,"Have you e":11.2,"Adults who":93.4,"Adults age":0.0,"City code0":10901.0,"How is you":15.8,"Men aged 4":0.0,"individual or practice name":null,"provider speciality":null,"id":"a673fc6wxgu7","STATE0":"OH","Name0":"Youngstow","address":null,"geo_precision":null,"Adults tha":48.1,"Visited th":63.6,"Health Sta":81.4,"Four Level":14.8,"state":null},"type":"Feature","geometry":{"type":"Point","coordinates":[-80.6495132446289,41.0997772216797]}},{"properties":{"Do you hav":78.1,"During the":29.5,"Women aged":20.0,"city":null,"Heavy drin":4.5,"zip":null,"Binge drin":14.0,"county":null,"geo_score":null,"Weight cla":28.6,"Have you e":9.9,"Adults who":90.1,"Adults age":65.7,"City code0":18125.0,"How is you":17.3,"Men aged 4":54.3,"individual or practice name":null,"provider speciality":null,"id":"a673fcb8mwa4","STATE0":"CO","Name0":"Yuma","address":null,"geo_precision":null,"Adults tha":48.4,"Visited th":65.4,"Health Sta":80.0,"Four Level":9.0,"state":null},"type":"Feature","geometry":{"type":"Point","coordinates":[-102.725204467773,40.1222038269043]}}],"is_temporal":false,"author":{"url":null,"metadata":null,"contact_name":null,"contact_address":null,"source":null,"contact_phone":null},"source":null,"pagination":{"sort":null,"start":0,"total":193,"limit":1000000},"state":"complete","tags":"","published":"2014-08-14T21:54:18-04:00","id":295312}