{"type":"FeatureCollection","data_type":"Dataset","url_type":null,"permissions":[{"permissions":{"download":true,"edit":true,"view":true},"group_id":39474},{"permissions":{"download":true,"view":true},"group_id":"everyone"}],"classification":null,"title":"Marina del Rey California dyfi","count":277,"stream_id":295660,"contributor":{"url":"http://geocommons.com/users/52803","name":"USGSted"},"data_attributes":null,"calculation_params":null,"icon_link":null,"link":"http://geocommons.com/overlays/295660.json","extent":[-121.852,32.7473,-115.761,37.3508],"geometry_types":["point"],"unique_name":null,"name":"Marina del Rey California dyfi","feature_count":277,"description":"Marina del Rey California dyfi","next_feature":null,"is_raster":false,"short_classification":"Y","stats":{"latitude":{"max":37.3508,"variance":0.121283653855753,"mean":34.0122342960289,"stdev":0.3482580276975,"min":32.7473,"median":34.0277},"suspect?":{"max":0,"variance":0.0,"mean":0.0,"stdev":0.0,"min":0,"median":0},"longitude":{"max":-115.7608,"variance":0.191969303798985,"mean":-118.225746209386,"stdev":0.438143017517094,"min":-121.8522,"median":-118.2606},"epicentral distance":{"max":488,"variance":1994.47454612044,"mean":38.8194945848375,"stdev":44.6595403706805,"min":10,"median":28},"cdi":{"max":3.8,"variance":0.352182022707058,"mean":2.414440433213,"stdev":0.593449258746743,"min":1.0,"median":2.3},"# columns: zip/location":{"max":95116,"variance":955165.763851829,"mean":91016.0252707581,"stdev":977.325822769371,"min":90001,"median":90742},"no. of responses":{"max":289,"variance":1772.42549573588,"mean":23.3826714801444,"stdev":42.1001840344657,"min":1,"median":6}},"features":[{"properties":{"city":"Los Angeles","latitude":33.9741,"cdi":3.0,"epicentral distance":18,"longitude":-118.2498,"suspect?":0,"id":"aa38yl552sq5","# columns: zip/location":90001,"no. of responses":14,"state":"CA"},"type":"Feature","geometry":{"type":"Point","coordinates":[-118.2498,33.9741]}},{"properties":{"city":"Los Angeles","latitude":33.9491,"cdi":2.0,"epicentral distance":18,"longitude":-118.247,"suspect?":0,"id":"aa38ykv1a6ti","# columns: zip/location":90002,"no. of responses":8,"state":"CA"},"type":"Feature","geometry":{"type":"Point","coordinates":[-118.247,33.9491]}},{"properties":{"city":"Los Angeles","latitude":33.9641,"cdi":2.7,"epicentral distance":16,"longitude":-118.2739,"suspect?":0,"id":"aa38yl30stvf","# columns: zip/location":90003,"no. of responses":10,"state":"CA"},"type":"Feature","geometry":{"type":"Point","coordinates":[-118.2739,33.9641]}},{"properties":{"city":"Los Angeles","latitude":34.0762,"cdi":2.8,"epicentral distance":18,"longitude":-118.3114,"suspect?":0,"id":"aa38yl457tlk","# columns: zip/location":90004,"no. of responses":63,"state":"CA"},"type":"Feature","geometry":{"type":"Point","coordinates":[-118.3114,34.0762]}},{"properties":{"city":"Los Angeles","latitude":34.059,"cdi":3.5,"epicentral distance":17,"longitude":-118.3088,"suspect?":0,"id":"aa38ykyfbj4o","# columns: zip/location":90005,"no. of responses":35,"state":"CA"},"type":"Feature","geometry":{"type":"Point","coordinates":[-118.3088,34.059]}},{"properties":{"city":"Los Angeles","latitude":34.048,"cdi":3.3,"epicentral distance":17,"longitude":-118.2941,"suspect?":0,"id":"aa38yktrlzoq","# columns: zip/location":90006,"no. of responses":32,"state":"CA"},"type":"Feature","geometry":{"type":"Point","coordinates":[-118.2941,34.048]}},{"properties":{"city":"Los Angeles","latitude":34.0277,"cdi":3.2,"epicentral distance":17,"longitude":-118.2851,"suspect?":0,"id":"aa38yl0fz8yz","# columns: zip/location":90007,"no. of responses":57,"state":"CA"},"type":"Feature","geometry":{"type":"Point","coordinates":[-118.2851,34.0277]}},{"properties":{"city":"Los Angeles","latitude":34.009,"cdi":3.3,"epicentral distance":13,"longitude":-118.3482,"suspect?":0,"id":"aa38ykv1qsie","# columns: zip/location":90008,"no. of responses":18,"state":"CA"},"type":"Feature","geometry":{"type":"Point","coordinates":[-118.3482,34.009]}},{"properties":{"city":"Los Angeles","latitude":34.0628,"cdi":2.7,"epicentral distance":17,"longitude":-118.3135,"suspect?":0,"id":"aa38ykxib3oc","# columns: zip/location":90010,"no. of responses":3,"state":"CA"},"type":"Feature","geometry":{"type":"Point","coordinates":[-118.3135,34.0628]}},{"properties":{"city":"Los Angeles","latitude":34.0075,"cdi":3.0,"epicentral distance":18,"longitude":-118.2588,"suspect?":0,"id":"aa38ykqdn812","# columns: zip/location":90011,"no. of responses":31,"state":"CA"},"type":"Feature","geometry":{"type":"Point","coordinates":[-118.2588,34.0075]}},{"properties":{"city":"Los Angeles","latitude":34.0659,"cdi":2.4,"epicentral distance":22,"longitude":-118.2386,"suspect?":0,"id":"aa38yl2i7fur","# columns: zip/location":90012,"no. of responses":40,"state":"CA"},"type":"Feature","geometry":{"type":"Point","coordinates":[-118.2386,34.0659]}},{"properties":{"city":"Los Angeles","latitude":34.0444,"cdi":2.9,"epicentral distance":20,"longitude":-118.2417,"suspect?":0,"id":"aa38ykxws5b6","# columns: zip/location":90013,"no. of responses":17,"state":"CA"},"type":"Feature","geometry":{"type":"Point","coordinates":[-118.2417,34.0444]}},{"properties":{"city":"Los Angeles","latitude":34.0432,"cdi":3.1,"epicentral distance":19,"longitude":-118.2523,"suspect?":0,"id":"aa38yl0aqzr8","# columns: zip/location":90014,"no. of responses":7,"state":"CA"},"type":"Feature","geometry":{"type":"Point","coordinates":[-118.2523,34.0432]}},{"properties":{"city":"Los Angeles","latitude":34.0396,"cdi":2.7,"epicentral distance":18,"longitude":-118.2667,"suspect?":0,"id":"aa38yl4bisnh","# columns: zip/location":90015,"no. of responses":19,"state":"CA"},"type":"Feature","geometry":{"type":"Point","coordinates":[-118.2667,34.0396]}},{"properties":{"city":"Los Angeles","latitude":34.0284,"cdi":3.3,"epicentral distance":13,"longitude":-118.3542,"suspect?":0,"id":"aa38yku2zs98","# columns: zip/location":90016,"no. of responses":47,"state":"CA"},"type":"Feature","geometry":{"type":"Point","coordinates":[-118.3542,34.0284]}},{"properties":{"city":"Los Angeles","latitude":34.0531,"cdi":3.0,"epicentral distance":19,"longitude":-118.2647,"suspect?":0,"id":"aa38ykwlc32r","# columns: zip/location":90017,"no. of responses":41,"state":"CA"},"type":"Feature","geometry":{"type":"Point","coordinates":[-118.2647,34.0531]}},{"properties":{"city":"Los Angeles","latitude":34.028,"cdi":3.5,"epicentral distance":15,"longitude":-118.3177,"suspect?":0,"id":"aa38yl4ored3","# columns: zip/location":90018,"no. of responses":31,"state":"CA"},"type":"Feature","geometry":{"type":"Point","coordinates":[-118.3177,34.028]}},{"properties":{"city":"Los Angeles","latitude":34.0487,"cdi":3.5,"epicentral distance":15,"longitude":-118.3386,"suspect?":0,"id":"aa38yl1mx88p","# columns: zip/location":90019,"no. of responses":90,"state":"CA"},"type":"Feature","geometry":{"type":"Point","coordinates":[-118.3386,34.0487]}},{"properties":{"city":"Los Angeles","latitude":34.0663,"cdi":2.8,"epicentral distance":18,"longitude":-118.3103,"suspect?":0,"id":"aa38yl4eicuc","# columns: zip/location":90020,"no. of responses":43,"state":"CA"},"type":"Feature","geometry":{"type":"Point","coordinates":[-118.3103,34.0663]}},{"properties":{"city":"Los Angeles","latitude":34.0292,"cdi":2.9,"epicentral distance":20,"longitude":-118.2388,"suspect?":0,"id":"aa38ykq9suqy","# columns: zip/location":90021,"no. of responses":5,"state":"CA"},"type":"Feature","geometry":{"type":"Point","coordinates":[-118.2388,34.0292]}},{"properties":{"city":"Los Angeles","latitude":34.0248,"cdi":2.6,"epicentral distance":26,"longitude":-118.1558,"suspect?":0,"id":"aa38yl0a839z","# columns: zip/location":90022,"no. of responses":3,"state":"CA"},"type":"Feature","geometry":{"type":"Point","coordinates":[-118.1558,34.0248]}},{"properties":{"city":"Los Angeles","latitude":34.0183,"cdi":2.0,"epicentral distance":22,"longitude":-118.2,"suspect?":0,"id":"aa38yl2ylln2","# columns: zip/location":90023,"no. of responses":13,"state":"CA"},"type":"Feature","geometry":{"type":"Point","coordinates":[-118.2,34.0183]}},{"properties":{"city":"Los Angeles","latitude":34.0653,"cdi":2.8,"epicentral distance":15,"longitude":-118.435,"suspect?":0,"id":"aa38yl0pgef9","# columns: zip/location":90024,"no. of responses":87,"state":"CA"},"type":"Feature","geometry":{"type":"Point","coordinates":[-118.435,34.0653]}},{"properties":{"city":"Los Angeles","latitude":34.045,"cdi":3.1,"epicentral distance":14,"longitude":-118.4466,"suspect?":0,"id":"aa38ykt9a9fz","# columns: zip/location":90025,"no. of responses":156,"state":"CA"},"type":"Feature","geometry":{"type":"Point","coordinates":[-118.4466,34.045]}},{"properties":{"city":"Los Angeles","latitude":34.0788,"cdi":2.9,"epicentral distance":21,"longitude":-118.2638,"suspect?":0,"id":"aa38ykwtjl8l","# columns: zip/location":90026,"no. of responses":78,"state":"CA"},"type":"Feature","geometry":{"type":"Point","coordinates":[-118.2638,34.0788]}},{"properties":{"city":"Los Angeles","latitude":34.1251,"cdi":2.6,"epicentral distance":23,"longitude":-118.2906,"suspect?":0,"id":"aa38yl3l8gp0","# columns: zip/location":90027,"no. of responses":58,"state":"CA"},"type":"Feature","geometry":{"type":"Point","coordinates":[-118.2906,34.1251]}},{"properties":{"city":"Los Angeles","latitude":34.0998,"cdi":3.0,"epicentral distance":20,"longitude":-118.3267,"suspect?":0,"id":"aa38ykvkkrnh","# columns: zip/location":90028,"no. of responses":73,"state":"CA"},"type":"Feature","geometry":{"type":"Point","coordinates":[-118.3267,34.0998]}},{"properties":{"city":"Los Angeles","latitude":34.0898,"cdi":2.8,"epicentral distance":20,"longitude":-118.2946,"suspect?":0,"id":"aa38ykxtxws4","# columns: zip/location":90029,"no. of responses":16,"state":"CA"},"type":"Feature","geometry":{"type":"Point","coordinates":[-118.2946,34.0898]}},{"properties":{"city":"Los Angeles","latitude":34.0796,"cdi":2.7,"epicentral distance":24,"longitude":-118.2114,"suspect?":0,"id":"aa38ykpexyb1","# columns: zip/location":90031,"no. of responses":10,"state":"CA"},"type":"Feature","geometry":{"type":"Point","coordinates":[-118.2114,34.0796]}},{"properties":{"city":"Los Angeles","latitude":34.081,"cdi":2.7,"epicentral distance":27,"longitude":-118.178,"suspect?":0,"id":"aa38yl2aq2x6","# columns: zip/location":90032,"no. of responses":10,"state":"CA"},"type":"Feature","geometry":{"type":"Point","coordinates":[-118.178,34.081]}},{"properties":{"city":"Los Angeles","latitude":34.0502,"cdi":2.5,"epicentral distance":23,"longitude":-118.2109,"suspect?":0,"id":"aa38ykx0fg30","# columns: zip/location":90033,"no. of responses":20,"state":"CA"},"type":"Feature","geometry":{"type":"Point","coordinates":[-118.2109,34.0502]}},{"properties":{"city":"Los Angeles","latitude":34.0307,"cdi":3.0,"epicentral distance":13,"longitude":-118.3995,"suspect?":0,"id":"aa38yl0trae3","# columns: zip/location":90034,"no. of responses":204,"state":"CA"},"type":"Feature","geometry":{"type":"Point","coordinates":[-118.3995,34.0307]}},{"properties":{"city":"Los Angeles","latitude":34.0518,"cdi":3.5,"epicentral distance":14,"longitude":-118.3837,"suspect?":0,"id":"aa38yl3evna0","# columns: zip/location":90035,"no. of responses":72,"state":"CA"},"type":"Feature","geometry":{"type":"Point","coordinates":[-118.3837,34.0518]}},{"properties":{"city":"Los Angeles","latitude":34.0704,"cdi":3.1,"epicentral distance":16,"longitude":-118.3501,"suspect?":0,"id":"aa38ykxeue6v","# columns: zip/location":90036,"no. of responses":107,"state":"CA"},"type":"Feature","geometry":{"type":"Point","coordinates":[-118.3501,34.0704]}},{"properties":{"city":"Los Angeles","latitude":34.0027,"cdi":3.8,"epicentral distance":16,"longitude":-118.2875,"suspect?":0,"id":"aa38ykquyqkf","# columns: zip/location":90037,"no. of responses":23,"state":"CA"},"type":"Feature","geometry":{"type":"Point","coordinates":[-118.2875,34.0027]}},{"properties":{"city":"Los Angeles","latitude":34.089,"cdi":3.2,"epicentral distance":19,"longitude":-118.3267,"suspect?":0,"id":"aa38yl19omm4","# columns: zip/location":90038,"no. of responses":37,"state":"CA"},"type":"Feature","geometry":{"type":"Point","coordinates":[-118.3267,34.089]}},{"properties":{"city":"Los Angeles","latitude":34.1123,"cdi":2.2,"epicentral distance":23,"longitude":-118.2612,"suspect?":0,"id":"aa38ykw07jjt","# columns: zip/location":90039,"no. of responses":19,"state":"CA"},"type":"Feature","geometry":{"type":"Point","coordinates":[-118.2612,34.1123]}},{"properties":{"city":"Los Angeles","latitude":33.9934,"cdi":2.0,"epicentral distance":26,"longitude":-118.1506,"suspect?":0,"id":"aa38ykphsyom","# columns: zip/location":90040,"no. of responses":5,"state":"CA"},"type":"Feature","geometry":{"type":"Point","coordinates":[-118.1506,33.9934]}},{"properties":{"city":"Los Angeles","latitude":34.1371,"cdi":2.0,"epicentral distance":28,"longitude":-118.2073,"suspect?":0,"id":"aa38yl2fxk4d","# columns: zip/location":90041,"no. of responses":11,"state":"CA"},"type":"Feature","geometry":{"type":"Point","coordinates":[-118.2073,34.1371]}},{"properties":{"city":"Los Angeles","latitude":34.1151,"cdi":2.0,"epicentral distance":28,"longitude":-118.192,"suspect?":0,"id":"aa38ykv2ax9g","# columns: zip/location":90042,"no. of responses":12,"state":"CA"},"type":"Feature","geometry":{"type":"Point","coordinates":[-118.192,34.1151]}},{"properties":{"city":"Los Angeles","latitude":33.9887,"cdi":2.5,"epicentral distance":12,"longitude":-118.3351,"suspect?":0,"id":"aa38yl2hwlui","# columns: zip/location":90043,"no. of responses":27,"state":"CA"},"type":"Feature","geometry":{"type":"Point","coordinates":[-118.3351,33.9887]}},{"properties":{"city":"Los Angeles","latitude":33.953,"cdi":3.0,"epicentral distance":15,"longitude":-118.2915,"suspect?":0,"id":"aa38yl3kfy9l","# columns: zip/location":90044,"no. of responses":34,"state":"CA"},"type":"Feature","geometry":{"type":"Point","coordinates":[-118.2915,33.953]}},{"properties":{"city":"Los Angeles","latitude":33.9531,"cdi":3.2,"epicentral distance":10,"longitude":-118.4012,"suspect?":0,"id":"aa38yl3897rh","# columns: zip/location":90045,"no. of responses":241,"state":"CA"},"type":"Feature","geometry":{"type":"Point","coordinates":[-118.4012,33.9531]}},{"properties":{"city":"Los Angeles","latitude":34.1072,"cdi":3.1,"epicentral distance":19,"longitude":-118.3648,"suspect?":0,"id":"aa38ykut1fiz","# columns: zip/location":90046,"no. of responses":137,"state":"CA"},"type":"Feature","geometry":{"type":"Point","coordinates":[-118.3648,34.1072]}},{"properties":{"city":"Los Angeles","latitude":33.9539,"cdi":2.8,"epicentral distance":14,"longitude":-118.3088,"suspect?":0,"id":"aa38yl4swyx2","# columns: zip/location":90047,"no. of responses":14,"state":"CA"},"type":"Feature","geometry":{"type":"Point","coordinates":[-118.3088,33.9539]}},{"properties":{"city":"Los Angeles","latitude":34.0731,"cdi":3.1,"epicentral distance":16,"longitude":-118.3728,"suspect?":0,"id":"aa38ykz4ooec","# columns: zip/location":90048,"no. of responses":89,"state":"CA"},"type":"Feature","geometry":{"type":"Point","coordinates":[-118.3728,34.0731]}},{"properties":{"city":"Los Angeles","latitude":34.0869,"cdi":2.8,"epicentral distance":18,"longitude":-118.4882,"suspect?":0,"id":"aa38ykt4rgpd","# columns: zip/location":90049,"no. of responses":62,"state":"CA"},"type":"Feature","geometry":{"type":"Point","coordinates":[-118.4882,34.0869]}},{"properties":{"city":"Los Angeles","latitude":33.9931,"cdi":3.1,"epicentral distance":11,"longitude":-118.3737,"suspect?":0,"id":"aa38ykzf1mpk","# columns: zip/location":90056,"no. of responses":18,"state":"CA"},"type":"Feature","geometry":{"type":"Point","coordinates":[-118.3737,33.9931]}},{"properties":{"city":"Los Angeles","latitude":34.0622,"cdi":3.0,"epicentral distance":19,"longitude":-118.2774,"suspect?":0,"id":"aa38yl4q56yp","# columns: zip/location":90057,"no. of responses":23,"state":"CA"},"type":"Feature","geometry":{"type":"Point","coordinates":[-118.2774,34.0622]}},{"properties":{"city":"Los Angeles","latitude":34.0016,"cdi":2.0,"epicentral distance":20,"longitude":-118.2219,"suspect?":0,"id":"aa38ykrpyspj","# columns: zip/location":90058,"no. of responses":6,"state":"CA"},"type":"Feature","geometry":{"type":"Point","coordinates":[-118.2219,34.0016]}},{"properties":{"city":"Los Angeles","latitude":33.9256,"cdi":2.0,"epicentral distance":18,"longitude":-118.2499,"suspect?":0,"id":"aa38yksx5thp","# columns: zip/location":90059,"no. of responses":4,"state":"CA"},"type":"Feature","geometry":{"type":"Point","coordinates":[-118.2499,33.9256]}},{"properties":{"city":"Los Angeles","latitude":33.9205,"cdi":2.8,"epicentral distance":17,"longitude":-118.274,"suspect?":0,"id":"aa38yl34xr8c","# columns: zip/location":90061,"no. of responses":3,"state":"CA"},"type":"Feature","geometry":{"type":"Point","coordinates":[-118.274,33.9205]}},{"properties":{"city":"Los Angeles","latitude":34.0034,"cdi":3.2,"epicentral distance":14,"longitude":-118.3088,"suspect?":0,"id":"aa38yl345ae2","# columns: zip/location":90062,"no. of responses":19,"state":"CA"},"type":"Feature","geometry":{"type":"Point","coordinates":[-118.3088,34.0034]}},{"properties":{"city":"Los Angeles","latitude":34.0442,"cdi":2.9,"epicentral distance":24,"longitude":-118.1854,"suspect?":0,"id":"aa38yl0ik366","# columns: zip/location":90063,"no. of responses":9,"state":"CA"},"type":"Feature","geometry":{"type":"Point","coordinates":[-118.1854,34.0442]}},{"properties":{"city":"Los Angeles","latitude":34.0372,"cdi":3.2,"epicentral distance":13,"longitude":-118.4242,"suspect?":0,"id":"aa38yl02zmnz","# columns: zip/location":90064,"no. of responses":82,"state":"CA"},"type":"Feature","geometry":{"type":"Point","coordinates":[-118.4242,34.0372]}},{"properties":{"city":"Los Angeles","latitude":34.1094,"cdi":2.4,"epicentral distance":25,"longitude":-118.2279,"suspect?":0,"id":"aa38ykyptt0o","# columns: zip/location":90065,"no. of responses":15,"state":"CA"},"type":"Feature","geometry":{"type":"Point","coordinates":[-118.2279,34.1094]}},{"properties":{"city":"Los Angeles","latitude":34.002,"cdi":3.3,"epicentral distance":11,"longitude":-118.4312,"suspect?":0,"id":"aa38ykuqcdre","# columns: zip/location":90066,"no. of responses":289,"state":"CA"},"type":"Feature","geometry":{"type":"Point","coordinates":[-118.4312,34.002]}},{"properties":{"city":"Los Angeles","latitude":34.0576,"cdi":3.3,"epicentral distance":15,"longitude":-118.414,"suspect?":0,"id":"aa38yl19voer","# columns: zip/location":90067,"no. of responses":8,"state":"CA"},"type":"Feature","geometry":{"type":"Point","coordinates":[-118.414,34.0576]}},{"properties":{"city":"Los Angeles","latitude":34.128,"cdi":2.0,"epicentral distance":22,"longitude":-118.3288,"suspect?":0,"id":"aa38yl12x1ct","# columns: zip/location":90068,"no. of responses":23,"state":"CA"},"type":"Feature","geometry":{"type":"Point","coordinates":[-118.3288,34.128]}},{"properties":{"city":"West Hollywood","latitude":34.0943,"cdi":3.2,"epicentral distance":18,"longitude":-118.3815,"suspect?":0,"id":"aa38yl2wluuv","# columns: zip/location":90069,"no. of responses":66,"state":"CA"},"type":"Feature","geometry":{"type":"Point","coordinates":[-118.3815,34.0943]}},{"properties":{"city":"Los Angeles","latitude":34.0524,"cdi":3.1,"epicentral distance":20,"longitude":-118.2556,"suspect?":0,"id":"aa38yl47keru","# columns: zip/location":90071,"no. of responses":5,"state":"CA"},"type":"Feature","geometry":{"type":"Point","coordinates":[-118.2556,34.0524]}},{"properties":{"city":"Los Angeles","latitude":34.0592,"cdi":3.4,"epicentral distance":15,"longitude":-118.4515,"suspect?":0,"id":"aa38yl4zzigy","# columns: zip/location":90073,"no. of responses":1,"state":"CA"},"type":"Feature","geometry":{"type":"Point","coordinates":[-118.4515,34.0592]}},{"properties":{"city":"Los Angeles","latitude":34.105,"cdi":2.0,"epicentral distance":19,"longitude":-118.4555,"suspect?":0,"id":"aa38yl5d7ww7","# columns: zip/location":90077,"no. of responses":2,"state":"CA"},"type":"Feature","geometry":{"type":"Point","coordinates":[-118.4555,34.105]}},{"properties":{"city":"Los Angeles","latitude":34.0219,"cdi":3.1,"epicentral distance":16,"longitude":-118.2883,"suspect?":0,"id":"aa38yl0veij4","# columns: zip/location":90089,"no. of responses":1,"state":"CA"},"type":"Feature","geometry":{"type":"Point","coordinates":[-118.2883,34.0219]}},{"properties":{"city":"Los Angeles","latitude":33.976,"cdi":3.0,"epicentral distance":10,"longitude":-118.4169,"suspect?":0,"id":"aa38ykzexsjd","# columns: zip/location":90094,"no. of responses":127,"state":"CA"},"type":"Feature","geometry":{"type":"Point","coordinates":[-118.4169,33.976]}},{"properties":{"city":"Los Angeles","latitude":34.0704,"cdi":3.1,"epicentral distance":16,"longitude":-118.4427,"suspect?":0,"id":"aa38ykw9i6gs","# columns: zip/location":90095,"no. of responses":1,"state":"CA"},"type":"Feature","geometry":{"type":"Point","coordinates":[-118.4427,34.0704]}},{"properties":{"city":"Bell","latitude":33.9706,"cdi":2.7,"epicentral distance":24,"longitude":-118.1706,"suspect?":0,"id":"aa38ykz8v8bk","# columns: zip/location":90201,"no. of responses":23,"state":"CA"},"type":"Feature","geometry":{"type":"Point","coordinates":[-118.1706,33.9706]}},{"properties":{"city":"Beverly Hills","latitude":34.1022,"cdi":2.6,"epicentral distance":18,"longitude":-118.4146,"suspect?":0,"id":"aa38ykqrz4tg","# columns: zip/location":90210,"no. of responses":29,"state":"CA"},"type":"Feature","geometry":{"type":"Point","coordinates":[-118.4146,34.1022]}},{"properties":{"city":"Beverly Hills","latitude":34.0649,"cdi":3.8,"epicentral distance":15,"longitude":-118.3832,"suspect?":0,"id":"aa38yl5a6g17","# columns: zip/location":90211,"no. of responses":21,"state":"CA"},"type":"Feature","geometry":{"type":"Point","coordinates":[-118.3832,34.0649]}},{"properties":{"city":"Beverly Hills","latitude":34.0621,"cdi":3.0,"epicentral distance":15,"longitude":-118.4015,"suspect?":0,"id":"aa38yl2221gs","# columns: zip/location":90212,"no. of responses":17,"state":"CA"},"type":"Feature","geometry":{"type":"Point","coordinates":[-118.4015,34.0621]}},{"properties":{"city":"Compton","latitude":33.8794,"cdi":2.1,"epicentral distance":21,"longitude":-118.2371,"suspect?":0,"id":"aa38ykxtn6lu","# columns: zip/location":90220,"no. of responses":14,"state":"CA"},"type":"Feature","geometry":{"type":"Point","coordinates":[-118.2371,33.8794]}},{"properties":{"city":"Compton","latitude":33.8861,"cdi":2.1,"epicentral distance":23,"longitude":-118.2058,"suspect?":0,"id":"aa38yksw9iqm","# columns: zip/location":90221,"no. of responses":9,"state":"CA"},"type":"Feature","geometry":{"type":"Point","coordinates":[-118.2058,33.8861]}},{"properties":{"city":"Compton","latitude":33.9127,"cdi":2.3,"epicentral distance":19,"longitude":-118.2357,"suspect?":0,"id":"aa38ykyqjr6g","# columns: zip/location":90222,"no. of responses":8,"state":"CA"},"type":"Feature","geometry":{"type":"Point","coordinates":[-118.2357,33.9127]}},{"properties":{"city":"Culver City","latitude":33.9949,"cdi":3.3,"epicentral distance":11,"longitude":-118.3993,"suspect?":0,"id":"aa38ykvi7hda","# columns: zip/location":90230,"no. of responses":161,"state":"CA"},"type":"Feature","geometry":{"type":"Point","coordinates":[-118.3993,33.9949]}},{"properties":{"city":"Culver City","latitude":34.0179,"cdi":3.2,"epicentral distance":12,"longitude":-118.392,"suspect?":0,"id":"aa38ykv4tu8f","# columns: zip/location":90232,"no. of responses":71,"state":"CA"},"type":"Feature","geometry":{"type":"Point","coordinates":[-118.392,34.0179]}},{"properties":{"city":"Downey","latitude":33.9568,"cdi":2.8,"epicentral distance":28,"longitude":-118.1181,"suspect?":0,"id":"aa38ykzaj4e7","# columns: zip/location":90240,"no. of responses":9,"state":"CA"},"type":"Feature","geometry":{"type":"Point","coordinates":[-118.1181,33.9568]}},{"properties":{"city":"Downey","latitude":33.9409,"cdi":2.4,"epicentral distance":28,"longitude":-118.1285,"suspect?":0,"id":"aa38yl4ezcsk","# columns: zip/location":90241,"no. of responses":13,"state":"CA"},"type":"Feature","geometry":{"type":"Point","coordinates":[-118.1285,33.9409]}},{"properties":{"city":"Downey","latitude":33.9223,"cdi":2.5,"epicentral distance":27,"longitude":-118.1414,"suspect?":0,"id":"aa38ykplriha","# columns: zip/location":90242,"no. of responses":23,"state":"CA"},"type":"Feature","geometry":{"type":"Point","coordinates":[-118.1414,33.9223]}},{"properties":{"city":"El Segundo","latitude":33.917,"cdi":3.3,"epicentral distance":11,"longitude":-118.4021,"suspect?":0,"id":"aa38ykxrziii","# columns: zip/location":90245,"no. of responses":145,"state":"CA"},"type":"Feature","geometry":{"type":"Point","coordinates":[-118.4021,33.917]}},{"properties":{"city":"Gardena","latitude":33.8913,"cdi":2.8,"epicentral distance":16,"longitude":-118.2976,"suspect?":0,"id":"aa38yks0iati","# columns: zip/location":90247,"no. of responses":39,"state":"CA"},"type":"Feature","geometry":{"type":"Point","coordinates":[-118.2976,33.8913]}},{"properties":{"city":"Gardena","latitude":33.878,"cdi":3.0,"epicentral distance":18,"longitude":-118.2843,"suspect?":0,"id":"aa38ykq4w7qn","# columns: zip/location":90248,"no. of responses":14,"state":"CA"},"type":"Feature","geometry":{"type":"Point","coordinates":[-118.2843,33.878]}},{"properties":{"city":"Gardena","latitude":33.9015,"cdi":3.0,"epicentral distance":15,"longitude":-118.3172,"suspect?":0,"id":"aa38yl368zkb","# columns: zip/location":90249,"no. of responses":43,"state":"CA"},"type":"Feature","geometry":{"type":"Point","coordinates":[-118.3172,33.9015]}},{"properties":{"city":"Hawthorne","latitude":33.9144,"cdi":3.4,"epicentral distance":13,"longitude":-118.3491,"suspect?":0,"id":"aa38ykqbkz9f","# columns: zip/location":90250,"no. of responses":161,"state":"CA"},"type":"Feature","geometry":{"type":"Point","coordinates":[-118.3491,33.9144]}},{"properties":{"city":"Hermosa Beach","latitude":33.8652,"cdi":2.5,"epicentral distance":15,"longitude":-118.3966,"suspect?":0,"id":"aa38yl59o91j","# columns: zip/location":90254,"no. of responses":81,"state":"CA"},"type":"Feature","geometry":{"type":"Point","coordinates":[-118.3966,33.8652]}},{"properties":{"city":"Huntington Park","latitude":33.977,"cdi":3.1,"epicentral distance":20,"longitude":-118.2171,"suspect?":0,"id":"aa38ykzgubvu","# columns: zip/location":90255,"no. of responses":32,"state":"CA"},"type":"Feature","geometry":{"type":"Point","coordinates":[-118.2171,33.977]}},{"properties":{"city":"Lawndale","latitude":33.8886,"cdi":2.9,"epicentral distance":14,"longitude":-118.3519,"suspect?":0,"id":"aa38ykyuum1q","# columns: zip/location":90260,"no. of responses":76,"state":"CA"},"type":"Feature","geometry":{"type":"Point","coordinates":[-118.3519,33.8886]}},{"properties":{"city":"Lynwood","latitude":33.9236,"cdi":2.6,"epicentral distance":22,"longitude":-118.2009,"suspect?":0,"id":"aa38yksuef6f","# columns: zip/location":90262,"no. of responses":20,"state":"CA"},"type":"Feature","geometry":{"type":"Point","coordinates":[-118.2009,33.9236]}},{"properties":{"city":"Malibu","latitude":34.0656,"cdi":2.0,"epicentral distance":40,"longitude":-118.8164,"suspect?":0,"id":"aa38yl3pa07g","# columns: zip/location":90265,"no. of responses":1,"state":"CA"},"type":"Feature","geometry":{"type":"Point","coordinates":[-118.8164,34.0656]}},{"properties":{"city":"Manhattan Beach","latitude":33.8894,"cdi":3.1,"epicentral distance":13,"longitude":-118.3973,"suspect?":0,"id":"aa38yl0qelri","# columns: zip/location":90266,"no. of responses":201,"state":"CA"},"type":"Feature","geometry":{"type":"Point","coordinates":[-118.3973,33.8894]}},{"properties":{"city":"Maywood","latitude":33.9886,"cdi":2.6,"epicentral distance":23,"longitude":-118.1874,"suspect?":0,"id":"aa38ykwo9dci","# columns: zip/location":90270,"no. of responses":3,"state":"CA"},"type":"Feature","geometry":{"type":"Point","coordinates":[-118.1874,33.9886]}},{"properties":{"city":"Pacific Palisades","latitude":34.0798,"cdi":2.8,"epicentral distance":21,"longitude":-118.5444,"suspect?":0,"id":"aa38ykw7z9x2","# columns: zip/location":90272,"no. of responses":12,"state":"CA"},"type":"Feature","geometry":{"type":"Point","coordinates":[-118.5444,34.0798]}},{"properties":{"city":"Palos Verdes Peninsula","latitude":33.7704,"cdi":2.0,"epicentral distance":24,"longitude":-118.3721,"suspect?":0,"id":"aa38yl05vqy2","# columns: zip/location":90274,"no. of responses":10,"state":"CA"},"type":"Feature","geometry":{"type":"Point","coordinates":[-118.3721,33.7704]}},{"properties":{"city":"Rancho Palos Verdes","latitude":33.7553,"cdi":2.1,"epicentral distance":25,"longitude":-118.3631,"suspect?":0,"id":"aa38yksf67p6","# columns: zip/location":90275,"no. of responses":18,"state":"CA"},"type":"Feature","geometry":{"type":"Point","coordinates":[-118.3631,33.7553]}},{"properties":{"city":"Redondo Beach","latitude":33.8305,"cdi":2.3,"epicentral distance":18,"longitude":-118.384,"suspect?":0,"id":"aa38ykznkxxj","# columns: zip/location":90277,"no. of responses":85,"state":"CA"},"type":"Feature","geometry":{"type":"Point","coordinates":[-118.384,33.8305]}},{"properties":{"city":"Redondo Beach","latitude":33.8734,"cdi":2.7,"epicentral distance":15,"longitude":-118.3703,"suspect?":0,"id":"aa38ykt0hx6b","# columns: zip/location":90278,"no. of responses":146,"state":"CA"},"type":"Feature","geometry":{"type":"Point","coordinates":[-118.3703,33.8734]}},{"properties":{"city":"South Gate","latitude":33.9444,"cdi":2.7,"epicentral distance":22,"longitude":-118.192,"suspect?":0,"id":"aa38ykpa8tjj","# columns: zip/location":90280,"no. of responses":46,"state":"CA"},"type":"Feature","geometry":{"type":"Point","coordinates":[-118.192,33.9444]}},{"properties":{"city":"Topanga","latitude":34.1019,"cdi":2.2,"epicentral distance":26,"longitude":-118.6116,"suspect?":0,"id":"aa38ykuq7fsb","# columns: zip/location":90290,"no. of responses":1,"state":"CA"},"type":"Feature","geometry":{"type":"Point","coordinates":[-118.6116,34.1019]}},{"properties":{"city":"Venice","latitude":33.994,"cdi":3.3,"epicentral distance":12,"longitude":-118.4637,"suspect?":0,"id":"aa38yl41n2mg","# columns: zip/location":90291,"no. of responses":168,"state":"CA"},"type":"Feature","geometry":{"type":"Point","coordinates":[-118.4637,33.994]}},{"properties":{"city":"Marina del Rey","latitude":33.9713,"cdi":3.3,"epicentral distance":11,"longitude":-118.4453,"suspect?":0,"id":"aa38yl41q2it","# columns: zip/location":90292,"no. of responses":142,"state":"CA"},"type":"Feature","geometry":{"type":"Point","coordinates":[-118.4453,33.9713]}},{"properties":{"city":"Playa del Rey","latitude":33.9546,"cdi":3.2,"epicentral distance":11,"longitude":-118.4412,"suspect?":0,"id":"aa38yktbpfan","# columns: zip/location":90293,"no. of responses":103,"state":"CA"},"type":"Feature","geometry":{"type":"Point","coordinates":[-118.4412,33.9546]}},{"properties":{"city":"Inglewood","latitude":33.9564,"cdi":3.4,"epicentral distance":11,"longitude":-118.3586,"suspect?":0,"id":"aa38yl29w0po","# columns: zip/location":90301,"no. of responses":31,"state":"CA"},"type":"Feature","geometry":{"type":"Point","coordinates":[-118.3586,33.9564]}},{"properties":{"city":"Inglewood","latitude":33.9746,"cdi":2.8,"epicentral distance":11,"longitude":-118.3552,"suspect?":0,"id":"aa38ykw3zag6","# columns: zip/location":90302,"no. of responses":37,"state":"CA"},"type":"Feature","geometry":{"type":"Point","coordinates":[-118.3552,33.9746]}},{"properties":{"city":"Inglewood","latitude":33.9363,"cdi":3.8,"epicentral distance":13,"longitude":-118.3311,"suspect?":0,"id":"aa38yksk1g6g","# columns: zip/location":90303,"no. of responses":11,"state":"CA"},"type":"Feature","geometry":{"type":"Point","coordinates":[-118.3311,33.9363]}},{"properties":{"city":"Inglewood","latitude":33.937,"cdi":3.5,"epicentral distance":12,"longitude":-118.3587,"suspect?":0,"id":"aa38ykyg7o8y","# columns: zip/location":90304,"no. of responses":21,"state":"CA"},"type":"Feature","geometry":{"type":"Point","coordinates":[-118.3587,33.937]}},{"properties":{"city":"Inglewood","latitude":33.9583,"cdi":3.7,"epicentral distance":12,"longitude":-118.3312,"suspect?":0,"id":"aa38yl3kd275","# columns: zip/location":90305,"no. of responses":13,"state":"CA"},"type":"Feature","geometry":{"type":"Point","coordinates":[-118.3312,33.9583]}},{"properties":{"city":"Santa Monica","latitude":34.0149,"cdi":2.7,"epicentral distance":14,"longitude":-118.493,"suspect?":0,"id":"aa38ykr4sur5","# columns: zip/location":90401,"no. of responses":28,"state":"CA"},"type":"Feature","geometry":{"type":"Point","coordinates":[-118.493,34.0149]}},{"properties":{"city":"Santa Monica","latitude":34.035,"cdi":2.9,"epicentral distance":16,"longitude":-118.5034,"suspect?":0,"id":"aa38ykrmk48q","# columns: zip/location":90402,"no. of responses":35,"state":"CA"},"type":"Feature","geometry":{"type":"Point","coordinates":[-118.5034,34.035]}},{"properties":{"city":"Santa Monica","latitude":34.0307,"cdi":3.2,"epicentral distance":15,"longitude":-118.4905,"suspect?":0,"id":"aa38yktzrgjk","# columns: zip/location":90403,"no. of responses":98,"state":"CA"},"type":"Feature","geometry":{"type":"Point","coordinates":[-118.4905,34.0307]}},{"properties":{"city":"Santa Monica","latitude":34.0267,"cdi":3.0,"epicentral distance":14,"longitude":-118.4737,"suspect?":0,"id":"aa38yks7xaaw","# columns: zip/location":90404,"no. of responses":66,"state":"CA"},"type":"Feature","geometry":{"type":"Point","coordinates":[-118.4737,34.0267]}},{"properties":{"city":"Santa Monica","latitude":34.0114,"cdi":3.1,"epicentral distance":13,"longitude":-118.4689,"suspect?":0,"id":"aa38ykr72qqu","# columns: zip/location":90405,"no. of responses":144,"state":"CA"},"type":"Feature","geometry":{"type":"Point","coordinates":[-118.4689,34.0114]}},{"properties":{"city":"Torrance","latitude":33.8336,"cdi":2.5,"epicentral distance":19,"longitude":-118.3143,"suspect?":0,"id":"aa38yl400tub","# columns: zip/location":90501,"no. of responses":55,"state":"CA"},"type":"Feature","geometry":{"type":"Point","coordinates":[-118.3143,33.8336]}},{"properties":{"city":"Torrance","latitude":33.8352,"cdi":2.7,"epicentral distance":20,"longitude":-118.293,"suspect?":0,"id":"aa38ykr8oxed","# columns: zip/location":90502,"no. of responses":5,"state":"CA"},"type":"Feature","geometry":{"type":"Point","coordinates":[-118.293,33.8352]}},{"properties":{"city":"Torrance","latitude":33.842,"cdi":2.6,"epicentral distance":18,"longitude":-118.3516,"suspect?":0,"id":"aa38yl4q6aef","# columns: zip/location":90503,"no. of responses":68,"state":"CA"},"type":"Feature","geometry":{"type":"Point","coordinates":[-118.3516,33.842]}},{"properties":{"city":"Torrance","latitude":33.8696,"cdi":3.1,"epicentral distance":16,"longitude":-118.3299,"suspect?":0,"id":"aa38ykvcwwn1","# columns: zip/location":90504,"no. of responses":82,"state":"CA"},"type":"Feature","geometry":{"type":"Point","coordinates":[-118.3299,33.8696]}},{"properties":{"city":"Torrance","latitude":33.8087,"cdi":2.0,"epicentral distance":20,"longitude":-118.3483,"suspect?":0,"id":"aa38ykq8l1pw","# columns: zip/location":90505,"no. of responses":42,"state":"CA"},"type":"Feature","geometry":{"type":"Point","coordinates":[-118.3483,33.8087]}},{"properties":{"city":"Whittier","latitude":34.0014,"cdi":2.0,"epicentral distance":36,"longitude":-118.0295,"suspect?":0,"id":"aa38yl5c7w76","# columns: zip/location":90601,"no. of responses":7,"state":"CA"},"type":"Feature","geometry":{"type":"Point","coordinates":[-118.0295,34.0014]}},{"properties":{"city":"Whittier","latitude":33.97,"cdi":2.2,"epicentral distance":36,"longitude":-118.0309,"suspect?":0,"id":"aa38ykrv5rdp","# columns: zip/location":90602,"no. of responses":1,"state":"CA"},"type":"Feature","geometry":{"type":"Point","coordinates":[-118.0309,33.97]}},{"properties":{"city":"Whittier","latitude":33.9576,"cdi":2.0,"epicentral distance":37,"longitude":-118.0154,"suspect?":0,"id":"aa38yl1nwdlh","# columns: zip/location":90605,"no. of responses":1,"state":"CA"},"type":"Feature","geometry":{"type":"Point","coordinates":[-118.0154,33.9576]}},{"properties":{"city":"Whittier","latitude":33.9772,"cdi":2.0,"epicentral distance":33,"longitude":-118.066,"suspect?":0,"id":"aa38ykwvtl1r","# columns: zip/location":90606,"no. of responses":2,"state":"CA"},"type":"Feature","geometry":{"type":"Point","coordinates":[-118.066,33.9772]}},{"properties":{"city":"La Palma","latitude":33.8505,"cdi":2.0,"epicentral distance":37,"longitude":-118.041,"suspect?":0,"id":"aa38yl4y8n8b","# columns: zip/location":90623,"no. of responses":1,"state":"CA"},"type":"Feature","geometry":{"type":"Point","coordinates":[-118.041,33.8505]}},{"properties":{"city":"Cypress","latitude":33.8181,"cdi":2.0,"epicentral distance":39,"longitude":-118.0381,"suspect?":0,"id":"aa38yks54i6l","# columns: zip/location":90630,"no. of responses":8,"state":"CA"},"type":"Feature","geometry":{"type":"Point","coordinates":[-118.0381,33.8181]}},{"properties":{"city":"Montebello","latitude":34.0147,"cdi":2.7,"epicentral distance":29,"longitude":-118.1109,"suspect?":0,"id":"aa38ykyqevrd","# columns: zip/location":90640,"no. of responses":5,"state":"CA"},"type":"Feature","geometry":{"type":"Point","coordinates":[-118.1109,34.0147]}},{"properties":{"city":"Norwalk","latitude":33.907,"cdi":2.0,"epicentral distance":32,"longitude":-118.0828,"suspect?":0,"id":"aa38yl4bepah","# columns: zip/location":90650,"no. of responses":11,"state":"CA"},"type":"Feature","geometry":{"type":"Point","coordinates":[-118.0828,33.907]}},{"properties":{"city":"Pico Rivera","latitude":33.9889,"cdi":2.4,"epicentral distance":31,"longitude":-118.0903,"suspect?":0,"id":"aa38yl4x79gu","# columns: zip/location":90660,"no. of responses":4,"state":"CA"},"type":"Feature","geometry":{"type":"Point","coordinates":[-118.0903,33.9889]}},{"properties":{"city":"Santa Fe Springs","latitude":33.9318,"cdi":2.1,"epicentral distance":33,"longitude":-118.0621,"suspect?":0,"id":"aa38ykqgdene","# columns: zip/location":90670,"no. of responses":2,"state":"CA"},"type":"Feature","geometry":{"type":"Point","coordinates":[-118.0621,33.9318]}},{"properties":{"city":"Cerritos","latitude":33.868,"cdi":2.6,"epicentral distance":34,"longitude":-118.0687,"suspect?":0,"id":"aa38ykrfz0df","# columns: zip/location":90703,"no. of responses":5,"state":"CA"},"type":"Feature","geometry":{"type":"Point","coordinates":[-118.0687,33.868]}},{"properties":{"city":"Bellflower","latitude":33.888,"cdi":2.0,"epicentral distance":29,"longitude":-118.1272,"suspect?":0,"id":"aa38ykzjlio8","# columns: zip/location":90706,"no. of responses":26,"state":"CA"},"type":"Feature","geometry":{"type":"Point","coordinates":[-118.1272,33.888]}},{"properties":{"city":"Harbor City","latitude":33.7981,"cdi":2.4,"epicentral distance":23,"longitude":-118.2993,"suspect?":0,"id":"aa38ykvfuaj1","# columns: zip/location":90710,"no. of responses":20,"state":"CA"},"type":"Feature","geometry":{"type":"Point","coordinates":[-118.2993,33.7981]}},{"properties":{"city":"Lakewood","latitude":33.8492,"cdi":2.3,"epicentral distance":29,"longitude":-118.147,"suspect?":0,"id":"aa38ykwdminp","# columns: zip/location":90712,"no. of responses":13,"state":"CA"},"type":"Feature","geometry":{"type":"Point","coordinates":[-118.147,33.8492]}},{"properties":{"city":"Lakewood","latitude":33.8479,"cdi":2.4,"epicentral distance":31,"longitude":-118.1126,"suspect?":0,"id":"aa38yksvxq7t","# columns: zip/location":90713,"no. of responses":10,"state":"CA"},"type":"Feature","geometry":{"type":"Point","coordinates":[-118.1126,33.8479]}},{"properties":{"city":"Lakewood","latitude":33.8405,"cdi":2.0,"epicentral distance":34,"longitude":-118.0788,"suspect?":0,"id":"aa38yktle2bg","# columns: zip/location":90715,"no. of responses":3,"state":"CA"},"type":"Feature","geometry":{"type":"Point","coordinates":[-118.0788,33.8405]}},{"properties":{"city":"Hawaiian Gardens","latitude":33.8307,"cdi":3.1,"epicentral distance":35,"longitude":-118.0734,"suspect?":0,"id":"aa38ykti9b4z","# columns: zip/location":90716,"no. of responses":1,"state":"CA"},"type":"Feature","geometry":{"type":"Point","coordinates":[-118.0734,33.8307]}},{"properties":{"city":"Lomita","latitude":33.793,"cdi":2.5,"epicentral distance":23,"longitude":-118.3178,"suspect?":0,"id":"aa38ykshb2gg","# columns: zip/location":90717,"no. of responses":14,"state":"CA"},"type":"Feature","geometry":{"type":"Point","coordinates":[-118.3178,33.793]}},{"properties":{"city":"Los Alamitos","latitude":33.7956,"cdi":2.6,"epicentral distance":38,"longitude":-118.0638,"suspect?":0,"id":"aa38ykym63fe","# columns: zip/location":90720,"no. of responses":4,"state":"CA"},"type":"Feature","geometry":{"type":"Point","coordinates":[-118.0638,33.7956]}},{"properties":{"city":"Paramount","latitude":33.8976,"cdi":2.9,"epicentral distance":25,"longitude":-118.1647,"suspect?":0,"id":"aa38ykxrj8or","# columns: zip/location":90723,"no. of responses":12,"state":"CA"},"type":"Feature","geometry":{"type":"Point","coordinates":[-118.1647,33.8976]}},{"properties":{"city":"San Pedro","latitude":33.7411,"cdi":2.2,"epicentral distance":29,"longitude":-118.2845,"suspect?":0,"id":"aa38yl1jl1y7","# columns: zip/location":90731,"no. of responses":2,"state":"CA"},"type":"Feature","geometry":{"type":"Point","coordinates":[-118.2845,33.7411]}},{"properties":{"city":"San Pedro","latitude":33.7408,"cdi":2.0,"epicentral distance":28,"longitude":-118.3115,"suspect?":0,"id":"aa38ykqk3cv9","# columns: zip/location":90732,"no. of responses":5,"state":"CA"},"type":"Feature","geometry":{"type":"Point","coordinates":[-118.3115,33.7408]}},{"properties":{"city":"Seal Beach","latitude":33.7545,"cdi":2.7,"epicentral distance":40,"longitude":-118.0713,"suspect?":0,"id":"aa38ykwymkax","# columns: zip/location":90740,"no. of responses":1,"state":"CA"},"type":"Feature","geometry":{"type":"Point","coordinates":[-118.0713,33.7545]}},{"properties":{"city":"Sunset Beach","latitude":33.7176,"cdi":2.7,"epicentral distance":42,"longitude":-118.0717,"suspect?":0,"id":"aa38yl2f3o0u","# columns: zip/location":90742,"no. of responses":1,"state":"CA"},"type":"Feature","geometry":{"type":"Point","coordinates":[-118.0717,33.7176]}},{"properties":{"city":"Wilmington","latitude":33.7824,"cdi":2.4,"epicentral distance":26,"longitude":-118.2611,"suspect?":0,"id":"aa38ykv0i6kh","# columns: zip/location":90744,"no. of responses":7,"state":"CA"},"type":"Feature","geometry":{"type":"Point","coordinates":[-118.2611,33.7824]}},{"properties":{"city":"Carson","latitude":33.8226,"cdi":2.6,"epicentral distance":23,"longitude":-118.2621,"suspect?":0,"id":"aa38yl00j1pq","# columns: zip/location":90745,"no. of responses":18,"state":"CA"},"type":"Feature","geometry":{"type":"Point","coordinates":[-118.2621,33.8226]}},{"properties":{"city":"Carson","latitude":33.8493,"cdi":2.9,"epicentral distance":21,"longitude":-118.2571,"suspect?":0,"id":"aa38ykurdk25","# columns: zip/location":90746,"no. of responses":2,"state":"CA"},"type":"Feature","geometry":{"type":"Point","coordinates":[-118.2571,33.8493]}},{"properties":{"city":"Signal Hill","latitude":33.8027,"cdi":2.3,"epicentral distance":30,"longitude":-118.1672,"suspect?":0,"id":"aa38yl3o8koh","# columns: zip/location":90755,"no. of responses":5,"state":"CA"},"type":"Feature","geometry":{"type":"Point","coordinates":[-118.1672,33.8027]}},{"properties":{"city":"Long Beach","latitude":33.7546,"cdi":2.5,"epicentral distance":31,"longitude":-118.2111,"suspect?":0,"id":"aa38ykvpmxlh","# columns: zip/location":90802,"no. of responses":4,"state":"CA"},"type":"Feature","geometry":{"type":"Point","coordinates":[-118.2111,33.7546]}},{"properties":{"city":"Long Beach","latitude":33.7618,"cdi":2.3,"epicentral distance":36,"longitude":-118.1233,"suspect?":0,"id":"aa38yl1hrktz","# columns: zip/location":90803,"no. of responses":16,"state":"CA"},"type":"Feature","geometry":{"type":"Point","coordinates":[-118.1233,33.7618]}},{"properties":{"city":"Long Beach","latitude":33.7828,"cdi":2.0,"epicentral distance":32,"longitude":-118.1497,"suspect?":0,"id":"aa38ykuvgjm8","# columns: zip/location":90804,"no. of responses":5,"state":"CA"},"type":"Feature","geometry":{"type":"Point","coordinates":[-118.1497,33.7828]}},{"properties":{"city":"Long Beach","latitude":33.8649,"cdi":2.4,"epicentral distance":25,"longitude":-118.1808,"suspect?":0,"id":"aa38yl3wl1i7","# columns: zip/location":90805,"no. of responses":13,"state":"CA"},"type":"Feature","geometry":{"type":"Point","coordinates":[-118.1808,33.8649]}},{"properties":{"city":"Long Beach","latitude":33.8049,"cdi":2.4,"epicentral distance":28,"longitude":-118.1892,"suspect?":0,"id":"aa38yl01uu1e","# columns: zip/location":90806,"no. of responses":12,"state":"CA"},"type":"Feature","geometry":{"type":"Point","coordinates":[-118.1892,33.8049]}},{"properties":{"city":"Long Beach","latitude":33.8286,"cdi":2.0,"epicentral distance":28,"longitude":-118.1782,"suspect?":0,"id":"aa38yktc3w53","# columns: zip/location":90807,"no. of responses":13,"state":"CA"},"type":"Feature","geometry":{"type":"Point","coordinates":[-118.1782,33.8286]}},{"properties":{"city":"Long Beach","latitude":33.8238,"cdi":2.0,"epicentral distance":32,"longitude":-118.1151,"suspect?":0,"id":"aa38ykptuqgo","# columns: zip/location":90808,"no. of responses":8,"state":"CA"},"type":"Feature","geometry":{"type":"Point","coordinates":[-118.1151,33.8238]}},{"properties":{"city":"Long Beach","latitude":33.8193,"cdi":2.0,"epicentral distance":25,"longitude":-118.2212,"suspect?":0,"id":"aa38yl2gmruv","# columns: zip/location":90810,"no. of responses":5,"state":"CA"},"type":"Feature","geometry":{"type":"Point","coordinates":[-118.2212,33.8193]}},{"properties":{"city":"Long Beach","latitude":33.7807,"cdi":2.0,"epicentral distance":29,"longitude":-118.2015,"suspect?":0,"id":"aa38ykpiprwm","# columns: zip/location":90813,"no. of responses":5,"state":"CA"},"type":"Feature","geometry":{"type":"Point","coordinates":[-118.2015,33.7807]}},{"properties":{"city":"Long Beach","latitude":33.7717,"cdi":2.0,"epicentral distance":34,"longitude":-118.1441,"suspect?":0,"id":"aa38yku7w3k7","# columns: zip/location":90814,"no. of responses":6,"state":"CA"},"type":"Feature","geometry":{"type":"Point","coordinates":[-118.1441,33.7717]}},{"properties":{"city":"Long Beach","latitude":33.7962,"cdi":2.0,"epicentral distance":34,"longitude":-118.116,"suspect?":0,"id":"aa38yl1tdjcq","# columns: zip/location":90815,"no. of responses":5,"state":"CA"},"type":"Feature","geometry":{"type":"Point","coordinates":[-118.116,33.7962]}},{"properties":{"city":"Altadena","latitude":34.1952,"cdi":2.0,"epicentral distance":37,"longitude":-118.1381,"suspect?":0,"id":"aa38yl504kdf","# columns: zip/location":91001,"no. of responses":3,"state":"CA"},"type":"Feature","geometry":{"type":"Point","coordinates":[-118.1381,34.1952]}},{"properties":{"city":"Arcadia","latitude":34.1359,"cdi":1.0,"epicentral distance":41,"longitude":-118.0274,"suspect?":0,"id":"aa38ykvdv48p","# columns: zip/location":91006,"no. of responses":1,"state":"CA"},"type":"Feature","geometry":{"type":"Point","coordinates":[-118.0274,34.1359]}},{"properties":{"city":"La Canada Flintridge","latitude":34.2248,"cdi":2.0,"epicentral distance":41,"longitude":-118.1114,"suspect?":0,"id":"aa38ykpjs1bv","# columns: zip/location":91011,"no. of responses":11,"state":"CA"},"type":"Feature","geometry":{"type":"Point","coordinates":[-118.1114,34.2248]}},{"properties":{"city":"Monrovia","latitude":34.1665,"cdi":2.0,"epicentral distance":46,"longitude":-117.9829,"suspect?":0,"id":"aa38ykrhgi4r","# columns: zip/location":91016,"no. of responses":2,"state":"CA"},"type":"Feature","geometry":{"type":"Point","coordinates":[-117.9829,34.1665]}},{"properties":{"city":"Montrose","latitude":34.2114,"cdi":2.0,"epicentral distance":33,"longitude":-118.2307,"suspect?":0,"id":"aa38yktff887","# columns: zip/location":91020,"no. of responses":3,"state":"CA"},"type":"Feature","geometry":{"type":"Point","coordinates":[-118.2307,34.2114]}},{"properties":{"city":"Sierra Madre","latitude":34.1691,"cdi":2.0,"epicentral distance":41,"longitude":-118.0499,"suspect?":0,"id":"aa38yl3ali0u","# columns: zip/location":91024,"no. of responses":1,"state":"CA"},"type":"Feature","geometry":{"type":"Point","coordinates":[-118.0499,34.1691]}},{"properties":{"city":"South Pasadena","latitude":34.1104,"cdi":2.0,"epicentral distance":30,"longitude":-118.1572,"suspect?":0,"id":"aa38ykugsjvk","# columns: zip/location":91030,"no. of responses":6,"state":"CA"},"type":"Feature","geometry":{"type":"Point","coordinates":[-118.1572,34.1104]}},{"properties":{"city":"Sunland","latitude":34.2413,"cdi":2.7,"epicentral distance":33,"longitude":-118.3147,"suspect?":0,"id":"aa38yl0xseyx","# columns: zip/location":91040,"no. of responses":1,"state":"CA"},"type":"Feature","geometry":{"type":"Point","coordinates":[-118.3147,34.2413]}},{"properties":{"city":"Pasadena","latitude":34.1466,"cdi":2.0,"epicentral distance":33,"longitude":-118.1389,"suspect?":0,"id":"aa38yksfx8ds","# columns: zip/location":91101,"no. of responses":10,"state":"CA"},"type":"Feature","geometry":{"type":"Point","coordinates":[-118.1389,34.1466]}},{"properties":{"city":"Pasadena","latitude":34.1669,"cdi":2.0,"epicentral distance":33,"longitude":-118.1647,"suspect?":0,"id":"aa38ykt50d8p","# columns: zip/location":91103,"no. of responses":3,"state":"CA"},"type":"Feature","geometry":{"type":"Point","coordinates":[-118.1647,34.1669]}},{"properties":{"city":"Pasadena","latitude":34.168,"cdi":2.0,"epicentral distance":36,"longitude":-118.1235,"suspect?":0,"id":"aa38yl3d7cxa","# columns: zip/location":91104,"no. of responses":11,"state":"CA"},"type":"Feature","geometry":{"type":"Point","coordinates":[-118.1235,34.168]}},{"properties":{"city":"Pasadena","latitude":34.1399,"cdi":2.0,"epicentral distance":31,"longitude":-118.1682,"suspect?":0,"id":"aa38ykwh7mwx","# columns: zip/location":91105,"no. of responses":5,"state":"CA"},"type":"Feature","geometry":{"type":"Point","coordinates":[-118.1682,34.1399]}},{"properties":{"city":"Pasadena","latitude":34.139,"cdi":2.7,"epicentral distance":34,"longitude":-118.1276,"suspect?":0,"id":"aa38ykzx113b","# columns: zip/location":91106,"no. of responses":6,"state":"CA"},"type":"Feature","geometry":{"type":"Point","coordinates":[-118.1276,34.139]}},{"properties":{"city":"Pasadena","latitude":34.1588,"cdi":2.0,"epicentral distance":38,"longitude":-118.0872,"suspect?":0,"id":"aa38yksr5drx","# columns: zip/location":91107,"no. of responses":1,"state":"CA"},"type":"Feature","geometry":{"type":"Point","coordinates":[-118.0872,34.1588]}},{"properties":{"city":"San Marino","latitude":34.1224,"cdi":2.1,"epicentral distance":34,"longitude":-118.1137,"suspect?":0,"id":"aa38ykwhbn66","# columns: zip/location":91108,"no. of responses":1,"state":"CA"},"type":"Feature","geometry":{"type":"Point","coordinates":[-118.1137,34.1224]}},{"properties":{"city":"Glendale","latitude":34.1703,"cdi":2.0,"epicentral distance":27,"longitude":-118.2891,"suspect?":0,"id":"aa38yksavxzj","# columns: zip/location":91201,"no. of responses":3,"state":"CA"},"type":"Feature","geometry":{"type":"Point","coordinates":[-118.2891,34.1703]}},{"properties":{"city":"Glendale","latitude":34.1683,"cdi":2.0,"epicentral distance":28,"longitude":-118.2679,"suspect?":0,"id":"aa38yktyr4m2","# columns: zip/location":91202,"no. of responses":3,"state":"CA"},"type":"Feature","geometry":{"type":"Point","coordinates":[-118.2679,34.1683]}},{"properties":{"city":"Glendale","latitude":34.1527,"cdi":2.0,"epicentral distance":27,"longitude":-118.264,"suspect?":0,"id":"aa38ykxm33y8","# columns: zip/location":91203,"no. of responses":6,"state":"CA"},"type":"Feature","geometry":{"type":"Point","coordinates":[-118.264,34.1527]}},{"properties":{"city":"Glendale","latitude":34.1362,"cdi":2.1,"epicentral distance":25,"longitude":-118.2606,"suspect?":0,"id":"aa38yl4nu25b","# columns: zip/location":91204,"no. of responses":4,"state":"CA"},"type":"Feature","geometry":{"type":"Point","coordinates":[-118.2606,34.1362]}},{"properties":{"city":"Glendale","latitude":34.1366,"cdi":2.0,"epicentral distance":26,"longitude":-118.2435,"suspect?":0,"id":"aa38ykpi7xeg","# columns: zip/location":91205,"no. of responses":5,"state":"CA"},"type":"Feature","geometry":{"type":"Point","coordinates":[-118.2435,34.1366]}},{"properties":{"city":"Glendale","latitude":34.1607,"cdi":2.0,"epicentral distance":30,"longitude":-118.2145,"suspect?":0,"id":"aa38ykt8q81v","# columns: zip/location":91206,"no. of responses":10,"state":"CA"},"type":"Feature","geometry":{"type":"Point","coordinates":[-118.2145,34.1607]}},{"properties":{"city":"Glendale","latitude":34.1847,"cdi":2.0,"epicentral distance":30,"longitude":-118.2588,"suspect?":0,"id":"aa38ykrvna3m","# columns: zip/location":91207,"no. of responses":1,"state":"CA"},"type":"Feature","geometry":{"type":"Point","coordinates":[-118.2588,34.1847]}},{"properties":{"city":"Glendale","latitude":34.1961,"cdi":2.0,"epicentral distance":31,"longitude":-118.2404,"suspect?":0,"id":"aa38ykuo4f6q","# columns: zip/location":91208,"no. of responses":6,"state":"CA"},"type":"Feature","geometry":{"type":"Point","coordinates":[-118.2404,34.1961]}},{"properties":{"city":"La Crescenta","latitude":34.2356,"cdi":2.0,"epicentral distance":35,"longitude":-118.2454,"suspect?":0,"id":"aa38ykpv992g","# columns: zip/location":91214,"no. of responses":2,"state":"CA"},"type":"Feature","geometry":{"type":"Point","coordinates":[-118.2454,34.2356]}},{"properties":{"city":"Calabasas","latitude":34.1247,"cdi":2.0,"epicentral distance":32,"longitude":-118.6736,"suspect?":0,"id":"aa38ykxlc0ij","# columns: zip/location":91302,"no. of responses":3,"state":"CA"},"type":"Feature","geometry":{"type":"Point","coordinates":[-118.6736,34.1247]}},{"properties":{"city":"Canoga Park","latitude":34.1979,"cdi":2.0,"epicentral distance":33,"longitude":-118.6018,"suspect?":0,"id":"aa38ykpkadvu","# columns: zip/location":91303,"no. of responses":2,"state":"CA"},"type":"Feature","geometry":{"type":"Point","coordinates":[-118.6018,34.1979]}},{"properties":{"city":"Canoga Park","latitude":34.224,"cdi":2.0,"epicentral distance":37,"longitude":-118.6332,"suspect?":0,"id":"aa38yl1oober","# columns: zip/location":91304,"no. of responses":2,"state":"CA"},"type":"Feature","geometry":{"type":"Point","coordinates":[-118.6332,34.224]}},{"properties":{"city":"West Hills","latitude":34.2052,"cdi":2.0,"epicentral distance":38,"longitude":-118.6786,"suspect?":0,"id":"aa38yl1v1nfn","# columns: zip/location":91307,"no. of responses":4,"state":"CA"},"type":"Feature","geometry":{"type":"Point","coordinates":[-118.6786,34.2052]}},{"properties":{"city":"Encino","latitude":34.1652,"cdi":2.0,"epicentral distance":26,"longitude":-118.516,"suspect?":0,"id":"aa38yl24tfe4","# columns: zip/location":91316,"no. of responses":3,"state":"CA"},"type":"Feature","geometry":{"type":"Point","coordinates":[-118.516,34.1652]}},{"properties":{"city":"Pacoima","latitude":34.2558,"cdi":2.2,"epicentral distance":34,"longitude":-118.4203,"suspect?":0,"id":"aa38ykvohzd0","# columns: zip/location":91331,"no. of responses":1,"state":"CA"},"type":"Feature","geometry":{"type":"Point","coordinates":[-118.4203,34.2558]}},{"properties":{"city":"Reseda","latitude":34.2013,"cdi":2.0,"epicentral distance":31,"longitude":-118.5407,"suspect?":0,"id":"aa38yky9imkp","# columns: zip/location":91335,"no. of responses":2,"state":"CA"},"type":"Feature","geometry":{"type":"Point","coordinates":[-118.5407,34.2013]}},{"properties":{"city":"Sylmar","latitude":34.3503,"cdi":2.0,"epicentral distance":45,"longitude":-118.3008,"suspect?":0,"id":"aa38ykuih5y4","# columns: zip/location":91342,"no. of responses":3,"state":"CA"},"type":"Feature","geometry":{"type":"Point","coordinates":[-118.3008,34.3503]}},{"properties":{"city":"Granada Hills","latitude":34.2915,"cdi":2.0,"epicentral distance":39,"longitude":-118.5062,"suspect?":0,"id":"aa38yl0aeom3","# columns: zip/location":91344,"no. of responses":1,"state":"CA"},"type":"Feature","geometry":{"type":"Point","coordinates":[-118.5062,34.2915]}},{"properties":{"city":"Mission Hills","latitude":34.2665,"cdi":2.0,"epicentral distance":35,"longitude":-118.4604,"suspect?":0,"id":"aa38yl2n1khx","# columns: zip/location":91345,"no. of responses":1,"state":"CA"},"type":"Feature","geometry":{"type":"Point","coordinates":[-118.4604,34.2665]}},{"properties":{"city":"Santa Clarita","latitude":34.4257,"cdi":2.7,"epicentral distance":53,"longitude":-118.5141,"suspect?":0,"id":"aa38ykp7kkeh","# columns: zip/location":91350,"no. of responses":1,"state":"CA"},"type":"Feature","geometry":{"type":"Point","coordinates":[-118.5141,34.4257]}},{"properties":{"city":"Tarzana","latitude":34.1539,"cdi":2.0,"epicentral distance":26,"longitude":-118.5467,"suspect?":0,"id":"aa38ykq0i5ct","# columns: zip/location":91356,"no. of responses":1,"state":"CA"},"type":"Feature","geometry":{"type":"Point","coordinates":[-118.5467,34.1539]}},{"properties":{"city":"Thousand Oaks","latitude":34.214,"cdi":1.0,"epicentral distance":52,"longitude":-118.8808,"suspect?":0,"id":"aa38ykt2ax5b","# columns: zip/location":91360,"no. of responses":1,"state":"CA"},"type":"Feature","geometry":{"type":"Point","coordinates":[-118.8808,34.214]}},{"properties":{"city":"Thousand Oaks","latitude":34.1925,"cdi":2.0,"epicentral distance":47,"longitude":-118.8194,"suspect?":0,"id":"aa38ykqcvprl","# columns: zip/location":91362,"no. of responses":1,"state":"CA"},"type":"Feature","geometry":{"type":"Point","coordinates":[-118.8194,34.1925]}},{"properties":{"city":"Woodland Hills","latitude":34.1551,"cdi":2.0,"epicentral distance":29,"longitude":-118.5954,"suspect?":0,"id":"aa38yksdapo5","# columns: zip/location":91364,"no. of responses":10,"state":"CA"},"type":"Feature","geometry":{"type":"Point","coordinates":[-118.5954,34.1551]}},{"properties":{"city":"Woodland Hills","latitude":34.1764,"cdi":2.8,"epicentral distance":32,"longitude":-118.616,"suspect?":0,"id":"aa38ykxo95vw","# columns: zip/location":91367,"no. of responses":7,"state":"CA"},"type":"Feature","geometry":{"type":"Point","coordinates":[-118.616,34.1764]}},{"properties":{"city":"Oak Park","latitude":34.1859,"cdi":2.0,"epicentral distance":42,"longitude":-118.7653,"suspect?":0,"id":"aa38ykp4yblx","# columns: zip/location":91377,"no. of responses":1,"state":"CA"},"type":"Feature","geometry":{"type":"Point","coordinates":[-118.7653,34.1859]}},{"properties":{"city":"Van Nuys","latitude":34.1781,"cdi":2.5,"epicentral distance":26,"longitude":-118.4315,"suspect?":0,"id":"aa38ykumgwlt","# columns: zip/location":91401,"no. of responses":3,"state":"CA"},"type":"Feature","geometry":{"type":"Point","coordinates":[-118.4315,34.1781]}},{"properties":{"city":"Panorama City","latitude":34.2242,"cdi":2.0,"epicentral distance":31,"longitude":-118.4447,"suspect?":0,"id":"aa38ykyqc6hr","# columns: zip/location":91402,"no. of responses":8,"state":"CA"},"type":"Feature","geometry":{"type":"Point","coordinates":[-118.4447,34.2242]}},{"properties":{"city":"Sherman Oaks","latitude":34.1467,"cdi":2.0,"epicentral distance":23,"longitude":-118.463,"suspect?":0,"id":"aa38ykw53uzj","# columns: zip/location":91403,"no. of responses":13,"state":"CA"},"type":"Feature","geometry":{"type":"Point","coordinates":[-118.463,34.1467]}},{"properties":{"city":"Van Nuys","latitude":34.2011,"cdi":2.0,"epicentral distance":28,"longitude":-118.4479,"suspect?":0,"id":"aa38yksyl27k","# columns: zip/location":91405,"no. of responses":8,"state":"CA"},"type":"Feature","geometry":{"type":"Point","coordinates":[-118.4479,34.2011]}},{"properties":{"city":"Van Nuys","latitude":34.1988,"cdi":2.2,"epicentral distance":29,"longitude":-118.4897,"suspect?":0,"id":"aa38yl14lbi1","# columns: zip/location":91406,"no. of responses":4,"state":"CA"},"type":"Feature","geometry":{"type":"Point","coordinates":[-118.4897,34.1988]}},{"properties":{"city":"Van Nuys","latitude":34.1778,"cdi":2.1,"epicentral distance":26,"longitude":-118.4591,"suspect?":0,"id":"aa38ykqvwbl5","# columns: zip/location":91411,"no. of responses":4,"state":"CA"},"type":"Feature","geometry":{"type":"Point","coordinates":[-118.4591,34.1778]}},{"properties":{"city":"Sherman Oaks","latitude":34.1482,"cdi":2.2,"epicentral distance":23,"longitude":-118.4326,"suspect?":0,"id":"aa38ykwoqj90","# columns: zip/location":91423,"no. of responses":23,"state":"CA"},"type":"Feature","geometry":{"type":"Point","coordinates":[-118.4326,34.1482]}},{"properties":{"city":"Encino","latitude":34.15,"cdi":2.0,"epicentral distance":24,"longitude":-118.4943,"suspect?":0,"id":"aa38ykyfp4si","# columns: zip/location":91436,"no. of responses":3,"state":"CA"},"type":"Feature","geometry":{"type":"Point","coordinates":[-118.4943,34.15]}},{"properties":{"city":"Burbank","latitude":34.2029,"cdi":2.0,"epicentral distance":30,"longitude":-118.2985,"suspect?":0,"id":"aa38yksjx26s","# columns: zip/location":91501,"no. of responses":7,"state":"CA"},"type":"Feature","geometry":{"type":"Point","coordinates":[-118.2985,34.2029]}},{"properties":{"city":"Burbank","latitude":34.1768,"cdi":2.7,"epicentral distance":27,"longitude":-118.3092,"suspect?":0,"id":"aa38ykpt7jy8","# columns: zip/location":91502,"no. of responses":2,"state":"CA"},"type":"Feature","geometry":{"type":"Point","coordinates":[-118.3092,34.1768]}},{"properties":{"city":"Burbank","latitude":34.2028,"cdi":2.7,"epicentral distance":29,"longitude":-118.3289,"suspect?":0,"id":"aa38ykusm8g2","# columns: zip/location":91504,"no. of responses":6,"state":"CA"},"type":"Feature","geometry":{"type":"Point","coordinates":[-118.3289,34.2028]}},{"properties":{"city":"Burbank","latitude":34.177,"cdi":3.0,"epicentral distance":26,"longitude":-118.3479,"suspect?":0,"id":"aa38yks5egsd","# columns: zip/location":91505,"no. of responses":17,"state":"CA"},"type":"Feature","geometry":{"type":"Point","coordinates":[-118.3479,34.177]}},{"properties":{"city":"Burbank","latitude":34.1713,"cdi":2.0,"epicentral distance":26,"longitude":-118.324,"suspect?":0,"id":"aa38ykvnb6dn","# columns: zip/location":91506,"no. of responses":6,"state":"CA"},"type":"Feature","geometry":{"type":"Point","coordinates":[-118.324,34.1713]}},{"properties":{"city":"Burbank","latitude":34.1485,"cdi":3.4,"epicentral distance":24,"longitude":-118.3375,"suspect?":0,"id":"aa38yksk25q7","# columns: zip/location":91522,"no. of responses":1,"state":"CA"},"type":"Feature","geometry":{"type":"Point","coordinates":[-118.3375,34.1485]}},{"properties":{"city":"North Hollywood","latitude":34.1682,"cdi":2.2,"epicentral distance":25,"longitude":-118.3721,"suspect?":0,"id":"aa38ykxj0i3o","# columns: zip/location":91601,"no. of responses":41,"state":"CA"},"type":"Feature","geometry":{"type":"Point","coordinates":[-118.3721,34.1682]}},{"properties":{"city":"North Hollywood","latitude":34.1507,"cdi":2.5,"epicentral distance":23,"longitude":-118.366,"suspect?":0,"id":"aa38ykv7adpv","# columns: zip/location":91602,"no. of responses":32,"state":"CA"},"type":"Feature","geometry":{"type":"Point","coordinates":[-118.366,34.1507]}},{"properties":{"city":"Studio City","latitude":34.1395,"cdi":2.9,"epicentral distance":22,"longitude":-118.3931,"suspect?":0,"id":"aa38yl21mjow","# columns: zip/location":91604,"no. of responses":60,"state":"CA"},"type":"Feature","geometry":{"type":"Point","coordinates":[-118.3931,34.1395]}},{"properties":{"city":"North Hollywood","latitude":34.2067,"cdi":2.7,"epicentral distance":29,"longitude":-118.4011,"suspect?":0,"id":"aa38yl4vvprd","# columns: zip/location":91605,"no. of responses":12,"state":"CA"},"type":"Feature","geometry":{"type":"Point","coordinates":[-118.4011,34.2067]}},{"properties":{"city":"North Hollywood","latitude":34.1868,"cdi":2.4,"epicentral distance":27,"longitude":-118.389,"suspect?":0,"id":"aa38yl2ug9sf","# columns: zip/location":91606,"no. of responses":9,"state":"CA"},"type":"Feature","geometry":{"type":"Point","coordinates":[-118.389,34.1868]}},{"properties":{"city":"Valley Village","latitude":34.1664,"cdi":2.5,"epicentral distance":24,"longitude":-118.3999,"suspect?":0,"id":"aa38yl24dtpa","# columns: zip/location":91607,"no. of responses":52,"state":"CA"},"type":"Feature","geometry":{"type":"Point","coordinates":[-118.3999,34.1664]}},{"properties":{"city":"Azusa","latitude":34.1336,"cdi":1.0,"epicentral distance":50,"longitude":-117.9089,"suspect?":0,"id":"aa38yksbgas1","# columns: zip/location":91702,"no. of responses":1,"state":"CA"},"type":"Feature","geometry":{"type":"Point","coordinates":[-117.9089,34.1336]}},{"properties":{"city":"Rancho Cucamonga","latitude":34.0996,"cdi":2.0,"epicentral distance":78,"longitude":-117.5795,"suspect?":0,"id":"aa38ykpwjic2","# columns: zip/location":91730,"no. of responses":2,"state":"CA"},"type":"Feature","geometry":{"type":"Point","coordinates":[-117.5795,34.0996]}},{"properties":{"city":"South El Monte","latitude":34.0455,"cdi":2.0,"epicentral distance":35,"longitude":-118.0529,"suspect?":0,"id":"aa38ykvfegj0","# columns: zip/location":91733,"no. of responses":1,"state":"CA"},"type":"Feature","geometry":{"type":"Point","coordinates":[-118.0529,34.0455]}},{"properties":{"city":"Rancho Cucamonga","latitude":34.1517,"cdi":2.0,"epicentral distance":79,"longitude":-117.5827,"suspect?":0,"id":"aa38yl11x8nh","# columns: zip/location":91737,"no. of responses":2,"state":"CA"},"type":"Feature","geometry":{"type":"Point","coordinates":[-117.5827,34.1517]}},{"properties":{"city":"Rancho Cucamonga","latitude":34.1352,"cdi":2.0,"epicentral distance":84,"longitude":-117.5256,"suspect?":0,"id":"aa38ykv2vly5","# columns: zip/location":91739,"no. of responses":3,"state":"CA"},"type":"Feature","geometry":{"type":"Point","coordinates":[-117.5256,34.1352]}},{"properties":{"city":"Monterey Park","latitude":34.0519,"cdi":2.0,"epicentral distance":28,"longitude":-118.1459,"suspect?":0,"id":"aa38ykync06a","# columns: zip/location":91754,"no. of responses":8,"state":"CA"},"type":"Feature","geometry":{"type":"Point","coordinates":[-118.1459,34.0519]}},{"properties":{"city":"Monterey Park","latitude":34.0486,"cdi":2.0,"epicentral distance":30,"longitude":-118.1147,"suspect?":0,"id":"aa38ykwagb6s","# columns: zip/location":91755,"no. of responses":4,"state":"CA"},"type":"Feature","geometry":{"type":"Point","coordinates":[-118.1147,34.0486]}},{"properties":{"city":"Mt Baldy","latitude":34.2239,"cdi":3.4,"epicentral distance":82,"longitude":-117.5761,"suspect?":0,"id":"aa38ykprntmp","# columns: zip/location":91759,"no. of responses":2,"state":"CA"},"type":"Feature","geometry":{"type":"Point","coordinates":[-117.5761,34.2239]}},{"properties":{"city":"Diamond Bar","latitude":33.9874,"cdi":2.0,"epicentral distance":55,"longitude":-117.8152,"suspect?":0,"id":"aa38yl2bo5hv","# columns: zip/location":91765,"no. of responses":2,"state":"CA"},"type":"Feature","geometry":{"type":"Point","coordinates":[-117.8152,33.9874]}},{"properties":{"city":"Rosemead","latitude":34.0643,"cdi":2.0,"epicentral distance":33,"longitude":-118.0836,"suspect?":0,"id":"aa38ykvxrvmd","# columns: zip/location":91770,"no. of responses":2,"state":"CA"},"type":"Feature","geometry":{"type":"Point","coordinates":[-118.0836,34.0643]}},{"properties":{"city":"San Gabriel","latitude":34.0897,"cdi":2.0,"epicentral distance":33,"longitude":-118.0955,"suspect?":0,"id":"aa38ykrliuzu","# columns: zip/location":91776,"no. of responses":2,"state":"CA"},"type":"Feature","geometry":{"type":"Point","coordinates":[-118.0955,34.0897]}},{"properties":{"city":"Temple City","latitude":34.1017,"cdi":1.0,"epicentral distance":37,"longitude":-118.0557,"suspect?":0,"id":"aa38yl4gaaox","# columns: zip/location":91780,"no. of responses":1,"state":"CA"},"type":"Feature","geometry":{"type":"Point","coordinates":[-118.0557,34.1017]}},{"properties":{"city":"Walnut","latitude":34.0208,"cdi":2.0,"epicentral distance":52,"longitude":-117.8541,"suspect?":0,"id":"aa38ykuc2d5l","# columns: zip/location":91789,"no. of responses":1,"state":"CA"},"type":"Feature","geometry":{"type":"Point","coordinates":[-117.8541,34.0208]}},{"properties":{"city":"Alhambra","latitude":34.0906,"cdi":3.1,"epicentral distance":31,"longitude":-118.1282,"suspect?":0,"id":"aa38ykzxon5l","# columns: zip/location":91801,"no. of responses":5,"state":"CA"},"type":"Feature","geometry":{"type":"Point","coordinates":[-118.1282,34.0906]}},{"properties":{"city":"Alhambra","latitude":34.0747,"cdi":2.0,"epicentral distance":29,"longitude":-118.1462,"suspect?":0,"id":"aa38yksqkgux","# columns: zip/location":91803,"no. of responses":7,"state":"CA"},"type":"Feature","geometry":{"type":"Point","coordinates":[-118.1462,34.0747]}},{"properties":{"city":"Escondido","latitude":33.2143,"cdi":1.0,"epicentral distance":146,"longitude":-117.1137,"suspect?":0,"id":"aa38ykzn473x","# columns: zip/location":92026,"no. of responses":1,"state":"CA"},"type":"Feature","geometry":{"type":"Point","coordinates":[-117.1137,33.2143]}},{"properties":{"city":"La Jolla","latitude":32.855,"cdi":3.4,"epicentral distance":163,"longitude":-117.2499,"suspect?":0,"id":"aa38ykr1tqnt","# columns: zip/location":92037,"no. of responses":1,"state":"CA"},"type":"Feature","geometry":{"type":"Point","coordinates":[-117.2499,32.855]}},{"properties":{"city":"San Diego","latitude":32.7473,"cdi":1.0,"epicentral distance":177,"longitude":-117.1668,"suspect?":0,"id":"aa38ykyrj9xr","# columns: zip/location":92103,"no. of responses":1,"state":"CA"},"type":"Feature","geometry":{"type":"Point","coordinates":[-117.1668,32.7473]}},{"properties":{"city":"San Diego","latitude":32.9125,"cdi":2.0,"epicentral distance":165,"longitude":-117.143,"suspect?":0,"id":"aa38ykp5zjuk","# columns: zip/location":92126,"no. of responses":1,"state":"CA"},"type":"Feature","geometry":{"type":"Point","coordinates":[-117.143,32.9125]}},{"properties":{"city":"Twentynine Palms","latitude":34.1988,"cdi":1.0,"epicentral distance":245,"longitude":-115.7608,"suspect?":0,"id":"aa38yl0k8cp4","# columns: zip/location":92277,"no. of responses":1,"state":"CA"},"type":"Feature","geometry":{"type":"Point","coordinates":[-115.7608,34.1988]}},{"properties":{"city":"Fontana","latitude":34.1352,"cdi":2.0,"epicentral distance":89,"longitude":-117.4621,"suspect?":0,"id":"aa38ykpl2lov","# columns: zip/location":92336,"no. of responses":2,"state":"CA"},"type":"Feature","geometry":{"type":"Point","coordinates":[-117.4621,34.1352]}},{"properties":{"city":"Highland","latitude":34.1187,"cdi":1.0,"epicentral distance":115,"longitude":-117.1782,"suspect?":0,"id":"aa38yl0aocji","# columns: zip/location":92346,"no. of responses":1,"state":"CA"},"type":"Feature","geometry":{"type":"Point","coordinates":[-117.1782,34.1187]}},{"properties":{"city":"Riverside","latitude":33.8897,"cdi":2.0,"epicentral distance":89,"longitude":-117.4468,"suspect?":0,"id":"aa38ykv43ki4","# columns: zip/location":92503,"no. of responses":2,"state":"CA"},"type":"Feature","geometry":{"type":"Point","coordinates":[-117.4468,33.8897]}},{"properties":{"city":"Riverside","latitude":33.9529,"cdi":2.0,"epicentral distance":100,"longitude":-117.323,"suspect?":0,"id":"aa38ykw77iyo","# columns: zip/location":92507,"no. of responses":2,"state":"CA"},"type":"Feature","geometry":{"type":"Point","coordinates":[-117.323,33.9529]}},{"properties":{"city":"Perris","latitude":33.7846,"cdi":2.0,"epicentral distance":102,"longitude":-117.3209,"suspect?":0,"id":"aa38ykvtk7sz","# columns: zip/location":92570,"no. of responses":1,"state":"CA"},"type":"Feature","geometry":{"type":"Point","coordinates":[-117.3209,33.7846]}},{"properties":{"city":"Irvine","latitude":33.626,"cdi":2.0,"epicentral distance":69,"longitude":-117.7908,"suspect?":0,"id":"aa38ykvab5q3","# columns: zip/location":92603,"no. of responses":2,"state":"CA"},"type":"Feature","geometry":{"type":"Point","coordinates":[-117.7908,33.626]}},{"properties":{"city":"Irvine","latitude":33.6604,"cdi":2.0,"epicentral distance":64,"longitude":-117.8261,"suspect?":0,"id":"aa38ykr8j9df","# columns: zip/location":92612,"no. of responses":2,"state":"CA"},"type":"Feature","geometry":{"type":"Point","coordinates":[-117.8261,33.6604]}},{"properties":{"city":"Irvine","latitude":33.642,"cdi":2.0,"epicentral distance":64,"longitude":-117.8425,"suspect?":0,"id":"aa38ykwoomzv","# columns: zip/location":92617,"no. of responses":1,"state":"CA"},"type":"Feature","geometry":{"type":"Point","coordinates":[-117.8425,33.642]}},{"properties":{"city":"Costa Mesa","latitude":33.6791,"cdi":2.0,"epicentral distance":56,"longitude":-117.9086,"suspect?":0,"id":"aa38ykt346xp","# columns: zip/location":92626,"no. of responses":2,"state":"CA"},"type":"Feature","geometry":{"type":"Point","coordinates":[-117.9086,33.6791]}},{"properties":{"city":"Costa Mesa","latitude":33.6482,"cdi":2.0,"epicentral distance":58,"longitude":-117.9203,"suspect?":0,"id":"aa38yky0c0ku","# columns: zip/location":92627,"no. of responses":2,"state":"CA"},"type":"Feature","geometry":{"type":"Point","coordinates":[-117.9203,33.6482]}},{"properties":{"city":"Dana Point","latitude":33.4772,"cdi":2.0,"epicentral distance":85,"longitude":-117.705,"suspect?":0,"id":"aa38ykufz93h","# columns: zip/location":92629,"no. of responses":3,"state":"CA"},"type":"Feature","geometry":{"type":"Point","coordinates":[-117.705,33.4772]}},{"properties":{"city":"Lake Forest","latitude":33.6461,"cdi":2.0,"epicentral distance":76,"longitude":-117.6857,"suspect?":0,"id":"aa38ykvye60w","# columns: zip/location":92630,"no. of responses":1,"state":"CA"},"type":"Feature","geometry":{"type":"Point","coordinates":[-117.6857,33.6461]}},{"properties":{"city":"Huntington Beach","latitude":33.665,"cdi":2.0,"epicentral distance":53,"longitude":-117.9682,"suspect?":0,"id":"aa38yktoesmv","# columns: zip/location":92646,"no. of responses":3,"state":"CA"},"type":"Feature","geometry":{"type":"Point","coordinates":[-117.9682,33.665]}},{"properties":{"city":"Huntington Beach","latitude":33.6824,"cdi":2.2,"epicentral distance":49,"longitude":-118.0126,"suspect?":0,"id":"aa38ykve0fv0","# columns: zip/location":92648,"no. of responses":1,"state":"CA"},"type":"Feature","geometry":{"type":"Point","coordinates":[-118.0126,33.6824]}},{"properties":{"city":"Huntington Beach","latitude":33.7211,"cdi":2.0,"epicentral distance":44,"longitude":-118.0445,"suspect?":0,"id":"aa38ykzlwc45","# columns: zip/location":92649,"no. of responses":3,"state":"CA"},"type":"Feature","geometry":{"type":"Point","coordinates":[-118.0445,33.7211]}},{"properties":{"city":"Laguna Beach","latitude":33.5588,"cdi":2.0,"epicentral distance":74,"longitude":-117.7723,"suspect?":0,"id":"aa38yl036bin","# columns: zip/location":92651,"no. of responses":4,"state":"CA"},"type":"Feature","geometry":{"type":"Point","coordinates":[-117.7723,33.5588]}},{"properties":{"city":"Aliso Viejo","latitude":33.5749,"cdi":2.5,"epicentral distance":76,"longitude":-117.7314,"suspect?":0,"id":"aa38yl5fh2y4","# columns: zip/location":92656,"no. of responses":6,"state":"CA"},"type":"Feature","geometry":{"type":"Point","coordinates":[-117.7314,33.5749]}},{"properties":{"city":"Newport Beach","latitude":33.6327,"cdi":2.0,"epicentral distance":62,"longitude":-117.8758,"suspect?":0,"id":"aa38yl3kkupr","# columns: zip/location":92660,"no. of responses":4,"state":"CA"},"type":"Feature","geometry":{"type":"Point","coordinates":[-117.8758,33.6327]}},{"properties":{"city":"Newport Beach","latitude":33.623,"cdi":2.0,"epicentral distance":59,"longitude":-117.93,"suspect?":0,"id":"aa38yl02nk4k","# columns: zip/location":92663,"no. of responses":1,"state":"CA"},"type":"Feature","geometry":{"type":"Point","coordinates":[-117.93,33.623]}},{"properties":{"city":"Laguna Niguel","latitude":33.5268,"cdi":2.0,"epicentral distance":81,"longitude":-117.7041,"suspect?":0,"id":"aa38ykziq6hx","# columns: zip/location":92677,"no. of responses":2,"state":"CA"},"type":"Feature","geometry":{"type":"Point","coordinates":[-117.7041,33.5268]}},{"properties":{"city":"Trabuco Canyon","latitude":33.6526,"cdi":2.0,"epicentral distance":86,"longitude":-117.5627,"suspect?":0,"id":"aa38yl1oab30","# columns: zip/location":92679,"no. of responses":1,"state":"CA"},"type":"Feature","geometry":{"type":"Point","coordinates":[-117.5627,33.6526]}},{"properties":{"city":"Rancho Santa Margarita","latitude":33.6297,"cdi":2.0,"epicentral distance":83,"longitude":-117.611,"suspect?":0,"id":"aa38ykxb6uks","# columns: zip/location":92688,"no. of responses":1,"state":"CA"},"type":"Feature","geometry":{"type":"Point","coordinates":[-117.611,33.6297]}},{"properties":{"city":"Mission Viejo","latitude":33.6099,"cdi":2.0,"epicentral distance":81,"longitude":-117.6431,"suspect?":0,"id":"aa38yksicqcq","# columns: zip/location":92692,"no. of responses":1,"state":"CA"},"type":"Feature","geometry":{"type":"Point","coordinates":[-117.6431,33.6099]}},{"properties":{"city":"Ladera Ranch","latitude":33.5524,"cdi":2.7,"epicentral distance":84,"longitude":-117.6418,"suspect?":0,"id":"aa38yl3hvhtm","# columns: zip/location":92694,"no. of responses":3,"state":"CA"},"type":"Feature","geometry":{"type":"Point","coordinates":[-117.6418,33.5524]}},{"properties":{"city":"Anaheim","latitude":33.8187,"cdi":2.7,"epicentral distance":44,"longitude":-117.9746,"suspect?":0,"id":"aa38ykrlrl6q","# columns: zip/location":92804,"no. of responses":1,"state":"CA"},"type":"Feature","geometry":{"type":"Point","coordinates":[-117.9746,33.8187]}},{"properties":{"city":"Anaheim","latitude":33.85,"cdi":1.0,"epicentral distance":59,"longitude":-117.7892,"suspect?":0,"id":"aa38ykq0muvi","# columns: zip/location":92807,"no. of responses":1,"state":"CA"},"type":"Feature","geometry":{"type":"Point","coordinates":[-117.7892,33.85]}},{"properties":{"city":"Fullerton","latitude":33.8793,"cdi":2.0,"epicentral distance":49,"longitude":-117.8964,"suspect?":0,"id":"aa38ykqsf1ip","# columns: zip/location":92831,"no. of responses":1,"state":"CA"},"type":"Feature","geometry":{"type":"Point","coordinates":[-117.8964,33.8793]}},{"properties":{"city":"Fullerton","latitude":33.88,"cdi":1.0,"epicentral distance":43,"longitude":-117.9611,"suspect?":0,"id":"aa38yl4sre0f","# columns: zip/location":92833,"no. of responses":1,"state":"CA"},"type":"Feature","geometry":{"type":"Point","coordinates":[-117.9611,33.88]}},{"properties":{"city":"Fullerton","latitude":33.9021,"cdi":2.0,"epicentral distance":47,"longitude":-117.9153,"suspect?":0,"id":"aa38ykql7fq4","# columns: zip/location":92835,"no. of responses":2,"state":"CA"},"type":"Feature","geometry":{"type":"Point","coordinates":[-117.9153,33.9021]}},{"properties":{"city":"Garden Grove","latitude":33.7655,"cdi":1.0,"epicentral distance":47,"longitude":-117.9696,"suspect?":0,"id":"aa38yks6xh3z","# columns: zip/location":92844,"no. of responses":1,"state":"CA"},"type":"Feature","geometry":{"type":"Point","coordinates":[-117.9696,33.7655]}},{"properties":{"city":"Orange","latitude":33.7878,"cdi":2.0,"epicentral distance":53,"longitude":-117.8764,"suspect?":0,"id":"aa38yl3a7yx9","# columns: zip/location":92868,"no. of responses":2,"state":"CA"},"type":"Feature","geometry":{"type":"Point","coordinates":[-117.8764,33.7878]}},{"properties":{"city":"Corona","latitude":33.8802,"cdi":2.0,"epicentral distance":81,"longitude":-117.538,"suspect?":0,"id":"aa38yl48tb2r","# columns: zip/location":92879,"no. of responses":2,"state":"CA"},"type":"Feature","geometry":{"type":"Point","coordinates":[-117.538,33.8802]}},{"properties":{"city":"Corona","latitude":33.9213,"cdi":2.0,"epicentral distance":74,"longitude":-117.6113,"suspect?":0,"id":"aa38yl2b7ygc","# columns: zip/location":92880,"no. of responses":1,"state":"CA"},"type":"Feature","geometry":{"type":"Point","coordinates":[-117.6113,33.9213]}},{"properties":{"city":"Ventura","latitude":34.348,"cdi":1.0,"epicentral distance":95,"longitude":-119.3264,"suspect?":0,"id":"aa38yl40m56s","# columns: zip/location":93001,"no. of responses":1,"state":"CA"},"type":"Feature","geometry":{"type":"Point","coordinates":[-119.3264,34.348]}},{"properties":{"city":"Camarillo","latitude":34.2291,"cdi":2.0,"epicentral distance":69,"longitude":-119.0758,"suspect?":0,"id":"aa38ykvdjtqn","# columns: zip/location":93010,"no. of responses":2,"state":"CA"},"type":"Feature","geometry":{"type":"Point","coordinates":[-119.0758,34.2291]}},{"properties":{"city":"Carpinteria","latitude":34.4147,"cdi":2.9,"epicentral distance":114,"longitude":-119.5154,"suspect?":0,"id":"aa38ykxksf1f","# columns: zip/location":93013,"no. of responses":1,"state":"CA"},"type":"Feature","geometry":{"type":"Point","coordinates":[-119.5154,34.4147]}},{"properties":{"city":"Santa Barbara","latitude":34.5728,"cdi":2.7,"epicentral distance":143,"longitude":-119.7722,"suspect?":0,"id":"aa38yl1kxort","# columns: zip/location":93105,"no. of responses":1,"state":"CA"},"type":"Feature","geometry":{"type":"Point","coordinates":[-119.7722,34.5728]}},{"properties":{"city":"Santa Maria","latitude":34.8241,"cdi":1.0,"epicentral distance":206,"longitude":-120.3937,"suspect?":0,"id":"aa38yku5yex8","# columns: zip/location":93455,"no. of responses":1,"state":"CA"},"type":"Feature","geometry":{"type":"Point","coordinates":[-120.3937,34.8241]}},{"properties":{"city":"Palmdale","latitude":34.4863,"cdi":2.0,"epicentral distance":66,"longitude":-118.0742,"suspect?":0,"id":"aa38yl44hkkk","# columns: zip/location":93550,"no. of responses":1,"state":"CA"},"type":"Feature","geometry":{"type":"Point","coordinates":[-118.0742,34.4863]}},{"properties":{"city":"Palmdale","latitude":34.6033,"cdi":1.0,"epicentral distance":90,"longitude":-117.8138,"suspect?":0,"id":"aa38yl55of8f","# columns: zip/location":93591,"no. of responses":1,"state":"CA"},"type":"Feature","geometry":{"type":"Point","coordinates":[-117.8138,34.6033]}},{"properties":{"city":"Kings Canyon National PK","latitude":36.8451,"cdi":2.9,"epicentral distance":321,"longitude":-118.7204,"suspect?":0,"id":"aa38yky6kaes","# columns: zip/location":93633,"no. of responses":2,"state":"CA"},"type":"Feature","geometry":{"type":"Point","coordinates":[-118.7204,36.8451]}},{"properties":{"city":"San Jose","latitude":37.3508,"cdi":2.0,"epicentral distance":488,"longitude":-121.8522,"suspect?":0,"id":"aa38ykvzw554","# columns: zip/location":95116,"no. of responses":1,"state":"CA"},"type":"Feature","geometry":{"type":"Point","coordinates":[-121.8522,37.3508]}}],"is_temporal":false,"author":{"url":"","metadata":"","contact_name":"Beau Bouchard","contact_address":"Beau@BeauBouchard.com","source":"","contact_phone":""},"source":"","pagination":{"sort":null,"start":0,"total":277,"limit":1000000},"state":"complete","tags":"california,del,dyfi,marina,rey","published":"2014-08-14T22:28:50-04:00","id":295660}