{"type":"FeatureCollection","data_type":"Dataset Analysis","url_type":null,"permissions":[{"permissions":{"download":true,"view":true},"group_id":"everyone"}],"classification":null,"title":"Filtered Features of 'Fusiontables folder' based on 'Fusiontables folder'","count":39,"stream_id":296728,"contributor":{"url":"http://geocommons.com/users/56258","name":"rflak"},"data_attributes":null,"calculation_params":{"calculation":"buffer_intersect","input":{"min_distance":"20","unit":"miles","near_id":"296723","distance":"25","id":"295479"}},"icon_link":null,"link":"http://geocommons.com/overlays/296728.json","extent":[-159.585,21.9057,-68.7961,48.7436],"geometry_types":["point","line"],"unique_name":null,"name":"Filtered Features of 'Fusiontables folder' based on 'Fusiontables folder'","feature_count":39,"description":"Dataset created by filtering features of 'Fusiontables folder' that are within a buffer of 20 to 25 miles around the features in 'Fusiontables folder'","next_feature":null,"is_raster":false,"short_classification":"Y","stats":{},"features":[{"properties":{"name":"McDonalds - Chung Restaurants of Kauai LLC","City":"Eleele","Zip":"96705","description":"\n<b>Title:</b> McDonalds - Chung Restaurants of Kauai LLC<b>Complete Address:</b> 4469 Waialo Rd. Eleele HI 96705\n","Title":"McDonalds - Chung Restaurants of Kauai LLC","State":"HI","id":"aa32acgrsrlc","Address":"4469 Waialo Rd."},"type":"Feature","geometry":{"type":"GeometryCollection","geometries":[{"type":"Point","coordinates":[-159.585414,21.905681]},{"type":"LineString","coordinates":[[-159.585414,21.905681],[-159.585414,21.905681],[-159.585414,21.905681],[-159.585414,21.905681],[-159.585414,21.905681]]}]}},{"properties":{"name":"McDonalds - Chung Restaurants of Kauai LLC","City":"Kapaa","Zip":"96746","description":"\n<b>Title:</b> McDonalds - Chung Restaurants of Kauai LLC<b>Complete Address:</b> 4-0771 Kuhio Hwy Kapaa HI 96746\n","Title":"McDonalds - Chung Restaurants of Kauai LLC","State":"HI","id":"aa32ac11jgvk","Address":"4-0771 Kuhio Hwy"},"type":"Feature","geometry":{"type":"GeometryCollection","geometries":[{"type":"Point","coordinates":[-159.334842,22.049227]},{"type":"LineString","coordinates":[[-159.334842,22.049227],[-159.334842,22.049227],[-159.334842,22.049227],[-159.334842,22.049227],[-159.334842,22.049227]]}]}},{"properties":{"name":"Waters Edge Resort","City":"Garden City","Zip":"29576","description":"\n<b>Title:</b> Waters Edge Resort<b>Complete Address:</b> 1012 North Waccamaw Drive Garden City SC 29576\n","Title":"Waters Edge Resort","State":"SC","id":"aa32ablprtxq","Address":"1012 North Waccamaw Drive"},"type":"Feature","geometry":{"type":"GeometryCollection","geometries":[{"type":"Point","coordinates":[-78.992083,33.584431]},{"type":"LineString","coordinates":[[-78.992083,33.584431],[-78.992083,33.584431],[-78.992083,33.584431],[-78.992083,33.584431],[-78.992083,33.584431]]}]}},{"properties":{"name":"Waters Edge","City":"Garden City Beach","Zip":"29576","description":"\n<b>Title:</b> Waters Edge<b>Complete Address:</b> 1012 North Waccamaw Drive Garden City Beach SC 29576\n","Title":"Waters Edge","State":"SC","id":"aa32ab2tmt6a","Address":"1012 North Waccamaw Drive"},"type":"Feature","geometry":{"type":"GeometryCollection","geometries":[{"type":"Point","coordinates":[-78.992083,33.584431]},{"type":"LineString","coordinates":[[-78.992083,33.584431],[-78.992083,33.584431],[-78.992083,33.584431],[-78.992083,33.584431],[-78.992083,33.584431]]}]}},{"properties":{"name":"Kentucky Fried Chicken - PARIS and POTTER MANAGEMENT CORPORA","City":"Surfside Beach","Zip":"29575","description":"\n<b>Title:</b> Kentucky Fried Chicken - PARIS and POTTER MANAGEMENT CORPORA<b>Complete Address:</b> 504 U.S. 17 Business Surfside Beach SC 29575\n","Title":"Kentucky Fried Chicken - PARIS and POTTER MANAGEMENT CORPORA","State":"SC","id":"aa32acrs2vwt","Address":"504 U.S. 17 Business"},"type":"Feature","geometry":{"type":"GeometryCollection","geometries":[{"type":"Point","coordinates":[-78.983526,33.610366]},{"type":"LineString","coordinates":[[-78.983526,33.610366],[-78.983526,33.610366],[-78.983526,33.610366],[-78.983526,33.610366],[-78.983526,33.610366]]}]}},{"properties":{"name":"Terranea Resort","City":"Rancho Palos Verdes","Zip":"90275","description":"\n<b>Title:</b> Terranea Resort<b>Complete Address:</b> 100 Terranea Way Rancho Palos Verdes CA 90275\n","Title":"Terranea Resort","State":"CA","id":"aa32abkujpxs","Address":"100 Terranea Way"},"type":"Feature","geometry":{"type":"GeometryCollection","geometries":[{"type":"Point","coordinates":[-118.397269,33.741889]},{"type":"LineString","coordinates":[[-118.397269,33.741889],[-118.397269,33.741889],[-118.397269,33.741889],[-118.397269,33.741889],[-118.397269,33.741889]]}]}},{"properties":{"name":"Terranea Resort - Destination Hotels and Resorts, Inc.","City":"Rancho Palos Verdes","Zip":"90275","description":"\n<b>Title:</b> Terranea Resort - Destination Hotels and Resorts, Inc.<b>Complete Address:</b> 100 Terranea Way Rancho Palos Verdes CA 90275\n","Title":"Terranea Resort - Destination Hotels and Resorts, Inc.","State":"CA","id":"aa32abu8o1vw","Address":"100 Terranea Way"},"type":"Feature","geometry":{"type":"GeometryCollection","geometries":[{"type":"Point","coordinates":[-118.397269,33.741889]},{"type":"LineString","coordinates":[[-118.397269,33.741889],[-118.397269,33.741889],[-118.397269,33.741889],[-118.397269,33.741889],[-118.397269,33.741889]]}]}},{"properties":{"name":"Embroidery and More","City":"North Myrtle Beach","Zip":"29582","description":"\n<b>Title:</b> Embroidery and More<b>Complete Address:</b> 4720 Hwy 17 S Suite C North Myrtle Beach SC 29582\n","Title":"Embroidery and More","State":"SC","id":"aa32acep2rz3","Address":"4720 Hwy 17 S Suite C"},"type":"Feature","geometry":{"type":"GeometryCollection","geometries":[{"type":"Point","coordinates":[-78.736899,33.79943]},{"type":"LineString","coordinates":[[-78.736899,33.79943],[-78.736899,33.79943],[-78.736899,33.79943],[-78.736899,33.79943],[-78.736899,33.79943]]}]}},{"properties":{"name":"Safety Park Corporation-7th St. and Wilshire Blvd","City":"Santa Monica","Zip":"90401","description":"\n<b>Title:</b> Safety Park Corporation-7th St. and Wilshire Blvd<b>Complete Address:</b> 1213-1233 7th Street Santa Monica CA 90401\n","Title":"Safety Park Corporation-7th St. and Wilshire Blvd","State":"CA","id":"aa32acs5zmc3","Address":"1213-1233 7th Street"},"type":"Feature","geometry":{"type":"GeometryCollection","geometries":[{"type":"Point","coordinates":[-118.494332,34.020895]},{"type":"LineString","coordinates":[[-118.494332,34.020895],[-118.494332,34.020895],[-118.494332,34.020895],[-118.494332,34.020895],[-118.494332,34.020895]]}]}},{"properties":{"name":"McDonalds - Nelson - Silverthorne CO","City":"Silverthorne","Zip":"80498","description":"\n<b>Title:</b> McDonalds - Nelson - Silverthorne CO<b>Complete Address:</b> 220 Summit Place Silverthorne CO 80498\n","Title":"McDonalds - Nelson - Silverthorne CO","State":"CO","id":"aa32ab37hoax","Address":"220 Summit Place"},"type":"Feature","geometry":{"type":"GeometryCollection","geometries":[{"type":"Point","coordinates":[-106.063548,39.627803]},{"type":"LineString","coordinates":[[-106.063548,39.627803],[-106.063548,39.627803],[-106.063548,39.627803],[-106.063548,39.627803],[-106.063548,39.627803]]}]}},{"properties":{"name":"McDonalds - PNJJ NBR3 - Vail CO","City":"Vail","Zip":"81657","description":"\n<b>Title:</b> McDonalds - PNJJ NBR3 - Vail CO<b>Complete Address:</b> 2171 North Frontage Road Vail CO 81657\n","Title":"McDonalds - PNJJ NBR3 - Vail CO","State":"CO","id":"aa32abtwgbxx","Address":"2171 North Frontage Road"},"type":"Feature","geometry":{"type":"GeometryCollection","geometries":[{"type":"Point","coordinates":[-106.418942,39.629752]},{"type":"LineString","coordinates":[[-106.418942,39.629752],[-106.418942,39.629752],[-106.418942,39.629752],[-106.418942,39.629752],[-106.418942,39.629752]]}]}},{"properties":{"name":"McDonalds - Nelson, Paul - Vail CO","City":"Vail","Zip":"81657","description":"\n<b>Title:</b> McDonalds - Nelson, Paul - Vail CO<b>Complete Address:</b> 2171 North Frontage Road Vail CO 81657\n","Title":"McDonalds - Nelson, Paul - Vail CO","State":"CO","id":"aa32aayt8po2","Address":"2171 North Frontage Road"},"type":"Feature","geometry":{"type":"GeometryCollection","geometries":[{"type":"Point","coordinates":[-106.418942,39.629752]},{"type":"LineString","coordinates":[[-106.418942,39.629752],[-106.418942,39.629752],[-106.418942,39.629752],[-106.418942,39.629752],[-106.418942,39.629752]]}]}},{"properties":{"name":"Hotel Gasthof Gramshammer - Pepis Wedel Week Inc.","City":"Vail","Zip":"81657","description":"\n<b>Title:</b> Hotel Gasthof Gramshammer - Pepis Wedel Week Inc.<b>Complete Address:</b> 231 East Gore Creek Drive Vail CO 81657\n","Title":"Hotel Gasthof Gramshammer - Pepis Wedel Week Inc.","State":"CO","id":"aa32achh67da","Address":"231 East Gore Creek Drive"},"type":"Feature","geometry":{"type":"GeometryCollection","geometries":[{"type":"Point","coordinates":[-106.373903,39.641029]},{"type":"LineString","coordinates":[[-106.373903,39.641029],[-106.373903,39.641029],[-106.373903,39.641029],[-106.373903,39.641029],[-106.373903,39.641029]]}]}},{"properties":{"name":"Vail Marriott Mountain Resort and Spa","City":"Vail","Zip":"81657","description":"\n<b>Title:</b> Vail Marriott Mountain Resort and Spa<b>Complete Address:</b> 715 W. Lionshead Circle Vail CO 81657\n","Title":"Vail Marriott Mountain Resort and Spa","State":"CO","id":"aa32ac4lh05l","Address":"715 W. Lionshead Circle"},"type":"Feature","geometry":{"type":"GeometryCollection","geometries":[{"type":"Point","coordinates":[-106.391559,39.642743]},{"type":"LineString","coordinates":[[-106.391559,39.642743],[-106.391559,39.642743],[-106.391559,39.642743],[-106.391559,39.642743],[-106.391559,39.642743]]}]}},{"properties":{"name":"Vail Marriott Mountain Resort - TRS Bloodstone, Inc","City":"Vail","Zip":"81657","description":"\n<b>Title:</b> Vail Marriott Mountain Resort - TRS Bloodstone, Inc<b>Complete Address:</b> 715 W. Lionshead Circle Vail CO 81657\n","Title":"Vail Marriott Mountain Resort - TRS Bloodstone, Inc","State":"CO","id":"aa32ac9s2way","Address":"715 W. Lionshead Circle"},"type":"Feature","geometry":{"type":"GeometryCollection","geometries":[{"type":"Point","coordinates":[-106.391559,39.642743]},{"type":"LineString","coordinates":[[-106.391559,39.642743],[-106.391559,39.642743],[-106.391559,39.642743],[-106.391559,39.642743],[-106.391559,39.642743]]}]}},{"properties":{"name":"Phillips Hardware","City":"Oak Bluffs","Zip":"02557","description":"\n<b>Title:</b> Phillips Hardware<b>Complete Address:</b> 30 Circuit Ave Oak Bluffs MA 02557\n","Title":"Phillips Hardware","State":"MA","id":"aa32ad1jjto2","Address":"30 Circuit Ave"},"type":"Feature","geometry":{"type":"GeometryCollection","geometries":[{"type":"Point","coordinates":[-70.557992,41.459574]},{"type":"LineString","coordinates":[[-70.557992,41.459574],[-70.557992,41.459574],[-70.557992,41.459574],[-70.557992,41.459574],[-70.557992,41.459574]]}]}},{"properties":{"name":"McDonalds - McBee Enterprises - Falmouth","City":"Falmouth","Zip":"02536","description":"\n<b>Title:</b> McDonalds - McBee Enterprises - Falmouth<b>Complete Address:</b> 263 Teaticket Highway Route 28 Falmouth MA 02536\n","Title":"McDonalds - McBee Enterprises - Falmouth","State":"MA","id":"aa32abcyvobt","Address":"263 Teaticket Highway Route 28"},"type":"Feature","geometry":{"type":"GeometryCollection","geometries":[{"type":"Point","coordinates":[-70.564091,41.578826]},{"type":"LineString","coordinates":[[-70.564091,41.578826],[-70.564091,41.578826],[-70.564091,41.578826],[-70.564091,41.578826],[-70.564091,41.578826]]}]}},{"properties":{"name":"Great Island Bakery","City":"South Yarmouth","Zip":"02664","description":"\n<b>Title:</b> Great Island Bakery<b>Complete Address:</b> 46 South Street South Yarmouth MA 02664\n","Title":"Great Island Bakery","State":"MA","id":"aa32accrv4d3","Address":"46 South Street"},"type":"Feature","geometry":{"type":"GeometryCollection","geometries":[{"type":"Point","coordinates":[-70.201048,41.655797]},{"type":"LineString","coordinates":[[-70.201048,41.655797],[-70.201048,41.655797],[-70.201048,41.655797],[-70.201048,41.655797],[-70.201048,41.655797]]}]}},{"properties":{"name":"McDonalds - McBee Enterprises - South Yarmouth MA","City":"South Yarmouth","Zip":"02664","description":"\n<b>Title:</b> McDonalds - McBee Enterprises - South Yarmouth MA<b>Complete Address:</b> 1060 Route 28 South Yarmouth MA 02664\n","Title":"McDonalds - McBee Enterprises - South Yarmouth MA","State":"MA","id":"aa32aba162uc","Address":"1060 Route 28"},"type":"Feature","geometry":{"type":"GeometryCollection","geometries":[{"type":"Point","coordinates":[-70.203374,41.660305]},{"type":"LineString","coordinates":[[-70.203374,41.660305],[-70.203374,41.660305],[-70.203374,41.660305],[-70.203374,41.660305],[-70.203374,41.660305]]}]}},{"properties":{"name":"Wendys - Fashion Foods LLC.","City":"Hyannis","Zip":"02601","description":"\n<b>Title:</b> Wendys - Fashion Foods LLC.<b>Complete Address:</b> 554 Iyannough Road  Hyannis MA 02601\n","Title":"Wendys - Fashion Foods LLC.","State":"MA","id":"aa32acgro2j9","Address":"554 Iyannough Road"},"type":"Feature","geometry":{"type":"GeometryCollection","geometries":[{"type":"Point","coordinates":[-70.288778,41.665803]},{"type":"LineString","coordinates":[[-70.288778,41.665803],[-70.288778,41.665803],[-70.288778,41.665803],[-70.288778,41.665803],[-70.288778,41.665803]]}]}},{"properties":{"name":"Wendys - Fashion Foods LLC.","City":"Hyannis","Zip":"02601","description":"\n<b>Title:</b> Wendys - Fashion Foods LLC.<b>Complete Address:</b> 554 Iyannough Road Hyannis MA 02601\n","Title":"Wendys - Fashion Foods LLC.","State":"MA","id":"aa32abb9lsqc","Address":"554 Iyannough Road"},"type":"Feature","geometry":{"type":"GeometryCollection","geometries":[{"type":"Point","coordinates":[-70.288778,41.665803]},{"type":"LineString","coordinates":[[-70.288778,41.665803],[-70.288778,41.665803],[-70.288778,41.665803],[-70.288778,41.665803],[-70.288778,41.665803]]}]}},{"properties":{"name":"Catania Hospitality Group, Inc., ETAL dba Cape Codder Resort","City":"Hyannis","Zip":"02601","description":"\n<b>Title:</b> Catania Hospitality Group, Inc., ETAL dba Cape Codder Resort<b>Complete Address:</b> 1225 Iyanough Rd Route 132 and Bearses Way Hyannis MA 02601\n","Title":"Catania Hospitality Group, Inc., ETAL dba Cape Codder Resort","State":"MA","id":"aa32ac1qaoh4","Address":"1225 Iyanough Rd Route 132 and Bearses Way"},"type":"Feature","geometry":{"type":"GeometryCollection","geometries":[{"type":"Point","coordinates":[-70.309431,41.674976]},{"type":"LineString","coordinates":[[-70.309431,41.674976],[-70.309431,41.674976],[-70.309431,41.674976],[-70.309431,41.674976],[-70.309431,41.674976]]}]}},{"properties":{"name":"Dunkin Donuts - Cape Cod Enterprise LLC","City":"Bourne","Zip":"02532","description":"\n<b>Title:</b> Dunkin Donuts - Cape Cod Enterprise LLC<b>Complete Address:</b> 174 Clay Pond Road Bourne MA 02532\n","Title":"Dunkin Donuts - Cape Cod Enterprise LLC","State":"MA","id":"aa32abo4t7uv","Address":"174 Clay Pond Road"},"type":"Feature","geometry":{"type":"GeometryCollection","geometries":[{"type":"Point","coordinates":[-70.585199,41.717024]},{"type":"LineString","coordinates":[[-70.585199,41.717024],[-70.585199,41.717024],[-70.585199,41.717024],[-70.585199,41.717024],[-70.585199,41.717024]]}]}},{"properties":{"name":"PB Boulangerie Bistro - Saveur De Pain, Inc.","City":"South Wellfleet","Zip":"02663","description":"\n<b>Title:</b> PB Boulangerie Bistro - Saveur De Pain, Inc.<b>Complete Address:</b> 15 Lecount Hollow Road South Wellfleet MA 02663\n","Title":"PB Boulangerie Bistro - Saveur De Pain, Inc.","State":"MA","id":"aa32abgenb2q","Address":"15 Lecount Hollow Road"},"type":"Feature","geometry":{"type":"GeometryCollection","geometries":[{"type":"Point","coordinates":[-69.989848,41.916478]},{"type":"LineString","coordinates":[[-69.989848,41.916478],[-69.989848,41.916478],[-69.989848,41.916478],[-69.989848,41.916478],[-69.989848,41.916478]]}]}},{"properties":{"name":"McDonalds - McBee Enterprises - Kingston","City":"Kingston","Zip":"02364","description":"\n<b>Title:</b> McDonalds - McBee Enterprises - Kingston<b>Complete Address:</b> 178 Summer Street Kingston MA 02364\n","Title":"McDonalds - McBee Enterprises - Kingston","State":"MA","id":"aa32abboihg2","Address":"178 Summer Street"},"type":"Feature","geometry":{"type":"GeometryCollection","geometries":[{"type":"Point","coordinates":[-70.732622,42.011118]},{"type":"LineString","coordinates":[[-70.732622,42.011118],[-70.732622,42.011118],[-70.732622,42.011118],[-70.732622,42.011118],[-70.732622,42.011118]]}]}},{"properties":{"name":"Hansen Investments Inc dba Grizzly Creek Restaurant and Bar","City":"Keystone","Zip":"57751","description":"\n<b>Title:</b> Hansen Investments Inc dba Grizzly Creek Restaurant and Bar<b>Complete Address:</b> 624 Highway 16A Keystone SD 57751\n","Title":"Hansen Investments Inc dba Grizzly Creek Restaurant and Bar","State":"SD","id":"aa32acg6s9pl","Address":"624 Highway 16A"},"type":"Feature","geometry":{"type":"GeometryCollection","geometries":[{"type":"Point","coordinates":[-103.424962,43.888841]},{"type":"LineString","coordinates":[[-103.424962,43.888841],[-103.424962,43.888841],[-103.424962,43.888841],[-103.424962,43.888841],[-103.424962,43.888841]]}]}},{"properties":{"name":"Durst Enterprises, Inc/Mt. Rushmore Washingtons Inn and Suit","City":"Keystone","Zip":"57702","description":"\n<b>Title:</b> Durst Enterprises, Inc/Mt. Rushmore Washingtons Inn and Suit<b>Complete Address:</b> 231 Winter Street Keystone SD 57702\n","Title":"Durst Enterprises, Inc/Mt. Rushmore Washingtons Inn and Suit","State":"SD","id":"aa32ac37552m","Address":"231 Winter Street"},"type":"Feature","geometry":{"type":"GeometryCollection","geometries":[{"type":"Point","coordinates":[-103.426065,43.89249]},{"type":"LineString","coordinates":[[-103.426065,43.89249],[-103.426065,43.89249],[-103.426065,43.89249],[-103.426065,43.89249],[-103.426065,43.89249]]}]}},{"properties":{"name":"Durst Enterprises, Inc/Mount Rushmore White House Resort","City":"Keystone","Zip":"57751","description":"\n<b>Title:</b> Durst Enterprises, Inc/Mount Rushmore White House Resort<b>Complete Address:</b> 115 Swanzey Street Keystone SD 57751\n","Title":"Durst Enterprises, Inc/Mount Rushmore White House Resort","State":"SD","id":"aa32aavj6ftd","Address":"115 Swanzey Street"},"type":"Feature","geometry":{"type":"GeometryCollection","geometries":[{"type":"Point","coordinates":[-103.424078,43.892994]},{"type":"LineString","coordinates":[[-103.424078,43.892994],[-103.424078,43.892994],[-103.424078,43.892994],[-103.424078,43.892994],[-103.424078,43.892994]]}]}},{"properties":{"name":"K Bars Lodge - Riddles Group, Inc","City":"Keystone","Zip":"57751","description":"\n<b>Title:</b> K Bars Lodge - Riddles Group, Inc<b>Complete Address:</b> 434 Old Hill City Road Keystone SD 57751\n","Title":"K Bars Lodge - Riddles Group, Inc","State":"SD","id":"aa32aaslhv2r","Address":"434 Old Hill City Road"},"type":"Feature","geometry":{"type":"GeometryCollection","geometries":[{"type":"Point","coordinates":[-103.435155,43.896525]},{"type":"LineString","coordinates":[[-103.435155,43.896525],[-103.435155,43.896525],[-103.435155,43.896525],[-103.435155,43.896525],[-103.435155,43.896525]]}]}},{"properties":{"name":"Sakaria Hotel Group LLC - Travelodge Rapid City","City":"Rapid City","Zip":"57701","description":"\n<b>Title:</b> Sakaria Hotel Group LLC - Travelodge Rapid City<b>Complete Address:</b> 1313  LaCrosse St Rapid City SD 57701\n","Title":"Sakaria Hotel Group LLC - Travelodge Rapid City","State":"SD","id":"aa32abxbu8nv","Address":"1313  LaCrosse St"},"type":"Feature","geometry":{"type":"GeometryCollection","geometries":[{"type":"Point","coordinates":[-103.202327,44.098404]},{"type":"LineString","coordinates":[[-103.202327,44.098404],[-103.202327,44.098404],[-103.202327,44.098404],[-103.202327,44.098404],[-103.202327,44.098404]]}]}},{"properties":{"name":"Sakaria Hotel Group LLC - Travelodge Rapid City","City":"Rapid City","Zip":"57701","description":"\n<b>Title:</b> Sakaria Hotel Group LLC - Travelodge Rapid City<b>Complete Address:</b> 1313 LaCrosse St Rapid City SD 57701\n","Title":"Sakaria Hotel Group LLC - Travelodge Rapid City","State":"SD","id":"aa32achmfyq8","Address":"1313 LaCrosse St"},"type":"Feature","geometry":{"type":"GeometryCollection","geometries":[{"type":"Point","coordinates":[-103.202327,44.098404]},{"type":"LineString","coordinates":[[-103.202327,44.098404],[-103.202327,44.098404],[-103.202327,44.098404],[-103.202327,44.098404],[-103.202327,44.098404]]}]}},{"properties":{"name":"Atlantica - Cuisine de Couer","City":"Camden","Zip":"04843","description":"\n<b>Title:</b> Atlantica - Cuisine de Couer<b>Complete Address:</b> 9 Bay View Landing Camden ME 04843\n","Title":"Atlantica - Cuisine de Couer","State":"ME","id":"aa32aczp1qb9","Address":"9 Bay View Landing"},"type":"Feature","geometry":{"type":"GeometryCollection","geometries":[{"type":"Point","coordinates":[-69.06488,44.209774]},{"type":"LineString","coordinates":[[-69.06488,44.209774],[-69.06488,44.209774],[-69.06488,44.209774],[-69.06488,44.209774],[-69.06488,44.209774]]}]}},{"properties":{"name":"Hawthorn Inn Camden - Shanahan Enterprises LLC","City":"Camden","Zip":"04843","description":"\n<b>Title:</b> Hawthorn Inn Camden - Shanahan Enterprises LLC<b>Complete Address:</b> 9 High Street Camden ME 04843\n","Title":"Hawthorn Inn Camden - Shanahan Enterprises LLC","State":"ME","id":"aa32ad26b373","Address":"9 High Street"},"type":"Feature","geometry":{"type":"GeometryCollection","geometries":[{"type":"Point","coordinates":[-69.063645,44.212791]},{"type":"LineString","coordinates":[[-69.063645,44.212791],[-69.063645,44.212791],[-69.063645,44.212791],[-69.063645,44.212791],[-69.063645,44.212791]]}]}},{"properties":{"name":"The Lodge at Camden Hills - Sea Star, Inc.","City":"Camden","Zip":"04843","description":"\n<b>Title:</b> The Lodge at Camden Hills - Sea Star, Inc.<b>Complete Address:</b> 186 Belfast Road Camden ME 04843\n","Title":"The Lodge at Camden Hills - Sea Star, Inc.","State":"ME","id":"aa32ac017drj","Address":"186 Belfast Road"},"type":"Feature","geometry":{"type":"GeometryCollection","geometries":[{"type":"Point","coordinates":[-69.051327,44.22426]},{"type":"LineString","coordinates":[[-69.051327,44.22426],[-69.051327,44.22426],[-69.051327,44.22426],[-69.051327,44.22426],[-69.051327,44.22426]]}]}},{"properties":{"name":"Etchemin Properties LTD dba Dennetts Wharf Restaurant","City":"Castine","Zip":"04421","description":"\n<b>Title:</b> Etchemin Properties LTD dba Dennetts Wharf Restaurant<b>Complete Address:</b> 15 Sea St. Castine ME 04421\n","Title":"Etchemin Properties LTD dba Dennetts Wharf Restaurant","State":"ME","id":"aa32ad0afvzk","Address":"15 Sea St."},"type":"Feature","geometry":{"type":"GeometryCollection","geometries":[{"type":"Point","coordinates":[-68.796062,44.387877]},{"type":"LineString","coordinates":[[-68.796062,44.387877],[-68.796062,44.387877],[-68.796062,44.387877],[-68.796062,44.387877],[-68.796062,44.387877]]}]}},{"properties":{"name":"Paradise Gateway Bed and Breakfast","City":"Emigrant","Zip":"59027","description":"\n<b>Title:</b> Paradise Gateway Bed and Breakfast<b>Complete Address:</b> 2644 Hwy 89 South Emigrant MT 59027\n","Title":"Paradise Gateway Bed and Breakfast","State":"MT","id":"aa32achblpvv","Address":"2644 Hwy 89 South"},"type":"Feature","geometry":{"type":"GeometryCollection","geometries":[{"type":"Point","coordinates":[-110.797954,45.318828]},{"type":"LineString","coordinates":[[-110.797954,45.318828],[-110.797954,45.318828],[-110.797954,45.318828],[-110.797954,45.318828],[-110.797954,45.318828]]}]}},{"properties":{"name":"Livingston Paradise Valley KOA - Kampgrounds of America","City":"Livingston","Zip":"59047","description":"\n<b>Title:</b> Livingston Paradise Valley KOA - Kampgrounds of America<b>Complete Address:</b> 163 Pine Creek Road Livingston MT 59047\n","Title":"Livingston Paradise Valley KOA - Kampgrounds of America","State":"MT","id":"aa32acij449o","Address":"163 Pine Creek Road"},"type":"Feature","geometry":{"type":"GeometryCollection","geometries":[{"type":"Point","coordinates":[-110.57974,45.512642]},{"type":"LineString","coordinates":[[-110.57974,45.512642],[-110.57974,45.512642],[-110.57974,45.512642],[-110.57974,45.512642],[-110.57974,45.512642]]}]}},{"properties":{"name":"Glacier Park Inc.","City":"East Glacier","Zip":"59434","description":"\n<b>Title:</b> Glacier Park Inc.<b>Complete Address:</b> 1 Midvale Lane East Glacier MT 59434\n","Title":"Glacier Park Inc.","State":"MT","id":"aa32acq92rly","Address":"1 Midvale Lane"},"type":"Feature","geometry":{"type":"GeometryCollection","geometries":[{"type":"Point","coordinates":[-113.226148,48.443496]},{"type":"LineString","coordinates":[[-113.226148,48.443496],[-113.226148,48.443496],[-113.226148,48.443496],[-113.226148,48.443496],[-113.226148,48.443496]]}]}},{"properties":{"name":"Glacier Park Inc.","City":"St. Mary","Zip":"59417","description":"\n<b>Title:</b> Glacier Park Inc.<b>Complete Address:</b> Junction Highway 89 and going to the Sun Road St. Mary MT 59417\n","Title":"Glacier Park Inc.","State":"MT","id":"aa32acqawbtg","Address":"Junction Highway 89 and going to the Sun Road"},"type":"Feature","geometry":{"type":"GeometryCollection","geometries":[{"type":"Point","coordinates":[-113.429033,48.743584]},{"type":"LineString","coordinates":[[-113.429033,48.743584],[-113.429033,48.743584],[-113.429033,48.743584],[-113.429033,48.743584],[-113.429033,48.743584]]}]}}],"is_temporal":false,"author":{"url":null,"metadata":null,"contact_name":null,"contact_address":null,"source":null,"contact_phone":null},"source":null,"pagination":{"sort":null,"start":0,"total":39,"limit":1000000},"state":"complete","tags":"","published":"2014-08-14T23:38:03-04:00","id":296728}