{"type":"FeatureCollection","data_type":"Dataset","url_type":null,"permissions":[{"permissions":{"download":true,"edit":true,"view":true},"group_id":57925},{"permissions":{"download":true,"view":true},"group_id":"everyone"}],"classification":null,"title":"prueba observatorio2","count":6,"stream_id":298660,"contributor":{"url":"http://geocommons.com/users/56675","name":"lucas_unal"},"data_attributes":null,"calculation_params":null,"icon_link":null,"link":"http://geocommons.com/overlays/298660.json","extent":[-77.2667,1.2,-74.0758,10.9878],"geometry_types":["point"],"unique_name":null,"name":"prueba observatorio2","feature_count":6,"description":"","next_feature":null,"is_raster":false,"short_classification":"Y","stats":{"latitude":{"max":10.987778,"mean":5.95041683333333,"variance":15.3204471805618,"stdev":3.91413428238758,"median":5.066667,"min":1.2},"data1":{"max":3,"mean":1.83333333333333,"variance":0.566666666666667,"stdev":0.752772652709081,"median":2,"min":1},"range":{"max":6,"mean":3.5,"variance":3.5,"stdev":1.87082869338697,"median":4,"min":1},"longitude":{"max":-74.075833,"mean":-75.6135648333333,"variance":1.32914316733136,"stdev":1.15288471554244,"median":-75.5,"min":-77.266667},"data2":{"max":1.4,"mean":1.16666666666667,"variance":0.0266666666666667,"stdev":0.163299316185545,"median":1.2,"min":1.0}},"features":[{"properties":{"city":"Barranquilla","latitude":10.987778,"region":"Atlantico","country":"Colombia","range":1,"data1":1,"data2":1.0,"longitude":-74.788889,"id":"aaav6n55b1oy"},"type":"Feature","geometry":{"type":"Point","coordinates":[-74.788889,10.987778]}},{"properties":{"city":"Bogota","latitude":4.598056,"region":"Cundinamarca","country":"Colombia","range":2,"data1":2,"data2":1.2,"longitude":-74.075833,"id":"aaav6n5gvm73"},"type":"Feature","geometry":{"type":"Point","coordinates":[-74.075833,4.598056]}},{"properties":{"city":"Cali","latitude":3.45,"region":"Valle","country":"Colombia","range":3,"data1":2,"data2":1.3,"longitude":-76.533333,"id":"aaav6n6nuf1u"},"type":"Feature","geometry":{"type":"Point","coordinates":[-76.533333,3.45]}},{"properties":{"city":"Cartagena","latitude":10.4,"region":"Bolivar","country":"Colombia","range":4,"data1":3,"data2":1.0,"longitude":-75.5,"id":"aaav6nci48gv"},"type":"Feature","geometry":{"type":"Point","coordinates":[-75.5,10.4]}},{"properties":{"city":"Manizales","latitude":5.066667,"region":"Caldas","country":"Colombia","range":5,"data1":1,"data2":1.4,"longitude":-75.516667,"id":"aaav6naf2hir"},"type":"Feature","geometry":{"type":"Point","coordinates":[-75.516667,5.066667]}},{"properties":{"city":"Pasto","latitude":1.2,"region":"Nari√±o","country":"Colombia","range":6,"data1":2,"data2":1.1,"longitude":-77.266667,"id":"aaav6n3unu5u"},"type":"Feature","geometry":{"type":"Point","coordinates":[-77.266667,1.2]}}],"is_temporal":false,"author":{"url":"","metadata":"","contact_name":"","contact_address":"","source":"","contact_phone":""},"source":"","pagination":{"sort":null,"start":0,"total":6,"limit":1000000},"state":"complete","tags":"","published":"2014-08-15T01:36:12-04:00","id":298660}