{"type":"FeatureCollection","data_type":"Dataset","url_type":null,"permissions":[{"permissions":{"download":true,"view":true},"group_id":"everyone"}],"classification":null,"title":"chw_schools","count":8,"stream_id":299758,"contributor":{"url":"http://geocommons.com/users/56165","name":"ledmunds"},"data_attributes":null,"calculation_params":null,"icon_link":null,"link":"http://geocommons.com/overlays/299758.json","extent":[-122.407,37.7953,-92.4194,44.9843],"geometry_types":["point"],"unique_name":null,"name":"chw_schools","feature_count":8,"description":"","next_feature":null,"is_raster":false,"short_classification":"Y","stats":{"latitude":{"max":44.984262,"mean":43.8160175,"variance":6.05908206441715,"stdev":2.46152027503678,"median":44.833469,"min":37.795311},"longitude":{"max":-92.419417,"mean":-96.877488,"variance":106.602108912224,"stdev":10.3248297280015,"median":-93.283689,"min":-122.406605}},"features":[{"properties":{"name":"Minneapolis Community and Technical College","city":"Minneapolis","zip":"55403","latitude":44.972586,"chw program website":"<a href=\"www.minneapolis.edu/Educational-Programs/Programs/community-health-worker/\">link</a>","longitude":-93.283689,"id":"aacjvxtsqmk6","address":"1501 Hennepin Avenue","state":"MN"},"type":"Feature","geometry":{"type":"Point","coordinates":[-93.283689,44.972586]}},{"properties":{"name":"Rochester Community and Technical College","city":"Rochester","zip":"55904","latitude":44.012492,"chw program website":"<a href=\"http://www.rctc.edu/catalog/overviews/overview_detail2.cfm?id=63\">link</a>","longitude":-92.419417,"id":"aacjvy2itz7g","address":"851 30th Ave SE","state":"MN"},"type":"Feature","geometry":{"type":"Point","coordinates":[-92.419417,44.012492]}},{"properties":{"name":"St. Catherine University","city":"Saint Paul","zip":"55105","latitude":44.926924,"chw program website":"<a href=\"http://www.stkate.edu/academic/chw/\">link</a>","longitude":-93.185265,"id":"aacjvxvtzci5","address":"2004 Randolph Avenue","state":"MN"},"type":"Feature","geometry":{"type":"Point","coordinates":[-93.185265,44.926924]}},{"properties":{"name":"Summit Academy OIC","city":"Minneapolis","zip":"55405","latitude":44.984262,"chw program website":"<a href=\"http://www.saoic.org/career-programs/healthcare-programs/community-health-worker/\">link</a>","longitude":-93.292257,"id":"aacjvxukru1x","address":"935 Olson Memorial Highway","state":"MN"},"type":"Feature","geometry":{"type":"Point","coordinates":[-93.292257,44.984262]}},{"properties":{"name":"South Central College","city":"Mankato","zip":"56003","latitude":44.174138,"chw program website":"<a href=\"http://ecatalog.southcentral.edu/Community%20Health%20Worker.php\">link</a>","longitude":-94.046786,"id":"aacjvy3pxbxt","address":"1920 Lee Boulevard","state":"MN"},"type":"Feature","geometry":{"type":"Point","coordinates":[-94.046786,44.174138]}},{"properties":{"name":"Inver Hills Community College","city":"Inver Grove Heights","zip":"55076","latitude":44.833469,"chw program website":"<a href=\"http://www.inverhills.edu/Departments/CMHW/index.aspx#cert\">link</a>","longitude":-93.054844,"id":"aacjvxuegyc6","address":"2500 80th Street East","state":"MN"},"type":"Feature","geometry":{"type":"Point","coordinates":[-93.054844,44.833469]}},{"properties":{"name":"Normandale Community College","city":"Bloomington","zip":"55431","latitude":44.828958,"chw program website":"<a href=\"http://www.normandale.edu/tridept/\">link</a>","longitude":-93.331041,"id":"aacjvxrkffob","address":"9700 France Avenue South","state":"MN"},"type":"Feature","geometry":{"type":"Point","coordinates":[-93.331041,44.828958]}},{"properties":{"name":"Northwest Technical College","city":"Bemidji","zip":"56601","latitude":37.795311,"chw program website":"<a href=\"https://www.ntcmn.edu/\">link</a>","longitude":-122.406605,"id":"aacjvxoux32b","address":"905 Grant Avenue SE","state":"MN"},"type":"Feature","geometry":{"type":"Point","coordinates":[-122.406605,37.795311]}}],"is_temporal":false,"author":{"url":"","metadata":null,"contact_name":null,"contact_address":null,"source":null,"contact_phone":null},"source":"","pagination":{"sort":null,"start":0,"total":8,"limit":1000000},"state":"complete","tags":"","published":"2014-08-15T02:38:44-04:00","id":299758}