{"type":"FeatureCollection","data_type":"Dataset","url_type":null,"permissions":[{"permissions":{"download":true,"view":true},"group_id":"everyone"}],"classification":null,"title":"feasability study.top 200.location","count":200,"stream_id":300547,"contributor":{"url":"http://geocommons.com/users/22716","name":"morneamj"},"data_attributes":null,"calculation_params":null,"icon_link":null,"link":"http://geocommons.com/overlays/300547.json","extent":[-122.196,26.1146,-69.9562,47.6671],"geometry_types":["point"],"unique_name":null,"name":"feasability study.top 200.location","feature_count":200,"description":"","next_feature":null,"is_raster":false,"short_classification":"Y","stats":{},"features":[{"properties":{"city":"Covington","zip":"41011","geo_score":0.951,"id":"aae0q6t7jl5o","address":"100 W Rivercenter Blvd","geo_precision":"range","state":"KY"},"type":"Feature","geometry":{"type":"Point","coordinates":[-84.512251,39.089587]}},{"properties":{"city":"Naples","zip":"34103","geo_score":1.0,"id":"aae0q6r553kn","address":"4351 Gulf Shore Boulevard N","geo_precision":"range","state":"FL"},"type":"Feature","geometry":{"type":"Point","coordinates":[-81.813252,26.203234]}},{"properties":{"city":"Indianapolis","zip":"46204","geo_score":1.0,"id":"aae0q6v3wwh1","address":"1 North Illinois Street","geo_precision":"range","state":"IN"},"type":"Feature","geometry":{"type":"Point","coordinates":[-86.159886,39.76763]}},{"properties":{"city":"Cincinnati","zip":"45243","geo_score":1.0,"id":"aae0q70nd5qo","address":"8175 Given Road","geo_precision":"range","state":"OH"},"type":"Feature","geometry":{"type":"Point","coordinates":[-84.324799,39.200662]}},{"properties":{"city":"Lower Gwynedd","zip":"19002","geo_score":0.932,"id":"aae0q6tkxuc0","address":"1246 Forrest Hill Drive","geo_precision":"range","state":"PA"},"type":"Feature","geometry":{"type":"Point","coordinates":[-75.242299,40.182657]}},{"properties":{"city":"Cincinnati","zip":"45243","geo_score":1.0,"id":"aae0q6rr3764","address":"8675 Bridgewater Lane","geo_precision":"range","state":"OH"},"type":"Feature","geometry":{"type":"Point","coordinates":[-84.331146,39.208886]}},{"properties":{"city":"Cincinnati","zip":"45208","geo_score":1.0,"id":"aae0q6qf09l9","address":"1116 Leaftree Court","geo_precision":"range","state":"OH"},"type":"Feature","geometry":{"type":"Point","coordinates":[-84.436702,39.131801]}},{"properties":{"city":"Cincinnati","zip":"45233","geo_score":1.0,"id":"aae0q6r3s6d3","address":"6035 Countrymeadow Lane","geo_precision":"range","state":"OH"},"type":"Feature","geometry":{"type":"Point","coordinates":[-84.648501,39.137042]}},{"properties":{"city":"Cincinnati","zip":"45243","geo_score":1.0,"id":"aae0q6q558jq","address":"6125 Redbird Hollow Lane","geo_precision":"range","state":"OH"},"type":"Feature","geometry":{"type":"Point","coordinates":[-84.322904,39.174729]}},{"properties":{"city":"Cincinnati","zip":"45237","geo_score":0.737,"id":"aae0q6pajoj6","address":"9174 Ambercreek Drive","geo_precision":"street","state":"OH"},"type":"Feature","geometry":{"type":"Point","coordinates":[-84.411431,39.194511]}},{"properties":{"city":"Los Altos Hills","zip":"94024","geo_score":0.839,"id":"aae0q6quan3e","address":"10465 Berkshire Drive","geo_precision":"range","state":"CA"},"type":"Feature","geometry":{"type":"Point","coordinates":[-122.105579,37.342096]}},{"properties":{"city":"Cincinnati","zip":"45208","geo_score":1.0,"id":"aae0q6xxl8n5","address":"3939 Erie Ave","geo_precision":"range","state":"OH"},"type":"Feature","geometry":{"type":"Point","coordinates":[-84.406711,39.149829]}},{"properties":{"city":"Cincinnati","zip":"45243","geo_score":1.0,"id":"aae0q6zp2prh","address":"8855 Camargo Club Drive","geo_precision":"range","state":"OH"},"type":"Feature","geometry":{"type":"Point","coordinates":[-84.332509,39.177025]}},{"properties":{"city":"Cincinnati","zip":"45230","geo_score":1.0,"id":"aae0q6kvmavp","address":"6927 Whipporwill Drive","geo_precision":"range","state":"OH"},"type":"Feature","geometry":{"type":"Point","coordinates":[-84.368433,39.061141]}},{"properties":{"city":"Cincinnati","zip":"45208","geo_score":1.0,"id":"aae0q6oxhh76","address":"2621 Handasyde Avenue","geo_precision":"range","state":"OH"},"type":"Feature","geometry":{"type":"Point","coordinates":[-84.447267,39.134972]}},{"properties":{"city":"Los Altos","zip":"94022","geo_score":1.0,"id":"aae0q6okq3ik","address":"220 University Avenue","geo_precision":"range","state":"CA"},"type":"Feature","geometry":{"type":"Point","coordinates":[-122.119344,37.377996]}},{"properties":{"city":"Cincinnati","zip":"45255","geo_score":1.0,"id":"aae0q7183rg3","address":"7313 Waterpoint Lane","geo_precision":"range","state":"OH"},"type":"Feature","geometry":{"type":"Point","coordinates":[-84.36367,39.045599]}},{"properties":{"city":"Cincinnati","zip":"45247","geo_score":1.0,"id":"aae0q6zdhrzd","address":"5595 Boomer Road","geo_precision":"range","state":"OH"},"type":"Feature","geometry":{"type":"Point","coordinates":[-84.630294,39.181252]}},{"properties":{"city":"Cincinnati","zip":"45249","geo_score":0.98,"id":"aae0q6tjtqv1","address":"11548 Stable Watch Court","geo_precision":"range","state":"OH"},"type":"Feature","geometry":{"type":"Point","coordinates":[-84.322259,39.2803]}},{"properties":{"city":"Cincinnati","zip":"45255","geo_score":1.0,"id":"aae0q6r4d5ej","address":"7338 Waterpoint Lane","geo_precision":"range","state":"OH"},"type":"Feature","geometry":{"type":"Point","coordinates":[-84.363067,39.046045]}},{"properties":{"city":"Cincinnati","zip":"45202","geo_score":0.875,"id":"aae0q6qfrrlk","address":"955 Hill Street","geo_precision":"range","state":"OH"},"type":"Feature","geometry":{"type":"Point","coordinates":[-84.496773,39.105835]}},{"properties":{"city":"Naples","zip":"34108","geo_score":0.937,"id":"aae0q6ld8n1m","address":"5555 Heron Point Drive","geo_precision":"range","state":"FL"},"type":"Feature","geometry":{"type":"Point","coordinates":[-81.810752,26.214492]}},{"properties":{"city":"Cincinnati","zip":"45243","geo_score":1.0,"id":"aae0q6vmsfa3","address":"8720 Camargo Road","geo_precision":"range","state":"OH"},"type":"Feature","geometry":{"type":"Point","coordinates":[-84.33137,39.199895]}},{"properties":{"city":"Indianapolis","zip":"46236","geo_score":1.0,"id":"aae0q6qkylv5","address":"9228 Diamond Pointe Drive","geo_precision":"range","state":"IN"},"type":"Feature","geometry":{"type":"Point","coordinates":[-85.959099,39.921151]}},{"properties":{"city":"Naples","zip":"34110","geo_score":0.463,"id":"aae0q6z5h5r9","address":"29100 Marcello Way","geo_precision":"street","state":"FL"},"type":"Feature","geometry":{"type":"Point","coordinates":[-81.736308,26.114603]}},{"properties":{"city":"Villa Hills","zip":"41017","geo_score":1.0,"id":"aae0q73yga34","address":"10 Linden Hill Drive","geo_precision":"range","state":"KY"},"type":"Feature","geometry":{"type":"Point","coordinates":[-84.578204,39.059602]}},{"properties":{"city":"Wyoming","zip":"45215","geo_score":1.0,"id":"aae0q7gyl7vr","address":"233 Oliver Road","geo_precision":"range","state":"OH"},"type":"Feature","geometry":{"type":"Point","coordinates":[-84.477509,39.232067]}},{"properties":{"city":"Scottsdale","zip":"85255","geo_score":0.941,"id":"aae0q7azz0iq","address":"25295 N 93rd Way","geo_precision":"range","state":"AZ"},"type":"Feature","geometry":{"type":"Point","coordinates":[-111.87957,33.713661]}},{"properties":{"city":"Cincinnati","zip":"45224","geo_score":1.0,"id":"aae0q7hjq5yf","address":"6523 Devonwood Drive","geo_precision":"range","state":"OH"},"type":"Feature","geometry":{"type":"Point","coordinates":[-84.541458,39.209819]}},{"properties":{"city":"Englewood","zip":"80113","geo_score":1.0,"id":"aae0q7f6g6m7","address":"20 Cherry Hills Drive","geo_precision":"range","state":"CO"},"type":"Feature","geometry":{"type":"Point","coordinates":[-104.959968,39.644532]}},{"properties":{"city":"Indianapolis","zip":"46240","geo_score":0.973,"id":"aae0q76a0ppc","address":"490 Westwood Road","geo_precision":"range","state":"IN"},"type":"Feature","geometry":{"type":"Point","coordinates":[-86.152704,39.903911]}},{"properties":{"city":"Cold Spring","zip":"41076","geo_score":1.0,"id":"aae0q7d3zt7u","address":"9 Aloysius Circle","geo_precision":"range","state":"KY"},"type":"Feature","geometry":{"type":"Point","coordinates":[-84.423334,39.028529]}},{"properties":{"city":"Cincinnati","zip":"45247","geo_score":1.0,"id":"aae0q75wsd7p","address":"7320 Thompson Road","geo_precision":"range","state":"OH"},"type":"Feature","geometry":{"type":"Point","coordinates":[-84.677841,39.246461]}},{"properties":{"city":"Cincinnati","zip":"45249","geo_score":0.752,"id":"aae0q729ssvg","address":"11795 Winthrop Lane","geo_precision":"street","state":"OH"},"type":"Feature","geometry":{"type":"Point","coordinates":[-84.312017,39.256554]}},{"properties":{"city":"Kenilworth","zip":"60043","geo_score":1.0,"id":"aae0q7agl06m","address":"525 Sheridan Road","geo_precision":"range","state":"IL"},"type":"Feature","geometry":{"type":"Point","coordinates":[-87.711989,42.09401]}},{"properties":{"city":"Cincinnati","zip":"45243","geo_score":0.475,"id":"aae0q76g3krq","address":"9800 Fox Hollow Lane","geo_precision":"street","state":"OH"},"type":"Feature","geometry":{"type":"Point","coordinates":[-84.458309,39.141878]}},{"properties":{"city":"Cincinnati","zip":"45208","geo_score":1.0,"id":"aae0q735mmvr","address":"2346 Bedford Avenue","geo_precision":"range","state":"OH"},"type":"Feature","geometry":{"type":"Point","coordinates":[-84.450453,39.133402]}},{"properties":{"city":"Cincinnati","zip":"45243","geo_score":1.0,"id":"aae0q78obczb","address":"7925 Graves Road","geo_precision":"range","state":"OH"},"type":"Feature","geometry":{"type":"Point","coordinates":[-84.3606,39.17102]}},{"properties":{"city":"Fayetteville","zip":"45118","geo_score":1.0,"id":"aae0q73ecdry","address":"1627 Grunwald Cove","geo_precision":"range","state":"OH"},"type":"Feature","geometry":{"type":"Point","coordinates":[-83.967135,39.184945]}},{"properties":{"city":"La Quinta","zip":"92253","geo_score":1.0,"id":"aae0q79govr2","address":"78625 Descanso Lane","geo_precision":"range","state":"CA"},"type":"Feature","geometry":{"type":"Point","coordinates":[-116.2916,33.699623]}},{"properties":{"city":"Cincinnati","zip":"45202","geo_score":0.976,"id":"aae0q773i2fp","address":"974 Pavilion Street","geo_precision":"range","state":"OH"},"type":"Feature","geometry":{"type":"Point","coordinates":[-84.495929,39.107623]}},{"properties":{"city":"Cincinnati","zip":"45243","geo_score":1.0,"id":"aae0q751ugpw","address":"8325 Given Road","geo_precision":"range","state":"OH"},"type":"Feature","geometry":{"type":"Point","coordinates":[-84.324297,39.205817]}},{"properties":{"city":"Cincinnati","zip":"45213","geo_score":1.0,"id":"aae0q7ecm1dq","address":"6400 Kincaid Road","geo_precision":"range","state":"OH"},"type":"Feature","geometry":{"type":"Point","coordinates":[-84.424883,39.18754]}},{"properties":{"city":"Cincinnati","zip":"45246","geo_score":0.44,"id":"aae0q74gt2rx","address":"10 Saint Edmunds Place Drive","geo_precision":"street","state":"OH"},"type":"Feature","geometry":{"type":"Point","coordinates":[-84.442531,39.148244]}},{"properties":{"city":"Cincinnati","zip":"45243","geo_score":1.0,"id":"aae0q7d6i15t","address":"8880 Camargo Club Drive","geo_precision":"range","state":"OH"},"type":"Feature","geometry":{"type":"Point","coordinates":[-84.332421,39.176028]}},{"properties":{"city":"Cincinnati","zip":"45202","geo_score":0.927,"id":"aae0q71cfaq7","address":"18 E 4th Street","geo_precision":"range","state":"OH"},"type":"Feature","geometry":{"type":"Point","coordinates":[-84.512667,39.099959]}},{"properties":{"city":"Cincinnati","zip":"45233","geo_score":1.0,"id":"aae0q75wglr0","address":"5765 Beech Grove Lane","geo_precision":"range","state":"OH"},"type":"Feature","geometry":{"type":"Point","coordinates":[-84.636239,39.129681]}},{"properties":{"city":"New Wilmington","zip":"16142","geo_score":0.585,"id":"aae0q7cby9rc","address":"103 Destinaire Drive","geo_precision":"zip","state":"PA"},"type":"Feature","geometry":{"type":"Point","coordinates":[-80.352749,41.10446]}},{"properties":{"city":"Cincinnati","zip":"45208","geo_score":0.977,"id":"aae0q7b6fz45","address":"1331 Park Ridge Place","geo_precision":"range","state":"OH"},"type":"Feature","geometry":{"type":"Point","coordinates":[-84.424353,39.135068]}},{"properties":{"city":"Cincinnati","zip":"45208","geo_score":1.0,"id":"aae0q7eu3fck","address":"1338 Delta Avenue","geo_precision":"range","state":"OH"},"type":"Feature","geometry":{"type":"Point","coordinates":[-84.426949,39.134495]}},{"properties":{"city":"Cincinnati","zip":"45227","geo_score":1.0,"id":"aae0q7ap7bhs","address":"3942 Miami Road","geo_precision":"range","state":"OH"},"type":"Feature","geometry":{"type":"Point","coordinates":[-84.37289,39.145918]}},{"properties":{"city":"Montgomery","zip":"45242","geo_score":0.583,"id":"aae0q78i1bzg","address":"2003 Lakeview Court","geo_precision":"street","state":"OH"},"type":"Feature","geometry":{"type":"Point","coordinates":[-84.616922,39.146854]}},{"properties":{"city":"Hamilton","zip":"45011","geo_score":0.585,"id":"aae0q77m30c6","address":"2875 Fairways Drive","geo_precision":"zip","state":"OH"},"type":"Feature","geometry":{"type":"Point","coordinates":[-84.528279,39.355335]}},{"properties":{"city":"Covington","zip":"41011","geo_score":0.585,"id":"aae0q7cgvdcq","address":"1 Roebling Way","geo_precision":"zip","state":"KY"},"type":"Feature","geometry":{"type":"Point","coordinates":[-84.53411,39.051727]}},{"properties":{"city":"Vienna","zip":"22182","geo_score":1.0,"id":"aae0q7gwhinc","address":"9707 Middleton Ridge Road","geo_precision":"range","state":"VA"},"type":"Feature","geometry":{"type":"Point","coordinates":[-77.281156,38.960571]}},{"properties":{"city":"West Chester","zip":"45069","geo_score":0.817,"id":"aae0q7gd4bcw","address":"7184 Harbour Town Drive","geo_precision":"street","state":"OH"},"type":"Feature","geometry":{"type":"Point","coordinates":[-84.382658,39.367606]}},{"properties":{"city":"Maineville","zip":"45039","geo_score":1.0,"id":"aae0q75jaihv","address":"8378 Butterworth Road","geo_precision":"range","state":"OH"},"type":"Feature","geometry":{"type":"Point","coordinates":[-84.246532,39.312793]}},{"properties":{"city":"Cincinnati","zip":"45208","geo_score":1.0,"id":"aae0q7ctzy33","address":"3045 Erie Avenue","geo_precision":"range","state":"OH"},"type":"Feature","geometry":{"type":"Point","coordinates":[-84.429463,39.138219]}},{"properties":{"city":"Cincinnati","zip":"45206","geo_score":1.0,"id":"aae0q77deyp0","address":"1201 Edgecliff Place","geo_precision":"range","state":"OH"},"type":"Feature","geometry":{"type":"Point","coordinates":[-84.484433,39.120916]}},{"properties":{"city":"Cincinnati","zip":"45255","geo_score":1.0,"id":"aae0q7cb7j7a","address":"7780 Coldstream Woods Drive","geo_precision":"range","state":"OH"},"type":"Feature","geometry":{"type":"Point","coordinates":[-84.343482,39.056918]}},{"properties":{"city":"Cincinnati","zip":"45243","geo_score":1.0,"id":"aae0q7fmk187","address":"5800 Mohican Lane","geo_precision":"range","state":"OH"},"type":"Feature","geometry":{"type":"Point","coordinates":[-84.353659,39.174541]}},{"properties":{"city":"Cincinnati","zip":"45233","geo_score":1.0,"id":"aae0q73sqasp","address":"2690 Devils Backbone Road","geo_precision":"range","state":"OH"},"type":"Feature","geometry":{"type":"Point","coordinates":[-84.665402,39.137783]}},{"properties":{"city":"Cincinnati","zip":"45233","geo_score":1.0,"id":"aae0q7dgeoy8","address":"1991 Beech Grove Drive","geo_precision":"range","state":"OH"},"type":"Feature","geometry":{"type":"Point","coordinates":[-84.641484,39.131128]}},{"properties":{"city":"Cincinnati","zip":"45208","geo_score":1.0,"id":"aae0q76dz99t","address":"2816 Walsh Road","geo_precision":"range","state":"OH"},"type":"Feature","geometry":{"type":"Point","coordinates":[-84.440876,39.130234]}},{"properties":{"city":"Cincinnati","zip":"45226","geo_score":1.0,"id":"aae0q7gmczoy","address":"1041 Catawba Valley Drive","geo_precision":"range","state":"OH"},"type":"Feature","geometry":{"type":"Point","coordinates":[-84.423386,39.118729]}},{"properties":{"city":"Cincinnati","zip":"45243","geo_score":1.0,"id":"aae0q79do5lh","address":"6400 Shawnee Pines Drive","geo_precision":"range","state":"OH"},"type":"Feature","geometry":{"type":"Point","coordinates":[-84.367703,39.178885]}},{"properties":{"city":"Cincinnati","zip":"45243","geo_score":1.0,"id":"aae0q75520l7","address":"8705 Camargo Club Drive","geo_precision":"range","state":"OH"},"type":"Feature","geometry":{"type":"Point","coordinates":[-84.330142,39.173824]}},{"properties":{"city":"Cincinnati","zip":"45238","geo_score":1.0,"id":"aae0q76lj9if","address":"5339 Palisades Drive","geo_precision":"range","state":"OH"},"type":"Feature","geometry":{"type":"Point","coordinates":[-84.621834,39.084979]}},{"properties":{"city":"Union","zip":"41091","geo_score":0.585,"id":"aae0q79kx78z","address":"1321 Oxley Court","geo_precision":"zip","state":"KY"},"type":"Feature","geometry":{"type":"Point","coordinates":[-84.781614,38.883396]}},{"properties":{"city":"North Bend","zip":"45052","geo_score":1.0,"id":"aae0q7ck6stz","address":"3 Edinburgh Place","geo_precision":"range","state":"OH"},"type":"Feature","geometry":{"type":"Point","coordinates":[-84.738742,39.151234]}},{"properties":{"city":"Palm Beach","zip":"33480","geo_score":1.0,"id":"aae0q75wyt4l","address":"116 El Mirasol","geo_precision":"range","state":"FL"},"type":"Feature","geometry":{"type":"Point","coordinates":[-80.037498,26.727188]}},{"properties":{"city":"Naples","zip":"34119","geo_score":0.585,"id":"aae0q7b0l4ez","address":"4416 Woodmont Court","geo_precision":"zip","state":"FL"},"type":"Feature","geometry":{"type":"Point","coordinates":[-81.66871,26.239288]}},{"properties":{"city":"Cincinnati","zip":"45226","geo_score":1.0,"id":"aae0q7d0jzwe","address":"591 Chardonnay Ridge","geo_precision":"range","state":"OH"},"type":"Feature","geometry":{"type":"Point","coordinates":[-84.42832,39.11883]}},{"properties":{"city":"Cincinnati","zip":"45230","geo_score":1.0,"id":"aae0q7hs4l2k","address":"5848 Beechnut Drive","geo_precision":"range","state":"OH"},"type":"Feature","geometry":{"type":"Point","coordinates":[-84.401337,39.085405]}},{"properties":{"city":"Vandalia","zip":"45377","geo_score":0.415,"id":"aae0q72yvi38","address":"2310 Tadmor Court","geo_precision":"street","state":"OH"},"type":"Feature","geometry":{"type":"Point","coordinates":[-84.403365,39.991267]}},{"properties":{"city":"Cincinnati","zip":"45241","geo_score":1.0,"id":"aae0q72io1xm","address":"3740 Renoir Place","geo_precision":"range","state":"OH"},"type":"Feature","geometry":{"type":"Point","coordinates":[-84.405732,39.246513]}},{"properties":{"city":"Terrace Park","zip":"45174","geo_score":1.0,"id":"aae0q7daijz1","address":"706 Indian Hill Road","geo_precision":"range","state":"OH"},"type":"Feature","geometry":{"type":"Point","coordinates":[-84.309625,39.165664]}},{"properties":{"city":"Union","zip":"41091","geo_score":1.0,"id":"aae0q7elnbt2","address":"11268 Hertz Court","geo_precision":"range","state":"KY"},"type":"Feature","geometry":{"type":"Point","coordinates":[-84.64488,38.916424]}},{"properties":{"city":"Indianapolis","zip":"46260","geo_score":1.0,"id":"aae0q76ios8j","address":"8166 Darnley Court","geo_precision":"range","state":"IN"},"type":"Feature","geometry":{"type":"Point","coordinates":[-86.168303,39.904123]}},{"properties":{"city":"Cincinnati","zip":"45230","geo_score":1.0,"id":"aae0q7bjp4pi","address":"5681 Brookstone Drive","geo_precision":"range","state":"OH"},"type":"Feature","geometry":{"type":"Point","coordinates":[-84.407838,39.076671]}},{"properties":{"city":"Lakeside Park","zip":"41017","geo_score":1.0,"id":"aae0q7664rm9","address":"99 Arcadia Avenue","geo_precision":"range","state":"KY"},"type":"Feature","geometry":{"type":"Point","coordinates":[-84.566826,39.038209]}},{"properties":{"city":"Cincinnati","zip":"45255","geo_score":1.0,"id":"aae0q729avvr","address":"7351 Riverpoint Lane","geo_precision":"range","state":"OH"},"type":"Feature","geometry":{"type":"Point","coordinates":[-84.360902,39.045532]}},{"properties":{"city":"Cincinnati","zip":"45242","geo_score":1.0,"id":"aae0q73p8mi8","address":"9040 Hopewell Road","geo_precision":"range","state":"OH"},"type":"Feature","geometry":{"type":"Point","coordinates":[-84.321266,39.245736]}},{"properties":{"city":"North Bend","zip":"45052","geo_score":1.0,"id":"aae0q741ere1","address":"2701 Rittenhouse Road","geo_precision":"range","state":"OH"},"type":"Feature","geometry":{"type":"Point","coordinates":[-84.770361,39.148734]}},{"properties":{"city":"Cincinnati","zip":"45243","geo_score":1.0,"id":"aae0q77nodv6","address":"9230 Old Indian Hill Road","geo_precision":"range","state":"OH"},"type":"Feature","geometry":{"type":"Point","coordinates":[-84.323671,39.167698]}},{"properties":{"city":"Osprey","zip":"34229","geo_score":0.912,"id":"aae0q7dz2aei","address":"385 N Point Road","geo_precision":"range","state":"FL"},"type":"Feature","geometry":{"type":"Point","coordinates":[-82.495914,27.216618]}},{"properties":{"city":"Cincinnati","zip":"45243","geo_score":0.973,"id":"aae0q7ggq0ji","address":"8700 Deep Run Lane","geo_precision":"range","state":"OH"},"type":"Feature","geometry":{"type":"Point","coordinates":[-84.328273,39.215409]}},{"properties":{"city":"Cincinnati","zip":"45242","geo_score":0.0,"id":"aae0q77hfzuf","address":"9915 Mistymorn Lane","geo_precision":"unmatched","state":"OH"},"type":"Feature","geometry":null},{"properties":{"city":"Cincinnati","zip":"45245","geo_score":0.0,"id":"aae0q7e75070","address":"871 Country Club Drive","geo_precision":"unmatched","state":"OH"},"type":"Feature","geometry":null},{"properties":{"city":"Cincinnati","zip":"45246","geo_score":0.0,"id":"aae0q7ea1ak0","address":"2 Matthews Court","geo_precision":"unmatched","state":"OH"},"type":"Feature","geometry":null},{"properties":{"city":"Loveland","zip":"45140","geo_score":0.0,"id":"aae0q78j4544","address":"6620 Carriage Hill Lane","geo_precision":"unmatched","state":"OH"},"type":"Feature","geometry":null},{"properties":{"city":"Cincinnati","zip":"45213","geo_score":0.0,"id":"aae0q775030e","address":"3320 Beredith Place","geo_precision":"unmatched","state":"OH"},"type":"Feature","geometry":null},{"properties":{"city":"Liberty Township","zip":"45044","geo_score":0.0,"id":"aae0q74hugge","address":"8344 Cardnia Court","geo_precision":"unmatched","state":"OH"},"type":"Feature","geometry":null},{"properties":{"city":"Fort Thomas","zip":"41075","geo_score":0.585,"id":"aae0q74ipkmr","address":"4 Highview Drive","geo_precision":"zip","state":"KY"},"type":"Feature","geometry":{"type":"Point","coordinates":[-84.433552,39.054783]}},{"properties":{"city":"Cincinnati","zip":"45247","geo_score":1.0,"id":"aae0q7946c5k","address":"5536 Jessup Road","geo_precision":"range","state":"OH"},"type":"Feature","geometry":{"type":"Point","coordinates":[-84.631058,39.206238]}},{"properties":{"city":"Fort Thomas","zip":"41075","geo_score":1.0,"id":"aae0q76u8n3p","address":"107 Stanbery Ridge","geo_precision":"range","state":"KY"},"type":"Feature","geometry":{"type":"Point","coordinates":[-84.44852,39.106548]}},{"properties":{"city":"Cincinnati","zip":"45208","geo_score":1.0,"id":"aae0q7fbv8fs","address":"3573 Bayard Drive","geo_precision":"range","state":"OH"},"type":"Feature","geometry":{"type":"Point","coordinates":[-84.428718,39.141214]}},{"properties":{"city":"Carlsbad","zip":"92011","geo_score":0.938,"id":"aae0q7a0ynfo","address":"7324 Melodia Terrace","geo_precision":"range","state":"CA"},"type":"Feature","geometry":{"type":"Point","coordinates":[-117.297925,33.094327]}},{"properties":{"city":"Union","zip":"41091","geo_score":1.0,"id":"aae0q7cux2ag","address":"10815 Omaha Trace","geo_precision":"range","state":"KY"},"type":"Feature","geometry":{"type":"Point","coordinates":[-84.648137,38.923717]}},{"properties":{"city":"Cincinnati","zip":"45208","geo_score":1.0,"id":"aae0q77ws79r","address":"4 Grandin Terrace","geo_precision":"range","state":"OH"},"type":"Feature","geometry":{"type":"Point","coordinates":[-84.439872,39.122486]}},{"properties":{"city":"North Chatham","zip":"2650","geo_score":1.0,"id":"aae0q71av174","address":"97 Captains Walk","geo_precision":"range","state":"MA"},"type":"Feature","geometry":{"type":"Point","coordinates":[-69.95618,41.695962]}},{"properties":{"city":"Cincinnati","zip":"45227","geo_score":0.0,"id":"aae0q7ec8qxc","address":"7275 Mariemont Crescent","geo_precision":"unmatched","state":"OH"},"type":"Feature","geometry":null},{"properties":{"city":"Northfield","zip":"60093","geo_score":0.0,"id":"aae0q7ddehyf","address":"11 Regent Wood Road","geo_precision":"unmatched","state":"IL"},"type":"Feature","geometry":null},{"properties":{"city":"Cincinnati","zip":"45243","geo_score":0.707,"id":"aae0q77pst7l","address":"5005 Willow Hills Lane","geo_precision":"street","state":"OH"},"type":"Feature","geometry":{"type":"Point","coordinates":[-84.577726,39.242588]}},{"properties":{"city":"Greenwood","zip":"46142","geo_score":0.585,"id":"aae0q72vbmea","address":"4094 Rockingchair Road","geo_precision":"zip","state":"IN"},"type":"Feature","geometry":{"type":"Point","coordinates":[-86.100454,39.491246]}},{"properties":{"city":"Cincinnati","zip":"45243","geo_score":1.0,"id":"aae0q71hfbx9","address":"9005 Given Road","geo_precision":"range","state":"OH"},"type":"Feature","geometry":{"type":"Point","coordinates":[-84.321667,39.223683]}},{"properties":{"city":"Naples","zip":"34102","geo_score":1.0,"id":"aae0q7h7bm8w","address":"605 Bougainvillea Road","geo_precision":"range","state":"FL"},"type":"Feature","geometry":{"type":"Point","coordinates":[-81.803358,26.155426]}},{"properties":{"city":"Cincinnati","zip":"45213","geo_score":0.0,"id":"aae0q7eqstgb","address":"3184 Dot Drive","geo_precision":"unmatched","state":"OH"},"type":"Feature","geometry":null},{"properties":{"city":"Cincinnati","zip":"45224","geo_score":0.585,"id":"aae0q7e8lyxe","address":"1443 Thomwood Drive","geo_precision":"zip","state":"OH"},"type":"Feature","geometry":{"type":"Point","coordinates":[-84.524666,39.203669]}},{"properties":{"city":"Greensboro","zip":"30642","geo_score":1.0,"id":"aae0q77owmxd","address":"3390 Linger Longer Road","geo_precision":"range","state":"GA"},"type":"Feature","geometry":{"type":"Point","coordinates":[-83.211093,33.405744]}},{"properties":{"city":"Cincinnati","zip":"45202","geo_score":0.0,"id":"aae0q78k5e4d","address":"380 Baum Street","geo_precision":"unmatched","state":"OH"},"type":"Feature","geometry":null},{"properties":{"city":"Newport","zip":"41071","geo_score":0.0,"id":"aae0q7aufq6k","address":"113 Watch Hill Lane","geo_precision":"unmatched","state":"KY"},"type":"Feature","geometry":null},{"properties":{"city":"Edgewood","zip":"41017","geo_score":0.0,"id":"aae0q74glr1u","address":"3315 Kruer Court","geo_precision":"unmatched","state":"KY"},"type":"Feature","geometry":null},{"properties":{"city":"Cincinnati","zip":"45243","geo_score":0.585,"id":"aae0q794tnbh","address":"9075 Cunningham Road","geo_precision":"zip","state":"OH"},"type":"Feature","geometry":{"type":"Point","coordinates":[-84.295771,39.249781]}},{"properties":{"city":"Blackwood","zip":"8012","geo_score":0.854,"id":"aae0q785tdx1","address":"300 Green View Terrace","geo_precision":"range","state":"NJ"},"type":"Feature","geometry":{"type":"Point","coordinates":[-75.056109,39.754934]}},{"properties":{"city":"North Venice","zip":"34275","geo_score":0.737,"id":"aae0q75pqrwa","address":"238 Martellago Drive","geo_precision":"street","state":"FL"},"type":"Feature","geometry":{"type":"Point","coordinates":[-82.377592,27.14629]}},{"properties":{"city":"Crestview Hills","zip":"41017","geo_score":0.0,"id":"aae0q7hrpfg3","address":"2483 Legends Way","geo_precision":"unmatched","state":"KY"},"type":"Feature","geometry":null},{"properties":{"city":"Indianapolis","zip":"46256","geo_score":1.0,"id":"aae0q7fh21gw","address":"9650 Farragut Circle","geo_precision":"range","state":"IN"},"type":"Feature","geometry":{"type":"Point","coordinates":[-85.968102,39.930283]}},{"properties":{"city":"West Chester","zip":"45069","geo_score":1.0,"id":"aae0q71lswuy","address":"7299 Country Club Lane","geo_precision":"range","state":"OH"},"type":"Feature","geometry":{"type":"Point","coordinates":[-84.3817,39.361506]}},{"properties":{"city":"Cincinnati","zip":"45230","geo_score":0.0,"id":"aae0q71pexua","address":"6969 Gammwell Drive","geo_precision":"unmatched","state":"OH"},"type":"Feature","geometry":null},{"properties":{"city":"Lafayette","zip":"47905","geo_score":1.0,"id":"aae0q74m6a00","address":"1410 Castle Drive","geo_precision":"range","state":"IN"},"type":"Feature","geometry":{"type":"Point","coordinates":[-86.809431,40.442763]}},{"properties":{"city":"Cincinnati","zip":"45233","geo_score":0.0,"id":"aae0q74yz7lr","address":"7395 Southpointe Drive","geo_precision":"unmatched","state":"OH"},"type":"Feature","geometry":null},{"properties":{"city":"Ft Washington","zip":"20744","geo_score":0.987,"id":"aae0q7a2dzya","address":"12614 Tartan Lane","geo_precision":"range","state":"MD"},"type":"Feature","geometry":{"type":"Point","coordinates":[-77.011839,38.720783]}},{"properties":{"city":"Cincinnati","zip":"45242","geo_score":0.0,"id":"aae0q7d803o0","address":"5600 Myerdale Drive","geo_precision":"unmatched","state":"OH"},"type":"Feature","geometry":null},{"properties":{"city":"Cincinnati","zip":"45209","geo_score":0.0,"id":"aae0q79965gm","address":"3830 Eileen Drive","geo_precision":"unmatched","state":"OH"},"type":"Feature","geometry":null},{"properties":{"city":"River Forest","zip":"60305","geo_score":0.0,"id":"aae0q7dik5lw","address":"1129 Park Avenue","geo_precision":"unmatched","state":"IL"},"type":"Feature","geometry":null},{"properties":{"city":"Camp Dennison","zip":"45111","geo_score":0.585,"id":"aae0q7a2446k","address":"9875 Jackson Street","geo_precision":"zip","state":"OH"},"type":"Feature","geometry":{"type":"Point","coordinates":[-84.303075,39.19977]}},{"properties":{"city":"Cincinnati","zip":"45243","geo_score":0.0,"id":"aae0q74ftykz","address":"8525 Fox Cub Lane","geo_precision":"unmatched","state":"OH"},"type":"Feature","geometry":null},{"properties":{"city":"Cincinnati","zip":"45208","geo_score":0.0,"id":"aae0q77dpnnx","address":"2180 Grandin Road","geo_precision":"unmatched","state":"OH"},"type":"Feature","geometry":null},{"properties":{"city":"Boston","zip":"2118","geo_score":0.0,"id":"aae0q74a0o8t","address":"142 W Newton Street","geo_precision":"unmatched","state":"MA"},"type":"Feature","geometry":null},{"properties":{"city":"Cincinnati","zip":"45208","geo_score":0.0,"id":"aae0q7bt2r6f","address":"6 Grandin Lane","geo_precision":"unmatched","state":"OH"},"type":"Feature","geometry":null},{"properties":{"city":"Cincinnati","zip":"45243","geo_score":0.0,"id":"aae0q7938qpc","address":"7300 Sanderson Place","geo_precision":"unmatched","state":"OH"},"type":"Feature","geometry":null},{"properties":{"city":"Cincinnati","zip":"45255","geo_score":0.0,"id":"aae0q73w96mz","address":"7757 Hopper Road","geo_precision":"unmatched","state":"OH"},"type":"Feature","geometry":null},{"properties":{"city":"Cincinnati","zip":"45233","geo_score":0.0,"id":"aae0q7ct58r6","address":"2388 Quail Run Farm Lane","geo_precision":"unmatched","state":"OH"},"type":"Feature","geometry":null},{"properties":{"city":"Cincinnati","zip":"45208","geo_score":0.0,"id":"aae0q74xgzkx","address":"3578 Monteith Avenue","geo_precision":"unmatched","state":"OH"},"type":"Feature","geometry":null},{"properties":{"city":"Cincinnati","zip":"45224","geo_score":0.0,"id":"aae0q7f9cl90","address":"6407 Meis Avenue","geo_precision":"unmatched","state":"OH"},"type":"Feature","geometry":null},{"properties":{"city":"Cincinnati","zip":"45243","geo_score":0.0,"id":"aae0q79xkcj0","address":"5900 Graves Lake Drive","geo_precision":"unmatched","state":"OH"},"type":"Feature","geometry":null},{"properties":{"city":"Cincinnati","zip":"45243","geo_score":0.0,"id":"aae0q78rwj3y","address":"5035 Taft Place","geo_precision":"unmatched","state":"OH"},"type":"Feature","geometry":null},{"properties":{"city":"Cincinnati","zip":"45255","geo_score":0.0,"id":"aae0q7cb8fao","address":"301 Bishopsbridge Drive","geo_precision":"unmatched","state":"OH"},"type":"Feature","geometry":null},{"properties":{"city":"Cincinnati","zip":"45208","geo_score":0.0,"id":"aae0q71yhm8o","address":"3664 Kendall Avenue","geo_precision":"unmatched","state":"OH"},"type":"Feature","geometry":null},{"properties":{"city":"Cincinnati","zip":"45242","geo_score":0.0,"id":"aae0q747qj12","address":"8015 Remington Road","geo_precision":"unmatched","state":"OH"},"type":"Feature","geometry":null},{"properties":{"city":"Cincinnati","zip":"45243","geo_score":0.0,"id":"aae0q7961ijw","address":"8725 Blome Road","geo_precision":"unmatched","state":"OH"},"type":"Feature","geometry":null},{"properties":{"city":"Loveland","zip":"45140","geo_score":1.0,"id":"aae0q7eduqnn","address":"6620 Carriage Hill Lane","geo_precision":"range","state":"OH"},"type":"Feature","geometry":{"type":"Point","coordinates":[-84.245061,39.239656]}},{"properties":{"city":"Cincinnati","zip":"45243","geo_score":0.0,"id":"aae0q779gted","address":"6175 S Clippinger Drive","geo_precision":"unmatched","state":"OH"},"type":"Feature","geometry":null},{"properties":{"city":"Cincinnati","zip":"45238","geo_score":0.0,"id":"aae0q7dg9tmg","address":"1330 Pennsbury Drive","geo_precision":"unmatched","state":"OH"},"type":"Feature","geometry":null},{"properties":{"city":"Crescent Springs","zip":"41017","geo_score":0.585,"id":"aae0q73ko7qf","address":"851 Twilight Drive","geo_precision":"zip","state":"KY"},"type":"Feature","geometry":{"type":"Point","coordinates":[-84.593,39.063393]}},{"properties":{"city":"New Albany","zip":"47150","geo_score":1.0,"id":"aae0q76fafqp","address":"1560 Sunset Drive","geo_precision":"range","state":"IN"},"type":"Feature","geometry":{"type":"Point","coordinates":[-85.845301,38.286717]}},{"properties":{"city":"Cincinnati","zip":"45241","geo_score":0.0,"id":"aae0q73d76wu","address":"2966 Stanwin Place","geo_precision":"unmatched","state":"OH"},"type":"Feature","geometry":null},{"properties":{"city":"Honolulu","zip":"96822","geo_score":0.0,"id":"aae0q796o1rh","address":"3186 Huelani Drive","geo_precision":"unmatched","state":"HI"},"type":"Feature","geometry":null},{"properties":{"city":"Cincinnati","zip":"45247","geo_score":0.0,"id":"aae0q72s3pq2","address":"6106 Johnson Road","geo_precision":"unmatched","state":"OH"},"type":"Feature","geometry":null},{"properties":{"city":"Cincinnati","zip":"45208","geo_score":0.0,"id":"aae0q7a9v6zc","address":"2290 Dana Avenue","geo_precision":"unmatched","state":"OH"},"type":"Feature","geometry":null},{"properties":{"city":"Cincinnati","zip":"45241","geo_score":0.0,"id":"aae0q72krihs","address":"3608 Carpenters Green Lane","geo_precision":"unmatched","state":"OH"},"type":"Feature","geometry":null},{"properties":{"city":"Cincinnati","zip":"45243","geo_score":0.0,"id":"aae0q77594qh","address":"7949 Graves Road","geo_precision":"unmatched","state":"OH"},"type":"Feature","geometry":null},{"properties":{"city":"Cincinnati","zip":"45208","geo_score":0.0,"id":"aae0q7buq8cs","address":"1220 Edwards Road","geo_precision":"unmatched","state":"OH"},"type":"Feature","geometry":null},{"properties":{"city":"Lake Forest","zip":"60045","geo_score":1.0,"id":"aae0q7hprhbk","address":"644 Spruce Avenue","geo_precision":"range","state":"IL"},"type":"Feature","geometry":{"type":"Point","coordinates":[-87.829312,42.265706]}},{"properties":{"city":"Alexandria","zip":"22315","geo_score":0.585,"id":"aae0q75dswbc","address":"7451 Gillingham Row","geo_precision":"zip","state":"VA"},"type":"Feature","geometry":{"type":"Point","coordinates":[-77.147646,38.756466]}},{"properties":{"city":"Cincinnati","zip":"45227","geo_score":0.0,"id":"aae0q78jqaop","address":"4364 Centennial Drive","geo_precision":"unmatched","state":"OH"},"type":"Feature","geometry":null},{"properties":{"city":"Cleves","zip":"45002","geo_score":0.512,"id":"aae0q76zvbwi","address":"8075 Hamptonshire Drive","geo_precision":"street","state":"OH"},"type":"Feature","geometry":{"type":"Point","coordinates":[-84.343177,39.366546]}},{"properties":{"city":"Millsboro","zip":"19966","geo_score":0.647,"id":"aae0q7ezwvgr","address":"26955 Sugar Sand Lane","geo_precision":"street","state":"DE"},"type":"Feature","geometry":{"type":"Point","coordinates":[-75.155114,38.617853]}},{"properties":{"city":"Cincinnati","zip":"45208","geo_score":0.941,"id":"aae0q7gdpse9","address":"22 Hampton Lane","geo_precision":"range","state":"OH"},"type":"Feature","geometry":{"type":"Point","coordinates":[-84.411051,39.145648]}},{"properties":{"city":"Loveland","zip":"45140","geo_score":1.0,"id":"aae0q78401u1","address":"1640 Fairway Crst","geo_precision":"range","state":"OH"},"type":"Feature","geometry":{"type":"Point","coordinates":[-84.238532,39.241628]}},{"properties":{"city":"Cincinnati","zip":"45202","geo_score":1.0,"id":"aae0q7f65tcq","address":"440 Whitman Court","geo_precision":"range","state":"OH"},"type":"Feature","geometry":{"type":"Point","coordinates":[-84.461838,39.126059]}},{"properties":{"city":"Cincinnati","zip":"45208","geo_score":1.0,"id":"aae0q7cadiut","address":"3847 Country Club Place","geo_precision":"range","state":"OH"},"type":"Feature","geometry":{"type":"Point","coordinates":[-84.411694,39.150135]}},{"properties":{"city":"Blacklick","zip":"43004","geo_score":1.0,"id":"aae0q792ku3s","address":"2518 Darling Road","geo_precision":"range","state":"OH"},"type":"Feature","geometry":{"type":"Point","coordinates":[-82.817121,40.033844]}},{"properties":{"city":"Evanston","zip":"60201","geo_score":1.0,"id":"aae0q79eij1s","address":"2100 Greenwood Street","geo_precision":"range","state":"IL"},"type":"Feature","geometry":{"type":"Point","coordinates":[-87.703769,42.042653]}},{"properties":{"city":"Cincinnati","zip":"45244","geo_score":1.0,"id":"aae0q76rpprm","address":"3608 Mount Carmel Road","geo_precision":"range","state":"OH"},"type":"Feature","geometry":{"type":"Point","coordinates":[-84.309001,39.120824]}},{"properties":{"city":"Cincinnati","zip":"45244","geo_score":1.0,"id":"aae0q790pzpp","address":"2656 Montchateau Drive","geo_precision":"range","state":"OH"},"type":"Feature","geometry":{"type":"Point","coordinates":[-84.34263,39.103934]}},{"properties":{"city":"Cold Spring","zip":"41076","geo_score":0.805,"id":"aae0q7cr8e3s","address":"459 Darlas Drive","geo_precision":"street","state":"KY"},"type":"Feature","geometry":{"type":"Point","coordinates":[-84.454217,39.014748]}},{"properties":{"city":"Cincinnati","zip":"45208","geo_score":1.0,"id":"aae0q7cfm1wd","address":"2887 Alpine Terrace","geo_precision":"range","state":"OH"},"type":"Feature","geometry":{"type":"Point","coordinates":[-84.436219,39.127366]}},{"properties":{"city":"Cincinnati","zip":"45226","geo_score":1.0,"id":"aae0q7av3j7j","address":"736 Elsinboro Drive","geo_precision":"range","state":"OH"},"type":"Feature","geometry":{"type":"Point","coordinates":[-84.426653,39.113629]}},{"properties":{"city":"Santa Barbara","zip":"93101","geo_score":1.0,"id":"aae0q7dlza7x","address":"1216 State Street","geo_precision":"range","state":"CA"},"type":"Feature","geometry":{"type":"Point","coordinates":[-119.705505,34.424196]}},{"properties":{"city":"Redmond","zip":"98053","geo_score":0.941,"id":"aae0q78znatc","address":"21846 NE 69th Street","geo_precision":"range","state":"WA"},"type":"Feature","geometry":{"type":"Point","coordinates":[-122.046318,47.667074]}},{"properties":{"city":"Flat Rock","zip":"28731","geo_score":0.902,"id":"aae0q7dze2cb","address":"116 Scenic Drive","geo_precision":"range","state":"NC"},"type":"Feature","geometry":{"type":"Point","coordinates":[-82.452208,35.262921]}},{"properties":{"city":"Boca Grande","zip":"33921","geo_score":0.809,"id":"aae0q75lvu7y","address":"16350 Gulf Shores Drive","geo_precision":"street","state":"FL"},"type":"Feature","geometry":{"type":"Point","coordinates":[-82.276889,26.799764]}},{"properties":{"city":"Cincinnati","zip":"45248","geo_score":1.0,"id":"aae0q73kz8qa","address":"3025 Southfork Drive","geo_precision":"range","state":"OH"},"type":"Feature","geometry":{"type":"Point","coordinates":[-84.641125,39.140521]}},{"properties":{"city":"Glendale","zip":"45246","geo_score":1.0,"id":"aae0q7ai49rq","address":"160 E Fountain Avenue","geo_precision":"range","state":"OH"},"type":"Feature","geometry":{"type":"Point","coordinates":[-84.462132,39.270121]}},{"properties":{"city":"Cincinnati","zip":"45226","geo_score":1.0,"id":"aae0q7fu177s","address":"3733 Vineyard Place","geo_precision":"range","state":"OH"},"type":"Feature","geometry":{"type":"Point","coordinates":[-84.427599,39.116182]}},{"properties":{"city":"Lakeside Park","zip":"41017","geo_score":1.0,"id":"aae0q747ns5p","address":"207 Penwood Road","geo_precision":"range","state":"KY"},"type":"Feature","geometry":{"type":"Point","coordinates":[-84.573426,39.039237]}},{"properties":{"city":"Liberty Township","zip":"45044","geo_score":0.904,"id":"aae0q792t13k","address":"8304 Cardnia Court","geo_precision":"range","state":"OH"},"type":"Feature","geometry":{"type":"Point","coordinates":[-84.347153,39.372752]}},{"properties":{"city":"Lake Forest","zip":"60045","geo_score":1.0,"id":"aae0q71fnb2r","address":"359 Butler Drive","geo_precision":"range","state":"IL"},"type":"Feature","geometry":{"type":"Point","coordinates":[-87.843513,42.233949]}},{"properties":{"city":"Cincinnati","zip":"45208","geo_score":1.0,"id":"aae0q79sacmx","address":"2987 Alpine Terrace","geo_precision":"range","state":"OH"},"type":"Feature","geometry":{"type":"Point","coordinates":[-84.438966,39.128388]}},{"properties":{"city":"Cincinnati","zip":"45206","geo_score":1.0,"id":"aae0q77opllf","address":"2412 Ingleside Avenue","geo_precision":"range","state":"OH"},"type":"Feature","geometry":{"type":"Point","coordinates":[-84.477527,39.124679]}},{"properties":{"city":"Cincinnati","zip":"45243","geo_score":1.0,"id":"aae0q74w7mbs","address":"8520 Camargo Road","geo_precision":"range","state":"OH"},"type":"Feature","geometry":{"type":"Point","coordinates":[-84.339287,39.199295]}},{"properties":{"city":"Cincinnati","zip":"45208","geo_score":0.963,"id":"aae0q7el3o51","address":"3555 Herschel View Street","geo_precision":"range","state":"OH"},"type":"Feature","geometry":{"type":"Point","coordinates":[-84.420644,39.139024]}},{"properties":{"city":"Fort Thomas","zip":"41075","geo_score":1.0,"id":"aae0q7gbwgd2","address":"20 Crown Point","geo_precision":"range","state":"KY"},"type":"Feature","geometry":{"type":"Point","coordinates":[-84.442797,39.070956]}},{"properties":{"city":"Cincinnati","zip":"45238","geo_score":1.0,"id":"aae0q7e10wo3","address":"5495 Foley Road","geo_precision":"range","state":"OH"},"type":"Feature","geometry":{"type":"Point","coordinates":[-84.626206,39.104852]}},{"properties":{"city":"Louisville","zip":"40206","geo_score":1.0,"id":"aae0q7ahyguc","address":"613 Briar Hill Road","geo_precision":"range","state":"KY"},"type":"Feature","geometry":{"type":"Point","coordinates":[-85.674424,38.246683]}},{"properties":{"city":"Naples","zip":"34102","geo_score":0.927,"id":"aae0q7ds9u78","address":"1979 4th Street S","geo_precision":"range","state":"FL"},"type":"Feature","geometry":{"type":"Point","coordinates":[-81.799609,26.124783]}},{"properties":{"city":"Frankfort","zip":"60423","geo_score":1.0,"id":"aae0q79mq1oa","address":"517 Aberdeen Road","geo_precision":"range","state":"IL"},"type":"Feature","geometry":{"type":"Point","coordinates":[-87.797046,41.493574]}},{"properties":{"city":"Cincinnati","zip":"45233","geo_score":1.0,"id":"aae0q79g5p14","address":"7289 Kirkridge Drive","geo_precision":"range","state":"OH"},"type":"Feature","geometry":{"type":"Point","coordinates":[-84.687855,39.13733]}},{"properties":{"city":"Cincinnati","zip":"45208","geo_score":1.0,"id":"aae0q7581ada","address":"3039 Erie Avenue","geo_precision":"range","state":"OH"},"type":"Feature","geometry":{"type":"Point","coordinates":[-84.429199,39.138184]}},{"properties":{"city":"Greenwich","zip":"6830","geo_score":1.0,"id":"aae0q7c88e7i","address":"45 Orchard Drive","geo_precision":"range","state":"CT"},"type":"Feature","geometry":{"type":"Point","coordinates":[-73.614735,41.027002]}},{"properties":{"city":"Bellevue","zip":"98004","geo_score":1.0,"id":"aae0q769lttt","address":"1106 108th Avenue NE","geo_precision":"range","state":"WA"},"type":"Feature","geometry":{"type":"Point","coordinates":[-122.196247,47.620986]}},{"properties":{"city":"Cincinnati","zip":"45244","geo_score":1.0,"id":"aae0q74ow6je","address":"8075 Wycliffe Drive","geo_precision":"range","state":"OH"},"type":"Feature","geometry":{"type":"Point","coordinates":[-84.332805,39.115262]}},{"properties":{"city":"Cincinnati","zip":"45243","geo_score":1.0,"id":"aae0q79jtgvs","address":"6325 Shadyglen Road","geo_precision":"range","state":"OH"},"type":"Feature","geometry":{"type":"Point","coordinates":[-84.349193,39.179884]}},{"properties":{"city":"Cincinnati","zip":"45242","geo_score":1.0,"id":"aae0q7du5ule","address":"9115 Whisperinghill Drive","geo_precision":"range","state":"OH"},"type":"Feature","geometry":{"type":"Point","coordinates":[-84.314352,39.241272]}},{"properties":{"city":"Austin","zip":"78735","geo_score":1.0,"id":"aae0q74la3ql","address":"3005 Maravillas Loop","geo_precision":"range","state":"TX"},"type":"Feature","geometry":{"type":"Point","coordinates":[-97.873305,30.287]}},{"properties":{"city":"Cincinnati","zip":"45233","geo_score":1.0,"id":"aae0q797z4na","address":"5791 Cleves Warsaw Pike","geo_precision":"range","state":"OH"},"type":"Feature","geometry":{"type":"Point","coordinates":[-84.635802,39.120002]}},{"properties":{"city":"Cincinnati","zip":"45255","geo_score":0.977,"id":"aae0q7hcyy96","address":"7931 Bar Harbor Drive","geo_precision":"range","state":"OH"},"type":"Feature","geometry":{"type":"Point","coordinates":[-84.338694,39.064545]}},{"properties":{"city":"Cincinnati","zip":"45248","geo_score":1.0,"id":"aae0q7h42dy8","address":"3278 Bridgestone Court","geo_precision":"range","state":"OH"},"type":"Feature","geometry":{"type":"Point","coordinates":[-84.64541,39.14563]}}],"is_temporal":false,"author":{"url":"","metadata":"","contact_name":"","contact_address":"","source":"","contact_phone":""},"source":"","pagination":{"sort":null,"start":0,"total":200,"limit":1000000},"state":"complete","tags":"","published":"2014-08-16T13:25:26-04:00","id":300547}