{"type":"FeatureCollection","data_type":"Dataset","url_type":null,"permissions":[{"permissions":{"download":true,"view":true},"group_id":"everyone"}],"classification":null,"title":"Chi-affordablehousing-Wards","count":516,"stream_id":300594,"contributor":{"url":"http://geocommons.com/users/56374","name":"Dameron311850"},"data_attributes":null,"calculation_params":null,"icon_link":null,"link":"http://geocommons.com/overlays/300594.json","extent":[0.0,0.0,0.0,0.0],"geometry_types":[],"unique_name":null,"name":"Chi-affordablehousing-Wards","feature_count":516,"description":"","next_feature":null,"is_raster":false,"short_classification":"Y","stats":{"units":{"max":127,"mean":4.77713178294574,"variance":87.7385828253179,"stdev":9.36688757407272,"median":2,"min":1},"ward":{"max":50,"mean":22.1608527131783,"variance":224.123590727779,"stdev":14.9707578541562,"median":21,"min":1}},"features":[{"properties":{"units":3,"geo_score":0.0,"ils":"0-15%","id":"aae567a6i8y2","address":"2735 W. Chanay","geo_precision":"unmatched","ward":1},"type":"Feature","geometry":null},{"properties":{"units":1,"geo_score":0.0,"ils":"16-30%","id":"aae567d4oqps","address":"2658 W. Armitage","geo_precision":"unmatched","ward":1},"type":"Feature","geometry":null},{"properties":{"units":1,"geo_score":0.0,"ils":"16-30%","id":"aae5670bsk8a","address":"266 S. Sacramento","geo_precision":"unmatched","ward":1},"type":"Feature","geometry":null},{"properties":{"units":16,"geo_score":0.0,"ils":"16-30%","id":"aae5679ygpou","address":"1567 N. Hoyne","geo_precision":"unmatched","ward":1},"type":"Feature","geometry":null},{"properties":{"units":1,"geo_score":0.0,"ils":"16-30%","id":"aae5679aw829","address":"2944 N. Rockwell","geo_precision":"unmatched","ward":1},"type":"Feature","geometry":null},{"properties":{"units":2,"geo_score":0.0,"ils":"16-30%","id":"aae566xnaw2j","address":"3415 W. Lyndale","geo_precision":"unmatched","ward":1},"type":"Feature","geometry":null},{"properties":{"units":1,"geo_score":0.0,"ils":"0-15%","id":"aae566xm9kjv","address":"2540 W. Augusta","geo_precision":"unmatched","ward":1},"type":"Feature","geometry":null},{"properties":{"units":1,"geo_score":0.0,"ils":"16-30%","id":"aae56701yp52","address":"2540 W. Augusta","geo_precision":"unmatched","ward":1},"type":"Feature","geometry":null},{"properties":{"units":1,"geo_score":0.0,"ils":"0-15%","id":"aae566xg6f83","address":"2856 N. Rockwell","geo_precision":"unmatched","ward":1},"type":"Feature","geometry":null},{"properties":{"units":1,"geo_score":0.0,"ils":"0-15%","id":"aae56715x3f9","address":"1527 N. Wicker Park","geo_precision":"unmatched","ward":1},"type":"Feature","geometry":null},{"properties":{"units":30,"geo_score":0.0,"ils":"16-30%","id":"aae5671dgzbl","address":"2517 W. Fullerton","geo_precision":"unmatched","ward":1},"type":"Feature","geometry":null},{"properties":{"units":1,"geo_score":0.0,"ils":"0-15%","id":"aae566yoq3th","address":"319 S. California","geo_precision":"unmatched","ward":2},"type":"Feature","geometry":null},{"properties":{"units":1,"geo_score":0.0,"ils":"0-15%","id":"aae566ymuzib","address":"2847 W. Congress","geo_precision":"unmatched","ward":2},"type":"Feature","geometry":null},{"properties":{"units":24,"geo_score":0.0,"ils":"0-15%","id":"aae5672yaoiv","address":"2710 W. Jackson","geo_precision":"unmatched","ward":2},"type":"Feature","geometry":null},{"properties":{"units":1,"geo_score":0.0,"ils":"0-15%","id":"aae5679llav8","address":"2724 W. Jackson","geo_precision":"unmatched","ward":2},"type":"Feature","geometry":null},{"properties":{"units":2,"geo_score":0.0,"ils":"0-15%","id":"aae567bk95ss","address":"116 S. California","geo_precision":"unmatched","ward":2},"type":"Feature","geometry":null},{"properties":{"units":1,"geo_score":0.0,"ils":"16-30%","id":"aae56773cr3o","address":"116 S. California","geo_precision":"unmatched","ward":2},"type":"Feature","geometry":null},{"properties":{"units":6,"geo_score":0.0,"ils":"16-30%","id":"aae5673k5cjp","address":"122 S. California","geo_precision":"unmatched","ward":2},"type":"Feature","geometry":null},{"properties":{"units":21,"geo_score":0.0,"ils":"0-15%","id":"aae566wvxekn","address":"1521 S. Wabash","geo_precision":"unmatched","ward":2},"type":"Feature","geometry":null},{"properties":{"units":5,"geo_score":0.0,"ils":"16-30%","id":"aae567c091vt","address":"1521 S. Wabash","geo_precision":"unmatched","ward":2},"type":"Feature","geometry":null},{"properties":{"units":4,"geo_score":0.0,"ils":"0-15%","id":"aae5676p4zo2","address":"4750 S. Michigan","geo_precision":"unmatched","ward":3},"type":"Feature","geometry":null},{"properties":{"units":4,"geo_score":0.0,"ils":"16-30%","id":"aae5678pltvi","address":"4750 S. Michigan","geo_precision":"unmatched","ward":3},"type":"Feature","geometry":null},{"properties":{"units":3,"geo_score":0.0,"ils":"0-15%","id":"aae5673y0rwf","address":"3840 S. King Drive","geo_precision":"unmatched","ward":3},"type":"Feature","geometry":null},{"properties":{"units":1,"geo_score":0.0,"ils":"16-30%","id":"aae5671yooem","address":"3840 S. King Drive","geo_precision":"unmatched","ward":3},"type":"Feature","geometry":null},{"properties":{"units":1,"geo_score":0.0,"ils":"0-15%","id":"aae56757j6n5","address":"4221 S. Prairie","geo_precision":"unmatched","ward":3},"type":"Feature","geometry":null},{"properties":{"units":1,"geo_score":0.0,"ils":"0-15%","id":"aae567015wbi","address":"4463 S. Shields","geo_precision":"unmatched","ward":3},"type":"Feature","geometry":null},{"properties":{"units":2,"geo_score":0.0,"ils":"0-15%","id":"aae567da5z7i","address":"5161 S. Michigan","geo_precision":"unmatched","ward":3},"type":"Feature","geometry":null},{"properties":{"units":3,"geo_score":0.0,"ils":"0-15%","id":"aae5674syz4z","address":"4637 S. Prairie","geo_precision":"unmatched","ward":3},"type":"Feature","geometry":null},{"properties":{"units":1,"geo_score":0.0,"ils":"0-15%","id":"aae567aux6ri","address":"5611 S. Lafayette","geo_precision":"unmatched","ward":3},"type":"Feature","geometry":null},{"properties":{"units":2,"geo_score":0.0,"ils":"16-30%","id":"aae56730zzso","address":"4824 S. Prairie","geo_precision":"unmatched","ward":3},"type":"Feature","geometry":null},{"properties":{"units":1,"geo_score":0.0,"ils":"0-15%","id":"aae567chnlmj","address":"4749 S. Throop","geo_precision":"unmatched","ward":3},"type":"Feature","geometry":null},{"properties":{"units":2,"geo_score":0.0,"ils":"16-30%","id":"aae56768bpex","address":"4748 S. Wabash","geo_precision":"unmatched","ward":3},"type":"Feature","geometry":null},{"properties":{"units":1,"geo_score":0.0,"ils":"0-15%","id":"aae5670y2oot","address":"5152 S. King Drive","geo_precision":"unmatched","ward":3},"type":"Feature","geometry":null},{"properties":{"units":1,"geo_score":0.0,"ils":"0-15%","id":"aae567appit5","address":"4149 S. Wells","geo_precision":"unmatched","ward":3},"type":"Feature","geometry":null},{"properties":{"units":7,"geo_score":0.0,"ils":"16-30%","id":"aae567crk365","address":"2111 S. Clark","geo_precision":"unmatched","ward":3},"type":"Feature","geometry":null},{"properties":{"units":11,"geo_score":0.0,"ils":"0-15%","id":"aae5676ocfx3","address":"5049 S. King Drive","geo_precision":"unmatched","ward":3},"type":"Feature","geometry":null},{"properties":{"units":4,"geo_score":0.0,"ils":"16-30%","id":"aae56758bvp5","address":"5049 S. King Drive","geo_precision":"unmatched","ward":3},"type":"Feature","geometry":null},{"properties":{"units":1,"geo_score":0.0,"ils":"16-30%","id":"aae5676iyit4","address":"4945 S. Halsted","geo_precision":"unmatched","ward":3},"type":"Feature","geometry":null},{"properties":{"units":7,"geo_score":0.0,"ils":"0-15%","id":"aae567aimzpi","address":"202 E. Garfield","geo_precision":"unmatched","ward":3},"type":"Feature","geometry":null},{"properties":{"units":29,"geo_score":0.0,"ils":"16-30%","id":"aae567bmec5z","address":"202 E. Garfield","geo_precision":"unmatched","ward":3},"type":"Feature","geometry":null},{"properties":{"units":1,"geo_score":0.0,"ils":"16-30%","id":"aae567anj3za","address":"4751 S. Vincennes","geo_precision":"unmatched","ward":3},"type":"Feature","geometry":null},{"properties":{"units":3,"geo_score":0.0,"ils":"0-15%","id":"aae567bvv88a","address":"4457 S. Indiana","geo_precision":"unmatched","ward":3},"type":"Feature","geometry":null},{"properties":{"units":2,"geo_score":0.0,"ils":"16-30%","id":"aae566zrm7f9","address":"4457 S. Indiana","geo_precision":"unmatched","ward":3},"type":"Feature","geometry":null},{"properties":{"units":2,"geo_score":0.0,"ils":"0-15%","id":"aae566wx1pmh","address":"4927 S. Prairie","geo_precision":"unmatched","ward":3},"type":"Feature","geometry":null},{"properties":{"units":1,"geo_score":0.0,"ils":"0-15%","id":"aae5678d5fkj","address":"4341 S. Greenwood","geo_precision":"unmatched","ward":4},"type":"Feature","geometry":null},{"properties":{"units":13,"geo_score":0.0,"ils":"0-15%","id":"aae5675dpmrw","address":"3515 S. Cottage Grove","geo_precision":"unmatched","ward":4},"type":"Feature","geometry":null},{"properties":{"units":2,"geo_score":0.0,"ils":"0-15%","id":"aae567c7nd8h","address":"5220 S. Harper","geo_precision":"unmatched","ward":4},"type":"Feature","geometry":null},{"properties":{"units":15,"geo_score":0.0,"ils":"0-15%","id":"aae5670knisc","address":"5129 S. Harper","geo_precision":"unmatched","ward":4},"type":"Feature","geometry":null},{"properties":{"units":1,"geo_score":0.0,"ils":"0-15%","id":"aae566x041us","address":"4340 S. Lake Park","geo_precision":"unmatched","ward":4},"type":"Feature","geometry":null},{"properties":{"units":10,"geo_score":0.0,"ils":"0-15%","id":"aae5678unkss","address":"4611 S. Drexel","geo_precision":"unmatched","ward":4},"type":"Feature","geometry":null},{"properties":{"units":6,"geo_score":0.0,"ils":"0-15%","id":"aae5672oxig1","address":"6914 S. Clyde","geo_precision":"unmatched","ward":5},"type":"Feature","geometry":null},{"properties":{"units":3,"geo_score":0.0,"ils":"0-15%","id":"aae566xzscnz","address":"7701 S. Cottage Grove","geo_precision":"unmatched","ward":5},"type":"Feature","geometry":null},{"properties":{"units":1,"geo_score":0.0,"ils":"0-15%","id":"aae5676vjaio","address":"2017 E. 72nd Street","geo_precision":"unmatched","ward":5},"type":"Feature","geometry":null},{"properties":{"units":1,"geo_score":0.0,"ils":"16-30%","id":"aae5671c9ez0","address":"2017 E. 72nd Street","geo_precision":"unmatched","ward":5},"type":"Feature","geometry":null},{"properties":{"units":1,"geo_score":0.0,"ils":"16-30%","id":"aae567871v4h","address":"2055 E. 72nd Street","geo_precision":"unmatched","ward":5},"type":"Feature","geometry":null},{"properties":{"units":1,"geo_score":0.0,"ils":"16-30%","id":"aae5671q9jn6","address":"6936 S. Clyde","geo_precision":"unmatched","ward":5},"type":"Feature","geometry":null},{"properties":{"units":1,"geo_score":0.0,"ils":"0-15%","id":"aae5675mnjbq","address":"7353 S. Kenwood","geo_precision":"unmatched","ward":5},"type":"Feature","geometry":null},{"properties":{"units":2,"geo_score":0.0,"ils":"16-30%","id":"aae5675pk03j","address":"7437 S. Chappel","geo_precision":"unmatched","ward":5},"type":"Feature","geometry":null},{"properties":{"units":20,"geo_score":0.0,"ils":"0-15%","id":"aae567apzb3d","address":"6820 S. Ridgeland","geo_precision":"unmatched","ward":5},"type":"Feature","geometry":null},{"properties":{"units":2,"geo_score":0.0,"ils":"16-30%","id":"aae56787fz5r","address":"6280 S. Ridgeland","geo_precision":"unmatched","ward":5},"type":"Feature","geometry":null},{"properties":{"units":1,"geo_score":0.0,"ils":"0-15%","id":"aae5678xjv9h","address":"6430 S. Stoney Island","geo_precision":"unmatched","ward":5},"type":"Feature","geometry":null},{"properties":{"units":1,"geo_score":0.0,"ils":"16-30%","id":"aae567debofl","address":"6430 S. Stoney Island","geo_precision":"unmatched","ward":5},"type":"Feature","geometry":null},{"properties":{"units":1,"geo_score":0.0,"ils":"16-30%","id":"aae5677k67sw","address":"9531 S. Euclid","geo_precision":"unmatched","ward":5},"type":"Feature","geometry":null},{"properties":{"units":1,"geo_score":0.0,"ils":"0-15%","id":"aae566wwcqp2","address":"7122 S. University","geo_precision":"unmatched","ward":5},"type":"Feature","geometry":null},{"properties":{"units":7,"geo_score":0.0,"ils":"0-15%","id":"aae5670xe674","address":"7110 S. Cornell","geo_precision":"unmatched","ward":5},"type":"Feature","geometry":null},{"properties":{"units":1,"geo_score":0.0,"ils":"16-30%","id":"aae567cie76s","address":"6511 S. Blackstone","geo_precision":"unmatched","ward":5},"type":"Feature","geometry":null},{"properties":{"units":4,"geo_score":0.0,"ils":"0-15%","id":"aae5671uoc3i","address":"2358 E. 70th Place","geo_precision":"unmatched","ward":5},"type":"Feature","geometry":null},{"properties":{"units":4,"geo_score":0.0,"ils":"16-30%","id":"aae5672a58ts","address":"2358 E. 70th Place","geo_precision":"unmatched","ward":5},"type":"Feature","geometry":null},{"properties":{"units":1,"geo_score":0.0,"ils":"0-15%","id":"aae566ykbe3s","address":"2353 E. 70th Street","geo_precision":"unmatched","ward":5},"type":"Feature","geometry":null},{"properties":{"units":4,"geo_score":0.0,"ils":"0-15%","id":"aae56766pexa","address":"7001 S. Clyde","geo_precision":"unmatched","ward":5},"type":"Feature","geometry":null},{"properties":{"units":1,"geo_score":0.0,"ils":"16-30%","id":"aae5676frjzv","address":"7001 S. Clyde","geo_precision":"unmatched","ward":5},"type":"Feature","geometry":null},{"properties":{"units":13,"geo_score":0.0,"ils":"0-15%","id":"aae56791q6zx","address":"7834 S. Ellis","geo_precision":"unmatched","ward":5},"type":"Feature","geometry":null},{"properties":{"units":1,"geo_score":0.0,"ils":"0-15%","id":"aae566ysfb8h","address":"7746 S. Greenwood","geo_precision":"unmatched","ward":5},"type":"Feature","geometry":null},{"properties":{"units":1,"geo_score":0.0,"ils":"16-30%","id":"aae5676blquf","address":"7249 S. Merrill","geo_precision":"unmatched","ward":5},"type":"Feature","geometry":null},{"properties":{"units":6,"geo_score":0.0,"ils":"0-15%","id":"aae567cws19d","address":"7040 S. Merrill","geo_precision":"unmatched","ward":5},"type":"Feature","geometry":null},{"properties":{"units":3,"geo_score":0.0,"ils":"0-15%","id":"aae5671ftkps","address":"7024 S. Paxton","geo_precision":"unmatched","ward":5},"type":"Feature","geometry":null},{"properties":{"units":5,"geo_score":0.0,"ils":"16-30%","id":"aae5678up113","address":"7024 S. Paxton","geo_precision":"unmatched","ward":5},"type":"Feature","geometry":null},{"properties":{"units":8,"geo_score":0.0,"ils":"0-15%","id":"aae566ylr8st","address":"1554 E. 65th","geo_precision":"unmatched","ward":5},"type":"Feature","geometry":null},{"properties":{"units":10,"geo_score":0.0,"ils":"0-15%","id":"aae5676b35y6","address":"1734 E. 72nd","geo_precision":"unmatched","ward":5},"type":"Feature","geometry":null},{"properties":{"units":6,"geo_score":0.0,"ils":"0-15%","id":"aae5673wsmux","address":"7854 S. Ellis","geo_precision":"unmatched","ward":6},"type":"Feature","geometry":null},{"properties":{"units":1,"geo_score":0.0,"ils":"0-15%","id":"aae5679p5htb","address":"147 W. 71st Street","geo_precision":"unmatched","ward":6},"type":"Feature","geometry":null},{"properties":{"units":1,"geo_score":0.0,"ils":"0-15%","id":"aae567111tjy","address":"7531 S. Eberhart","geo_precision":"unmatched","ward":6},"type":"Feature","geometry":null},{"properties":{"units":1,"geo_score":0.0,"ils":"0-15%","id":"aae56737w6jl","address":"6712 S. Halsted","geo_precision":"unmatched","ward":6},"type":"Feature","geometry":null},{"properties":{"units":4,"geo_score":0.0,"ils":"0-15%","id":"aae567694sdb","address":"7557 S. Calumet","geo_precision":"unmatched","ward":6},"type":"Feature","geometry":null},{"properties":{"units":1,"geo_score":0.0,"ils":"0-15%","id":"aae5675c6fh7","address":"7556 S. Langley","geo_precision":"unmatched","ward":6},"type":"Feature","geometry":null},{"properties":{"units":1,"geo_score":0.0,"ils":"16-30%","id":"aae567cke7vv","address":"57 W. 74th Street","geo_precision":"unmatched","ward":6},"type":"Feature","geometry":null},{"properties":{"units":2,"geo_score":0.0,"ils":"16-30%","id":"aae5673qboa1","address":"7203 S. Vincennes","geo_precision":"unmatched","ward":6},"type":"Feature","geometry":null},{"properties":{"units":1,"geo_score":0.0,"ils":"16-30%","id":"aae567acl4wy","address":"7538 S. Rhodes","geo_precision":"unmatched","ward":6},"type":"Feature","geometry":null},{"properties":{"units":1,"geo_score":0.0,"ils":"16-30%","id":"aae5672fk5or","address":"7331 S. Vernon","geo_precision":"unmatched","ward":6},"type":"Feature","geometry":null},{"properties":{"units":1,"geo_score":0.0,"ils":"0-15%","id":"aae5674p6xhh","address":"6948 S. Wabash","geo_precision":"unmatched","ward":6},"type":"Feature","geometry":null},{"properties":{"units":1,"geo_score":0.0,"ils":"0-15%","id":"aae566ymsehw","address":"7445 S. Rhodes","geo_precision":"unmatched","ward":6},"type":"Feature","geometry":null},{"properties":{"units":8,"geo_score":0.0,"ils":"0-15%","id":"aae567cbqk79","address":"7526 S. Colfax","geo_precision":"unmatched","ward":7},"type":"Feature","geometry":null},{"properties":{"units":3,"geo_score":0.0,"ils":"0-15%","id":"aae56749uzgq","address":"7613 S. Kingston","geo_precision":"unmatched","ward":7},"type":"Feature","geometry":null},{"properties":{"units":1,"geo_score":0.0,"ils":"16-30%","id":"aae5670s9qsf","address":"7613 S. Kingston","geo_precision":"unmatched","ward":7},"type":"Feature","geometry":null},{"properties":{"units":2,"geo_score":0.0,"ils":"0-15%","id":"aae5676g3213","address":"7733 S. Shore Drive","geo_precision":"unmatched","ward":7},"type":"Feature","geometry":null},{"properties":{"units":1,"geo_score":0.0,"ils":"0-15%","id":"aae567b9eypw","address":"3000 E. 78th Street","geo_precision":"unmatched","ward":7},"type":"Feature","geometry":null},{"properties":{"units":1,"geo_score":0.0,"ils":"0-15%","id":"aae567b2cueo","address":"8513 S. Saginaw","geo_precision":"unmatched","ward":7},"type":"Feature","geometry":null},{"properties":{"units":1,"geo_score":0.0,"ils":"0-15%","id":"aae567388r97","address":"1145 N. Keeler","geo_precision":"unmatched","ward":7},"type":"Feature","geometry":null},{"properties":{"units":1,"geo_score":0.0,"ils":"0-15%","id":"aae56767waml","address":"3033 E. 79th Street","geo_precision":"unmatched","ward":7},"type":"Feature","geometry":null},{"properties":{"units":1,"geo_score":0.0,"ils":"0-15%","id":"aae5670a2de3","address":"9747 S. Merrion","geo_precision":"unmatched","ward":7},"type":"Feature","geometry":null},{"properties":{"units":2,"geo_score":0.0,"ils":"0-15%","id":"aae5675gkekl","address":"7701 S. Yates","geo_precision":"unmatched","ward":7},"type":"Feature","geometry":null},{"properties":{"units":1,"geo_score":0.0,"ils":"0-15%","id":"aae5671wokr3","address":"5300 S. King Drive","geo_precision":"unmatched","ward":7},"type":"Feature","geometry":null},{"properties":{"units":7,"geo_score":0.0,"ils":"16-30%","id":"aae566xto0oy","address":"5300 S. King Drive","geo_precision":"unmatched","ward":7},"type":"Feature","geometry":null},{"properties":{"units":5,"geo_score":0.0,"ils":"0-15%","id":"aae5672j677n","address":"2523 E. 75th Street","geo_precision":"unmatched","ward":7},"type":"Feature","geometry":null},{"properties":{"units":1,"geo_score":0.0,"ils":"0-15%","id":"aae5672z42oy","address":"3053 E. 79th Street","geo_precision":"unmatched","ward":7},"type":"Feature","geometry":null},{"properties":{"units":1,"geo_score":0.0,"ils":"0-15%","id":"aae5671r6ycc","address":"2815 E. 76th Street","geo_precision":"unmatched","ward":7},"type":"Feature","geometry":null},{"properties":{"units":1,"geo_score":0.0,"ils":"0-15%","id":"aae567746ub2","address":"7436 S. Kingston","geo_precision":"unmatched","ward":7},"type":"Feature","geometry":null},{"properties":{"units":7,"geo_score":0.0,"ils":"16-30%","id":"aae566ywwoxa","address":"7436 S. Kingston","geo_precision":"unmatched","ward":7},"type":"Feature","geometry":null},{"properties":{"units":5,"geo_score":0.0,"ils":"0-15%","id":"aae5679s6o9h","address":"7901 S. Kingston","geo_precision":"unmatched","ward":7},"type":"Feature","geometry":null},{"properties":{"units":1,"geo_score":0.0,"ils":"0-15%","id":"aae5676a6295","address":"7337 S. Shore Drive","geo_precision":"unmatched","ward":7},"type":"Feature","geometry":null},{"properties":{"units":1,"geo_score":0.0,"ils":"0-15%","id":"aae566zuhgbq","address":"7210 S. Yates","geo_precision":"unmatched","ward":7},"type":"Feature","geometry":null},{"properties":{"units":6,"geo_score":0.0,"ils":"0-15%","id":"aae5678p0j8f","address":"7750 S. Muskegon","geo_precision":"unmatched","ward":7},"type":"Feature","geometry":null},{"properties":{"units":5,"geo_score":0.0,"ils":"16-30%","id":"aae566xyhfj2","address":"7750 S. Muskegon","geo_precision":"unmatched","ward":7},"type":"Feature","geometry":null},{"properties":{"units":1,"geo_score":0.0,"ils":"0-15%","id":"aae5672sas5y","address":"7827 S. Colfax","geo_precision":"unmatched","ward":7},"type":"Feature","geometry":null},{"properties":{"units":1,"geo_score":0.0,"ils":"0-15%","id":"aae567an6v74","address":"3017 E. 80th Place","geo_precision":"unmatched","ward":7},"type":"Feature","geometry":null},{"properties":{"units":1,"geo_score":0.0,"ils":"0-15%","id":"aae5676ie26y","address":"8150 S. Shore Drive","geo_precision":"unmatched","ward":7},"type":"Feature","geometry":null},{"properties":{"units":9,"geo_score":0.0,"ils":"0-15%","id":"aae567bqf98n","address":"7608 S. Colfax","geo_precision":"unmatched","ward":7},"type":"Feature","geometry":null},{"properties":{"units":3,"geo_score":0.0,"ils":"0-15%","id":"aae567bjlxda","address":"7839 S. Colfax","geo_precision":"unmatched","ward":7},"type":"Feature","geometry":null},{"properties":{"units":1,"geo_score":0.0,"ils":"16-30%","id":"aae566xcy6hq","address":"7839 S. Colfax","geo_precision":"unmatched","ward":7},"type":"Feature","geometry":null},{"properties":{"units":12,"geo_score":0.0,"ils":"0-15%","id":"aae56774ekon","address":"7131 S. Yates","geo_precision":"unmatched","ward":7},"type":"Feature","geometry":null},{"properties":{"units":1,"geo_score":0.0,"ils":"0-15%","id":"aae5677ttf1r","address":"6901 S. Paxton","geo_precision":"unmatched","ward":7},"type":"Feature","geometry":null},{"properties":{"units":3,"geo_score":0.0,"ils":"16-30%","id":"aae56795hb6z","address":"6901 S. Paxton","geo_precision":"unmatched","ward":7},"type":"Feature","geometry":null},{"properties":{"units":1,"geo_score":0.0,"ils":"0-15%","id":"aae56705zpih","address":"7546 S. Saginaw","geo_precision":"unmatched","ward":7},"type":"Feature","geometry":null},{"properties":{"units":1,"geo_score":0.0,"ils":"0-15%","id":"aae566y0qzu0","address":"7640 S. Colfax","geo_precision":"unmatched","ward":7},"type":"Feature","geometry":null},{"properties":{"units":1,"geo_score":0.0,"ils":"0-15%","id":"aae5670c90hb","address":"7700 S. Philips","geo_precision":"unmatched","ward":7},"type":"Feature","geometry":null},{"properties":{"units":5,"geo_score":0.0,"ils":"16-30%","id":"aae567bndlqv","address":"7700 S. Philips","geo_precision":"unmatched","ward":7},"type":"Feature","geometry":null},{"properties":{"units":2,"geo_score":0.0,"ils":"0-15%","id":"aae567d2f57l","address":"7801 S. Philips","geo_precision":"unmatched","ward":7},"type":"Feature","geometry":null},{"properties":{"units":4,"geo_score":0.0,"ils":"16-30%","id":"aae567311pdt","address":"7801 S. Philips","geo_precision":"unmatched","ward":7},"type":"Feature","geometry":null},{"properties":{"units":2,"geo_score":0.0,"ils":"0-15%","id":"aae5673iwmlf","address":"7306 S. Philips","geo_precision":"unmatched","ward":7},"type":"Feature","geometry":null},{"properties":{"units":1,"geo_score":0.0,"ils":"0-15%","id":"aae5674lq00f","address":"7636 S. Colfax","geo_precision":"unmatched","ward":7},"type":"Feature","geometry":null},{"properties":{"units":1,"geo_score":0.0,"ils":"0-15%","id":"aae5670u6e59","address":"7631 S. Kingston","geo_precision":"unmatched","ward":7},"type":"Feature","geometry":null},{"properties":{"units":7,"geo_score":0.0,"ils":"0-15%","id":"aae566xv5m90","address":"2531 E. 73rd Street","geo_precision":"unmatched","ward":7},"type":"Feature","geometry":null},{"properties":{"units":3,"geo_score":0.0,"ils":"0-15%","id":"aae566xy0qvs","address":"7200 S. Shore Drive","geo_precision":"unmatched","ward":7},"type":"Feature","geometry":null},{"properties":{"units":2,"geo_score":0.0,"ils":"0-15%","id":"aae567cm9dzd","address":"8041 S. Manistee","geo_precision":"unmatched","ward":7},"type":"Feature","geometry":null},{"properties":{"units":1,"geo_score":0.0,"ils":"16-30%","id":"aae566xxnso7","address":"8041 S. Manistee","geo_precision":"unmatched","ward":7},"type":"Feature","geometry":null},{"properties":{"units":1,"geo_score":0.0,"ils":"0-15%","id":"aae566zlael4","address":"7816 S. Cornell","geo_precision":"unmatched","ward":8},"type":"Feature","geometry":null},{"properties":{"units":1,"geo_score":0.0,"ils":"16-30%","id":"aae567bida4s","address":"7816 S. Cornell","geo_precision":"unmatched","ward":8},"type":"Feature","geometry":null},{"properties":{"units":3,"geo_score":0.0,"ils":"0-15%","id":"aae5675hhb0u","address":"1131 E. 79th Street","geo_precision":"unmatched","ward":8},"type":"Feature","geometry":null},{"properties":{"units":1,"geo_score":0.0,"ils":"16-30%","id":"aae56775tx3s","address":"1131 E. 79th Street","geo_precision":"unmatched","ward":8},"type":"Feature","geometry":null},{"properties":{"units":2,"geo_score":0.0,"ils":"16-30%","id":"aae566xgc9nv","address":"7807 S. Cornell","geo_precision":"unmatched","ward":8},"type":"Feature","geometry":null},{"properties":{"units":3,"geo_score":0.0,"ils":"0-15%","id":"aae566yxa93a","address":"949 E. 86th Street","geo_precision":"unmatched","ward":8},"type":"Feature","geometry":null},{"properties":{"units":4,"geo_score":0.0,"ils":"0-15%","id":"aae56757i2e2","address":"7851 S. Constance","geo_precision":"unmatched","ward":8},"type":"Feature","geometry":null},{"properties":{"units":10,"geo_score":0.0,"ils":"0-15%","id":"aae5677mei5i","address":"8049 S. Maryland","geo_precision":"unmatched","ward":8},"type":"Feature","geometry":null},{"properties":{"units":1,"geo_score":0.0,"ils":"0-15%","id":"aae5676okvrs","address":"1564 E. 93rd Street","geo_precision":"unmatched","ward":8},"type":"Feature","geometry":null},{"properties":{"units":1,"geo_score":0.0,"ils":"0-15%","id":"aae5673wasln","address":"7541 S. Ellis","geo_precision":"unmatched","ward":8},"type":"Feature","geometry":null},{"properties":{"units":2,"geo_score":0.0,"ils":"0-15%","id":"aae56714xbpf","address":"7301 S. East End","geo_precision":"unmatched","ward":8},"type":"Feature","geometry":null},{"properties":{"units":3,"geo_score":0.0,"ils":"0-15%","id":"aae5674cbe6z","address":"7307 E. East End","geo_precision":"unmatched","ward":8},"type":"Feature","geometry":null},{"properties":{"units":23,"geo_score":0.0,"ils":"0-15%","id":"aae5672f7nwg","address":"8101 S. Ingleside","geo_precision":"unmatched","ward":8},"type":"Feature","geometry":null},{"properties":{"units":1,"geo_score":0.0,"ils":"0-15%","id":"aae567d0apx8","address":"851 E. 87th Place","geo_precision":"unmatched","ward":8},"type":"Feature","geometry":null},{"properties":{"units":1,"geo_score":0.0,"ils":"0-15%","id":"aae5677bhfkv","address":"11031 S. Edbrook","geo_precision":"unmatched","ward":9},"type":"Feature","geometry":null},{"properties":{"units":1,"geo_score":0.0,"ils":"0-15%","id":"aae56712bw7i","address":"10539 S. Corliss","geo_precision":"unmatched","ward":9},"type":"Feature","geometry":null},{"properties":{"units":1,"geo_score":0.0,"ils":"0-15%","id":"aae566x4pdjx","address":"10657 S. Champlain","geo_precision":"unmatched","ward":9},"type":"Feature","geometry":null},{"properties":{"units":2,"geo_score":0.0,"ils":"16-30%","id":"aae567127p7e","address":"11006 S. Indiana","geo_precision":"unmatched","ward":9},"type":"Feature","geometry":null},{"properties":{"units":1,"geo_score":0.0,"ils":"0-15%","id":"aae5672fg5p1","address":"11572 S. Front","geo_precision":"unmatched","ward":9},"type":"Feature","geometry":null},{"properties":{"units":1,"geo_score":0.0,"ils":"0-15%","id":"aae567csibmu","address":"11430 S. Champlain","geo_precision":"unmatched","ward":9},"type":"Feature","geometry":null},{"properties":{"units":1,"geo_score":0.0,"ils":"0-15%","id":"aae56753nojl","address":"10728 S. Wabash","geo_precision":"unmatched","ward":9},"type":"Feature","geometry":null},{"properties":{"units":1,"geo_score":0.0,"ils":"0-15%","id":"aae56763x08f","address":"234 E. 136th Street","geo_precision":"unmatched","ward":9},"type":"Feature","geometry":null},{"properties":{"units":1,"geo_score":0.0,"ils":"16-30%","id":"aae5675hzjjo","address":"13150 S. Forrestville","geo_precision":"unmatched","ward":9},"type":"Feature","geometry":null},{"properties":{"units":1,"geo_score":0.0,"ils":"16-30%","id":"aae56707hd82","address":"10949 S. Vernon","geo_precision":"unmatched","ward":9},"type":"Feature","geometry":null},{"properties":{"units":1,"geo_score":0.0,"ils":"16-30%","id":"aae5676wxm9g","address":"11122 S. Indiana","geo_precision":"unmatched","ward":9},"type":"Feature","geometry":null},{"properties":{"units":1,"geo_score":0.0,"ils":"0-15%","id":"aae5679gwxq1","address":"414 W. 100th Place","geo_precision":"unmatched","ward":9},"type":"Feature","geometry":null},{"properties":{"units":1,"geo_score":0.0,"ils":"0-15%","id":"aae566xj8i4f","address":"12351 S. Yates","geo_precision":"unmatched","ward":9},"type":"Feature","geometry":null},{"properties":{"units":1,"geo_score":0.0,"ils":"0-15%","id":"aae5674wbgii","address":"11348 S. Martin Luther King","geo_precision":"unmatched","ward":9},"type":"Feature","geometry":null},{"properties":{"units":1,"geo_score":0.0,"ils":"0-15%","id":"aae5672fo8hl","address":"8337 S. Burley","geo_precision":"unmatched","ward":10},"type":"Feature","geometry":null},{"properties":{"units":3,"geo_score":0.0,"ils":"16-30%","id":"aae566yyzdi9","address":"8707 S. Escanaba","geo_precision":"unmatched","ward":10},"type":"Feature","geometry":null},{"properties":{"units":7,"geo_score":0.0,"ils":"16-30%","id":"aae567bq5s36","address":"3248 E. 92nd Street","geo_precision":"unmatched","ward":10},"type":"Feature","geometry":null},{"properties":{"units":1,"geo_score":0.0,"ils":"0-15%","id":"aae56712arfe","address":"8949 S. Brandon","geo_precision":"unmatched","ward":10},"type":"Feature","geometry":null},{"properties":{"units":6,"geo_score":0.0,"ils":"0-15%","id":"aae5670b7qw5","address":"2837 E. 90th Street","geo_precision":"unmatched","ward":10},"type":"Feature","geometry":null},{"properties":{"units":1,"geo_score":0.0,"ils":"0-15%","id":"aae566zzism3","address":"8550 S. Houston","geo_precision":"unmatched","ward":10},"type":"Feature","geometry":null},{"properties":{"units":1,"geo_score":0.0,"ils":"0-15%","id":"aae5678fd9l7","address":"8346 S. Muskegon","geo_precision":"unmatched","ward":10},"type":"Feature","geometry":null},{"properties":{"units":2,"geo_score":0.0,"ils":"0-15%","id":"aae5679tvfbn","address":"3251 E. 91st Street","geo_precision":"unmatched","ward":10},"type":"Feature","geometry":null},{"properties":{"units":2,"geo_score":0.0,"ils":"0-15%","id":"aae567a731xm","address":"9001 S. Commercial","geo_precision":"unmatched","ward":10},"type":"Feature","geometry":null},{"properties":{"units":1,"geo_score":0.0,"ils":"16-30%","id":"aae566yibm86","address":"9001 S. Commercial","geo_precision":"unmatched","ward":10},"type":"Feature","geometry":null},{"properties":{"units":6,"geo_score":0.0,"ils":"0-15%","id":"aae5679rnpsd","address":"3201 E. 91st Street","geo_precision":"unmatched","ward":10},"type":"Feature","geometry":null},{"properties":{"units":29,"geo_score":0.0,"ils":"16-30%","id":"aae5677gp9ul","address":"3201 E. 91st Street","geo_precision":"unmatched","ward":10},"type":"Feature","geometry":null},{"properties":{"units":1,"geo_score":0.0,"ils":"0-15%","id":"aae567ba1ua1","address":"2310 S. Sacramento","geo_precision":"unmatched","ward":12},"type":"Feature","geometry":null},{"properties":{"units":4,"geo_score":0.0,"ils":"0-15%","id":"aae5676gwld2","address":"2423 W. Marquette","geo_precision":"unmatched","ward":15},"type":"Feature","geometry":null},{"properties":{"units":3,"geo_score":0.0,"ils":"0-15%","id":"aae566y4m2rn","address":"2837 W. 64th Street","geo_precision":"unmatched","ward":15},"type":"Feature","geometry":null},{"properties":{"units":1,"geo_score":0.0,"ils":"0-15%","id":"aae5679ctdjn","address":"1715 W. 58th Street","geo_precision":"unmatched","ward":15},"type":"Feature","geometry":null},{"properties":{"units":1,"geo_score":0.0,"ils":"0-15%","id":"aae5676c7121","address":"6421 S. Artesian","geo_precision":"unmatched","ward":15},"type":"Feature","geometry":null},{"properties":{"units":20,"geo_score":0.0,"ils":"16-30%","id":"aae56729cvko","address":"2626 W. 63rd Street","geo_precision":"unmatched","ward":15},"type":"Feature","geometry":null},{"properties":{"units":1,"geo_score":0.0,"ils":"0-15%","id":"aae567d4xub4","address":"6824 S. Wood","geo_precision":"unmatched","ward":15},"type":"Feature","geometry":null},{"properties":{"units":2,"geo_score":0.0,"ils":"16-30%","id":"aae5677q2fet","address":"6824 S. Wood","geo_precision":"unmatched","ward":15},"type":"Feature","geometry":null},{"properties":{"units":1,"geo_score":0.0,"ils":"16-30%","id":"aae5674d5k83","address":"5841 S. Calumet","geo_precision":"unmatched","ward":15},"type":"Feature","geometry":null},{"properties":{"units":1,"geo_score":0.0,"ils":"0-15%","id":"aae5674rg4qy","address":"6735 S. Claremont","geo_precision":"unmatched","ward":15},"type":"Feature","geometry":null},{"properties":{"units":1,"geo_score":0.0,"ils":"0-15%","id":"aae567935u0u","address":"6357 S. Paulina","geo_precision":"unmatched","ward":15},"type":"Feature","geometry":null},{"properties":{"units":10,"geo_score":0.0,"ils":"0-15%","id":"aae566z4zd3u","address":"6346 S. Fairfield","geo_precision":"unmatched","ward":15},"type":"Feature","geometry":null},{"properties":{"units":6,"geo_score":0.0,"ils":"0-15%","id":"aae567496z2g","address":"6355 S. Wood","geo_precision":"unmatched","ward":15},"type":"Feature","geometry":null},{"properties":{"units":2,"geo_score":0.0,"ils":"16-30%","id":"aae56794m3va","address":"6355 S. Wood","geo_precision":"unmatched","ward":15},"type":"Feature","geometry":null},{"properties":{"units":1,"geo_score":0.0,"ils":"16-30%","id":"aae56769krql","address":"6333 S. Carpenter","geo_precision":"unmatched","ward":16},"type":"Feature","geometry":null},{"properties":{"units":1,"geo_score":0.0,"ils":"0-15%","id":"aae5679rhfv2","address":"5735 S. Elizabeth","geo_precision":"unmatched","ward":16},"type":"Feature","geometry":null},{"properties":{"units":1,"geo_score":0.0,"ils":"0-15%","id":"aae56782x3my","address":"5346 S. Carptenter","geo_precision":"unmatched","ward":16},"type":"Feature","geometry":null},{"properties":{"units":1,"geo_score":0.0,"ils":"0-15%","id":"aae566xn0c8l","address":"2214 W. 51st Street","geo_precision":"unmatched","ward":16},"type":"Feature","geometry":null},{"properties":{"units":2,"geo_score":0.0,"ils":"0-15%","id":"aae567aw0qzu","address":"6340 S. Sangamon","geo_precision":"unmatched","ward":16},"type":"Feature","geometry":null},{"properties":{"units":1,"geo_score":0.0,"ils":"0-15%","id":"aae5678kc0jv","address":"5529 S. Ada","geo_precision":"unmatched","ward":16},"type":"Feature","geometry":null},{"properties":{"units":2,"geo_score":0.0,"ils":"0-15%","id":"aae566y7frpj","address":"6224 S. Morgan","geo_precision":"unmatched","ward":16},"type":"Feature","geometry":null},{"properties":{"units":1,"geo_score":0.0,"ils":"0-15%","id":"aae56792880j","address":"5226 S. May","geo_precision":"unmatched","ward":16},"type":"Feature","geometry":null},{"properties":{"units":1,"geo_score":0.0,"ils":"16-30%","id":"aae567804941","address":"5430 S. Loomis","geo_precision":"unmatched","ward":16},"type":"Feature","geometry":null},{"properties":{"units":1,"geo_score":0.0,"ils":"16-30%","id":"aae566zo8vdz","address":"6201 S. Justine","geo_precision":"unmatched","ward":16},"type":"Feature","geometry":null},{"properties":{"units":2,"geo_score":0.0,"ils":"0-15%","id":"aae5675kjow3","address":"1107 W. Garfield Boulavard","geo_precision":"unmatched","ward":16},"type":"Feature","geometry":null},{"properties":{"units":2,"geo_score":0.0,"ils":"16-30%","id":"aae566xh33tp","address":"5929 S. Rockwell","geo_precision":"unmatched","ward":16},"type":"Feature","geometry":null},{"properties":{"units":1,"geo_score":0.0,"ils":"16-30%","id":"aae566y11zy2","address":"5658 S. Bishop","geo_precision":"unmatched","ward":16},"type":"Feature","geometry":null},{"properties":{"units":1,"geo_score":0.0,"ils":"0-15%","id":"aae566z71dzj","address":"1411 W. 55th Street","geo_precision":"unmatched","ward":16},"type":"Feature","geometry":null},{"properties":{"units":1,"geo_score":0.0,"ils":"0-15%","id":"aae56722hsrp","address":"6241 S. Throop","geo_precision":"unmatched","ward":16},"type":"Feature","geometry":null},{"properties":{"units":1,"geo_score":0.0,"ils":"0-15%","id":"aae566yfgu9h","address":"6133 S. Bishop","geo_precision":"unmatched","ward":16},"type":"Feature","geometry":null},{"properties":{"units":1,"geo_score":0.0,"ils":"16-30%","id":"aae5678hbyg4","address":"5400 S. Loomis","geo_precision":"unmatched","ward":16},"type":"Feature","geometry":null},{"properties":{"units":1,"geo_score":0.0,"ils":"0-15%","id":"aae566z50lxu","address":"6733 S. Morgan","geo_precision":"unmatched","ward":17},"type":"Feature","geometry":null},{"properties":{"units":1,"geo_score":0.0,"ils":"16-30%","id":"aae5671trq8e","address":"7120 S. Parnell","geo_precision":"unmatched","ward":17},"type":"Feature","geometry":null},{"properties":{"units":1,"geo_score":0.0,"ils":"0-15%","id":"aae5678jau7h","address":"7230 S. Yale","geo_precision":"unmatched","ward":17},"type":"Feature","geometry":null},{"properties":{"units":1,"geo_score":0.0,"ils":"0-15%","id":"aae5672b48mq","address":"7248 S. Yale","geo_precision":"unmatched","ward":17},"type":"Feature","geometry":null},{"properties":{"units":1,"geo_score":0.0,"ils":"0-15%","id":"aae5674ea5bw","address":"6239 S. Ashland","geo_precision":"unmatched","ward":17},"type":"Feature","geometry":null},{"properties":{"units":10,"geo_score":0.0,"ils":"0-15%","id":"aae566y0y56a","address":"7750 S. Emerald","geo_precision":"unmatched","ward":17},"type":"Feature","geometry":null},{"properties":{"units":5,"geo_score":0.0,"ils":"16-30%","id":"aae5677umam5","address":"443 W. 75th Street","geo_precision":"unmatched","ward":17},"type":"Feature","geometry":null},{"properties":{"units":1,"geo_score":0.0,"ils":"0-15%","id":"aae5672ptwo0","address":"7013 S. Morgan","geo_precision":"unmatched","ward":17},"type":"Feature","geometry":null},{"properties":{"units":1,"geo_score":0.0,"ils":"16-30%","id":"aae567c6wk7n","address":"7929 S. Harvard","geo_precision":"unmatched","ward":17},"type":"Feature","geometry":null},{"properties":{"units":4,"geo_score":0.0,"ils":"0-15%","id":"aae566ygf9j8","address":"1370 W. 79th Street","geo_precision":"unmatched","ward":17},"type":"Feature","geometry":null},{"properties":{"units":2,"geo_score":0.0,"ils":"16-30%","id":"aae5673tvxkq","address":"1370 W. 79th Street","geo_precision":"unmatched","ward":17},"type":"Feature","geometry":null},{"properties":{"units":1,"geo_score":0.0,"ils":"0-15%","id":"aae5677kjwni","address":"7322 S. Laflin","geo_precision":"unmatched","ward":17},"type":"Feature","geometry":null},{"properties":{"units":1,"geo_score":0.0,"ils":"16-30%","id":"aae567czifbg","address":"6504 S. Bishop","geo_precision":"unmatched","ward":17},"type":"Feature","geometry":null},{"properties":{"units":1,"geo_score":0.0,"ils":"0-15%","id":"aae56763ob6b","address":"7718 S. Winchester","geo_precision":"unmatched","ward":18},"type":"Feature","geometry":null},{"properties":{"units":3,"geo_score":0.0,"ils":"0-15%","id":"aae567c3txfz","address":"1301 W. 80th Street","geo_precision":"unmatched","ward":18},"type":"Feature","geometry":null},{"properties":{"units":20,"geo_score":0.0,"ils":"0-15%","id":"aae566z3fj4u","address":"1622 N. California","geo_precision":"unmatched","ward":20},"type":"Feature","geometry":null},{"properties":{"units":3,"geo_score":0.0,"ils":"0-15%","id":"aae567ahhg3v","address":"6109 S. Indiana","geo_precision":"unmatched","ward":20},"type":"Feature","geometry":null},{"properties":{"units":4,"geo_score":0.0,"ils":"0-15%","id":"aae566zmjf30","address":"5717 S. Prairie","geo_precision":"unmatched","ward":20},"type":"Feature","geometry":null},{"properties":{"units":1,"geo_score":0.0,"ils":"0-15%","id":"aae5677wimkl","address":"6512 S. Rhodes","geo_precision":"unmatched","ward":20},"type":"Feature","geometry":null},{"properties":{"units":1,"geo_score":0.0,"ils":"0-15%","id":"aae5678i2e92","address":"5641 S. Justine","geo_precision":"unmatched","ward":20},"type":"Feature","geometry":null},{"properties":{"units":1,"geo_score":0.0,"ils":"16-30%","id":"aae56754i7ac","address":"6041 S. Indiana","geo_precision":"unmatched","ward":20},"type":"Feature","geometry":null},{"properties":{"units":1,"geo_score":0.0,"ils":"0-15%","id":"aae567aq5401","address":"6062 S. Lafayette","geo_precision":"unmatched","ward":20},"type":"Feature","geometry":null},{"properties":{"units":1,"geo_score":0.0,"ils":"0-15%","id":"aae56770w9em","address":"929 W. 54th Place","geo_precision":"unmatched","ward":20},"type":"Feature","geometry":null},{"properties":{"units":1,"geo_score":0.0,"ils":"0-15%","id":"aae567dczakp","address":"817 W. 54th Street","geo_precision":"unmatched","ward":20},"type":"Feature","geometry":null},{"properties":{"units":3,"geo_score":0.0,"ils":"16-30%","id":"aae5679bhewu","address":"5627 S. Indiana","geo_precision":"unmatched","ward":20},"type":"Feature","geometry":null},{"properties":{"units":1,"geo_score":0.0,"ils":"0-15%","id":"aae566z30xs0","address":"6732 S. Evans","geo_precision":"unmatched","ward":20},"type":"Feature","geometry":null},{"properties":{"units":1,"geo_score":0.0,"ils":"0-15%","id":"aae56765lqv6","address":"5722 S. La Salle","geo_precision":"unmatched","ward":20},"type":"Feature","geometry":null},{"properties":{"units":1,"geo_score":0.0,"ils":"0-15%","id":"aae566xclmvp","address":"829 W. 54th Place","geo_precision":"unmatched","ward":20},"type":"Feature","geometry":null},{"properties":{"units":1,"geo_score":0.0,"ils":"0-15%","id":"aae5674v378h","address":"5606 S. Wabash","geo_precision":"unmatched","ward":20},"type":"Feature","geometry":null},{"properties":{"units":3,"geo_score":0.0,"ils":"16-30%","id":"aae566xkhpcs","address":"5606 S. Wabash","geo_precision":"unmatched","ward":20},"type":"Feature","geometry":null},{"properties":{"units":2,"geo_score":0.0,"ils":"0-15%","id":"aae567377m1g","address":"5950 S. King Drive","geo_precision":"unmatched","ward":20},"type":"Feature","geometry":null},{"properties":{"units":5,"geo_score":0.0,"ils":"16-30%","id":"aae5675dbj6d","address":"5950 S. King Drive","geo_precision":"unmatched","ward":20},"type":"Feature","geometry":null},{"properties":{"units":1,"geo_score":0.0,"ils":"0-15%","id":"aae56728h94f","address":"6147 S. Wabash","geo_precision":"unmatched","ward":20},"type":"Feature","geometry":null},{"properties":{"units":3,"geo_score":0.0,"ils":"0-15%","id":"aae5670zfwm1","address":"109 E. 57th Street","geo_precision":"unmatched","ward":20},"type":"Feature","geometry":null},{"properties":{"units":12,"geo_score":0.0,"ils":"0-15%","id":"aae567aejuye","address":"6116 S. King Drive","geo_precision":"unmatched","ward":20},"type":"Feature","geometry":null},{"properties":{"units":5,"geo_score":0.0,"ils":"16-30%","id":"aae5675jp3up","address":"333 E. 55th Place","geo_precision":"unmatched","ward":20},"type":"Feature","geometry":null},{"properties":{"units":4,"geo_score":0.0,"ils":"0-15%","id":"aae5671wwkut","address":"6230 S. Dorchester","geo_precision":"unmatched","ward":20},"type":"Feature","geometry":null},{"properties":{"units":1,"geo_score":0.0,"ils":"0-15%","id":"aae566xeoi9x","address":"1411 E. 65th Street","geo_precision":"unmatched","ward":20},"type":"Feature","geometry":null},{"properties":{"units":6,"geo_score":0.0,"ils":"0-15%","id":"aae566zkqtq5","address":"6146 S. Kenwood","geo_precision":"unmatched","ward":20},"type":"Feature","geometry":null},{"properties":{"units":1,"geo_score":0.0,"ils":"16-30%","id":"aae5674235de","address":"6146 S. Kenwood","geo_precision":"unmatched","ward":20},"type":"Feature","geometry":null},{"properties":{"units":13,"geo_score":0.0,"ils":"0-15%","id":"aae566yztgqu","address":"6800 S. Dorchester","geo_precision":"unmatched","ward":20},"type":"Feature","geometry":null},{"properties":{"units":3,"geo_score":0.0,"ils":"16-30%","id":"aae566ysq6ur","address":"6800 S. Dorchester","geo_precision":"unmatched","ward":20},"type":"Feature","geometry":null},{"properties":{"units":7,"geo_score":0.0,"ils":"0-15%","id":"aae56779mp30","address":"6126 S. Woodlawn","geo_precision":"unmatched","ward":20},"type":"Feature","geometry":null},{"properties":{"units":2,"geo_score":0.0,"ils":"16-30%","id":"aae5675wjhc0","address":"6126 S. Woodlawn","geo_precision":"unmatched","ward":20},"type":"Feature","geometry":null},{"properties":{"units":3,"geo_score":0.0,"ils":"16-30%","id":"aae5673yqkw7","address":"6224 S. Kimbark","geo_precision":"unmatched","ward":20},"type":"Feature","geometry":null},{"properties":{"units":10,"geo_score":0.0,"ils":"0-15%","id":"aae567amsihu","address":"6565 S. Yale","geo_precision":"unmatched","ward":20},"type":"Feature","geometry":null},{"properties":{"units":3,"geo_score":0.0,"ils":"16-30%","id":"aae5674zvxp7","address":"6565 S. Yale","geo_precision":"unmatched","ward":20},"type":"Feature","geometry":null},{"properties":{"units":1,"geo_score":0.0,"ils":"16-30%","id":"aae5674r6a1l","address":"9443 S. Justine","geo_precision":"unmatched","ward":21},"type":"Feature","geometry":null},{"properties":{"units":4,"geo_score":0.0,"ils":"0-15%","id":"aae5678vzdw3","address":"1334 W. 83rd Street","geo_precision":"unmatched","ward":21},"type":"Feature","geometry":null},{"properties":{"units":5,"geo_score":0.0,"ils":"0-15%","id":"aae5670zgrd8","address":"1314 W. 82nd Street","geo_precision":"unmatched","ward":21},"type":"Feature","geometry":null},{"properties":{"units":3,"geo_score":0.0,"ils":"0-15%","id":"aae56706ytki","address":"1334 W. 83rd Street","geo_precision":"unmatched","ward":21},"type":"Feature","geometry":null},{"properties":{"units":1,"geo_score":0.0,"ils":"0-15%","id":"aae5671nt03w","address":"1334 W. 83rd Street","geo_precision":"unmatched","ward":21},"type":"Feature","geometry":null},{"properties":{"units":4,"geo_score":0.0,"ils":"0-15%","id":"aae5673dovxp","address":"1434 W. 83rd Street","geo_precision":"unmatched","ward":21},"type":"Feature","geometry":null},{"properties":{"units":1,"geo_score":0.0,"ils":"16-30%","id":"aae5677itptc","address":"9101 S. Beverly","geo_precision":"unmatched","ward":21},"type":"Feature","geometry":null},{"properties":{"units":3,"geo_score":0.0,"ils":"16-30%","id":"aae567au82he","address":"1401 W. 80th Street","geo_precision":"unmatched","ward":21},"type":"Feature","geometry":null},{"properties":{"units":3,"geo_score":0.0,"ils":"16-30%","id":"aae567cjbfr6","address":"7955 S. Paulina","geo_precision":"unmatched","ward":21},"type":"Feature","geometry":null},{"properties":{"units":3,"geo_score":0.0,"ils":"0-15%","id":"aae5674g6k9g","address":"7959 S. Ashland","geo_precision":"unmatched","ward":21},"type":"Feature","geometry":null},{"properties":{"units":5,"geo_score":0.0,"ils":"0-15%","id":"aae567cbf6xp","address":"1605 W. 80th Street","geo_precision":"unmatched","ward":21},"type":"Feature","geometry":null},{"properties":{"units":1,"geo_score":0.0,"ils":"0-15%","id":"aae5673sq1ki","address":"8821 S. Loomis","geo_precision":"unmatched","ward":21},"type":"Feature","geometry":null},{"properties":{"units":4,"geo_score":0.0,"ils":"0-15%","id":"aae5670mpgcm","address":"8101 S.Marshfield","geo_precision":"unmatched","ward":21},"type":"Feature","geometry":null},{"properties":{"units":1,"geo_score":0.0,"ils":"16-30%","id":"aae566y7sewo","address":"2349 S. Drake","geo_precision":"unmatched","ward":22},"type":"Feature","geometry":null},{"properties":{"units":2,"geo_score":0.0,"ils":"16-30%","id":"aae5671nw7g3","address":"2700 S. Drake","geo_precision":"unmatched","ward":22},"type":"Feature","geometry":null},{"properties":{"units":4,"geo_score":0.0,"ils":"0-15%","id":"aae567ahy4d6","address":"4100 W. Ogden","geo_precision":"unmatched","ward":22},"type":"Feature","geometry":null},{"properties":{"units":3,"geo_score":0.0,"ils":"16-30%","id":"aae5676vdped","address":"3515 W. 23rd Street","geo_precision":"unmatched","ward":22},"type":"Feature","geometry":null},{"properties":{"units":5,"geo_score":0.0,"ils":"0-15%","id":"aae5674a5ep9","address":"1235 S. Sawyer","geo_precision":"unmatched","ward":24},"type":"Feature","geometry":null},{"properties":{"units":1,"geo_score":0.0,"ils":"16-30%","id":"aae5675idbcl","address":"1235 S. Sawyer","geo_precision":"unmatched","ward":24},"type":"Feature","geometry":null},{"properties":{"units":1,"geo_score":0.0,"ils":"16-30%","id":"aae5673w16d9","address":"2102 S. Pulaski","geo_precision":"unmatched","ward":24},"type":"Feature","geometry":null},{"properties":{"units":1,"geo_score":0.0,"ils":"0-15%","id":"aae5679i0c9k","address":"1453 S. Komensky","geo_precision":"unmatched","ward":24},"type":"Feature","geometry":null},{"properties":{"units":2,"geo_score":0.0,"ils":"0-15%","id":"aae5677agq2r","address":"1525 S. Hamlin","geo_precision":"unmatched","ward":24},"type":"Feature","geometry":null},{"properties":{"units":1,"geo_score":0.0,"ils":"16-30%","id":"aae5673c3sbi","address":"3909 W. Gladys","geo_precision":"unmatched","ward":24},"type":"Feature","geometry":null},{"properties":{"units":1,"geo_score":0.0,"ils":"16-30%","id":"aae567aq94fk","address":"1436 S. Kostner","geo_precision":"unmatched","ward":24},"type":"Feature","geometry":null},{"properties":{"units":1,"geo_score":0.0,"ils":"16-30%","id":"aae5676blq1p","address":"1861 S. Komensky","geo_precision":"unmatched","ward":24},"type":"Feature","geometry":null},{"properties":{"units":1,"geo_score":0.0,"ils":"0-15%","id":"aae5675sgjci","address":"1521 S. Harding","geo_precision":"unmatched","ward":24},"type":"Feature","geometry":null},{"properties":{"units":2,"geo_score":0.0,"ils":"0-15%","id":"aae566xbpa7t","address":"1511 S. Lawndale","geo_precision":"unmatched","ward":24},"type":"Feature","geometry":null},{"properties":{"units":10,"geo_score":0.0,"ils":"0-15%","id":"aae566xc46vz","address":"1251 S. Keeler","geo_precision":"unmatched","ward":24},"type":"Feature","geometry":null},{"properties":{"units":1,"geo_score":0.0,"ils":"0-15%","id":"aae566wy3v1q","address":"4905 W. Van Buren","geo_precision":"unmatched","ward":24},"type":"Feature","geometry":null},{"properties":{"units":6,"geo_score":0.0,"ils":"16-30%","id":"aae567ak2o02","address":"4031 W. Gladys","geo_precision":"unmatched","ward":24},"type":"Feature","geometry":null},{"properties":{"units":5,"geo_score":0.0,"ils":"0-15%","id":"aae566x2ceoh","address":"3857 W. Polk","geo_precision":"unmatched","ward":24},"type":"Feature","geometry":null},{"properties":{"units":3,"geo_score":0.0,"ils":"0-15%","id":"aae567aguc8e","address":"711 S. Independence Boulavard","geo_precision":"unmatched","ward":24},"type":"Feature","geometry":null},{"properties":{"units":7,"geo_score":0.0,"ils":"16-30%","id":"aae567abhr8r","address":"711 S. Independence Boulavard","geo_precision":"unmatched","ward":24},"type":"Feature","geometry":null},{"properties":{"units":1,"geo_score":0.0,"ils":"16-30%","id":"aae567bqat4x","address":"1444 S. Ridgeway","geo_precision":"unmatched","ward":24},"type":"Feature","geometry":null},{"properties":{"units":11,"geo_score":0.0,"ils":"16-30%","id":"aae5677cy4hu","address":"4041 W. Roosevelt Road","geo_precision":"unmatched","ward":24},"type":"Feature","geometry":null},{"properties":{"units":1,"geo_score":0.0,"ils":"16-30%","id":"aae567cxvhvz","address":"1852 S. Troy","geo_precision":"unmatched","ward":24},"type":"Feature","geometry":null},{"properties":{"units":1,"geo_score":0.0,"ils":"0-15%","id":"aae5672kwfqc","address":"1530 S. Christina","geo_precision":"unmatched","ward":24},"type":"Feature","geometry":null},{"properties":{"units":5,"geo_score":0.0,"ils":"0-15%","id":"aae5675j7ix4","address":"1203 S. Kolin","geo_precision":"unmatched","ward":24},"type":"Feature","geometry":null},{"properties":{"units":2,"geo_score":0.0,"ils":"16-30%","id":"aae566zpfhyn","address":"1203 S. Kolin","geo_precision":"unmatched","ward":24},"type":"Feature","geometry":null},{"properties":{"units":1,"geo_score":0.0,"ils":"0-15%","id":"aae5671bbv17","address":"1825 S. Lawndale","geo_precision":"unmatched","ward":24},"type":"Feature","geometry":null},{"properties":{"units":1,"geo_score":0.0,"ils":"0-15%","id":"aae566xg7taf","address":"1432 S. Homan","geo_precision":"unmatched","ward":24},"type":"Feature","geometry":null},{"properties":{"units":1,"geo_score":0.0,"ils":"0-15%","id":"aae5675vsl4o","address":"3946 W. Polk","geo_precision":"unmatched","ward":24},"type":"Feature","geometry":null},{"properties":{"units":1,"geo_score":0.0,"ils":"16-30%","id":"aae5675hay1j","address":"1921 W. 17th Street","geo_precision":"unmatched","ward":25},"type":"Feature","geometry":null},{"properties":{"units":1,"geo_score":0.0,"ils":"16-30%","id":"aae566zyz84q","address":"1841 S. Laflin","geo_precision":"unmatched","ward":25},"type":"Feature","geometry":null},{"properties":{"units":1,"geo_score":0.0,"ils":"0-15%","id":"aae567bu8bmn","address":"1714 W. 17th Street","geo_precision":"unmatched","ward":25},"type":"Feature","geometry":null},{"properties":{"units":1,"geo_score":0.0,"ils":"16-30%","id":"aae56753gzsv","address":"967 W. 19th Street","geo_precision":"unmatched","ward":25},"type":"Feature","geometry":null},{"properties":{"units":1,"geo_score":0.0,"ils":"16-30%","id":"aae567aubaab","address":"1313 W. 19th Street","geo_precision":"unmatched","ward":25},"type":"Feature","geometry":null},{"properties":{"units":2,"geo_score":0.0,"ils":"16-30%","id":"aae5677k65y9","address":"1721 W. 17th Street","geo_precision":"unmatched","ward":25},"type":"Feature","geometry":null},{"properties":{"units":1,"geo_score":0.0,"ils":"16-30%","id":"aae567cfw1jd","address":"1714 W. 19th Street","geo_precision":"unmatched","ward":25},"type":"Feature","geometry":null},{"properties":{"units":3,"geo_score":0.0,"ils":"16-30%","id":"aae567cydmvw","address":"963 W. Cullerton","geo_precision":"unmatched","ward":25},"type":"Feature","geometry":null},{"properties":{"units":6,"geo_score":0.0,"ils":"0-15%","id":"aae5678m3jtk","address":"3306 W. Division","geo_precision":"unmatched","ward":26},"type":"Feature","geometry":null},{"properties":{"units":3,"geo_score":0.0,"ils":"0-15%","id":"aae5679vdyki","address":"929 N. Sacramento","geo_precision":"unmatched","ward":26},"type":"Feature","geometry":null},{"properties":{"units":9,"geo_score":0.0,"ils":"16-30%","id":"aae567a2fsjs","address":"929 N. Sacramento","geo_precision":"unmatched","ward":26},"type":"Feature","geometry":null},{"properties":{"units":1,"geo_score":0.0,"ils":"0-15%","id":"aae566zaln6u","address":"3600 W. Shakespeare","geo_precision":"unmatched","ward":26},"type":"Feature","geometry":null},{"properties":{"units":7,"geo_score":0.0,"ils":"0-15%","id":"aae567a6l11j","address":"901 N. Sacramento","geo_precision":"unmatched","ward":26},"type":"Feature","geometry":null},{"properties":{"units":14,"geo_score":0.0,"ils":"16-30%","id":"aae5677kc23s","address":"901 N. Sacramento","geo_precision":"unmatched","ward":26},"type":"Feature","geometry":null},{"properties":{"units":1,"geo_score":0.0,"ils":"16-30%","id":"aae5674kd6xa","address":"1941 N. Monticello","geo_precision":"unmatched","ward":26},"type":"Feature","geometry":null},{"properties":{"units":1,"geo_score":0.0,"ils":"0-15%","id":"aae567c5l58t","address":"1536 N. St. Louis","geo_precision":"unmatched","ward":26},"type":"Feature","geometry":null},{"properties":{"units":2,"geo_score":0.0,"ils":"0-15%","id":"aae56713pjvg","address":"2500 W. Thomas","geo_precision":"unmatched","ward":26},"type":"Feature","geometry":null},{"properties":{"units":1,"geo_score":0.0,"ils":"0-15%","id":"aae567262dv1","address":"3301 W. Palmer","geo_precision":"unmatched","ward":26},"type":"Feature","geometry":null},{"properties":{"units":9,"geo_score":0.0,"ils":"16-30%","id":"aae56752y7jz","address":"3301 W. Palmer","geo_precision":"unmatched","ward":26},"type":"Feature","geometry":null},{"properties":{"units":1,"geo_score":0.0,"ils":"0-15%","id":"aae566zpgc0l","address":"1810 N. St. Louis","geo_precision":"unmatched","ward":26},"type":"Feature","geometry":null},{"properties":{"units":5,"geo_score":0.0,"ils":"16-30%","id":"aae5674cqf41","address":"1810 N. St. Louis","geo_precision":"unmatched","ward":26},"type":"Feature","geometry":null},{"properties":{"units":1,"geo_score":0.0,"ils":"0-15%","id":"aae5670v5cyx","address":"1414 N. Washtenaw","geo_precision":"unmatched","ward":26},"type":"Feature","geometry":null},{"properties":{"units":2,"geo_score":0.0,"ils":"16-30%","id":"aae5670r4ycm","address":"1414 N. Washtenaw","geo_precision":"unmatched","ward":26},"type":"Feature","geometry":null},{"properties":{"units":1,"geo_score":0.0,"ils":"0-15%","id":"aae567bf2mks","address":"1318 N. Rockwell","geo_precision":"unmatched","ward":26},"type":"Feature","geometry":null},{"properties":{"units":3,"geo_score":0.0,"ils":"16-30%","id":"aae5670jkeol","address":"1318 N. Rockwell","geo_precision":"unmatched","ward":26},"type":"Feature","geometry":null},{"properties":{"units":3,"geo_score":0.0,"ils":"16-30%","id":"aae567ctfg7c","address":"1456 N. Rockwell","geo_precision":"unmatched","ward":26},"type":"Feature","geometry":null},{"properties":{"units":20,"geo_score":0.0,"ils":"0-15%","id":"aae5679pmqa0","address":"3339 W. Division","geo_precision":"unmatched","ward":26},"type":"Feature","geometry":null},{"properties":{"units":2,"geo_score":0.0,"ils":"16-30%","id":"aae5678ltirj","address":"3339 W. Division","geo_precision":"unmatched","ward":26},"type":"Feature","geometry":null},{"properties":{"units":11,"geo_score":0.0,"ils":"0-15%","id":"aae5678vssit","address":"3507 W. North","geo_precision":"unmatched","ward":26},"type":"Feature","geometry":null},{"properties":{"units":1,"geo_score":0.0,"ils":"0-15%","id":"aae567cddl4x","address":"1226 N. Artesian","geo_precision":"unmatched","ward":26},"type":"Feature","geometry":null},{"properties":{"units":1,"geo_score":0.0,"ils":"0-15%","id":"aae56723jip1","address":"3345 W. Beach","geo_precision":"unmatched","ward":26},"type":"Feature","geometry":null},{"properties":{"units":1,"geo_score":0.0,"ils":"0-15%","id":"aae567cssk6z","address":"868 N. Sacramento","geo_precision":"unmatched","ward":26},"type":"Feature","geometry":null},{"properties":{"units":2,"geo_score":0.0,"ils":"16-30%","id":"aae567aftjbl","address":"3416 W. Potomac","geo_precision":"unmatched","ward":26},"type":"Feature","geometry":null},{"properties":{"units":1,"geo_score":0.0,"ils":"16-30%","id":"aae5674rmucy","address":"1622 N. Albany","geo_precision":"unmatched","ward":26},"type":"Feature","geometry":null},{"properties":{"units":1,"geo_score":0.0,"ils":"16-30%","id":"aae5679ldz0f","address":"1019 N. Fransico","geo_precision":"unmatched","ward":26},"type":"Feature","geometry":null},{"properties":{"units":2,"geo_score":0.0,"ils":"0-15%","id":"aae567cu8std","address":"1750 N. Spaulding","geo_precision":"unmatched","ward":26},"type":"Feature","geometry":null},{"properties":{"units":3,"geo_score":0.0,"ils":"16-30%","id":"aae5673g4yn7","address":"1750 N. Spaulding","geo_precision":"unmatched","ward":26},"type":"Feature","geometry":null},{"properties":{"units":1,"geo_score":0.0,"ils":"16-30%","id":"aae566ylx15n","address":"3508 W. Dickens","geo_precision":"unmatched","ward":26},"type":"Feature","geometry":null},{"properties":{"units":1,"geo_score":0.0,"ils":"16-30%","id":"aae566yruaxh","address":"634 S. Avers","geo_precision":"unmatched","ward":27},"type":"Feature","geometry":null},{"properties":{"units":1,"geo_score":0.0,"ils":"0-15%","id":"aae5672zmtjq","address":"4924 W. Iowa","geo_precision":"unmatched","ward":27},"type":"Feature","geometry":null},{"properties":{"units":1,"geo_score":0.0,"ils":"16-30%","id":"aae566x7hpal","address":"1039 N. Hamlin","geo_precision":"unmatched","ward":27},"type":"Feature","geometry":null},{"properties":{"units":1,"geo_score":0.0,"ils":"0-15%","id":"aae566zut2ue","address":"653 N. Christina","geo_precision":"unmatched","ward":27},"type":"Feature","geometry":null},{"properties":{"units":1,"geo_score":0.0,"ils":"0-15%","id":"aae567bgar82","address":"739 N. Ridgeway","geo_precision":"unmatched","ward":27},"type":"Feature","geometry":null},{"properties":{"units":1,"geo_score":0.0,"ils":"16-30%","id":"aae567bfilf7","address":"1205 N. Hamlin","geo_precision":"unmatched","ward":27},"type":"Feature","geometry":null},{"properties":{"units":63,"geo_score":0.0,"ils":"0-15%","id":"aae5671qm3ev","address":"932 N. Washington","geo_precision":"unmatched","ward":27},"type":"Feature","geometry":null},{"properties":{"units":23,"geo_score":0.0,"ils":"16-30%","id":"aae5671m9tag","address":"932 N. Washington","geo_precision":"unmatched","ward":27},"type":"Feature","geometry":null},{"properties":{"units":1,"geo_score":0.0,"ils":"16-30%","id":"aae566ym8aqz","address":"1115 N. Springfield","geo_precision":"unmatched","ward":27},"type":"Feature","geometry":null},{"properties":{"units":14,"geo_score":0.0,"ils":"0-15%","id":"aae5673uulkb","address":"3656 W. Huron","geo_precision":"unmatched","ward":27},"type":"Feature","geometry":null},{"properties":{"units":5,"geo_score":0.0,"ils":"16-30%","id":"aae5676xz92j","address":"3656 W. Huron","geo_precision":"unmatched","ward":27},"type":"Feature","geometry":null},{"properties":{"units":2,"geo_score":0.0,"ils":"0-15%","id":"aae56718574i","address":"4200 W. Washington","geo_precision":"unmatched","ward":28},"type":"Feature","geometry":null},{"properties":{"units":2,"geo_score":0.0,"ils":"16-30%","id":"aae5674tv7n2","address":"4200 W. Washington","geo_precision":"unmatched","ward":28},"type":"Feature","geometry":null},{"properties":{"units":3,"geo_score":0.0,"ils":"0-15%","id":"aae5675m90qe","address":"4316 W. West End","geo_precision":"unmatched","ward":28},"type":"Feature","geometry":null},{"properties":{"units":2,"geo_score":0.0,"ils":"16-30%","id":"aae566zqxzek","address":"4316 W. West End","geo_precision":"unmatched","ward":28},"type":"Feature","geometry":null},{"properties":{"units":1,"geo_score":0.0,"ils":"0-15%","id":"aae566zlcwyi","address":"4400 W. Washington","geo_precision":"unmatched","ward":28},"type":"Feature","geometry":null},{"properties":{"units":1,"geo_score":0.0,"ils":"16-30%","id":"aae5673bnsvm","address":"4400 W. Washington","geo_precision":"unmatched","ward":28},"type":"Feature","geometry":null},{"properties":{"units":1,"geo_score":0.0,"ils":"0-15%","id":"aae5678i8rpi","address":"4401 W. Maypole","geo_precision":"unmatched","ward":28},"type":"Feature","geometry":null},{"properties":{"units":2,"geo_score":0.0,"ils":"0-15%","id":"aae5671lyqql","address":"4900 W. Jackson","geo_precision":"unmatched","ward":28},"type":"Feature","geometry":null},{"properties":{"units":1,"geo_score":0.0,"ils":"16-30%","id":"aae567bk9fij","address":"4900 W. Jackson","geo_precision":"unmatched","ward":28},"type":"Feature","geometry":null},{"properties":{"units":1,"geo_score":0.0,"ils":"0-15%","id":"aae5674klsm3","address":"3328 W. Congress Parkway","geo_precision":"unmatched","ward":28},"type":"Feature","geometry":null},{"properties":{"units":1,"geo_score":0.0,"ils":"16-30%","id":"aae5676rmg41","address":"3107 W. Monroe","geo_precision":"unmatched","ward":28},"type":"Feature","geometry":null},{"properties":{"units":1,"geo_score":0.0,"ils":"0-15%","id":"aae5670rjqgt","address":"1131 S. Sacramento","geo_precision":"unmatched","ward":28},"type":"Feature","geometry":null},{"properties":{"units":7,"geo_score":0.0,"ils":"0-15%","id":"aae56781or66","address":"5447 W. West End","geo_precision":"unmatched","ward":28},"type":"Feature","geometry":null},{"properties":{"units":1,"geo_score":0.0,"ils":"0-15%","id":"aae567axqhtt","address":"6 N. Hamlin","geo_precision":"unmatched","ward":28},"type":"Feature","geometry":null},{"properties":{"units":1,"geo_score":0.0,"ils":"16-30%","id":"aae566za6s1e","address":"355 S. Homan","geo_precision":"unmatched","ward":28},"type":"Feature","geometry":null},{"properties":{"units":2,"geo_score":0.0,"ils":"0-15%","id":"aae566yb3hcp","address":"4701 W. Maypole","geo_precision":"unmatched","ward":28},"type":"Feature","geometry":null},{"properties":{"units":6,"geo_score":0.0,"ils":"16-30%","id":"aae567cz76ud","address":"4701 W. Maypole","geo_precision":"unmatched","ward":28},"type":"Feature","geometry":null},{"properties":{"units":6,"geo_score":0.0,"ils":"0-15%","id":"aae566yid9a9","address":"7 N. Pine","geo_precision":"unmatched","ward":28},"type":"Feature","geometry":null},{"properties":{"units":15,"geo_score":0.0,"ils":"16-30%","id":"aae566yyv60g","address":"5509 W. Corcoran","geo_precision":"unmatched","ward":28},"type":"Feature","geometry":null},{"properties":{"units":2,"geo_score":0.0,"ils":"0-15%","id":"aae5677fo6wt","address":"5449 W. Quincy","geo_precision":"unmatched","ward":29},"type":"Feature","geometry":null},{"properties":{"units":2,"geo_score":0.0,"ils":"16-30%","id":"aae5673837t1","address":"5449 W. Quincy","geo_precision":"unmatched","ward":29},"type":"Feature","geometry":null},{"properties":{"units":4,"geo_score":0.0,"ils":"0-15%","id":"aae566ywe6l3","address":"840 N. Massasoit","geo_precision":"unmatched","ward":29},"type":"Feature","geometry":null},{"properties":{"units":1,"geo_score":0.0,"ils":"16-30%","id":"aae5673kyuoz","address":"5501 W. Congress","geo_precision":"unmatched","ward":29},"type":"Feature","geometry":null},{"properties":{"units":1,"geo_score":0.0,"ils":"0-15%","id":"aae5673gy4zx","address":"301 S. Central","geo_precision":"unmatched","ward":29},"type":"Feature","geometry":null},{"properties":{"units":9,"geo_score":0.0,"ils":"0-15%","id":"aae5674z417f","address":"5645 W. Washington","geo_precision":"unmatched","ward":29},"type":"Feature","geometry":null},{"properties":{"units":2,"geo_score":0.0,"ils":"16-30%","id":"aae566xogjra","address":"5645 W. Washington","geo_precision":"unmatched","ward":29},"type":"Feature","geometry":null},{"properties":{"units":3,"geo_score":0.0,"ils":"0-15%","id":"aae5672bzr0p","address":"5714 W. Thomas","geo_precision":"unmatched","ward":29},"type":"Feature","geometry":null},{"properties":{"units":2,"geo_score":0.0,"ils":"0-15%","id":"aae567cusitv","address":"133 S. Central","geo_precision":"unmatched","ward":29},"type":"Feature","geometry":null},{"properties":{"units":5,"geo_score":0.0,"ils":"0-15%","id":"aae5678eeets","address":"16 S. Central","geo_precision":"unmatched","ward":29},"type":"Feature","geometry":null},{"properties":{"units":3,"geo_score":0.0,"ils":"16-30%","id":"aae5677ed6i8","address":"16 S. Central","geo_precision":"unmatched","ward":29},"type":"Feature","geometry":null},{"properties":{"units":3,"geo_score":0.0,"ils":"0-15%","id":"aae5678bhcuq","address":"5700 W. Washington","geo_precision":"unmatched","ward":29},"type":"Feature","geometry":null},{"properties":{"units":1,"geo_score":0.0,"ils":"16-30%","id":"aae566y4x58l","address":"5700 W. Washington","geo_precision":"unmatched","ward":29},"type":"Feature","geometry":null},{"properties":{"units":1,"geo_score":0.0,"ils":"16-30%","id":"aae566xdnb5i","address":"1148 S. Keeler","geo_precision":"unmatched","ward":29},"type":"Feature","geometry":null},{"properties":{"units":1,"geo_score":0.0,"ils":"0-15%","id":"aae5679kqrxr","address":"5645 W. Madison","geo_precision":"unmatched","ward":29},"type":"Feature","geometry":null},{"properties":{"units":1,"geo_score":0.0,"ils":"16-30%","id":"aae5670bji6f","address":"5645 W. Madison","geo_precision":"unmatched","ward":29},"type":"Feature","geometry":null},{"properties":{"units":4,"geo_score":0.0,"ils":"0-15%","id":"aae566ym8wfr","address":"5836 W. Madison","geo_precision":"unmatched","ward":29},"type":"Feature","geometry":null},{"properties":{"units":2,"geo_score":0.0,"ils":"0-15%","id":"aae567a2g6sh","address":"5531 W. Congress","geo_precision":"unmatched","ward":29},"type":"Feature","geometry":null},{"properties":{"units":3,"geo_score":0.0,"ils":"0-15%","id":"aae5676bh2n0","address":"5806 W. Fulton","geo_precision":"unmatched","ward":29},"type":"Feature","geometry":null},{"properties":{"units":1,"geo_score":0.0,"ils":"16-30%","id":"aae567bo2jky","address":"5806 W. Fulton","geo_precision":"unmatched","ward":29},"type":"Feature","geometry":null},{"properties":{"units":1,"geo_score":0.0,"ils":"0-15%","id":"aae567buw283","address":"5554 W. Gladys","geo_precision":"unmatched","ward":29},"type":"Feature","geometry":null},{"properties":{"units":3,"geo_score":0.0,"ils":"0-15%","id":"aae5672srv3c","address":"4043 N. Cortland","geo_precision":"unmatched","ward":30},"type":"Feature","geometry":null},{"properties":{"units":2,"geo_score":0.0,"ils":"16-30%","id":"aae5674mqy9p","address":"1523 N. Kedvale","geo_precision":"unmatched","ward":30},"type":"Feature","geometry":null},{"properties":{"units":2,"geo_score":0.0,"ils":"16-30%","id":"aae567dcxjx5","address":"3859 W. Wrightwood","geo_precision":"unmatched","ward":30},"type":"Feature","geometry":null},{"properties":{"units":1,"geo_score":0.0,"ils":"16-30%","id":"aae5675vdna4","address":"2622 N. Mason","geo_precision":"unmatched","ward":30},"type":"Feature","geometry":null},{"properties":{"units":1,"geo_score":0.0,"ils":"16-30%","id":"aae56783glvs","address":"2429 N. Tripp","geo_precision":"unmatched","ward":31},"type":"Feature","geometry":null},{"properties":{"units":1,"geo_score":0.0,"ils":"0-15%","id":"aae566z182if","address":"2701 N. Laramie","geo_precision":"unmatched","ward":31},"type":"Feature","geometry":null},{"properties":{"units":1,"geo_score":0.0,"ils":"0-15%","id":"aae5678rmova","address":"1938 W. School Street","geo_precision":"unmatched","ward":32},"type":"Feature","geometry":null},{"properties":{"units":1,"geo_score":0.0,"ils":"16-30%","id":"aae567ane1qv","address":"2328 W. McLean","geo_precision":"unmatched","ward":32},"type":"Feature","geometry":null},{"properties":{"units":5,"geo_score":0.0,"ils":"0-15%","id":"aae5675osfrb","address":"1501 W. Belmont","geo_precision":"unmatched","ward":32},"type":"Feature","geometry":null},{"properties":{"units":5,"geo_score":0.0,"ils":"16-30%","id":"aae567a90rzr","address":"1501 W. Belmont","geo_precision":"unmatched","ward":32},"type":"Feature","geometry":null},{"properties":{"units":1,"geo_score":0.0,"ils":"0-15%","id":"aae5676wdwyv","address":"4043 N. Mozart","geo_precision":"unmatched","ward":33},"type":"Feature","geometry":null},{"properties":{"units":1,"geo_score":0.0,"ils":"16-30%","id":"aae56742gh8o","address":"4500 N. Sawyer","geo_precision":"unmatched","ward":33},"type":"Feature","geometry":null},{"properties":{"units":1,"geo_score":0.0,"ils":"0-15%","id":"aae567bcg9ni","address":"3518 W. Cullom","geo_precision":"unmatched","ward":33},"type":"Feature","geometry":null},{"properties":{"units":2,"geo_score":0.0,"ils":"0-15%","id":"aae5673ehjgr","address":"2944 W. Cullom","geo_precision":"unmatched","ward":33},"type":"Feature","geometry":null},{"properties":{"units":1,"geo_score":0.0,"ils":"16-30%","id":"aae5673ruhbj","address":"2944 W. Cullom","geo_precision":"unmatched","ward":33},"type":"Feature","geometry":null},{"properties":{"units":1,"geo_score":0.0,"ils":"0-15%","id":"aae567at73bn","address":"2516 W. Foster","geo_precision":"unmatched","ward":33},"type":"Feature","geometry":null},{"properties":{"units":1,"geo_score":0.0,"ils":"0-15%","id":"aae5675h6kln","address":"1148 W. 111th Place","geo_precision":"unmatched","ward":34},"type":"Feature","geometry":null},{"properties":{"units":6,"geo_score":0.0,"ils":"0-15%","id":"aae567cll1z1","address":"11045 S. Wentworth","geo_precision":"unmatched","ward":34},"type":"Feature","geometry":null},{"properties":{"units":2,"geo_score":0.0,"ils":"16-30%","id":"aae567733b6e","address":"11045 S. Wentworth","geo_precision":"unmatched","ward":34},"type":"Feature","geometry":null},{"properties":{"units":1,"geo_score":0.0,"ils":"0-15%","id":"aae5674xdjrj","address":"10420 S. Union","geo_precision":"unmatched","ward":34},"type":"Feature","geometry":null},{"properties":{"units":2,"geo_score":0.0,"ils":"0-15%","id":"aae5677zo5m2","address":"1908 N. Kimball","geo_precision":"unmatched","ward":35},"type":"Feature","geometry":null},{"properties":{"units":4,"geo_score":0.0,"ils":"0-15%","id":"aae5678kcbd9","address":"2120 N. Mozart","geo_precision":"unmatched","ward":35},"type":"Feature","geometry":null},{"properties":{"units":1,"geo_score":0.0,"ils":"0-15%","id":"aae567bfbxec","address":"2901 N. Dawson","geo_precision":"unmatched","ward":35},"type":"Feature","geometry":null},{"properties":{"units":1,"geo_score":0.0,"ils":"0-15%","id":"aae566yppco3","address":"2621 N. Fairfield","geo_precision":"unmatched","ward":35},"type":"Feature","geometry":null},{"properties":{"units":2,"geo_score":0.0,"ils":"16-30%","id":"aae5670df2a4","address":"3402 W. Lyndale","geo_precision":"unmatched","ward":35},"type":"Feature","geometry":null},{"properties":{"units":1,"geo_score":0.0,"ils":"0-15%","id":"aae567933vew","address":"1832 N. Humboldt","geo_precision":"unmatched","ward":35},"type":"Feature","geometry":null},{"properties":{"units":2,"geo_score":0.0,"ils":"16-30%","id":"aae5671cyf3n","address":"2921 N. Dawson","geo_precision":"unmatched","ward":35},"type":"Feature","geometry":null},{"properties":{"units":1,"geo_score":0.0,"ils":"0-15%","id":"aae56737c2g6","address":"3707 W. Wrightwood","geo_precision":"unmatched","ward":35},"type":"Feature","geometry":null},{"properties":{"units":1,"geo_score":0.0,"ils":"0-15%","id":"aae567b10vf5","address":"2749 N. Mozart","geo_precision":"unmatched","ward":35},"type":"Feature","geometry":null},{"properties":{"units":1,"geo_score":0.0,"ils":"0-15%","id":"aae566yklpkl","address":"5442 W. Augusta","geo_precision":"unmatched","ward":37},"type":"Feature","geometry":null},{"properties":{"units":9,"geo_score":0.0,"ils":"0-15%","id":"aae5676xr9gt","address":"4846 W. North","geo_precision":"unmatched","ward":37},"type":"Feature","geometry":null},{"properties":{"units":1,"geo_score":0.0,"ils":"0-15%","id":"aae56702azdt","address":"1413 N. Karlov","geo_precision":"unmatched","ward":37},"type":"Feature","geometry":null},{"properties":{"units":1,"geo_score":0.0,"ils":"0-15%","id":"aae566xxs32f","address":"4247 N. Hirsch","geo_precision":"unmatched","ward":37},"type":"Feature","geometry":null},{"properties":{"units":4,"geo_score":0.0,"ils":"0-15%","id":"aae5673m01fh","address":"4248 W. Hirsch","geo_precision":"unmatched","ward":37},"type":"Feature","geometry":null},{"properties":{"units":1,"geo_score":0.0,"ils":"16-30%","id":"aae5676qfq5i","address":"745 N. Central","geo_precision":"unmatched","ward":37},"type":"Feature","geometry":null},{"properties":{"units":1,"geo_score":0.0,"ils":"0-15%","id":"aae5678c3p28","address":"4246 W. Kamerling","geo_precision":"unmatched","ward":37},"type":"Feature","geometry":null},{"properties":{"units":8,"geo_score":0.0,"ils":"16-30%","id":"aae56727aaao","address":"723 N. Central","geo_precision":"unmatched","ward":37},"type":"Feature","geometry":null},{"properties":{"units":1,"geo_score":0.0,"ils":"0-15%","id":"aae566ycyuyd","address":"5440 W. Huron","geo_precision":"unmatched","ward":37},"type":"Feature","geometry":null},{"properties":{"units":4,"geo_score":0.0,"ils":"0-15%","id":"aae567b5mjks","address":"5422 W. North","geo_precision":"unmatched","ward":37},"type":"Feature","geometry":null},{"properties":{"units":2,"geo_score":0.0,"ils":"16-30%","id":"aae56790ors0","address":"5422 W. North","geo_precision":"unmatched","ward":37},"type":"Feature","geometry":null},{"properties":{"units":2,"geo_score":0.0,"ils":"0-15%","id":"aae5674rt8uf","address":"4957 W. Huron","geo_precision":"unmatched","ward":37},"type":"Feature","geometry":null},{"properties":{"units":59,"geo_score":0.0,"ils":"0-15%","id":"aae567445czy","address":"501 N. Central","geo_precision":"unmatched","ward":37},"type":"Feature","geometry":null},{"properties":{"units":1,"geo_score":0.0,"ils":"16-30%","id":"aae5679yy2gn","address":"2126 S. California","geo_precision":"unmatched","ward":38},"type":"Feature","geometry":null},{"properties":{"units":1,"geo_score":0.0,"ils":"0-15%","id":"aae56756eguz","address":"7033 W. Wolfram","geo_precision":"unmatched","ward":38},"type":"Feature","geometry":null},{"properties":{"units":1,"geo_score":0.0,"ils":"16-30%","id":"aae567bm6ab9","address":"4740 W. Grace","geo_precision":"unmatched","ward":38},"type":"Feature","geometry":null},{"properties":{"units":44,"geo_score":0.0,"ils":"0-15%","id":"aae566x1w4zm","address":"4251 W. Irving Park","geo_precision":"unmatched","ward":38},"type":"Feature","geometry":null},{"properties":{"units":6,"geo_score":0.0,"ils":"0-15%","id":"aae5670f34nq","address":"1737 W. Devon","geo_precision":"unmatched","ward":40},"type":"Feature","geometry":null},{"properties":{"units":1,"geo_score":0.0,"ils":"0-15%","id":"aae5673yr1fq","address":"5753 N. Talman","geo_precision":"unmatched","ward":40},"type":"Feature","geometry":null},{"properties":{"units":4,"geo_score":0.0,"ils":"0-15%","id":"aae56741iq6e","address":"1537 W. Rosemont","geo_precision":"unmatched","ward":40},"type":"Feature","geometry":null},{"properties":{"units":1,"geo_score":0.0,"ils":"0-15%","id":"aae567c9bqxr","address":"1542 W. Thome","geo_precision":"unmatched","ward":40},"type":"Feature","geometry":null},{"properties":{"units":127,"geo_score":0.0,"ils":"0-15%","id":"aae5676g7wqh","address":"30 W. Chicago","geo_precision":"unmatched","ward":42},"type":"Feature","geometry":null},{"properties":{"units":69,"geo_score":0.0,"ils":"0-15%","id":"aae5677v3iaa","address":"3333 N. Marshfield","geo_precision":"unmatched","ward":44},"type":"Feature","geometry":null},{"properties":{"units":1,"geo_score":0.0,"ils":"0-15%","id":"aae5675cugep","address":"5484 W. Higgins","geo_precision":"unmatched","ward":45},"type":"Feature","geometry":null},{"properties":{"units":32,"geo_score":0.0,"ils":"16-30%","id":"aae56731hy2n","address":"4541 N. Sheridan Road","geo_precision":"unmatched","ward":46},"type":"Feature","geometry":null},{"properties":{"units":18,"geo_score":0.0,"ils":"0-15%","id":"aae567c6y49j","address":"1134 W. Wilson","geo_precision":"unmatched","ward":46},"type":"Feature","geometry":null},{"properties":{"units":31,"geo_score":0.0,"ils":"0-15%","id":"aae566yt51w9","address":"915 W. Wilson","geo_precision":"unmatched","ward":46},"type":"Feature","geometry":null},{"properties":{"units":32,"geo_score":0.0,"ils":"16-30%","id":"aae5679nn98l","address":"915 W. Wilson","geo_precision":"unmatched","ward":46},"type":"Feature","geometry":null},{"properties":{"units":5,"geo_score":0.0,"ils":"0-15%","id":"aae5679ra8d9","address":"927 W. Wilson","geo_precision":"unmatched","ward":46},"type":"Feature","geometry":null},{"properties":{"units":8,"geo_score":0.0,"ils":"16-30%","id":"aae566xndvkk","address":"927 W. Wilson","geo_precision":"unmatched","ward":46},"type":"Feature","geometry":null},{"properties":{"units":1,"geo_score":0.0,"ils":"0-15%","id":"aae566zpnynh","address":"900 W. Windsor","geo_precision":"unmatched","ward":46},"type":"Feature","geometry":null},{"properties":{"units":5,"geo_score":0.0,"ils":"16-30%","id":"aae56750clla","address":"900 W. Windsor","geo_precision":"unmatched","ward":46},"type":"Feature","geometry":null},{"properties":{"units":4,"geo_score":0.0,"ils":"16-30%","id":"aae567alyu8m","address":"4431 N. Clifton","geo_precision":"unmatched","ward":46},"type":"Feature","geometry":null},{"properties":{"units":5,"geo_score":0.0,"ils":"0-15%","id":"aae5674onwyz","address":"1311 W. Leland","geo_precision":"unmatched","ward":46},"type":"Feature","geometry":null},{"properties":{"units":13,"geo_score":0.0,"ils":"16-30%","id":"aae5679ocdbp","address":"1311 W. Leland","geo_precision":"unmatched","ward":46},"type":"Feature","geometry":null},{"properties":{"units":52,"geo_score":0.0,"ils":"0-15%","id":"aae5670q2igi","address":"920 W. Wilson","geo_precision":"unmatched","ward":46},"type":"Feature","geometry":null},{"properties":{"units":21,"geo_score":0.0,"ils":"0-15%","id":"aae567de41xw","address":"1039 W. Lawrence","geo_precision":"unmatched","ward":46},"type":"Feature","geometry":null},{"properties":{"units":7,"geo_score":0.0,"ils":"0-15%","id":"aae5672al9tl","address":"4727 N. Malden","geo_precision":"unmatched","ward":46},"type":"Feature","geometry":null},{"properties":{"units":7,"geo_score":0.0,"ils":"16-30%","id":"aae566yudcj5","address":"4727 N. Malden","geo_precision":"unmatched","ward":46},"type":"Feature","geometry":null},{"properties":{"units":14,"geo_score":0.0,"ils":"0-15%","id":"aae5672tnn6i","address":"4040 N. Sheridan Road","geo_precision":"unmatched","ward":46},"type":"Feature","geometry":null},{"properties":{"units":1,"geo_score":0.0,"ils":"0-15%","id":"aae566y2vum1","address":"831 W. Windsor","geo_precision":"unmatched","ward":46},"type":"Feature","geometry":null},{"properties":{"units":1,"geo_score":0.0,"ils":"0-15%","id":"aae567cym56o","address":"847 W. Sunnyside","geo_precision":"unmatched","ward":46},"type":"Feature","geometry":null},{"properties":{"units":1,"geo_score":0.0,"ils":"16-30%","id":"aae566zrnvef","address":"847 W. Sunnyside","geo_precision":"unmatched","ward":46},"type":"Feature","geometry":null},{"properties":{"units":2,"geo_score":0.0,"ils":"0-15%","id":"aae5677ul6j9","address":"4431 N. Racine","geo_precision":"unmatched","ward":46},"type":"Feature","geometry":null},{"properties":{"units":1,"geo_score":0.0,"ils":"0-15%","id":"aae5673d3g53","address":"4927 N. Kenmore","geo_precision":"unmatched","ward":46},"type":"Feature","geometry":null},{"properties":{"units":2,"geo_score":0.0,"ils":"0-15%","id":"aae5678y138j","address":"825 W. Sunnyside","geo_precision":"unmatched","ward":46},"type":"Feature","geometry":null},{"properties":{"units":9,"geo_score":0.0,"ils":"16-30%","id":"aae5671bi3x6","address":"825 W. Sunnyside","geo_precision":"unmatched","ward":46},"type":"Feature","geometry":null},{"properties":{"units":1,"geo_score":0.0,"ils":"16-30%","id":"aae5678zxeme","address":"2433 W. Eastwood","geo_precision":"unmatched","ward":47},"type":"Feature","geometry":null},{"properties":{"units":1,"geo_score":0.0,"ils":"0-15%","id":"aae5675damuh","address":"5450 N. Winthrop","geo_precision":"unmatched","ward":48},"type":"Feature","geometry":null},{"properties":{"units":1,"geo_score":0.0,"ils":"0-15%","id":"aae5676jvpd6","address":"5701 N. Sheridan Road","geo_precision":"unmatched","ward":48},"type":"Feature","geometry":null},{"properties":{"units":20,"geo_score":0.0,"ils":"0-15%","id":"aae5672jrosa","address":"5240 N. Winthrop","geo_precision":"unmatched","ward":48},"type":"Feature","geometry":null},{"properties":{"units":2,"geo_score":0.0,"ils":"16-30%","id":"aae56790b7s8","address":"1016 W. Balmore","geo_precision":"unmatched","ward":48},"type":"Feature","geometry":null},{"properties":{"units":24,"geo_score":0.0,"ils":"0-15%","id":"aae567bm5enb","address":"5700 N. Sheridan Road","geo_precision":"unmatched","ward":48},"type":"Feature","geometry":null},{"properties":{"units":11,"geo_score":0.0,"ils":"16-30%","id":"aae566x8p3gt","address":"5700 N. Sheridan Road","geo_precision":"unmatched","ward":48},"type":"Feature","geometry":null},{"properties":{"units":2,"geo_score":0.0,"ils":"16-30%","id":"aae567a8jxwo","address":"5550 N. Kenmore","geo_precision":"unmatched","ward":48},"type":"Feature","geometry":null},{"properties":{"units":3,"geo_score":0.0,"ils":"16-30%","id":"aae5673e6b2z","address":"1055 W. Catalpa","geo_precision":"unmatched","ward":48},"type":"Feature","geometry":null},{"properties":{"units":34,"geo_score":0.0,"ils":"0-16%","id":"aae5677dqv0l","address":"1061 W. Rosemont","geo_precision":"unmatched","ward":48},"type":"Feature","geometry":null},{"properties":{"units":11,"geo_score":0.0,"ils":"0-15%","id":"aae5673jd5yp","address":"5750 N. Sheridan Road","geo_precision":"unmatched","ward":48},"type":"Feature","geometry":null},{"properties":{"units":25,"geo_score":0.0,"ils":"0-15%","id":"aae5671e2wb4","address":"5042 N. Winthrop","geo_precision":"unmatched","ward":48},"type":"Feature","geometry":null},{"properties":{"units":15,"geo_score":0.0,"ils":"16-30%","id":"aae5674pnmv0","address":"5042 N. Winthrop","geo_precision":"unmatched","ward":48},"type":"Feature","geometry":null},{"properties":{"units":15,"geo_score":0.0,"ils":"0-15%","id":"aae5676nvx81","address":"5326 N. Winthrop","geo_precision":"unmatched","ward":48},"type":"Feature","geometry":null},{"properties":{"units":7,"geo_score":0.0,"ils":"16-30%","id":"aae566z19ymc","address":"5326 N. Winthrop","geo_precision":"unmatched","ward":48},"type":"Feature","geometry":null},{"properties":{"units":5,"geo_score":0.0,"ils":"0-15%","id":"aae5675953d0","address":"5730 N. Sheridan Road","geo_precision":"unmatched","ward":48},"type":"Feature","geometry":null},{"properties":{"units":6,"geo_score":0.0,"ils":"16-30%","id":"aae567agytoj","address":"5730 N. Sheridan Road","geo_precision":"unmatched","ward":48},"type":"Feature","geometry":null},{"properties":{"units":8,"geo_score":0.0,"ils":"0-15%","id":"aae567cjid14","address":"5054 N. Winthrop","geo_precision":"unmatched","ward":48},"type":"Feature","geometry":null},{"properties":{"units":20,"geo_score":0.0,"ils":"0-15%","id":"aae56781km58","address":"6748 N. Ashland","geo_precision":"unmatched","ward":48},"type":"Feature","geometry":null},{"properties":{"units":9,"geo_score":0.0,"ils":"16-30%","id":"aae567asjfd8","address":"6748 N. Ashland","geo_precision":"unmatched","ward":48},"type":"Feature","geometry":null},{"properties":{"units":2,"geo_score":0.0,"ils":"0-15%","id":"aae566zih6fq","address":"6912 N. Ashland","geo_precision":"unmatched","ward":49},"type":"Feature","geometry":null},{"properties":{"units":3,"geo_score":0.0,"ils":"16-30%","id":"aae566zjcoad","address":"6912 N. Ashland","geo_precision":"unmatched","ward":49},"type":"Feature","geometry":null},{"properties":{"units":5,"geo_score":0.0,"ils":"0-15%","id":"aae567bloehj","address":"7600 N. Bosworth","geo_precision":"unmatched","ward":49},"type":"Feature","geometry":null},{"properties":{"units":19,"geo_score":0.0,"ils":"16-30%","id":"aae567ctqrn5","address":"7600 N. Bosworth","geo_precision":"unmatched","ward":49},"type":"Feature","geometry":null},{"properties":{"units":1,"geo_score":0.0,"ils":"0-15%","id":"aae5674ga9am","address":"6825 N. Sheridan Road","geo_precision":"unmatched","ward":49},"type":"Feature","geometry":null},{"properties":{"units":1,"geo_score":0.0,"ils":"0-15%","id":"aae5671pu3pg","address":"1456 W. Birchwood","geo_precision":"unmatched","ward":49},"type":"Feature","geometry":null},{"properties":{"units":5,"geo_score":0.0,"ils":"0-15%","id":"aae5671tiuni","address":"1700 W. Juneway Terrace","geo_precision":"unmatched","ward":49},"type":"Feature","geometry":null},{"properties":{"units":2,"geo_score":0.0,"ils":"16-30%","id":"aae567157p93","address":"1700 W. Juneway Terrace","geo_precision":"unmatched","ward":49},"type":"Feature","geometry":null},{"properties":{"units":1,"geo_score":0.0,"ils":"0-15%","id":"aae5675reto8","address":"1714 W. Jonquil","geo_precision":"unmatched","ward":49},"type":"Feature","geometry":null},{"properties":{"units":5,"geo_score":0.0,"ils":"0-15%","id":"aae5672zdjnn","address":"7720 N. Marshfield","geo_precision":"unmatched","ward":49},"type":"Feature","geometry":null},{"properties":{"units":22,"geo_score":0.0,"ils":"0-15%","id":"aae5674sdw5c","address":"1063 W. Columbia","geo_precision":"unmatched","ward":49},"type":"Feature","geometry":null},{"properties":{"units":12,"geo_score":0.0,"ils":"16-30%","id":"aae5674naasf","address":"1221 W. Sherwin","geo_precision":"unmatched","ward":49},"type":"Feature","geometry":null},{"properties":{"units":5,"geo_score":0.0,"ils":"0-15%","id":"aae567ayvam8","address":"1546 W. Jonquil Terrace","geo_precision":"unmatched","ward":49},"type":"Feature","geometry":null},{"properties":{"units":8,"geo_score":0.0,"ils":"0-15%","id":"aae567asqp07","address":"7320 N. Sheridan Road","geo_precision":"unmatched","ward":49},"type":"Feature","geometry":null},{"properties":{"units":7,"geo_score":0.0,"ils":"16-30%","id":"aae5675ux4p6","address":"7320 N. Sheridan Road","geo_precision":"unmatched","ward":49},"type":"Feature","geometry":null},{"properties":{"units":1,"geo_score":0.0,"ils":"0-15%","id":"aae5678ehh32","address":"6214 N. Winthrop","geo_precision":"unmatched","ward":49},"type":"Feature","geometry":null},{"properties":{"units":5,"geo_score":0.0,"ils":"0-15%","id":"aae567bmsiqp","address":"7417 N. Clark","geo_precision":"unmatched","ward":49},"type":"Feature","geometry":null},{"properties":{"units":4,"geo_score":0.0,"ils":"0-15%","id":"aae567cyqjc6","address":"7725 N. Sheridan Road","geo_precision":"unmatched","ward":49},"type":"Feature","geometry":null},{"properties":{"units":2,"geo_score":0.0,"ils":"16-30%","id":"aae56736exyt","address":"7725 N. Sheridan Road","geo_precision":"unmatched","ward":49},"type":"Feature","geometry":null},{"properties":{"units":2,"geo_score":0.0,"ils":"16-30%","id":"aae566wyvjjj","address":"7369 N. Damen","geo_precision":"unmatched","ward":49},"type":"Feature","geometry":null},{"properties":{"units":1,"geo_score":0.0,"ils":"0-15%","id":"aae567c42w8p","address":"6030 N. Kenmore","geo_precision":"unmatched","ward":49},"type":"Feature","geometry":null},{"properties":{"units":3,"geo_score":0.0,"ils":"0-15%","id":"aae5672pjygp","address":"6758 N. Sheridan Road","geo_precision":"unmatched","ward":49},"type":"Feature","geometry":null},{"properties":{"units":3,"geo_score":0.0,"ils":"16-30%","id":"aae566z51sxz","address":"6758 N. Sheridan Road","geo_precision":"unmatched","ward":49},"type":"Feature","geometry":null},{"properties":{"units":3,"geo_score":0.0,"ils":"0-15%","id":"aae5670euxg9","address":"1528 W. Pratt","geo_precision":"unmatched","ward":49},"type":"Feature","geometry":null},{"properties":{"units":1,"geo_score":0.0,"ils":"16-30%","id":"aae5670825ny","address":"1421 W. Farwell","geo_precision":"unmatched","ward":49},"type":"Feature","geometry":null},{"properties":{"units":4,"geo_score":0.0,"ils":"0-15%","id":"aae5679ooc0s","address":"7600 N. Sheridan Road","geo_precision":"unmatched","ward":49},"type":"Feature","geometry":null},{"properties":{"units":21,"geo_score":0.0,"ils":"0-15%","id":"aae56702nhaf","address":"6928 N. Wayne","geo_precision":"unmatched","ward":49},"type":"Feature","geometry":null},{"properties":{"units":18,"geo_score":0.0,"ils":"16-30%","id":"aae566xeftiz","address":"6926 N. Wayne","geo_precision":"unmatched","ward":49},"type":"Feature","geometry":null},{"properties":{"units":1,"geo_score":0.0,"ils":"0-15%","id":"aae566zv2vgo","address":"6500 N. Leavitt","geo_precision":"unmatched","ward":50},"type":"Feature","geometry":null},{"properties":{"units":1,"geo_score":0.0,"ils":"16-30%","id":"aae567art1yn","address":"2018 W. Arthur","geo_precision":"unmatched","ward":50},"type":"Feature","geometry":null},{"properties":{"units":16,"geo_score":0.0,"ils":"0-15%","id":"aae5678mjfoy","address":"1818 W. Peterson","geo_precision":"unmatched","ward":50},"type":"Feature","geometry":null},{"properties":{"units":18,"geo_score":0.0,"ils":"16-30%","id":"aae567b2p2bg","address":"1818 W. Peterson","geo_precision":"unmatched","ward":50},"type":"Feature","geometry":null},{"properties":{"units":2,"geo_score":0.0,"ils":"16-30%","id":"aae5677tqr8z","address":"6307 N. Mozart","geo_precision":"unmatched","ward":50},"type":"Feature","geometry":null},{"properties":{"units":7,"geo_score":0.0,"ils":"0-15%","id":"aae566xreq8g","address":"6142 N. California","geo_precision":"unmatched","ward":50},"type":"Feature","geometry":null},{"properties":{"units":8,"geo_score":0.0,"ils":"16-30%","id":"aae567bl8cj6","address":"6142 N. California","geo_precision":"unmatched","ward":50},"type":"Feature","geometry":null},{"properties":{"units":6,"geo_score":0.0,"ils":"0-15%","id":"aae566xzzmek","address":"6200 N. Hoyne","geo_precision":"unmatched","ward":50},"type":"Feature","geometry":null}],"is_temporal":false,"author":{"url":null,"metadata":null,"contact_name":null,"contact_address":null,"source":null,"contact_phone":null},"source":null,"pagination":{"sort":null,"start":0,"total":516,"limit":1000000},"state":"complete","tags":"","published":"2014-08-16T13:28:40-04:00","id":300594}