{"type":"FeatureCollection","data_type":"Dataset","url_type":null,"permissions":[{"permissions":{"download":true,"view":true},"group_id":"everyone"}],"classification":null,"title":"Chi-affordablehousing-Wards","count":516,"stream_id":300603,"contributor":{"url":"http://geocommons.com/users/56374","name":"Dameron311850"},"data_attributes":null,"calculation_params":null,"icon_link":null,"link":"http://geocommons.com/overlays/300603.json","extent":[-87.8437,41.6341,-87.5377,42.0222],"geometry_types":["point"],"unique_name":null,"name":"Chi-affordablehousing-Wards","feature_count":516,"description":"","next_feature":null,"is_raster":false,"short_classification":"Y","stats":{"units":{"max":127,"mean":4.77713178294574,"variance":87.7385828253179,"stdev":9.36688757407272,"median":2,"min":1},"ward":{"max":50,"mean":22.1608527131783,"variance":224.123590727779,"stdev":14.9707578541562,"median":21,"min":1}},"features":[{"properties":{"city":"Chicago","units":3,"geo_score":0.468,"ils":"0-15%","id":"aae58mifnsu9","address":"2735 W. Chanay","geo_precision":"street","ward":1,"state":"IL"},"type":"Feature","geometry":{"type":"Point","coordinates":[-87.695821,41.919475]}},{"properties":{"city":"Chicago","units":1,"geo_score":0.459,"ils":"16-30%","id":"aae58m96rnbh","address":"2658 W. Armitage","geo_precision":"street","ward":1,"state":"IL"},"type":"Feature","geometry":{"type":"Point","coordinates":[-87.636117,41.918473]}},{"properties":{"city":"Chicago","units":1,"geo_score":0.457,"ils":"16-30%","id":"aae58mb3na2p","address":"266 S. Sacramento","geo_precision":"street","ward":1,"state":"IL"},"type":"Feature","geometry":{"type":"Point","coordinates":[-87.700788,41.866455]}},{"properties":{"city":"Chicago","units":16,"geo_score":0.468,"ils":"16-30%","id":"aae58m9pa7f6","address":"1567 N. Hoyne","geo_precision":"street","ward":1,"state":"IL"},"type":"Feature","geometry":{"type":"Point","coordinates":[-87.679339,41.890364]}},{"properties":{"city":"Chicago","units":1,"geo_score":0.714,"ils":"16-30%","id":"aae58mh3q902","address":"2944 N. Rockwell","geo_precision":"city","ward":1,"state":"IL"},"type":"Feature","geometry":{"type":"Point","coordinates":[-87.68732,41.811929]}},{"properties":{"city":"Chicago","units":2,"geo_score":0.464,"ils":"16-30%","id":"aae58meuj961","address":"3415 W. Lyndale","geo_precision":"street","ward":1,"state":"IL"},"type":"Feature","geometry":{"type":"Point","coordinates":[-87.682688,41.922678]}},{"properties":{"city":"Chicago","units":1,"geo_score":0.459,"ils":"0-15%","id":"aae58mbmq7jb","address":"2540 W. Augusta","geo_precision":"street","ward":1,"state":"IL"},"type":"Feature","geometry":{"type":"Point","coordinates":[-87.656646,41.899884]}},{"properties":{"city":"Chicago","units":1,"geo_score":0.459,"ils":"16-30%","id":"aae58mfk5zkj","address":"2540 W. Augusta","geo_precision":"street","ward":1,"state":"IL"},"type":"Feature","geometry":{"type":"Point","coordinates":[-87.656646,41.899884]}},{"properties":{"city":"Chicago","units":1,"geo_score":0.714,"ils":"0-15%","id":"aae58m957su9","address":"2856 N. Rockwell","geo_precision":"city","ward":1,"state":"IL"},"type":"Feature","geometry":{"type":"Point","coordinates":[-87.68732,41.811929]}},{"properties":{"city":"Chicago","units":1,"geo_score":0.476,"ils":"0-15%","id":"aae58m7zfhnt","address":"1527 N. Wicker Park","geo_precision":"street","ward":1,"state":"IL"},"type":"Feature","geometry":{"type":"Point","coordinates":[-87.619632,41.891014]}},{"properties":{"city":"Chicago","units":30,"geo_score":0.457,"ils":"16-30%","id":"aae58mdxdmdq","address":"2517 W. Fullerton","geo_precision":"street","ward":1,"state":"IL"},"type":"Feature","geometry":{"type":"Point","coordinates":[-87.63116,41.926142]}},{"properties":{"city":"Chicago","units":1,"geo_score":0.455,"ils":"0-15%","id":"aae58mgfgwca","address":"319 S. California","geo_precision":"street","ward":2,"state":"IL"},"type":"Feature","geometry":{"type":"Point","coordinates":[-87.696177,41.876958]}},{"properties":{"city":"Chicago","units":1,"geo_score":0.457,"ils":"0-15%","id":"aae58mbxuagb","address":"2847 W. Congress","geo_precision":"street","ward":2,"state":"IL"},"type":"Feature","geometry":{"type":"Point","coordinates":[-87.62689,41.875668]}},{"properties":{"city":"Chicago","units":24,"geo_score":0.714,"ils":"0-15%","id":"aae58mkpzkvr","address":"2710 W. Jackson","geo_precision":"city","ward":2,"state":"IL"},"type":"Feature","geometry":{"type":"Point","coordinates":[-87.68732,41.811929]}},{"properties":{"city":"Chicago","units":1,"geo_score":0.714,"ils":"0-15%","id":"aae58mnfuf8i","address":"2724 W. Jackson","geo_precision":"city","ward":2,"state":"IL"},"type":"Feature","geometry":{"type":"Point","coordinates":[-87.68732,41.811929]}},{"properties":{"city":"Chicago","units":2,"geo_score":0.455,"ils":"0-15%","id":"aae58mivrk7h","address":"116 S. California","geo_precision":"street","ward":2,"state":"IL"},"type":"Feature","geometry":{"type":"Point","coordinates":[-87.696177,41.876958]}},{"properties":{"city":"Chicago","units":1,"geo_score":0.455,"ils":"16-30%","id":"aae58mdfg1iw","address":"116 S. California","geo_precision":"street","ward":2,"state":"IL"},"type":"Feature","geometry":{"type":"Point","coordinates":[-87.696177,41.876958]}},{"properties":{"city":"Chicago","units":6,"geo_score":0.455,"ils":"16-30%","id":"aae58mdcm5xh","address":"122 S. California","geo_precision":"street","ward":2,"state":"IL"},"type":"Feature","geometry":{"type":"Point","coordinates":[-87.696177,41.876958]}},{"properties":{"city":"Chicago","units":21,"geo_score":0.468,"ils":"0-15%","id":"aae58m7ffale","address":"1521 S. Wabash","geo_precision":"street","ward":2,"state":"IL"},"type":"Feature","geometry":{"type":"Point","coordinates":[-87.622761,41.71692]}},{"properties":{"city":"Chicago","units":5,"geo_score":0.468,"ils":"16-30%","id":"aae58mh712fu","address":"1521 S. Wabash","geo_precision":"street","ward":2,"state":"IL"},"type":"Feature","geometry":{"type":"Point","coordinates":[-87.622761,41.71692]}},{"properties":{"city":"Chicago","units":4,"geo_score":0.459,"ils":"0-15%","id":"aae58mkkp5mh","address":"4750 S. Michigan","geo_precision":"street","ward":3,"state":"IL"},"type":"Feature","geometry":{"type":"Point","coordinates":[-87.62396,41.85905]}},{"properties":{"city":"Chicago","units":4,"geo_score":0.459,"ils":"16-30%","id":"aae58m9cfnr4","address":"4750 S. Michigan","geo_precision":"street","ward":3,"state":"IL"},"type":"Feature","geometry":{"type":"Point","coordinates":[-87.62396,41.85905]}},{"properties":{"city":"Chicago","units":3,"geo_score":0.476,"ils":"0-15%","id":"aae58mlhl84t","address":"3840 S. King Drive","geo_precision":"street","ward":3,"state":"IL"},"type":"Feature","geometry":{"type":"Point","coordinates":[-87.618077,41.849236]}},{"properties":{"city":"Chicago","units":1,"geo_score":0.476,"ils":"16-30%","id":"aae58mlg3fvy","address":"3840 S. King Drive","geo_precision":"street","ward":3,"state":"IL"},"type":"Feature","geometry":{"type":"Point","coordinates":[-87.618077,41.849236]}},{"properties":{"city":"Chicago","units":1,"geo_score":0.462,"ils":"0-15%","id":"aae58miplzlo","address":"4221 S. Prairie","geo_precision":"street","ward":3,"state":"IL"},"type":"Feature","geometry":{"type":"Point","coordinates":[-87.620767,41.857921]}},{"properties":{"city":"Chicago","units":1,"geo_score":0.462,"ils":"0-15%","id":"aae58meaimpe","address":"4463 S. Shields","geo_precision":"street","ward":3,"state":"IL"},"type":"Feature","geometry":{"type":"Point","coordinates":[-87.635492,41.845065]}},{"properties":{"city":"Chicago","units":2,"geo_score":0.459,"ils":"0-15%","id":"aae58m8vrq6n","address":"5161 S. Michigan","geo_precision":"street","ward":3,"state":"IL"},"type":"Feature","geometry":{"type":"Point","coordinates":[-87.62396,41.85905]}},{"properties":{"city":"Chicago","units":3,"geo_score":0.462,"ils":"0-15%","id":"aae58mhik9p5","address":"4637 S. Prairie","geo_precision":"street","ward":3,"state":"IL"},"type":"Feature","geometry":{"type":"Point","coordinates":[-87.620767,41.857921]}},{"properties":{"city":"Chicago","units":1,"geo_score":0.457,"ils":"0-15%","id":"aae58m9grrd4","address":"5611 S. Lafayette","geo_precision":"street","ward":3,"state":"IL"},"type":"Feature","geometry":{"type":"Point","coordinates":[-87.626773,41.793883]}},{"properties":{"city":"Chicago","units":2,"geo_score":0.462,"ils":"16-30%","id":"aae58m84abci","address":"4824 S. Prairie","geo_precision":"street","ward":3,"state":"IL"},"type":"Feature","geometry":{"type":"Point","coordinates":[-87.620767,41.857921]}},{"properties":{"city":"Chicago","units":1,"geo_score":0.468,"ils":"0-15%","id":"aae58m8odu70","address":"4749 S. Throop","geo_precision":"street","ward":3,"state":"IL"},"type":"Feature","geometry":{"type":"Point","coordinates":[-87.659636,41.881609]}},{"properties":{"city":"Chicago","units":2,"geo_score":0.468,"ils":"16-30%","id":"aae58md9upb0","address":"4748 S. Wabash","geo_precision":"street","ward":3,"state":"IL"},"type":"Feature","geometry":{"type":"Point","coordinates":[-87.622761,41.71692]}},{"properties":{"city":"Chicago","units":1,"geo_score":0.476,"ils":"0-15%","id":"aae58mjhod7h","address":"5152 S. King Drive","geo_precision":"street","ward":3,"state":"IL"},"type":"Feature","geometry":{"type":"Point","coordinates":[-87.618077,41.849236]}},{"properties":{"city":"Chicago","units":1,"geo_score":0.482,"ils":"0-15%","id":"aae58mcxiqkd","address":"4149 S. Wells","geo_precision":"street","ward":3,"state":"IL"},"type":"Feature","geometry":{"type":"Point","coordinates":[-87.632876,41.854818]}},{"properties":{"city":"Chicago","units":7,"geo_score":0.471,"ils":"16-30%","id":"aae58mcowsff","address":"2111 S. Clark","geo_precision":"street","ward":3,"state":"IL"},"type":"Feature","geometry":{"type":"Point","coordinates":[-87.631023,41.88751]}},{"properties":{"city":"Chicago","units":11,"geo_score":0.476,"ils":"0-15%","id":"aae58mmitc2z","address":"5049 S. King Drive","geo_precision":"street","ward":3,"state":"IL"},"type":"Feature","geometry":{"type":"Point","coordinates":[-87.618077,41.849236]}},{"properties":{"city":"Chicago","units":4,"geo_score":0.476,"ils":"16-30%","id":"aae58m8nxvmj","address":"5049 S. King Drive","geo_precision":"street","ward":3,"state":"IL"},"type":"Feature","geometry":{"type":"Point","coordinates":[-87.618077,41.849236]}},{"properties":{"city":"Chicago","units":1,"geo_score":0.464,"ils":"16-30%","id":"aae58mnh07gd","address":"4945 S. Halsted","geo_precision":"street","ward":3,"state":"IL"},"type":"Feature","geometry":{"type":"Point","coordinates":[-87.647461,41.885262]}},{"properties":{"city":"Chicago","units":7,"geo_score":0.468,"ils":"0-15%","id":"aae58mco7hqk","address":"202 E. Garfield","geo_precision":"street","ward":3,"state":"IL"},"type":"Feature","geometry":{"type":"Point","coordinates":[-87.716189,41.890405]}},{"properties":{"city":"Chicago","units":29,"geo_score":0.468,"ils":"16-30%","id":"aae58mhjwgai","address":"202 E. Garfield","geo_precision":"street","ward":3,"state":"IL"},"type":"Feature","geometry":{"type":"Point","coordinates":[-87.716189,41.890405]}},{"properties":{"city":"Chicago","units":1,"geo_score":0.457,"ils":"16-30%","id":"aae58mhi6dtt","address":"4751 S. Vincennes","geo_precision":"street","ward":3,"state":"IL"},"type":"Feature","geometry":{"type":"Point","coordinates":[-87.61148,41.828064]}},{"properties":{"city":"Chicago","units":3,"geo_score":0.462,"ils":"0-15%","id":"aae58mjpt1me","address":"4457 S. Indiana","geo_precision":"street","ward":3,"state":"IL"},"type":"Feature","geometry":{"type":"Point","coordinates":[-87.622672,41.867561]}},{"properties":{"city":"Chicago","units":2,"geo_score":0.462,"ils":"16-30%","id":"aae58mh74sv7","address":"4457 S. Indiana","geo_precision":"street","ward":3,"state":"IL"},"type":"Feature","geometry":{"type":"Point","coordinates":[-87.622672,41.867561]}},{"properties":{"city":"Chicago","units":2,"geo_score":0.462,"ils":"0-15%","id":"aae58mfe5xjf","address":"4927 S. Prairie","geo_precision":"street","ward":3,"state":"IL"},"type":"Feature","geometry":{"type":"Point","coordinates":[-87.620767,41.857921]}},{"properties":{"city":"Chicago","units":1,"geo_score":0.457,"ils":"0-15%","id":"aae58mfbqlzy","address":"4341 S. Greenwood","geo_precision":"street","ward":4,"state":"IL"},"type":"Feature","geometry":{"type":"Point","coordinates":[-87.599265,41.809614]}},{"properties":{"city":"Chicago","units":13,"geo_score":0.471,"ils":"0-15%","id":"aae58mk4o56b","address":"3515 S. Cottage Grove","geo_precision":"street","ward":4,"state":"IL"},"type":"Feature","geometry":{"type":"Point","coordinates":[-87.656089,41.84425]}},{"properties":{"city":"Chicago","units":2,"geo_score":0.464,"ils":"0-15%","id":"aae58max130t","address":"5220 S. Harper","geo_precision":"street","ward":4,"state":"IL"},"type":"Feature","geometry":{"type":"Point","coordinates":[-87.588443,41.795144]}},{"properties":{"city":"Chicago","units":15,"geo_score":0.464,"ils":"0-15%","id":"aae58m9n5liz","address":"5129 S. Harper","geo_precision":"street","ward":4,"state":"IL"},"type":"Feature","geometry":{"type":"Point","coordinates":[-87.588443,41.795144]}},{"properties":{"city":"Chicago","units":1,"geo_score":0.476,"ils":"0-15%","id":"aae58mmoz9eg","address":"4340 S. Lake Park","geo_precision":"street","ward":4,"state":"IL"},"type":"Feature","geometry":{"type":"Point","coordinates":[-87.629498,41.885745]}},{"properties":{"city":"Chicago","units":10,"geo_score":0.714,"ils":"0-15%","id":"aae58mgc1vwh","address":"4611 S. Drexel","geo_precision":"city","ward":4,"state":"IL"},"type":"Feature","geometry":{"type":"Point","coordinates":[-87.68732,41.811929]}},{"properties":{"city":"Chicago","units":6,"geo_score":0.468,"ils":"0-15%","id":"aae58mh9j95p","address":"6914 S. Clyde","geo_precision":"street","ward":5,"state":"IL"},"type":"Feature","geometry":{"type":"Point","coordinates":[-87.573854,41.76618]}},{"properties":{"city":"Chicago","units":3,"geo_score":0.471,"ils":"0-15%","id":"aae58mfdh2yx","address":"7701 S. Cottage Grove","geo_precision":"street","ward":5,"state":"IL"},"type":"Feature","geometry":{"type":"Point","coordinates":[-87.656089,41.84425]}},{"properties":{"city":"Chicago","units":1,"geo_score":0.476,"ils":"0-15%","id":"aae58mcpburz","address":"2017 E. 72nd Street","geo_precision":"street","ward":5,"state":"IL"},"type":"Feature","geometry":{"type":"Point","coordinates":[-87.619239,41.763806]}},{"properties":{"city":"Chicago","units":1,"geo_score":0.476,"ils":"16-30%","id":"aae58mil37vv","address":"2017 E. 72nd Street","geo_precision":"street","ward":5,"state":"IL"},"type":"Feature","geometry":{"type":"Point","coordinates":[-87.619239,41.763806]}},{"properties":{"city":"Chicago","units":1,"geo_score":0.476,"ils":"16-30%","id":"aae58mc8o1yr","address":"2055 E. 72nd Street","geo_precision":"street","ward":5,"state":"IL"},"type":"Feature","geometry":{"type":"Point","coordinates":[-87.619239,41.763806]}},{"properties":{"city":"Chicago","units":1,"geo_score":0.468,"ils":"16-30%","id":"aae58mko5vpg","address":"6936 S. Clyde","geo_precision":"street","ward":5,"state":"IL"},"type":"Feature","geometry":{"type":"Point","coordinates":[-87.573854,41.76618]}},{"properties":{"city":"Chicago","units":1,"geo_score":0.462,"ils":"0-15%","id":"aae58m936x7l","address":"7353 S. Kenwood","geo_precision":"street","ward":5,"state":"IL"},"type":"Feature","geometry":{"type":"Point","coordinates":[-87.593437,41.800958]}},{"properties":{"city":"Chicago","units":2,"geo_score":0.462,"ils":"16-30%","id":"aae58mb6asoo","address":"7437 S. Chappel","geo_precision":"street","ward":5,"state":"IL"},"type":"Feature","geometry":{"type":"Point","coordinates":[-87.575223,41.771643]}},{"properties":{"city":"Chicago","units":20,"geo_score":0.457,"ils":"0-15%","id":"aae58mb1r4yx","address":"6820 S. Ridgeland","geo_precision":"street","ward":5,"state":"IL"},"type":"Feature","geometry":{"type":"Point","coordinates":[-87.582447,41.766097]}},{"properties":{"city":"Chicago","units":2,"geo_score":0.457,"ils":"16-30%","id":"aae58mjnawbw","address":"6280 S. Ridgeland","geo_precision":"street","ward":5,"state":"IL"},"type":"Feature","geometry":{"type":"Point","coordinates":[-87.582447,41.766097]}},{"properties":{"city":"Chicago","units":1,"geo_score":0.476,"ils":"0-15%","id":"aae58mi02y4x","address":"6430 S. Stoney Island","geo_precision":"street","ward":5,"state":"IL"},"type":"Feature","geometry":{"type":"Point","coordinates":[-87.630839,41.907849]}},{"properties":{"city":"Chicago","units":1,"geo_score":0.476,"ils":"16-30%","id":"aae58mfrggof","address":"6430 S. Stoney Island","geo_precision":"street","ward":5,"state":"IL"},"type":"Feature","geometry":{"type":"Point","coordinates":[-87.630839,41.907849]}},{"properties":{"city":"Chicago","units":1,"geo_score":0.464,"ils":"16-30%","id":"aae58mf326hh","address":"9531 S. Euclid","geo_precision":"street","ward":5,"state":"IL"},"type":"Feature","geometry":{"type":"Point","coordinates":[-87.577627,41.769791]}},{"properties":{"city":"Chicago","units":1,"geo_score":0.455,"ils":"0-15%","id":"aae58mbr2pdw","address":"7122 S. University","geo_precision":"street","ward":5,"state":"IL"},"type":"Feature","geometry":{"type":"Point","coordinates":[-87.598147,41.814634]}},{"properties":{"city":"Chicago","units":7,"geo_score":0.462,"ils":"0-15%","id":"aae58maybghd","address":"7110 S. Cornell","geo_precision":"street","ward":5,"state":"IL"},"type":"Feature","geometry":{"type":"Point","coordinates":[-87.586469,41.803792]}},{"properties":{"city":"Chicago","units":1,"geo_score":0.714,"ils":"16-30%","id":"aae58mb8wcry","address":"6511 S. Blackstone","geo_precision":"city","ward":5,"state":"IL"},"type":"Feature","geometry":{"type":"Point","coordinates":[-87.68732,41.811929]}},{"properties":{"city":"Chicago","units":4,"geo_score":0.476,"ils":"0-15%","id":"aae58mmw39zs","address":"2358 E. 70th Place","geo_precision":"street","ward":5,"state":"IL"},"type":"Feature","geometry":{"type":"Point","coordinates":[-87.621742,41.767399]}},{"properties":{"city":"Chicago","units":4,"geo_score":0.476,"ils":"16-30%","id":"aae58mjkefrr","address":"2358 E. 70th Place","geo_precision":"street","ward":5,"state":"IL"},"type":"Feature","geometry":{"type":"Point","coordinates":[-87.621742,41.767399]}},{"properties":{"city":"Chicago","units":1,"geo_score":0.476,"ils":"0-15%","id":"aae58mhe1fiy","address":"2353 E. 70th Street","geo_precision":"street","ward":5,"state":"IL"},"type":"Feature","geometry":{"type":"Point","coordinates":[-87.621742,41.767399]}},{"properties":{"city":"Chicago","units":4,"geo_score":0.468,"ils":"0-15%","id":"aae58m7a5l28","address":"7001 S. Clyde","geo_precision":"street","ward":5,"state":"IL"},"type":"Feature","geometry":{"type":"Point","coordinates":[-87.573854,41.76618]}},{"properties":{"city":"Chicago","units":1,"geo_score":0.468,"ils":"16-30%","id":"aae58mllzaio","address":"7001 S. Clyde","geo_precision":"street","ward":5,"state":"IL"},"type":"Feature","geometry":{"type":"Point","coordinates":[-87.573854,41.76618]}},{"properties":{"city":"Chicago","units":13,"geo_score":0.471,"ils":"0-15%","id":"aae58mn3dnsu","address":"7834 S. Ellis","geo_precision":"street","ward":5,"state":"IL"},"type":"Feature","geometry":{"type":"Point","coordinates":[-87.657118,41.842051]}},{"properties":{"city":"Chicago","units":1,"geo_score":0.457,"ils":"0-15%","id":"aae58mgdthgx","address":"7746 S. Greenwood","geo_precision":"street","ward":5,"state":"IL"},"type":"Feature","geometry":{"type":"Point","coordinates":[-87.599265,41.809614]}},{"properties":{"city":"Chicago","units":1,"geo_score":0.464,"ils":"16-30%","id":"aae58mgf2gb2","address":"7249 S. Merrill","geo_precision":"street","ward":5,"state":"IL"},"type":"Feature","geometry":{"type":"Point","coordinates":[-87.821282,42.009316]}},{"properties":{"city":"Chicago","units":6,"geo_score":0.464,"ils":"0-15%","id":"aae58mgzkat0","address":"7040 S. Merrill","geo_precision":"street","ward":5,"state":"IL"},"type":"Feature","geometry":{"type":"Point","coordinates":[-87.821282,42.009316]}},{"properties":{"city":"Chicago","units":3,"geo_score":0.714,"ils":"0-15%","id":"aae58mftc7kr","address":"7024 S. Paxton","geo_precision":"city","ward":5,"state":"IL"},"type":"Feature","geometry":{"type":"Point","coordinates":[-87.68732,41.811929]}},{"properties":{"city":"Chicago","units":5,"geo_score":0.714,"ils":"16-30%","id":"aae58mnchifz","address":"7024 S. Paxton","geo_precision":"city","ward":5,"state":"IL"},"type":"Feature","geometry":{"type":"Point","coordinates":[-87.68732,41.811929]}},{"properties":{"city":"Chicago","units":8,"geo_score":0.476,"ils":"0-15%","id":"aae58miwu7l9","address":"1554 E. 65th","geo_precision":"street","ward":5,"state":"IL"},"type":"Feature","geometry":{"type":"Point","coordinates":[-87.614331,41.776626]}},{"properties":{"city":"Chicago","units":10,"geo_score":0.476,"ils":"0-15%","id":"aae58mabjf96","address":"1734 E. 72nd","geo_precision":"street","ward":5,"state":"IL"},"type":"Feature","geometry":{"type":"Point","coordinates":[-87.619239,41.763806]}},{"properties":{"city":"Chicago","units":6,"geo_score":0.471,"ils":"0-15%","id":"aae58mmvblg3","address":"7854 S. Ellis","geo_precision":"street","ward":6,"state":"IL"},"type":"Feature","geometry":{"type":"Point","coordinates":[-87.657118,41.842051]}},{"properties":{"city":"Chicago","units":1,"geo_score":0.476,"ils":"0-15%","id":"aae58mlnl2j9","address":"147 W. 71st Street","geo_precision":"street","ward":6,"state":"IL"},"type":"Feature","geometry":{"type":"Point","coordinates":[-87.62655,41.765481]}},{"properties":{"city":"Chicago","units":1,"geo_score":0.459,"ils":"0-15%","id":"aae58mnf9nks","address":"7531 S. Eberhart","geo_precision":"street","ward":6,"state":"IL"},"type":"Feature","geometry":{"type":"Point","coordinates":[-87.614548,41.837645]}},{"properties":{"city":"Chicago","units":1,"geo_score":0.464,"ils":"0-15%","id":"aae58metn791","address":"6712 S. Halsted","geo_precision":"street","ward":6,"state":"IL"},"type":"Feature","geometry":{"type":"Point","coordinates":[-87.647461,41.885262]}},{"properties":{"city":"Chicago","units":4,"geo_score":0.462,"ils":"0-15%","id":"aae58m88anhm","address":"7557 S. Calumet","geo_precision":"street","ward":6,"state":"IL"},"type":"Feature","geometry":{"type":"Point","coordinates":[-87.619076,41.85435]}},{"properties":{"city":"Chicago","units":1,"geo_score":0.462,"ils":"0-15%","id":"aae58m7srmxw","address":"7556 S. Langley","geo_precision":"street","ward":6,"state":"IL"},"type":"Feature","geometry":{"type":"Point","coordinates":[-87.609809,41.823009]}},{"properties":{"city":"Chicago","units":1,"geo_score":0.476,"ils":"16-30%","id":"aae58mj02svf","address":"57 W. 74th Street","geo_precision":"street","ward":6,"state":"IL"},"type":"Feature","geometry":{"type":"Point","coordinates":[-87.628044,41.760003]}},{"properties":{"city":"Chicago","units":2,"geo_score":0.457,"ils":"16-30%","id":"aae58mlsk4zd","address":"7203 S. Vincennes","geo_precision":"street","ward":6,"state":"IL"},"type":"Feature","geometry":{"type":"Point","coordinates":[-87.61148,41.828064]}},{"properties":{"city":"Chicago","units":1,"geo_score":0.464,"ils":"16-30%","id":"aae58mbl2pus","address":"7538 S. Rhodes","geo_precision":"street","ward":6,"state":"IL"},"type":"Feature","geometry":{"type":"Point","coordinates":[-87.61348,41.837659]}},{"properties":{"city":"Chicago","units":1,"geo_score":0.464,"ils":"16-30%","id":"aae58medxrdv","address":"7331 S. Vernon","geo_precision":"street","ward":6,"state":"IL"},"type":"Feature","geometry":{"type":"Point","coordinates":[-87.615536,41.838443]}},{"properties":{"city":"Chicago","units":1,"geo_score":0.468,"ils":"0-15%","id":"aae58mlfreqt","address":"6948 S. Wabash","geo_precision":"street","ward":6,"state":"IL"},"type":"Feature","geometry":{"type":"Point","coordinates":[-87.622761,41.71692]}},{"properties":{"city":"Chicago","units":1,"geo_score":0.464,"ils":"0-15%","id":"aae58mb2zh8u","address":"7445 S. Rhodes","geo_precision":"street","ward":6,"state":"IL"},"type":"Feature","geometry":{"type":"Point","coordinates":[-87.61348,41.837659]}},{"properties":{"city":"Chicago","units":8,"geo_score":0.714,"ils":"0-15%","id":"aae58me7zcgm","address":"7526 S. Colfax","geo_precision":"city","ward":7,"state":"IL"},"type":"Feature","geometry":{"type":"Point","coordinates":[-87.68732,41.811929]}},{"properties":{"city":"Chicago","units":3,"geo_score":0.459,"ils":"0-15%","id":"aae58mas3i2v","address":"7613 S. Kingston","geo_precision":"street","ward":7,"state":"IL"},"type":"Feature","geometry":{"type":"Point","coordinates":[-87.563487,41.76132]}},{"properties":{"city":"Chicago","units":1,"geo_score":0.459,"ils":"16-30%","id":"aae58ma4c2v8","address":"7613 S. Kingston","geo_precision":"street","ward":7,"state":"IL"},"type":"Feature","geometry":{"type":"Point","coordinates":[-87.563487,41.76132]}},{"properties":{"city":"Chicago","units":2,"geo_score":0.429,"ils":"0-15%","id":"aae58mlm6yff","address":"7733 S. Shore Drive","geo_precision":"street","ward":7,"state":"IL"},"type":"Feature","geometry":{"type":"Point","coordinates":[-87.652741,41.901894]}},{"properties":{"city":"Chicago","units":1,"geo_score":0.476,"ils":"0-15%","id":"aae58mc7axjd","address":"3000 E. 78th Street","geo_precision":"street","ward":7,"state":"IL"},"type":"Feature","geometry":{"type":"Point","coordinates":[-87.621423,41.752828]}},{"properties":{"city":"Chicago","units":1,"geo_score":0.468,"ils":"0-15%","id":"aae58mhz4rlo","address":"8513 S. Saginaw","geo_precision":"street","ward":7,"state":"IL"},"type":"Feature","geometry":{"type":"Point","coordinates":[-87.558064,41.6427]}},{"properties":{"city":"Chicago","units":1,"geo_score":0.464,"ils":"0-15%","id":"aae58mgylg7t","address":"1145 N. Keeler","geo_precision":"street","ward":7,"state":"IL"},"type":"Feature","geometry":{"type":"Point","coordinates":[-87.730693,41.88462]}},{"properties":{"city":"Chicago","units":1,"geo_score":0.476,"ils":"0-15%","id":"aae58mehiut5","address":"3033 E. 79th Street","geo_precision":"street","ward":7,"state":"IL"},"type":"Feature","geometry":{"type":"Point","coordinates":[-87.621386,41.751007]}},{"properties":{"city":"Chicago","units":1,"geo_score":0.462,"ils":"0-15%","id":"aae58mgdrqwb","address":"9747 S. Merrion","geo_precision":"street","ward":7,"state":"IL"},"type":"Feature","geometry":{"type":"Point","coordinates":[-87.569949,41.722535]}},{"properties":{"city":"Chicago","units":2,"geo_score":0.476,"ils":"0-15%","id":"aae58maiq524","address":"7701 S. Yates","geo_precision":"street","ward":7,"state":"IL"},"type":"Feature","geometry":{"type":"Point","coordinates":[-87.564047,41.634071]}},{"properties":{"city":"Chicago","units":1,"geo_score":0.476,"ils":"0-15%","id":"aae58md71zc5","address":"5300 S. King Drive","geo_precision":"street","ward":7,"state":"IL"},"type":"Feature","geometry":{"type":"Point","coordinates":[-87.618077,41.849236]}},{"properties":{"city":"Chicago","units":7,"geo_score":0.476,"ils":"16-30%","id":"aae58mlq1crm","address":"5300 S. King Drive","geo_precision":"street","ward":7,"state":"IL"},"type":"Feature","geometry":{"type":"Point","coordinates":[-87.618077,41.849236]}},{"properties":{"city":"Chicago","units":5,"geo_score":0.476,"ils":"0-15%","id":"aae58mfbxgha","address":"2523 E. 75th Street","geo_precision":"street","ward":7,"state":"IL"},"type":"Feature","geometry":{"type":"Point","coordinates":[-87.620729,41.758306]}},{"properties":{"city":"Chicago","units":1,"geo_score":0.476,"ils":"0-15%","id":"aae58mjevc8w","address":"3053 E. 79th Street","geo_precision":"street","ward":7,"state":"IL"},"type":"Feature","geometry":{"type":"Point","coordinates":[-87.621386,41.751007]}},{"properties":{"city":"Chicago","units":1,"geo_score":0.476,"ils":"0-15%","id":"aae58maoxeke","address":"2815 E. 76th Street","geo_precision":"street","ward":7,"state":"IL"},"type":"Feature","geometry":{"type":"Point","coordinates":[-87.620694,41.756484]}},{"properties":{"city":"Chicago","units":1,"geo_score":0.459,"ils":"0-15%","id":"aae58mljvf5o","address":"7436 S. Kingston","geo_precision":"street","ward":7,"state":"IL"},"type":"Feature","geometry":{"type":"Point","coordinates":[-87.563487,41.76132]}},{"properties":{"city":"Chicago","units":7,"geo_score":0.459,"ils":"16-30%","id":"aae58mcqup3i","address":"7436 S. Kingston","geo_precision":"street","ward":7,"state":"IL"},"type":"Feature","geometry":{"type":"Point","coordinates":[-87.563487,41.76132]}},{"properties":{"city":"Chicago","units":5,"geo_score":0.459,"ils":"0-15%","id":"aae58mafhvw9","address":"7901 S. Kingston","geo_precision":"street","ward":7,"state":"IL"},"type":"Feature","geometry":{"type":"Point","coordinates":[-87.563487,41.76132]}},{"properties":{"city":"Chicago","units":1,"geo_score":0.429,"ils":"0-15%","id":"aae58mc5vff9","address":"7337 S. Shore Drive","geo_precision":"street","ward":7,"state":"IL"},"type":"Feature","geometry":{"type":"Point","coordinates":[-87.652741,41.901894]}},{"properties":{"city":"Chicago","units":1,"geo_score":0.476,"ils":"0-15%","id":"aae58mbgbmco","address":"7210 S. Yates","geo_precision":"street","ward":7,"state":"IL"},"type":"Feature","geometry":{"type":"Point","coordinates":[-87.564047,41.634071]}},{"properties":{"city":"Chicago","units":6,"geo_score":0.459,"ils":"0-15%","id":"aae58mjbzblg","address":"7750 S. Muskegon","geo_precision":"street","ward":7,"state":"IL"},"type":"Feature","geometry":{"type":"Point","coordinates":[-87.55555,41.754135]}},{"properties":{"city":"Chicago","units":5,"geo_score":0.459,"ils":"16-30%","id":"aae58mapog5b","address":"7750 S. Muskegon","geo_precision":"street","ward":7,"state":"IL"},"type":"Feature","geometry":{"type":"Point","coordinates":[-87.55555,41.754135]}},{"properties":{"city":"Chicago","units":1,"geo_score":0.714,"ils":"0-15%","id":"aae58mjl9fzv","address":"7827 S. Colfax","geo_precision":"city","ward":7,"state":"IL"},"type":"Feature","geometry":{"type":"Point","coordinates":[-87.68732,41.811929]}},{"properties":{"city":"Chicago","units":1,"geo_score":0.476,"ils":"0-15%","id":"aae58mjmvuhh","address":"3017 E. 80th Place","geo_precision":"street","ward":7,"state":"IL"},"type":"Feature","geometry":{"type":"Point","coordinates":[-87.621333,41.749179]}},{"properties":{"city":"Chicago","units":1,"geo_score":0.429,"ils":"0-15%","id":"aae58mno383f","address":"8150 S. Shore Drive","geo_precision":"street","ward":7,"state":"IL"},"type":"Feature","geometry":{"type":"Point","coordinates":[-87.652741,41.901894]}},{"properties":{"city":"Chicago","units":9,"geo_score":0.714,"ils":"0-15%","id":"aae58mapl6c8","address":"7608 S. Colfax","geo_precision":"city","ward":7,"state":"IL"},"type":"Feature","geometry":{"type":"Point","coordinates":[-87.68732,41.811929]}},{"properties":{"city":"Chicago","units":3,"geo_score":0.714,"ils":"0-15%","id":"aae58m7sgldl","address":"7839 S. Colfax","geo_precision":"city","ward":7,"state":"IL"},"type":"Feature","geometry":{"type":"Point","coordinates":[-87.68732,41.811929]}},{"properties":{"city":"Chicago","units":1,"geo_score":0.714,"ils":"16-30%","id":"aae58mckyri3","address":"7839 S. Colfax","geo_precision":"city","ward":7,"state":"IL"},"type":"Feature","geometry":{"type":"Point","coordinates":[-87.68732,41.811929]}},{"properties":{"city":"Chicago","units":12,"geo_score":0.476,"ils":"0-15%","id":"aae58mek1gly","address":"7131 S. Yates","geo_precision":"street","ward":7,"state":"IL"},"type":"Feature","geometry":{"type":"Point","coordinates":[-87.564047,41.634071]}},{"properties":{"city":"Chicago","units":1,"geo_score":0.714,"ils":"0-15%","id":"aae58mf3xk0r","address":"6901 S. Paxton","geo_precision":"city","ward":7,"state":"IL"},"type":"Feature","geometry":{"type":"Point","coordinates":[-87.68732,41.811929]}},{"properties":{"city":"Chicago","units":3,"geo_score":0.714,"ils":"16-30%","id":"aae58meuj2pn","address":"6901 S. Paxton","geo_precision":"city","ward":7,"state":"IL"},"type":"Feature","geometry":{"type":"Point","coordinates":[-87.68732,41.811929]}},{"properties":{"city":"Chicago","units":1,"geo_score":0.468,"ils":"0-15%","id":"aae58m75mu0b","address":"7546 S. Saginaw","geo_precision":"street","ward":7,"state":"IL"},"type":"Feature","geometry":{"type":"Point","coordinates":[-87.558064,41.6427]}},{"properties":{"city":"Chicago","units":1,"geo_score":0.714,"ils":"0-15%","id":"aae58mhot0zx","address":"7640 S. Colfax","geo_precision":"city","ward":7,"state":"IL"},"type":"Feature","geometry":{"type":"Point","coordinates":[-87.68732,41.811929]}},{"properties":{"city":"Chicago","units":1,"geo_score":0.459,"ils":"0-15%","id":"aae58mb6qihi","address":"7700 S. Philips","geo_precision":"street","ward":7,"state":"IL"},"type":"Feature","geometry":{"type":"Point","coordinates":[-87.565343,41.763532]}},{"properties":{"city":"Chicago","units":5,"geo_score":0.459,"ils":"16-30%","id":"aae58mfl3gpc","address":"7700 S. Philips","geo_precision":"street","ward":7,"state":"IL"},"type":"Feature","geometry":{"type":"Point","coordinates":[-87.565343,41.763532]}},{"properties":{"city":"Chicago","units":2,"geo_score":0.459,"ils":"0-15%","id":"aae58m9r2yhd","address":"7801 S. Philips","geo_precision":"street","ward":7,"state":"IL"},"type":"Feature","geometry":{"type":"Point","coordinates":[-87.565343,41.763532]}},{"properties":{"city":"Chicago","units":4,"geo_score":0.459,"ils":"16-30%","id":"aae58m79119u","address":"7801 S. Philips","geo_precision":"street","ward":7,"state":"IL"},"type":"Feature","geometry":{"type":"Point","coordinates":[-87.565343,41.763532]}},{"properties":{"city":"Chicago","units":2,"geo_score":0.459,"ils":"0-15%","id":"aae58mdahuze","address":"7306 S. Philips","geo_precision":"street","ward":7,"state":"IL"},"type":"Feature","geometry":{"type":"Point","coordinates":[-87.565343,41.763532]}},{"properties":{"city":"Chicago","units":1,"geo_score":0.714,"ils":"0-15%","id":"aae58mmc0jwa","address":"7636 S. Colfax","geo_precision":"city","ward":7,"state":"IL"},"type":"Feature","geometry":{"type":"Point","coordinates":[-87.68732,41.811929]}},{"properties":{"city":"Chicago","units":1,"geo_score":0.459,"ils":"0-15%","id":"aae58mkx511t","address":"7631 S. Kingston","geo_precision":"street","ward":7,"state":"IL"},"type":"Feature","geometry":{"type":"Point","coordinates":[-87.563487,41.76132]}},{"properties":{"city":"Chicago","units":7,"geo_score":0.476,"ils":"0-15%","id":"aae58mmm5q4a","address":"2531 E. 73rd Street","geo_precision":"street","ward":7,"state":"IL"},"type":"Feature","geometry":{"type":"Point","coordinates":[-87.624023,41.76189]}},{"properties":{"city":"Chicago","units":3,"geo_score":0.429,"ils":"0-15%","id":"aae58mikgqsj","address":"7200 S. Shore Drive","geo_precision":"street","ward":7,"state":"IL"},"type":"Feature","geometry":{"type":"Point","coordinates":[-87.652741,41.901894]}},{"properties":{"city":"Chicago","units":2,"geo_score":0.464,"ils":"0-15%","id":"aae58m8nubxs","address":"8041 S. Manistee","geo_precision":"street","ward":7,"state":"IL"},"type":"Feature","geometry":{"type":"Point","coordinates":[-87.555574,41.642673]}},{"properties":{"city":"Chicago","units":1,"geo_score":0.464,"ils":"16-30%","id":"aae58mfvs3s1","address":"8041 S. Manistee","geo_precision":"street","ward":7,"state":"IL"},"type":"Feature","geometry":{"type":"Point","coordinates":[-87.555574,41.642673]}},{"properties":{"city":"Chicago","units":1,"geo_score":0.462,"ils":"0-15%","id":"aae58m8krvlg","address":"7816 S. Cornell","geo_precision":"street","ward":8,"state":"IL"},"type":"Feature","geometry":{"type":"Point","coordinates":[-87.586469,41.803792]}},{"properties":{"city":"Chicago","units":1,"geo_score":0.462,"ils":"16-30%","id":"aae58mcaife2","address":"7816 S. Cornell","geo_precision":"street","ward":8,"state":"IL"},"type":"Feature","geometry":{"type":"Point","coordinates":[-87.586469,41.803792]}},{"properties":{"city":"Chicago","units":3,"geo_score":0.476,"ils":"0-15%","id":"aae58mhy64w8","address":"1131 E. 79th Street","geo_precision":"street","ward":8,"state":"IL"},"type":"Feature","geometry":{"type":"Point","coordinates":[-87.621386,41.751007]}},{"properties":{"city":"Chicago","units":1,"geo_score":0.476,"ils":"16-30%","id":"aae58m7ekex7","address":"1131 E. 79th Street","geo_precision":"street","ward":8,"state":"IL"},"type":"Feature","geometry":{"type":"Point","coordinates":[-87.621386,41.751007]}},{"properties":{"city":"Chicago","units":2,"geo_score":0.462,"ils":"16-30%","id":"aae58mlufnoh","address":"7807 S. Cornell","geo_precision":"street","ward":8,"state":"IL"},"type":"Feature","geometry":{"type":"Point","coordinates":[-87.586469,41.803792]}},{"properties":{"city":"Chicago","units":3,"geo_score":0.476,"ils":"0-15%","id":"aae58mdg8u4o","address":"949 E. 86th Street","geo_precision":"street","ward":8,"state":"IL"},"type":"Feature","geometry":{"type":"Point","coordinates":[-87.622655,41.738208]}},{"properties":{"city":"Chicago","units":4,"geo_score":0.457,"ils":"0-15%","id":"aae58md57xvq","address":"7851 S. Constance","geo_precision":"street","ward":8,"state":"IL"},"type":"Feature","geometry":{"type":"Point","coordinates":[-87.58018,41.773405]}},{"properties":{"city":"Chicago","units":10,"geo_score":0.459,"ils":"0-15%","id":"aae58mmaimnt","address":"8049 S. Maryland","geo_precision":"street","ward":8,"state":"IL"},"type":"Feature","geometry":{"type":"Point","coordinates":[-87.604984,41.79317]}},{"properties":{"city":"Chicago","units":1,"geo_score":0.476,"ils":"0-15%","id":"aae58mbdghwr","address":"1564 E. 93rd Street","geo_precision":"street","ward":8,"state":"IL"},"type":"Feature","geometry":{"type":"Point","coordinates":[-87.623109,41.725397]}},{"properties":{"city":"Chicago","units":1,"geo_score":0.471,"ils":"0-15%","id":"aae58ma5jg0h","address":"7541 S. Ellis","geo_precision":"street","ward":8,"state":"IL"},"type":"Feature","geometry":{"type":"Point","coordinates":[-87.657118,41.842051]}},{"properties":{"city":"Chicago","units":2,"geo_score":0.429,"ils":"0-15%","id":"aae58mjn90zh","address":"7301 S. East End","geo_precision":"street","ward":8,"state":"IL"},"type":"Feature","geometry":{"type":"Point","coordinates":[-87.585453,41.80437]}},{"properties":{"city":"Chicago","units":3,"geo_score":0.476,"ils":"0-15%","id":"aae58med9won","address":"7307 E. East End","geo_precision":"street","ward":8,"state":"IL"},"type":"Feature","geometry":{"type":"Point","coordinates":[-87.585453,41.80437]}},{"properties":{"city":"Chicago","units":23,"geo_score":0.457,"ils":"0-15%","id":"aae58mbjgrfe","address":"8101 S. Ingleside","geo_precision":"street","ward":8,"state":"IL"},"type":"Feature","geometry":{"type":"Point","coordinates":[-87.602885,41.802298]}},{"properties":{"city":"Chicago","units":1,"geo_score":0.476,"ils":"0-15%","id":"aae58me2rvb4","address":"851 E. 87th Place","geo_precision":"street","ward":8,"state":"IL"},"type":"Feature","geometry":{"type":"Point","coordinates":[-87.616464,41.735027]}},{"properties":{"city":"Chicago","units":1,"geo_score":0.459,"ils":"0-15%","id":"aae58mdu0cne","address":"11031 S. Edbrook","geo_precision":"street","ward":9,"state":"IL"},"type":"Feature","geometry":{"type":"Point","coordinates":[-87.619635,41.700381]}},{"properties":{"city":"Chicago","units":1,"geo_score":0.468,"ils":"0-15%","id":"aae58m8f7gzc","address":"10539 S. Corliss","geo_precision":"street","ward":9,"state":"IL"},"type":"Feature","geometry":{"type":"Point","coordinates":[-87.600743,41.691317]}},{"properties":{"city":"Chicago","units":1,"geo_score":0.457,"ils":"0-15%","id":"aae58mbv5vkn","address":"10657 S. Champlain","geo_precision":"street","ward":9,"state":"IL"},"type":"Feature","geometry":{"type":"Point","coordinates":[-87.610424,41.817178]}},{"properties":{"city":"Chicago","units":2,"geo_score":0.462,"ils":"16-30%","id":"aae58mc3y6o8","address":"11006 S. Indiana","geo_precision":"street","ward":9,"state":"IL"},"type":"Feature","geometry":{"type":"Point","coordinates":[-87.622672,41.867561]}},{"properties":{"city":"Chicago","units":1,"geo_score":0.468,"ils":"0-15%","id":"aae58m7phefg","address":"11572 S. Front","geo_precision":"street","ward":9,"state":"IL"},"type":"Feature","geometry":{"type":"Point","coordinates":[-87.611766,41.68866]}},{"properties":{"city":"Chicago","units":1,"geo_score":0.457,"ils":"0-15%","id":"aae58mcvgyg1","address":"11430 S. Champlain","geo_precision":"street","ward":9,"state":"IL"},"type":"Feature","geometry":{"type":"Point","coordinates":[-87.610424,41.817178]}},{"properties":{"city":"Chicago","units":1,"geo_score":0.468,"ils":"0-15%","id":"aae58mjd641e","address":"10728 S. Wabash","geo_precision":"street","ward":9,"state":"IL"},"type":"Feature","geometry":{"type":"Point","coordinates":[-87.622761,41.71692]}},{"properties":{"city":"Chicago","units":1,"geo_score":0.471,"ils":"0-15%","id":"aae58mjh1r1v","address":"234 E. 136th Street","geo_precision":"street","ward":9,"state":"IL"},"type":"Feature","geometry":{"type":"Point","coordinates":[-87.546268,41.647777]}},{"properties":{"city":"Chicago","units":1,"geo_score":0.455,"ils":"16-30%","id":"aae58mibpr8d","address":"13150 S. Forrestville","geo_precision":"street","ward":9,"state":"IL"},"type":"Feature","geometry":{"type":"Point","coordinates":[-87.843651,41.960024]}},{"properties":{"city":"Chicago","units":1,"geo_score":0.464,"ils":"16-30%","id":"aae58m9il70z","address":"10949 S. Vernon","geo_precision":"street","ward":9,"state":"IL"},"type":"Feature","geometry":{"type":"Point","coordinates":[-87.615536,41.838443]}},{"properties":{"city":"Chicago","units":1,"geo_score":0.462,"ils":"16-30%","id":"aae58m7px1dd","address":"11122 S. Indiana","geo_precision":"street","ward":9,"state":"IL"},"type":"Feature","geometry":{"type":"Point","coordinates":[-87.622672,41.867561]}},{"properties":{"city":"Chicago","units":1,"geo_score":0.471,"ils":"0-15%","id":"aae58mlx53y5","address":"414 W. 100th Place","geo_precision":"street","ward":9,"state":"IL"},"type":"Feature","geometry":{"type":"Point","coordinates":[-87.627849,41.712575]}},{"properties":{"city":"Chicago","units":1,"geo_score":0.476,"ils":"0-15%","id":"aae58mi7klon","address":"12351 S. Yates","geo_precision":"street","ward":9,"state":"IL"},"type":"Feature","geometry":{"type":"Point","coordinates":[-87.564047,41.634071]}},{"properties":{"city":"Chicago","units":1,"geo_score":0.476,"ils":"0-15%","id":"aae58ml3trb8","address":"11348 S. Martin Luther King","geo_precision":"street","ward":9,"state":"IL"},"type":"Feature","geometry":{"type":"Point","coordinates":[-87.618077,41.849236]}},{"properties":{"city":"Chicago","units":1,"geo_score":0.464,"ils":"0-15%","id":"aae58md20o3n","address":"8337 S. Burley","geo_precision":"street","ward":10,"state":"IL"},"type":"Feature","geometry":{"type":"Point","coordinates":[-87.545476,41.744734]}},{"properties":{"city":"Chicago","units":3,"geo_score":0.459,"ils":"16-30%","id":"aae58m82tijt","address":"8707 S. Escanaba","geo_precision":"street","ward":10,"state":"IL"},"type":"Feature","geometry":{"type":"Point","coordinates":[-87.554048,41.752362]}},{"properties":{"city":"Chicago","units":7,"geo_score":0.476,"ils":"16-30%","id":"aae58mj7lfxl","address":"3248 E. 92nd Street","geo_precision":"street","ward":10,"state":"IL"},"type":"Feature","geometry":{"type":"Point","coordinates":[-87.62171,41.72725]}},{"properties":{"city":"Chicago","units":1,"geo_score":0.462,"ils":"0-15%","id":"aae58mm8j8f6","address":"8949 S. Brandon","geo_precision":"street","ward":10,"state":"IL"},"type":"Feature","geometry":{"type":"Point","coordinates":[-87.546807,41.750175]}},{"properties":{"city":"Chicago","units":6,"geo_score":0.476,"ils":"0-15%","id":"aae58mabzsze","address":"2837 E. 90th Street","geo_precision":"street","ward":10,"state":"IL"},"type":"Feature","geometry":{"type":"Point","coordinates":[-87.624037,41.73101]}},{"properties":{"city":"Chicago","units":1,"geo_score":0.462,"ils":"0-15%","id":"aae58mis2hdq","address":"8550 S. Houston","geo_precision":"street","ward":10,"state":"IL"},"type":"Feature","geometry":{"type":"Point","coordinates":[-87.550418,41.748774]}},{"properties":{"city":"Chicago","units":1,"geo_score":0.459,"ils":"0-15%","id":"aae58m7kqbyv","address":"8346 S. Muskegon","geo_precision":"street","ward":10,"state":"IL"},"type":"Feature","geometry":{"type":"Point","coordinates":[-87.55555,41.754135]}},{"properties":{"city":"Chicago","units":2,"geo_score":0.476,"ils":"0-15%","id":"aae58mg27uri","address":"3251 E. 91st Street","geo_precision":"street","ward":10,"state":"IL"},"type":"Feature","geometry":{"type":"Point","coordinates":[-87.623938,41.729041]}},{"properties":{"city":"Chicago","units":2,"geo_score":0.455,"ils":"0-15%","id":"aae58mc5c1jh","address":"9001 S. Commercial","geo_precision":"street","ward":10,"state":"IL"},"type":"Feature","geometry":{"type":"Point","coordinates":[-87.551514,41.750575]}},{"properties":{"city":"Chicago","units":1,"geo_score":0.455,"ils":"16-30%","id":"aae58mjfvldo","address":"9001 S. Commercial","geo_precision":"street","ward":10,"state":"IL"},"type":"Feature","geometry":{"type":"Point","coordinates":[-87.551514,41.750575]}},{"properties":{"city":"Chicago","units":6,"geo_score":0.476,"ils":"0-15%","id":"aae58mmybnxo","address":"3201 E. 91st Street","geo_precision":"street","ward":10,"state":"IL"},"type":"Feature","geometry":{"type":"Point","coordinates":[-87.623938,41.729041]}},{"properties":{"city":"Chicago","units":29,"geo_score":0.476,"ils":"16-30%","id":"aae58mloqko2","address":"3201 E. 91st Street","geo_precision":"street","ward":10,"state":"IL"},"type":"Feature","geometry":{"type":"Point","coordinates":[-87.623938,41.729041]}},{"properties":{"city":"Chicago","units":1,"geo_score":0.457,"ils":"0-15%","id":"aae58m8vrpbq","address":"2310 S. Sacramento","geo_precision":"street","ward":12,"state":"IL"},"type":"Feature","geometry":{"type":"Point","coordinates":[-87.700788,41.866455]}},{"properties":{"city":"Chicago","units":4,"geo_score":0.462,"ils":"0-15%","id":"aae58mcolynw","address":"2423 W. Marquette","geo_precision":"street","ward":15,"state":"IL"},"type":"Feature","geometry":{"type":"Point","coordinates":[-87.651729,41.972469]}},{"properties":{"city":"Chicago","units":3,"geo_score":0.476,"ils":"0-15%","id":"aae58mlcwzbq","address":"2837 W. 64th Street","geo_precision":"street","ward":15,"state":"IL"},"type":"Feature","geometry":{"type":"Point","coordinates":[-87.630288,41.778159]}},{"properties":{"city":"Chicago","units":1,"geo_score":0.476,"ils":"0-15%","id":"aae58m8u1lvf","address":"1715 W. 58th Street","geo_precision":"street","ward":15,"state":"IL"},"type":"Feature","geometry":{"type":"Point","coordinates":[-87.633434,41.788838]}},{"properties":{"city":"Chicago","units":1,"geo_score":0.459,"ils":"0-15%","id":"aae58m9j7prt","address":"6421 S. Artesian","geo_precision":"street","ward":15,"state":"IL"},"type":"Feature","geometry":{"type":"Point","coordinates":[-87.688884,41.925432]}},{"properties":{"city":"Chicago","units":20,"geo_score":0.476,"ils":"16-30%","id":"aae58mn69323","address":"2626 W. 63rd Street","geo_precision":"street","ward":15,"state":"IL"},"type":"Feature","geometry":{"type":"Point","coordinates":[-87.631834,41.779962]}},{"properties":{"city":"Chicago","units":1,"geo_score":0.476,"ils":"0-15%","id":"aae58mbyqeqj","address":"6824 S. Wood","geo_precision":"street","ward":15,"state":"IL"},"type":"Feature","geometry":{"type":"Point","coordinates":[-87.671748,41.881389]}},{"properties":{"city":"Chicago","units":2,"geo_score":0.476,"ils":"16-30%","id":"aae58mm3syzv","address":"6824 S. Wood","geo_precision":"street","ward":15,"state":"IL"},"type":"Feature","geometry":{"type":"Point","coordinates":[-87.671748,41.881389]}},{"properties":{"city":"Chicago","units":1,"geo_score":0.462,"ils":"16-30%","id":"aae58mhcog23","address":"5841 S. Calumet","geo_precision":"street","ward":15,"state":"IL"},"type":"Feature","geometry":{"type":"Point","coordinates":[-87.619076,41.85435]}},{"properties":{"city":"Chicago","units":1,"geo_score":0.457,"ils":"0-15%","id":"aae58mmm82k6","address":"6735 S. Claremont","geo_precision":"street","ward":15,"state":"IL"},"type":"Feature","geometry":{"type":"Point","coordinates":[-87.684955,41.871752]}},{"properties":{"city":"Chicago","units":1,"geo_score":0.464,"ils":"0-15%","id":"aae58mat1dd6","address":"6357 S. Paulina","geo_precision":"street","ward":15,"state":"IL"},"type":"Feature","geometry":{"type":"Point","coordinates":[-87.669317,41.881895]}},{"properties":{"city":"Chicago","units":10,"geo_score":0.457,"ils":"0-15%","id":"aae58mcz2s4x","address":"6346 S. Fairfield","geo_precision":"street","ward":15,"state":"IL"},"type":"Feature","geometry":{"type":"Point","coordinates":[-87.694803,41.869237]}},{"properties":{"city":"Chicago","units":6,"geo_score":0.476,"ils":"0-15%","id":"aae58m9ntxf3","address":"6355 S. Wood","geo_precision":"street","ward":15,"state":"IL"},"type":"Feature","geometry":{"type":"Point","coordinates":[-87.671748,41.881389]}},{"properties":{"city":"Chicago","units":2,"geo_score":0.476,"ils":"16-30%","id":"aae58mkvssna","address":"6355 S. Wood","geo_precision":"street","ward":15,"state":"IL"},"type":"Feature","geometry":{"type":"Point","coordinates":[-87.671748,41.881389]}},{"properties":{"city":"Chicago","units":1,"geo_score":0.459,"ils":"16-30%","id":"aae58mh83dlv","address":"6333 S. Carpenter","geo_precision":"street","ward":16,"state":"IL"},"type":"Feature","geometry":{"type":"Point","coordinates":[-87.653337,41.886723]}},{"properties":{"city":"Chicago","units":1,"geo_score":0.459,"ils":"0-15%","id":"aae58mlomovf","address":"5735 S. Elizabeth","geo_precision":"street","ward":16,"state":"IL"},"type":"Feature","geometry":{"type":"Point","coordinates":[-87.658858,41.885472]}},{"properties":{"city":"Chicago","units":1,"geo_score":0.714,"ils":"0-15%","id":"aae58mh5ulf3","address":"5346 S. Carptenter","geo_precision":"city","ward":16,"state":"IL"},"type":"Feature","geometry":{"type":"Point","coordinates":[-87.68732,41.811929]}},{"properties":{"city":"Chicago","units":1,"geo_score":0.476,"ils":"0-15%","id":"aae58m77r2wq","address":"2214 W. 51st Street","geo_precision":"street","ward":16,"state":"IL"},"type":"Feature","geometry":{"type":"Point","coordinates":[-87.62804,41.801911]}},{"properties":{"city":"Chicago","units":2,"geo_score":0.462,"ils":"0-15%","id":"aae58mc9vlh0","address":"6340 S. Sangamon","geo_precision":"street","ward":16,"state":"IL"},"type":"Feature","geometry":{"type":"Point","coordinates":[-87.650823,41.88043]}},{"properties":{"city":"Chicago","units":1,"geo_score":0.482,"ils":"0-15%","id":"aae58mm283uz","address":"5529 S. Ada","geo_precision":"street","ward":16,"state":"IL"},"type":"Feature","geometry":{"type":"Point","coordinates":[-87.660573,41.88201]}},{"properties":{"city":"Chicago","units":2,"geo_score":0.468,"ils":"0-15%","id":"aae58mefyhwq","address":"6224 S. Morgan","geo_precision":"street","ward":16,"state":"IL"},"type":"Feature","geometry":{"type":"Point","coordinates":[-87.652099,41.884215]}},{"properties":{"city":"Chicago","units":1,"geo_score":0.49,"ils":"0-15%","id":"aae58mwaq1o4","address":"5226 S. May","geo_precision":"street","ward":16,"state":"IL"},"type":"Feature","geometry":{"type":"Point","coordinates":[-87.537701,41.717698]}},{"properties":{"city":"Chicago","units":1,"geo_score":0.468,"ils":"16-30%","id":"aae58muaif7o","address":"5430 S. Loomis","geo_precision":"street","ward":16,"state":"IL"},"type":"Feature","geometry":{"type":"Point","coordinates":[-87.662275,41.881564]}},{"properties":{"city":"Chicago","units":1,"geo_score":0.464,"ils":"16-30%","id":"aae58n0806kb","address":"6201 S. Justine","geo_precision":"street","ward":16,"state":"IL"},"type":"Feature","geometry":{"type":"Point","coordinates":[-87.665438,41.88536]}},{"properties":{"city":"Chicago","units":2,"geo_score":0.457,"ils":"0-15%","id":"aae58mnweqe1","address":"1107 W. Garfield Boulavard","geo_precision":"street","ward":16,"state":"IL"},"type":"Feature","geometry":{"type":"Point","coordinates":[-87.629545,41.794219]}},{"properties":{"city":"Chicago","units":2,"geo_score":0.714,"ils":"16-30%","id":"aae58msgbfqa","address":"5929 S. Rockwell","geo_precision":"city","ward":16,"state":"IL"},"type":"Feature","geometry":{"type":"Point","coordinates":[-87.68732,41.811929]}},{"properties":{"city":"Chicago","units":1,"geo_score":0.468,"ils":"16-30%","id":"aae58n45uqgc","address":"5658 S. Bishop","geo_precision":"street","ward":16,"state":"IL"},"type":"Feature","geometry":{"type":"Point","coordinates":[-87.66393,41.892472]}},{"properties":{"city":"Chicago","units":1,"geo_score":0.476,"ils":"0-15%","id":"aae58mvqm8vi","address":"1411 W. 55th Street","geo_precision":"street","ward":16,"state":"IL"},"type":"Feature","geometry":{"type":"Point","coordinates":[-87.635362,41.794478]}},{"properties":{"city":"Chicago","units":1,"geo_score":0.468,"ils":"0-15%","id":"aae58n3zyetv","address":"6241 S. Throop","geo_precision":"street","ward":16,"state":"IL"},"type":"Feature","geometry":{"type":"Point","coordinates":[-87.659636,41.881609]}},{"properties":{"city":"Chicago","units":1,"geo_score":0.468,"ils":"0-15%","id":"aae58mqqo759","address":"6133 S. Bishop","geo_precision":"street","ward":16,"state":"IL"},"type":"Feature","geometry":{"type":"Point","coordinates":[-87.66393,41.892472]}},{"properties":{"city":"Chicago","units":1,"geo_score":0.468,"ils":"16-30%","id":"aae58mr3qzdt","address":"5400 S. Loomis","geo_precision":"street","ward":16,"state":"IL"},"type":"Feature","geometry":{"type":"Point","coordinates":[-87.662275,41.881564]}},{"properties":{"city":"Chicago","units":1,"geo_score":0.468,"ils":"0-15%","id":"aae58mrkf9r3","address":"6733 S. Morgan","geo_precision":"street","ward":17,"state":"IL"},"type":"Feature","geometry":{"type":"Point","coordinates":[-87.652099,41.884215]}},{"properties":{"city":"Chicago","units":1,"geo_score":0.462,"ils":"16-30%","id":"aae58n08oo2a","address":"7120 S. Parnell","geo_precision":"street","ward":17,"state":"IL"},"type":"Feature","geometry":{"type":"Point","coordinates":[-87.640278,41.841767]}},{"properties":{"city":"Chicago","units":1,"geo_score":0.471,"ils":"0-15%","id":"aae58mukhlf1","address":"7230 S. Yale","geo_precision":"street","ward":17,"state":"IL"},"type":"Feature","geometry":{"type":"Point","coordinates":[-87.631796,41.778128]}},{"properties":{"city":"Chicago","units":1,"geo_score":0.471,"ils":"0-15%","id":"aae58moytpeh","address":"7248 S. Yale","geo_precision":"street","ward":17,"state":"IL"},"type":"Feature","geometry":{"type":"Point","coordinates":[-87.631796,41.778128]}},{"properties":{"city":"Chicago","units":1,"geo_score":0.462,"ils":"0-15%","id":"aae58n2r1qe9","address":"6239 S. Ashland","geo_precision":"street","ward":17,"state":"IL"},"type":"Feature","geometry":{"type":"Point","coordinates":[-87.66696,41.885329]}},{"properties":{"city":"Chicago","units":10,"geo_score":0.464,"ils":"0-15%","id":"aae58mylv1a7","address":"7750 S. Emerald","geo_precision":"street","ward":17,"state":"IL"},"type":"Feature","geometry":{"type":"Point","coordinates":[-87.644838,41.781556]}},{"properties":{"city":"Chicago","units":5,"geo_score":0.476,"ils":"16-30%","id":"aae58mztu2rl","address":"443 W. 75th Street","geo_precision":"street","ward":17,"state":"IL"},"type":"Feature","geometry":{"type":"Point","coordinates":[-87.628005,41.758182]}},{"properties":{"city":"Chicago","units":1,"geo_score":0.468,"ils":"0-15%","id":"aae58modd94n","address":"7013 S. Morgan","geo_precision":"street","ward":17,"state":"IL"},"type":"Feature","geometry":{"type":"Point","coordinates":[-87.652099,41.884215]}},{"properties":{"city":"Chicago","units":1,"geo_score":0.462,"ils":"16-30%","id":"aae58moagky6","address":"7929 S. Harvard","geo_precision":"street","ward":17,"state":"IL"},"type":"Feature","geometry":{"type":"Point","coordinates":[-87.633343,41.776545]}},{"properties":{"city":"Chicago","units":4,"geo_score":0.476,"ils":"0-15%","id":"aae58mpk1fmr","address":"1370 W. 79th Street","geo_precision":"street","ward":17,"state":"IL"},"type":"Feature","geometry":{"type":"Point","coordinates":[-87.631878,41.750823]}},{"properties":{"city":"Chicago","units":2,"geo_score":0.476,"ils":"16-30%","id":"aae58mw75nog","address":"1370 W. 79th Street","geo_precision":"street","ward":17,"state":"IL"},"type":"Feature","geometry":{"type":"Point","coordinates":[-87.631878,41.750823]}},{"properties":{"city":"Chicago","units":1,"geo_score":0.468,"ils":"0-15%","id":"aae58n26xvs1","address":"7322 S. Laflin","geo_precision":"street","ward":17,"state":"IL"},"type":"Feature","geometry":{"type":"Point","coordinates":[-87.664351,41.878938]}},{"properties":{"city":"Chicago","units":1,"geo_score":0.468,"ils":"16-30%","id":"aae58mxpx46z","address":"6504 S. Bishop","geo_precision":"street","ward":17,"state":"IL"},"type":"Feature","geometry":{"type":"Point","coordinates":[-87.66393,41.892472]}},{"properties":{"city":"Chicago","units":1,"geo_score":0.455,"ils":"0-15%","id":"aae58mtumsfx","address":"7718 S. Winchester","geo_precision":"street","ward":18,"state":"IL"},"type":"Feature","geometry":{"type":"Point","coordinates":[-87.674951,41.873111]}},{"properties":{"city":"Chicago","units":3,"geo_score":0.476,"ils":"0-15%","id":"aae58moz84xa","address":"1301 W. 80th Street","geo_precision":"street","ward":18,"state":"IL"},"type":"Feature","geometry":{"type":"Point","coordinates":[-87.626984,41.749083]}},{"properties":{"city":"Chicago","units":20,"geo_score":0.455,"ils":"0-15%","id":"aae58n3jpe98","address":"1622 N. California","geo_precision":"street","ward":20,"state":"IL"},"type":"Feature","geometry":{"type":"Point","coordinates":[-87.696177,41.876958]}},{"properties":{"city":"Chicago","units":3,"geo_score":0.462,"ils":"0-15%","id":"aae58n18k1iw","address":"6109 S. Indiana","geo_precision":"street","ward":20,"state":"IL"},"type":"Feature","geometry":{"type":"Point","coordinates":[-87.622672,41.867561]}},{"properties":{"city":"Chicago","units":4,"geo_score":0.462,"ils":"0-15%","id":"aae58mnzd6ts","address":"5717 S. Prairie","geo_precision":"street","ward":20,"state":"IL"},"type":"Feature","geometry":{"type":"Point","coordinates":[-87.620767,41.857921]}},{"properties":{"city":"Chicago","units":1,"geo_score":0.464,"ils":"0-15%","id":"aae58mqx9lfv","address":"6512 S. Rhodes","geo_precision":"street","ward":20,"state":"IL"},"type":"Feature","geometry":{"type":"Point","coordinates":[-87.61348,41.837659]}},{"properties":{"city":"Chicago","units":1,"geo_score":0.464,"ils":"0-15%","id":"aae58mxagrk7","address":"5641 S. Justine","geo_precision":"street","ward":20,"state":"IL"},"type":"Feature","geometry":{"type":"Point","coordinates":[-87.665438,41.88536]}},{"properties":{"city":"Chicago","units":1,"geo_score":0.462,"ils":"16-30%","id":"aae58n44ro7k","address":"6041 S. Indiana","geo_precision":"street","ward":20,"state":"IL"},"type":"Feature","geometry":{"type":"Point","coordinates":[-87.622672,41.867561]}},{"properties":{"city":"Chicago","units":1,"geo_score":0.457,"ils":"0-15%","id":"aae58mxc3hr8","address":"6062 S. Lafayette","geo_precision":"street","ward":20,"state":"IL"},"type":"Feature","geometry":{"type":"Point","coordinates":[-87.626773,41.793883]}},{"properties":{"city":"Chicago","units":1,"geo_score":0.476,"ils":"0-15%","id":"aae58n3lvhmp","address":"929 W. 54th Place","geo_precision":"street","ward":20,"state":"IL"},"type":"Feature","geometry":{"type":"Point","coordinates":[-87.627333,41.796476]}},{"properties":{"city":"Chicago","units":1,"geo_score":0.476,"ils":"0-15%","id":"aae58mtfbx9s","address":"817 W. 54th Street","geo_precision":"street","ward":20,"state":"IL"},"type":"Feature","geometry":{"type":"Point","coordinates":[-87.627333,41.796476]}},{"properties":{"city":"Chicago","units":3,"geo_score":0.462,"ils":"16-30%","id":"aae58mt7v97o","address":"5627 S. Indiana","geo_precision":"street","ward":20,"state":"IL"},"type":"Feature","geometry":{"type":"Point","coordinates":[-87.622672,41.867561]}},{"properties":{"city":"Chicago","units":1,"geo_score":0.471,"ils":"0-15%","id":"aae58mucwkly","address":"6732 S. Evans","geo_precision":"street","ward":20,"state":"IL"},"type":"Feature","geometry":{"type":"Point","coordinates":[-87.62428,41.896231]}},{"properties":{"city":"Chicago","units":1,"geo_score":0.464,"ils":"0-15%","id":"aae58mqt5jlg","address":"5722 S. La Salle","geo_precision":"street","ward":20,"state":"IL"},"type":"Feature","geometry":{"type":"Point","coordinates":[-87.679657,41.943204]}},{"properties":{"city":"Chicago","units":1,"geo_score":0.476,"ils":"0-15%","id":"aae58mstet9k","address":"829 W. 54th Place","geo_precision":"street","ward":20,"state":"IL"},"type":"Feature","geometry":{"type":"Point","coordinates":[-87.627333,41.796476]}},{"properties":{"city":"Chicago","units":1,"geo_score":0.468,"ils":"0-15%","id":"aae58mv62meb","address":"5606 S. Wabash","geo_precision":"street","ward":20,"state":"IL"},"type":"Feature","geometry":{"type":"Point","coordinates":[-87.622761,41.71692]}},{"properties":{"city":"Chicago","units":3,"geo_score":0.468,"ils":"16-30%","id":"aae58msz937r","address":"5606 S. Wabash","geo_precision":"street","ward":20,"state":"IL"},"type":"Feature","geometry":{"type":"Point","coordinates":[-87.622761,41.71692]}},{"properties":{"city":"Chicago","units":2,"geo_score":0.476,"ils":"0-15%","id":"aae58n12xj18","address":"5950 S. King Drive","geo_precision":"street","ward":20,"state":"IL"},"type":"Feature","geometry":{"type":"Point","coordinates":[-87.618077,41.849236]}},{"properties":{"city":"Chicago","units":5,"geo_score":0.476,"ils":"16-30%","id":"aae58n4666ve","address":"5950 S. King Drive","geo_precision":"street","ward":20,"state":"IL"},"type":"Feature","geometry":{"type":"Point","coordinates":[-87.618077,41.849236]}},{"properties":{"city":"Chicago","units":1,"geo_score":0.468,"ils":"0-15%","id":"aae58mpwmxt9","address":"6147 S. Wabash","geo_precision":"street","ward":20,"state":"IL"},"type":"Feature","geometry":{"type":"Point","coordinates":[-87.622761,41.71692]}},{"properties":{"city":"Chicago","units":3,"geo_score":0.476,"ils":"0-15%","id":"aae58mv9wkst","address":"109 E. 57th Street","geo_precision":"street","ward":20,"state":"IL"},"type":"Feature","geometry":{"type":"Point","coordinates":[-87.624804,41.791028]}},{"properties":{"city":"Chicago","units":12,"geo_score":0.476,"ils":"0-15%","id":"aae58mu0i9xn","address":"6116 S. King Drive","geo_precision":"street","ward":20,"state":"IL"},"type":"Feature","geometry":{"type":"Point","coordinates":[-87.618077,41.849236]}},{"properties":{"city":"Chicago","units":5,"geo_score":0.476,"ils":"16-30%","id":"aae58mp62x2v","address":"333 E. 55th Place","geo_precision":"street","ward":20,"state":"IL"},"type":"Feature","geometry":{"type":"Point","coordinates":[-87.622466,41.794693]}},{"properties":{"city":"Chicago","units":4,"geo_score":0.455,"ils":"0-15%","id":"aae58mw9vyqi","address":"6230 S. Dorchester","geo_precision":"street","ward":20,"state":"IL"},"type":"Feature","geometry":{"type":"Point","coordinates":[-87.591949,41.807876]}},{"properties":{"city":"Chicago","units":1,"geo_score":0.476,"ils":"0-15%","id":"aae58n20ww23","address":"1411 E. 65th Street","geo_precision":"street","ward":20,"state":"IL"},"type":"Feature","geometry":{"type":"Point","coordinates":[-87.614331,41.776626]}},{"properties":{"city":"Chicago","units":6,"geo_score":0.462,"ils":"0-15%","id":"aae58mwye1ll","address":"6146 S. Kenwood","geo_precision":"street","ward":20,"state":"IL"},"type":"Feature","geometry":{"type":"Point","coordinates":[-87.593437,41.800958]}},{"properties":{"city":"Chicago","units":1,"geo_score":0.462,"ils":"16-30%","id":"aae58n2xo7h5","address":"6146 S. Kenwood","geo_precision":"street","ward":20,"state":"IL"},"type":"Feature","geometry":{"type":"Point","coordinates":[-87.593437,41.800958]}},{"properties":{"city":"Chicago","units":13,"geo_score":0.455,"ils":"0-15%","id":"aae58my8dapd","address":"6800 S. Dorchester","geo_precision":"street","ward":20,"state":"IL"},"type":"Feature","geometry":{"type":"Point","coordinates":[-87.591949,41.807876]}},{"properties":{"city":"Chicago","units":3,"geo_score":0.455,"ils":"16-30%","id":"aae58mtmou1f","address":"6800 S. Dorchester","geo_precision":"street","ward":20,"state":"IL"},"type":"Feature","geometry":{"type":"Point","coordinates":[-87.591949,41.807876]}},{"properties":{"city":"Chicago","units":7,"geo_score":0.459,"ils":"0-15%","id":"aae58mx9m2s5","address":"6126 S. Woodlawn","geo_precision":"street","ward":20,"state":"IL"},"type":"Feature","geometry":{"type":"Point","coordinates":[-87.596854,41.814147]}},{"properties":{"city":"Chicago","units":2,"geo_score":0.459,"ils":"16-30%","id":"aae58n3jbisy","address":"6126 S. Woodlawn","geo_precision":"street","ward":20,"state":"IL"},"type":"Feature","geometry":{"type":"Point","coordinates":[-87.596854,41.814147]}},{"properties":{"city":"Chicago","units":3,"geo_score":0.462,"ils":"16-30%","id":"aae58mujpj2k","address":"6224 S. Kimbark","geo_precision":"street","ward":20,"state":"IL"},"type":"Feature","geometry":{"type":"Point","coordinates":[-87.595057,41.800938]}},{"properties":{"city":"Chicago","units":10,"geo_score":0.471,"ils":"0-15%","id":"aae58myzg99o","address":"6565 S. Yale","geo_precision":"street","ward":20,"state":"IL"},"type":"Feature","geometry":{"type":"Point","coordinates":[-87.631796,41.778128]}},{"properties":{"city":"Chicago","units":3,"geo_score":0.471,"ils":"16-30%","id":"aae58n1k6f1e","address":"6565 S. Yale","geo_precision":"street","ward":20,"state":"IL"},"type":"Feature","geometry":{"type":"Point","coordinates":[-87.631796,41.778128]}},{"properties":{"city":"Chicago","units":1,"geo_score":0.464,"ils":"16-30%","id":"aae58mpfd6cq","address":"9443 S. Justine","geo_precision":"street","ward":21,"state":"IL"},"type":"Feature","geometry":{"type":"Point","coordinates":[-87.665438,41.88536]}},{"properties":{"city":"Chicago","units":4,"geo_score":0.476,"ils":"0-15%","id":"aae58mwerla1","address":"1334 W. 83rd Street","geo_precision":"street","ward":21,"state":"IL"},"type":"Feature","geometry":{"type":"Point","coordinates":[-87.625536,41.743636]}},{"properties":{"city":"Chicago","units":5,"geo_score":0.476,"ils":"0-15%","id":"aae58mowm6lv","address":"1314 W. 82nd Street","geo_precision":"street","ward":21,"state":"IL"},"type":"Feature","geometry":{"type":"Point","coordinates":[-87.627496,41.745422]}},{"properties":{"city":"Chicago","units":3,"geo_score":0.476,"ils":"0-15%","id":"aae58mx0en7y","address":"1334 W. 83rd Street","geo_precision":"street","ward":21,"state":"IL"},"type":"Feature","geometry":{"type":"Point","coordinates":[-87.625536,41.743636]}},{"properties":{"city":"Chicago","units":1,"geo_score":0.476,"ils":"0-15%","id":"aae58n1p5h95","address":"1334 W. 83rd Street","geo_precision":"street","ward":21,"state":"IL"},"type":"Feature","geometry":{"type":"Point","coordinates":[-87.625536,41.743636]}},{"properties":{"city":"Chicago","units":4,"geo_score":0.476,"ils":"0-15%","id":"aae58mom0ulj","address":"1434 W. 83rd Street","geo_precision":"street","ward":21,"state":"IL"},"type":"Feature","geometry":{"type":"Point","coordinates":[-87.625536,41.743636]}},{"properties":{"city":"Chicago","units":1,"geo_score":0.462,"ils":"16-30%","id":"aae58myz7don","address":"9101 S. Beverly","geo_precision":"street","ward":21,"state":"IL"},"type":"Feature","geometry":{"type":"Point","coordinates":[-87.672784,41.735654]}},{"properties":{"city":"Chicago","units":3,"geo_score":0.476,"ils":"16-30%","id":"aae58mwpp1zi","address":"1401 W. 80th Street","geo_precision":"street","ward":21,"state":"IL"},"type":"Feature","geometry":{"type":"Point","coordinates":[-87.626984,41.749083]}},{"properties":{"city":"Chicago","units":3,"geo_score":0.464,"ils":"16-30%","id":"aae58mrqgzoq","address":"7955 S. Paulina","geo_precision":"street","ward":21,"state":"IL"},"type":"Feature","geometry":{"type":"Point","coordinates":[-87.669317,41.881895]}},{"properties":{"city":"Chicago","units":3,"geo_score":0.462,"ils":"0-15%","id":"aae58mz4bnwu","address":"7959 S. Ashland","geo_precision":"street","ward":21,"state":"IL"},"type":"Feature","geometry":{"type":"Point","coordinates":[-87.66696,41.885329]}},{"properties":{"city":"Chicago","units":5,"geo_score":0.476,"ils":"0-15%","id":"aae58n1vwz8p","address":"1605 W. 80th Street","geo_precision":"street","ward":21,"state":"IL"},"type":"Feature","geometry":{"type":"Point","coordinates":[-87.626984,41.749083]}},{"properties":{"city":"Chicago","units":1,"geo_score":0.468,"ils":"0-15%","id":"aae58mtscu0u","address":"8821 S. Loomis","geo_precision":"street","ward":21,"state":"IL"},"type":"Feature","geometry":{"type":"Point","coordinates":[-87.662275,41.881564]}},{"properties":{"city":"Chicago","units":4,"geo_score":0.464,"ils":"0-15%","id":"aae58n1un7lf","address":"8101 S.Marshfield","geo_precision":"street","ward":21,"state":"IL"},"type":"Feature","geometry":{"type":"Point","coordinates":[-87.670955,42.017603]}},{"properties":{"city":"Chicago","units":1,"geo_score":0.468,"ils":"16-30%","id":"aae58n444ad3","address":"2349 S. Drake","geo_precision":"street","ward":22,"state":"IL"},"type":"Feature","geometry":{"type":"Point","coordinates":[-87.714069,41.861872]}},{"properties":{"city":"Chicago","units":2,"geo_score":0.468,"ils":"16-30%","id":"aae58n3lxut7","address":"2700 S. Drake","geo_precision":"street","ward":22,"state":"IL"},"type":"Feature","geometry":{"type":"Point","coordinates":[-87.714069,41.861872]}},{"properties":{"city":"Chicago","units":4,"geo_score":0.468,"ils":"0-15%","id":"aae58n3dr40l","address":"4100 W. Ogden","geo_precision":"street","ward":22,"state":"IL"},"type":"Feature","geometry":{"type":"Point","coordinates":[-87.66679,41.880838]}},{"properties":{"city":"Chicago","units":3,"geo_score":0.476,"ils":"16-30%","id":"aae58n1m2oz7","address":"3515 W. 23rd Street","geo_precision":"street","ward":22,"state":"IL"},"type":"Feature","geometry":{"type":"Point","coordinates":[-87.635764,41.850013]}},{"properties":{"city":"Chicago","units":5,"geo_score":0.471,"ils":"0-15%","id":"aae58n2okii7","address":"1235 S. Sawyer","geo_precision":"street","ward":24,"state":"IL"},"type":"Feature","geometry":{"type":"Point","coordinates":[-87.702238,41.6974]}},{"properties":{"city":"Chicago","units":1,"geo_score":0.471,"ils":"16-30%","id":"aae58n418wrt","address":"1235 S. Sawyer","geo_precision":"street","ward":24,"state":"IL"},"type":"Feature","geometry":{"type":"Point","coordinates":[-87.702238,41.6974]}},{"properties":{"city":"Chicago","units":1,"geo_score":0.471,"ils":"16-30%","id":"aae58mt3rub6","address":"2102 S. Pulaski","geo_precision":"street","ward":24,"state":"IL"},"type":"Feature","geometry":{"type":"Point","coordinates":[-87.721089,41.711349]}},{"properties":{"city":"Chicago","units":1,"geo_score":0.459,"ils":"0-15%","id":"aae58n44ufff","address":"1453 S. Komensky","geo_precision":"street","ward":24,"state":"IL"},"type":"Feature","geometry":{"type":"Point","coordinates":[-87.726286,41.862504]}},{"properties":{"city":"Chicago","units":2,"geo_score":0.464,"ils":"0-15%","id":"aae58muxckmm","address":"1525 S. Hamlin","geo_precision":"street","ward":24,"state":"IL"},"type":"Feature","geometry":{"type":"Point","coordinates":[-87.720136,41.860749]}},{"properties":{"city":"Chicago","units":1,"geo_score":0.464,"ils":"16-30%","id":"aae58mvuvsgm","address":"3909 W. Gladys","geo_precision":"street","ward":24,"state":"IL"},"type":"Feature","geometry":{"type":"Point","coordinates":[-87.678985,41.876939]}},{"properties":{"city":"Chicago","units":1,"geo_score":0.462,"ils":"16-30%","id":"aae58my5cd8l","address":"1436 S. Kostner","geo_precision":"street","ward":24,"state":"IL"},"type":"Feature","geometry":{"type":"Point","coordinates":[-87.735379,41.87786]}},{"properties":{"city":"Chicago","units":1,"geo_score":0.459,"ils":"16-30%","id":"aae58mw49pkx","address":"1861 S. Komensky","geo_precision":"street","ward":24,"state":"IL"},"type":"Feature","geometry":{"type":"Point","coordinates":[-87.726286,41.862504]}},{"properties":{"city":"Chicago","units":1,"geo_score":0.462,"ils":"0-15%","id":"aae58mxacdts","address":"1521 S. Harding","geo_precision":"street","ward":24,"state":"IL"},"type":"Feature","geometry":{"type":"Point","coordinates":[-87.72385,41.862534]}},{"properties":{"city":"Chicago","units":2,"geo_score":0.464,"ils":"0-15%","id":"aae58mr98qr7","address":"1511 S. Lawndale","geo_precision":"street","ward":24,"state":"IL"},"type":"Feature","geometry":{"type":"Point","coordinates":[-87.679837,41.922716]}},{"properties":{"city":"Chicago","units":10,"geo_score":0.464,"ils":"0-15%","id":"aae58mqn18hl","address":"1251 S. Keeler","geo_precision":"street","ward":24,"state":"IL"},"type":"Feature","geometry":{"type":"Point","coordinates":[-87.730573,41.880666]}},{"properties":{"city":"Chicago","units":1,"geo_score":0.482,"ils":"0-15%","id":"aae58n3ky0v8","address":"4905 W. Van Buren","geo_precision":"street","ward":24,"state":"IL"},"type":"Feature","geometry":{"type":"Point","coordinates":[-87.736887,41.977594]}},{"properties":{"city":"Chicago","units":6,"geo_score":0.464,"ils":"16-30%","id":"aae58mt1t3ia","address":"4031 W. Gladys","geo_precision":"street","ward":24,"state":"IL"},"type":"Feature","geometry":{"type":"Point","coordinates":[-87.678985,41.876939]}},{"properties":{"city":"Chicago","units":5,"geo_score":0.476,"ils":"0-15%","id":"aae58mzt0sbg","address":"3857 W. Polk","geo_precision":"street","ward":24,"state":"IL"},"type":"Feature","geometry":{"type":"Point","coordinates":[-87.627626,41.872301]}},{"properties":{"city":"Chicago","units":3,"geo_score":0.457,"ils":"0-15%","id":"aae58mo85zel","address":"711 S. Independence Boulavard","geo_precision":"street","ward":24,"state":"IL"},"type":"Feature","geometry":{"type":"Point","coordinates":[-87.699323,41.847138]}},{"properties":{"city":"Chicago","units":7,"geo_score":0.457,"ils":"16-30%","id":"aae58mqo5vzf","address":"711 S. Independence Boulavard","geo_precision":"street","ward":24,"state":"IL"},"type":"Feature","geometry":{"type":"Point","coordinates":[-87.699323,41.847138]}},{"properties":{"city":"Chicago","units":1,"geo_score":0.459,"ils":"16-30%","id":"aae58mu6oyhq","address":"1444 S. Ridgeway","geo_precision":"street","ward":24,"state":"IL"},"type":"Feature","geometry":{"type":"Point","coordinates":[-87.718943,41.861701]}},{"properties":{"city":"Chicago","units":11,"geo_score":0.459,"ils":"16-30%","id":"aae58mvglj2t","address":"4041 W. Roosevelt Road","geo_precision":"street","ward":24,"state":"IL"},"type":"Feature","geometry":{"type":"Point","coordinates":[-87.629298,41.867457]}},{"properties":{"city":"Chicago","units":1,"geo_score":0.476,"ils":"16-30%","id":"aae58mod3agz","address":"1852 S. Troy","geo_precision":"street","ward":24,"state":"IL"},"type":"Feature","geometry":{"type":"Point","coordinates":[-87.704807,41.877796]}},{"properties":{"city":"Chicago","units":1,"geo_score":0.714,"ils":"0-15%","id":"aae58mwd8nco","address":"1530 S. Christina","geo_precision":"city","ward":24,"state":"IL"},"type":"Feature","geometry":{"type":"Point","coordinates":[-87.68732,41.811929]}},{"properties":{"city":"Chicago","units":5,"geo_score":0.468,"ils":"0-15%","id":"aae58mssugua","address":"1203 S. Kolin","geo_precision":"street","ward":24,"state":"IL"},"type":"Feature","geometry":{"type":"Point","coordinates":[-87.733721,41.865591]}},{"properties":{"city":"Chicago","units":2,"geo_score":0.468,"ils":"16-30%","id":"aae58muauwq2","address":"1203 S. Kolin","geo_precision":"street","ward":24,"state":"IL"},"type":"Feature","geometry":{"type":"Point","coordinates":[-87.733721,41.865591]}},{"properties":{"city":"Chicago","units":1,"geo_score":0.464,"ils":"0-15%","id":"aae58mq0dv1r","address":"1825 S. Lawndale","geo_precision":"street","ward":24,"state":"IL"},"type":"Feature","geometry":{"type":"Point","coordinates":[-87.679837,41.922716]}},{"properties":{"city":"Chicago","units":1,"geo_score":0.468,"ils":"0-15%","id":"aae58mt7me5f","address":"1432 S. Homan","geo_precision":"street","ward":24,"state":"IL"},"type":"Feature","geometry":{"type":"Point","coordinates":[-87.711006,41.880917]}},{"properties":{"city":"Chicago","units":1,"geo_score":0.476,"ils":"0-15%","id":"aae58mo711yv","address":"3946 W. Polk","geo_precision":"street","ward":24,"state":"IL"},"type":"Feature","geometry":{"type":"Point","coordinates":[-87.627626,41.872301]}},{"properties":{"city":"Chicago","units":1,"geo_score":0.476,"ils":"16-30%","id":"aae58motozag","address":"1921 W. 17th Street","geo_precision":"street","ward":25,"state":"IL"},"type":"Feature","geometry":{"type":"Point","coordinates":[-87.628738,41.858975]}},{"properties":{"city":"Chicago","units":1,"geo_score":0.468,"ils":"16-30%","id":"aae58mti4v60","address":"1841 S. Laflin","geo_precision":"street","ward":25,"state":"IL"},"type":"Feature","geometry":{"type":"Point","coordinates":[-87.664351,41.878938]}},{"properties":{"city":"Chicago","units":1,"geo_score":0.476,"ils":"0-15%","id":"aae58mwn5s9d","address":"1714 W. 17th Street","geo_precision":"street","ward":25,"state":"IL"},"type":"Feature","geometry":{"type":"Point","coordinates":[-87.628738,41.858975]}},{"properties":{"city":"Chicago","units":1,"geo_score":0.476,"ils":"16-30%","id":"aae58mxzk11w","address":"967 W. 19th Street","geo_precision":"street","ward":25,"state":"IL"},"type":"Feature","geometry":{"type":"Point","coordinates":[-87.62863,41.856604]}},{"properties":{"city":"Chicago","units":1,"geo_score":0.476,"ils":"16-30%","id":"aae58n0zy7ur","address":"1313 W. 19th Street","geo_precision":"street","ward":25,"state":"IL"},"type":"Feature","geometry":{"type":"Point","coordinates":[-87.62863,41.856604]}},{"properties":{"city":"Chicago","units":2,"geo_score":0.476,"ils":"16-30%","id":"aae58mvcl2fx","address":"1721 W. 17th Street","geo_precision":"street","ward":25,"state":"IL"},"type":"Feature","geometry":{"type":"Point","coordinates":[-87.628738,41.858975]}},{"properties":{"city":"Chicago","units":1,"geo_score":0.476,"ils":"16-30%","id":"aae58n2xwixz","address":"1714 W. 19th Street","geo_precision":"street","ward":25,"state":"IL"},"type":"Feature","geometry":{"type":"Point","coordinates":[-87.62863,41.856604]}},{"properties":{"city":"Chicago","units":3,"geo_score":0.459,"ils":"16-30%","id":"aae58msdh78u","address":"963 W. Cullerton","geo_precision":"street","ward":25,"state":"IL"},"type":"Feature","geometry":{"type":"Point","coordinates":[-87.629408,41.85548]}},{"properties":{"city":"Chicago","units":6,"geo_score":0.462,"ils":"0-15%","id":"aae58n0dojnn","address":"3306 W. Division","geo_precision":"street","ward":26,"state":"IL"},"type":"Feature","geometry":{"type":"Point","coordinates":[-87.630715,41.903914]}},{"properties":{"city":"Chicago","units":3,"geo_score":0.457,"ils":"0-15%","id":"aae58mnx6e02","address":"929 N. Sacramento","geo_precision":"street","ward":26,"state":"IL"},"type":"Feature","geometry":{"type":"Point","coordinates":[-87.700788,41.866455]}},{"properties":{"city":"Chicago","units":9,"geo_score":0.457,"ils":"16-30%","id":"aae58mqnvrap","address":"929 N. Sacramento","geo_precision":"street","ward":26,"state":"IL"},"type":"Feature","geometry":{"type":"Point","coordinates":[-87.700788,41.866455]}},{"properties":{"city":"Chicago","units":1,"geo_score":0.454,"ils":"0-15%","id":"aae58mw2jp4o","address":"3600 W. Shakespeare","geo_precision":"street","ward":26,"state":"IL"},"type":"Feature","geometry":{"type":"Point","coordinates":[-87.678246,41.920788]}},{"properties":{"city":"Chicago","units":7,"geo_score":0.457,"ils":"0-15%","id":"aae58n2fck59","address":"901 N. Sacramento","geo_precision":"street","ward":26,"state":"IL"},"type":"Feature","geometry":{"type":"Point","coordinates":[-87.700788,41.866455]}},{"properties":{"city":"Chicago","units":14,"geo_score":0.457,"ils":"16-30%","id":"aae58myc1y4p","address":"901 N. Sacramento","geo_precision":"street","ward":26,"state":"IL"},"type":"Feature","geometry":{"type":"Point","coordinates":[-87.700788,41.866455]}},{"properties":{"city":"Chicago","units":1,"geo_score":0.459,"ils":"16-30%","id":"aae58ms7pui8","address":"1941 N. Monticello","geo_precision":"street","ward":26,"state":"IL"},"type":"Feature","geometry":{"type":"Point","coordinates":[-87.72037,41.998917]}},{"properties":{"city":"Chicago","units":1,"geo_score":0.468,"ils":"0-15%","id":"aae58n2l3zd7","address":"1536 N. St. Louis","geo_precision":"street","ward":26,"state":"IL"},"type":"Feature","geometry":{"type":"Point","coordinates":[-87.746354,41.984694]}},{"properties":{"city":"Chicago","units":2,"geo_score":0.468,"ils":"0-15%","id":"aae58mvsropj","address":"2500 W. Thomas","geo_precision":"street","ward":26,"state":"IL"},"type":"Feature","geometry":{"type":"Point","coordinates":[-87.661743,41.901491]}},{"properties":{"city":"Chicago","units":1,"geo_score":0.468,"ils":"0-15%","id":"aae58mss91tn","address":"3301 W. Palmer","geo_precision":"street","ward":26,"state":"IL"},"type":"Feature","geometry":{"type":"Point","coordinates":[-87.683692,41.921907]}},{"properties":{"city":"Chicago","units":9,"geo_score":0.468,"ils":"16-30%","id":"aae58mua2wkr","address":"3301 W. Palmer","geo_precision":"street","ward":26,"state":"IL"},"type":"Feature","geometry":{"type":"Point","coordinates":[-87.683692,41.921907]}},{"properties":{"city":"Chicago","units":1,"geo_score":0.468,"ils":"0-15%","id":"aae58n2jpqab","address":"1810 N. St. Louis","geo_precision":"street","ward":26,"state":"IL"},"type":"Feature","geometry":{"type":"Point","coordinates":[-87.746354,41.984694]}},{"properties":{"city":"Chicago","units":5,"geo_score":0.468,"ils":"16-30%","id":"aae58n397qc6","address":"1810 N. St. Louis","geo_precision":"street","ward":26,"state":"IL"},"type":"Feature","geometry":{"type":"Point","coordinates":[-87.746354,41.984694]}},{"properties":{"city":"Chicago","units":1,"geo_score":0.457,"ils":"0-15%","id":"aae58n1476d5","address":"1414 N. Washtenaw","geo_precision":"street","ward":26,"state":"IL"},"type":"Feature","geometry":{"type":"Point","coordinates":[-87.694172,41.893582]}},{"properties":{"city":"Chicago","units":2,"geo_score":0.457,"ils":"16-30%","id":"aae58n2p4uvl","address":"1414 N. Washtenaw","geo_precision":"street","ward":26,"state":"IL"},"type":"Feature","geometry":{"type":"Point","coordinates":[-87.694172,41.893582]}},{"properties":{"city":"Chicago","units":1,"geo_score":0.714,"ils":"0-15%","id":"aae58moc3sji","address":"1318 N. Rockwell","geo_precision":"city","ward":26,"state":"IL"},"type":"Feature","geometry":{"type":"Point","coordinates":[-87.68732,41.811929]}},{"properties":{"city":"Chicago","units":3,"geo_score":0.714,"ils":"16-30%","id":"aae58mrowa9p","address":"1318 N. Rockwell","geo_precision":"city","ward":26,"state":"IL"},"type":"Feature","geometry":{"type":"Point","coordinates":[-87.68732,41.811929]}},{"properties":{"city":"Chicago","units":3,"geo_score":0.714,"ils":"16-30%","id":"aae58n3iv3wb","address":"1456 N. Rockwell","geo_precision":"city","ward":26,"state":"IL"},"type":"Feature","geometry":{"type":"Point","coordinates":[-87.68732,41.811929]}},{"properties":{"city":"Chicago","units":20,"geo_score":0.462,"ils":"0-15%","id":"aae58mp0getb","address":"3339 W. Division","geo_precision":"street","ward":26,"state":"IL"},"type":"Feature","geometry":{"type":"Point","coordinates":[-87.630715,41.903914]}},{"properties":{"city":"Chicago","units":2,"geo_score":0.462,"ils":"16-30%","id":"aae58mxnjkzc","address":"3339 W. Division","geo_precision":"street","ward":26,"state":"IL"},"type":"Feature","geometry":{"type":"Point","coordinates":[-87.630715,41.903914]}},{"properties":{"city":"Chicago","units":11,"geo_score":0.482,"ils":"0-15%","id":"aae58n1pmfib","address":"3507 W. North","geo_precision":"street","ward":26,"state":"IL"},"type":"Feature","geometry":{"type":"Point","coordinates":[-87.618609,41.891034]}},{"properties":{"city":"Chicago","units":1,"geo_score":0.459,"ils":"0-15%","id":"aae58n0jfnf3","address":"1226 N. Artesian","geo_precision":"street","ward":26,"state":"IL"},"type":"Feature","geometry":{"type":"Point","coordinates":[-87.688884,41.925432]}},{"properties":{"city":"Chicago","units":1,"geo_score":0.468,"ils":"0-15%","id":"aae58mpzifpd","address":"3345 W. Beach","geo_precision":"street","ward":26,"state":"IL"},"type":"Feature","geometry":{"type":"Point","coordinates":[-87.668118,41.907599]}},{"properties":{"city":"Chicago","units":1,"geo_score":0.457,"ils":"0-15%","id":"aae58mv5hhx4","address":"868 N. Sacramento","geo_precision":"street","ward":26,"state":"IL"},"type":"Feature","geometry":{"type":"Point","coordinates":[-87.700788,41.866455]}},{"properties":{"city":"Chicago","units":2,"geo_score":0.462,"ils":"16-30%","id":"aae58mt6sxpu","address":"3416 W. Potomac","geo_precision":"street","ward":26,"state":"IL"},"type":"Feature","geometry":{"type":"Point","coordinates":[-87.663282,41.9052]}},{"properties":{"city":"Chicago","units":1,"geo_score":0.471,"ils":"16-30%","id":"aae58n41sooo","address":"1622 N. Albany","geo_precision":"street","ward":26,"state":"IL"},"type":"Feature","geometry":{"type":"Point","coordinates":[-87.713681,42.000999]}},{"properties":{"city":"Chicago","units":1,"geo_score":0.714,"ils":"16-30%","id":"aae58mpx5w8p","address":"1019 N. Fransico","geo_precision":"city","ward":26,"state":"IL"},"type":"Feature","geometry":{"type":"Point","coordinates":[-87.68732,41.811929]}},{"properties":{"city":"Chicago","units":2,"geo_score":0.462,"ils":"0-15%","id":"aae58n14quck","address":"1750 N. Spaulding","geo_precision":"street","ward":26,"state":"IL"},"type":"Feature","geometry":{"type":"Point","coordinates":[-87.711903,41.999157]}},{"properties":{"city":"Chicago","units":3,"geo_score":0.462,"ils":"16-30%","id":"aae58mofhpsw","address":"1750 N. Spaulding","geo_precision":"street","ward":26,"state":"IL"},"type":"Feature","geometry":{"type":"Point","coordinates":[-87.711903,41.999157]}},{"properties":{"city":"Chicago","units":1,"geo_score":0.714,"ils":"16-30%","id":"aae58mtz8r2c","address":"3508 W. Dickens","geo_precision":"city","ward":26,"state":"IL"},"type":"Feature","geometry":{"type":"Point","coordinates":[-87.68732,41.811929]}},{"properties":{"city":"Chicago","units":1,"geo_score":0.468,"ils":"16-30%","id":"aae58msre7rk","address":"634 S. Avers","geo_precision":"street","ward":27,"state":"IL"},"type":"Feature","geometry":{"type":"Point","coordinates":[-87.722411,41.8954]}},{"properties":{"city":"Chicago","units":1,"geo_score":0.476,"ils":"0-15%","id":"aae58mzb0bmp","address":"4924 W. Iowa","geo_precision":"street","ward":27,"state":"IL"},"type":"Feature","geometry":{"type":"Point","coordinates":[-87.641821,41.89835]}},{"properties":{"city":"Chicago","units":1,"geo_score":0.471,"ils":"16-30%","id":"aae58n3hh3ej","address":"1039 N. Hamlin","geo_precision":"street","ward":27,"state":"IL"},"type":"Feature","geometry":{"type":"Point","coordinates":[-87.724007,41.999069]}},{"properties":{"city":"Chicago","units":1,"geo_score":0.714,"ils":"0-15%","id":"aae58mr1j1er","address":"653 N. Christina","geo_precision":"city","ward":27,"state":"IL"},"type":"Feature","geometry":{"type":"Point","coordinates":[-87.68732,41.811929]}},{"properties":{"city":"Chicago","units":1,"geo_score":0.459,"ils":"0-15%","id":"aae58n3t3z31","address":"739 N. Ridgeway","geo_precision":"street","ward":27,"state":"IL"},"type":"Feature","geometry":{"type":"Point","coordinates":[-87.719803,41.889468]}},{"properties":{"city":"Chicago","units":1,"geo_score":0.471,"ils":"16-30%","id":"aae58n230myb","address":"1205 N. Hamlin","geo_precision":"street","ward":27,"state":"IL"},"type":"Feature","geometry":{"type":"Point","coordinates":[-87.724007,41.999069]}},{"properties":{"city":"Chicago","units":63,"geo_score":0.459,"ils":"0-15%","id":"aae58muxmxh8","address":"932 N. Washington","geo_precision":"street","ward":27,"state":"IL"},"type":"Feature","geometry":{"type":"Point","coordinates":[-87.826765,41.976077]}},{"properties":{"city":"Chicago","units":23,"geo_score":0.459,"ils":"16-30%","id":"aae58mx04t9w","address":"932 N. Washington","geo_precision":"street","ward":27,"state":"IL"},"type":"Feature","geometry":{"type":"Point","coordinates":[-87.826765,41.976077]}},{"properties":{"city":"Chicago","units":1,"geo_score":0.457,"ils":"16-30%","id":"aae58mth35e7","address":"1115 N. Springfield","geo_precision":"street","ward":27,"state":"IL"},"type":"Feature","geometry":{"type":"Point","coordinates":[-87.72639,41.999967]}},{"properties":{"city":"Chicago","units":14,"geo_score":0.471,"ils":"0-15%","id":"aae58n42qlec","address":"3656 W. Huron","geo_precision":"street","ward":27,"state":"IL"},"type":"Feature","geometry":{"type":"Point","coordinates":[-87.631777,41.894825]}},{"properties":{"city":"Chicago","units":5,"geo_score":0.471,"ils":"16-30%","id":"aae58myk6823","address":"3656 W. Huron","geo_precision":"street","ward":27,"state":"IL"},"type":"Feature","geometry":{"type":"Point","coordinates":[-87.631777,41.894825]}},{"properties":{"city":"Chicago","units":2,"geo_score":0.459,"ils":"0-15%","id":"aae58n447ok2","address":"4200 W. Washington","geo_precision":"street","ward":28,"state":"IL"},"type":"Feature","geometry":{"type":"Point","coordinates":[-87.826765,41.976077]}},{"properties":{"city":"Chicago","units":2,"geo_score":0.459,"ils":"16-30%","id":"aae58n3lspwh","address":"4200 W. Washington","geo_precision":"street","ward":28,"state":"IL"},"type":"Feature","geometry":{"type":"Point","coordinates":[-87.826765,41.976077]}},{"properties":{"city":"Chicago","units":3,"geo_score":0.429,"ils":"0-15%","id":"aae58my6rvfh","address":"4316 W. West End","geo_precision":"street","ward":28,"state":"IL"},"type":"Feature","geometry":{"type":"Point","coordinates":[-87.585453,41.80437]}},{"properties":{"city":"Chicago","units":2,"geo_score":0.429,"ils":"16-30%","id":"aae58mz4skq5","address":"4316 W. West End","geo_precision":"street","ward":28,"state":"IL"},"type":"Feature","geometry":{"type":"Point","coordinates":[-87.585453,41.80437]}},{"properties":{"city":"Chicago","units":1,"geo_score":0.459,"ils":"0-15%","id":"aae58n30l7u7","address":"4400 W. Washington","geo_precision":"street","ward":28,"state":"IL"},"type":"Feature","geometry":{"type":"Point","coordinates":[-87.826765,41.976077]}},{"properties":{"city":"Chicago","units":1,"geo_score":0.459,"ils":"16-30%","id":"aae58mxpmazf","address":"4400 W. Washington","geo_precision":"street","ward":28,"state":"IL"},"type":"Feature","geometry":{"type":"Point","coordinates":[-87.826765,41.976077]}},{"properties":{"city":"Chicago","units":1,"geo_score":0.471,"ils":"0-15%","id":"aae58moba8uv","address":"4401 W. Maypole","geo_precision":"street","ward":28,"state":"IL"},"type":"Feature","geometry":{"type":"Point","coordinates":[-87.628345,41.901883]}},{"properties":{"city":"Chicago","units":2,"geo_score":0.714,"ils":"0-15%","id":"aae58mw1rva5","address":"4900 W. Jackson","geo_precision":"city","ward":28,"state":"IL"},"type":"Feature","geometry":{"type":"Point","coordinates":[-87.68732,41.811929]}},{"properties":{"city":"Chicago","units":1,"geo_score":0.714,"ils":"16-30%","id":"aae58mv6ridv","address":"4900 W. Jackson","geo_precision":"city","ward":28,"state":"IL"},"type":"Feature","geometry":{"type":"Point","coordinates":[-87.68732,41.811929]}},{"properties":{"city":"Chicago","units":1,"geo_score":0.457,"ils":"0-15%","id":"aae58msfjtzw","address":"3328 W. Congress Parkway","geo_precision":"street","ward":28,"state":"IL"},"type":"Feature","geometry":{"type":"Point","coordinates":[-87.62689,41.875668]}},{"properties":{"city":"Chicago","units":1,"geo_score":0.468,"ils":"16-30%","id":"aae58mxsc6wz","address":"3107 W. Monroe","geo_precision":"street","ward":28,"state":"IL"},"type":"Feature","geometry":{"type":"Point","coordinates":[-87.630853,41.880696]}},{"properties":{"city":"Chicago","units":1,"geo_score":0.457,"ils":"0-15%","id":"aae58n06dzm9","address":"1131 S. Sacramento","geo_precision":"street","ward":28,"state":"IL"},"type":"Feature","geometry":{"type":"Point","coordinates":[-87.700788,41.866455]}},{"properties":{"city":"Chicago","units":7,"geo_score":0.429,"ils":"0-15%","id":"aae58n1caioa","address":"5447 W. West End","geo_precision":"street","ward":28,"state":"IL"},"type":"Feature","geometry":{"type":"Point","coordinates":[-87.585453,41.80437]}},{"properties":{"city":"Chicago","units":1,"geo_score":0.471,"ils":"0-15%","id":"aae58n2ld28f","address":"6 N. Hamlin","geo_precision":"street","ward":28,"state":"IL"},"type":"Feature","geometry":{"type":"Point","coordinates":[-87.724007,41.999069]}},{"properties":{"city":"Chicago","units":1,"geo_score":0.468,"ils":"16-30%","id":"aae58mrtts7f","address":"355 S. Homan","geo_precision":"street","ward":28,"state":"IL"},"type":"Feature","geometry":{"type":"Point","coordinates":[-87.711006,41.880917]}},{"properties":{"city":"Chicago","units":2,"geo_score":0.471,"ils":"0-15%","id":"aae58mtwrt7e","address":"4701 W. Maypole","geo_precision":"street","ward":28,"state":"IL"},"type":"Feature","geometry":{"type":"Point","coordinates":[-87.628345,41.901883]}},{"properties":{"city":"Chicago","units":6,"geo_score":0.471,"ils":"16-30%","id":"aae58n2u8qlr","address":"4701 W. Maypole","geo_precision":"street","ward":28,"state":"IL"},"type":"Feature","geometry":{"type":"Point","coordinates":[-87.628345,41.901883]}},{"properties":{"city":"Chicago","units":6,"geo_score":0.471,"ils":"0-15%","id":"aae58mugfmub","address":"7 N. Pine","geo_precision":"street","ward":28,"state":"IL"},"type":"Feature","geometry":{"type":"Point","coordinates":[-87.763325,41.884256]}},{"properties":{"city":"Chicago","units":15,"geo_score":0.462,"ils":"16-30%","id":"aae58mroag4g","address":"5509 W. Corcoran","geo_precision":"street","ward":28,"state":"IL"},"type":"Feature","geometry":{"type":"Point","coordinates":[-87.765108,41.887274]}},{"properties":{"city":"Chicago","units":2,"geo_score":0.468,"ils":"0-15%","id":"aae58mz3938p","address":"5449 W. Quincy","geo_precision":"street","ward":29,"state":"IL"},"type":"Feature","geometry":{"type":"Point","coordinates":[-87.627695,41.87884]}},{"properties":{"city":"Chicago","units":2,"geo_score":0.468,"ils":"16-30%","id":"aae58msyzjij","address":"5449 W. Quincy","geo_precision":"street","ward":29,"state":"IL"},"type":"Feature","geometry":{"type":"Point","coordinates":[-87.627695,41.87884]}},{"properties":{"city":"Chicago","units":4,"geo_score":0.457,"ils":"0-15%","id":"aae58mr7xt93","address":"840 N. Massasoit","geo_precision":"street","ward":29,"state":"IL"},"type":"Feature","geometry":{"type":"Point","coordinates":[-87.769044,41.894799]}},{"properties":{"city":"Chicago","units":1,"geo_score":0.457,"ils":"16-30%","id":"aae58mr3z31q","address":"5501 W. Congress","geo_precision":"street","ward":29,"state":"IL"},"type":"Feature","geometry":{"type":"Point","coordinates":[-87.62689,41.875668]}},{"properties":{"city":"Chicago","units":1,"geo_score":0.462,"ils":"0-15%","id":"aae58mphcv8f","address":"301 S. Central","geo_precision":"street","ward":29,"state":"IL"},"type":"Feature","geometry":{"type":"Point","coordinates":[-87.764828,41.879251]}},{"properties":{"city":"Chicago","units":9,"geo_score":0.459,"ils":"0-15%","id":"aae58n3oogco","address":"5645 W. Washington","geo_precision":"street","ward":29,"state":"IL"},"type":"Feature","geometry":{"type":"Point","coordinates":[-87.826765,41.976077]}},{"properties":{"city":"Chicago","units":2,"geo_score":0.459,"ils":"16-30%","id":"aae58ms8fliz","address":"5645 W. Washington","geo_precision":"street","ward":29,"state":"IL"},"type":"Feature","geometry":{"type":"Point","coordinates":[-87.826765,41.976077]}},{"properties":{"city":"Chicago","units":3,"geo_score":0.468,"ils":"0-15%","id":"aae58mopz8wq","address":"5714 W. Thomas","geo_precision":"street","ward":29,"state":"IL"},"type":"Feature","geometry":{"type":"Point","coordinates":[-87.661743,41.901491]}},{"properties":{"city":"Chicago","units":2,"geo_score":0.462,"ils":"0-15%","id":"aae58mo0quxq","address":"133 S. Central","geo_precision":"street","ward":29,"state":"IL"},"type":"Feature","geometry":{"type":"Point","coordinates":[-87.764828,41.879251]}},{"properties":{"city":"Chicago","units":5,"geo_score":0.462,"ils":"0-15%","id":"aae58mvxghsy","address":"16 S. Central","geo_precision":"street","ward":29,"state":"IL"},"type":"Feature","geometry":{"type":"Point","coordinates":[-87.764828,41.879251]}},{"properties":{"city":"Chicago","units":3,"geo_score":0.462,"ils":"16-30%","id":"aae58n107v3f","address":"16 S. Central","geo_precision":"street","ward":29,"state":"IL"},"type":"Feature","geometry":{"type":"Point","coordinates":[-87.764828,41.879251]}},{"properties":{"city":"Chicago","units":3,"geo_score":0.459,"ils":"0-15%","id":"aae58n23wdcz","address":"5700 W. Washington","geo_precision":"street","ward":29,"state":"IL"},"type":"Feature","geometry":{"type":"Point","coordinates":[-87.826765,41.976077]}},{"properties":{"city":"Chicago","units":1,"geo_score":0.459,"ils":"16-30%","id":"aae58mvkahzd","address":"5700 W. Washington","geo_precision":"street","ward":29,"state":"IL"},"type":"Feature","geometry":{"type":"Point","coordinates":[-87.826765,41.976077]}},{"properties":{"city":"Chicago","units":1,"geo_score":0.464,"ils":"16-30%","id":"aae58mq9ton2","address":"1148 S. Keeler","geo_precision":"street","ward":29,"state":"IL"},"type":"Feature","geometry":{"type":"Point","coordinates":[-87.730573,41.880666]}},{"properties":{"city":"Chicago","units":1,"geo_score":0.464,"ils":"0-15%","id":"aae58n3ek7x2","address":"5645 W. Madison","geo_precision":"street","ward":29,"state":"IL"},"type":"Feature","geometry":{"type":"Point","coordinates":[-87.633823,41.881945]}},{"properties":{"city":"Chicago","units":1,"geo_score":0.464,"ils":"16-30%","id":"aae58mvj2xzk","address":"5645 W. Madison","geo_precision":"street","ward":29,"state":"IL"},"type":"Feature","geometry":{"type":"Point","coordinates":[-87.633823,41.881945]}},{"properties":{"city":"Chicago","units":4,"geo_score":0.464,"ils":"0-15%","id":"aae58mroxxmj","address":"5836 W. Madison","geo_precision":"street","ward":29,"state":"IL"},"type":"Feature","geometry":{"type":"Point","coordinates":[-87.633823,41.881945]}},{"properties":{"city":"Chicago","units":2,"geo_score":0.457,"ils":"0-15%","id":"aae58mxt7g49","address":"5531 W. Congress","geo_precision":"street","ward":29,"state":"IL"},"type":"Feature","geometry":{"type":"Point","coordinates":[-87.62689,41.875668]}},{"properties":{"city":"Chicago","units":3,"geo_score":0.468,"ils":"0-15%","id":"aae58n1l7d80","address":"5806 W. Fulton","geo_precision":"street","ward":29,"state":"IL"},"type":"Feature","geometry":{"type":"Point","coordinates":[-87.639891,41.886818]}},{"properties":{"city":"Chicago","units":1,"geo_score":0.468,"ils":"16-30%","id":"aae58n19zz6p","address":"5806 W. Fulton","geo_precision":"street","ward":29,"state":"IL"},"type":"Feature","geometry":{"type":"Point","coordinates":[-87.639891,41.886818]}},{"properties":{"city":"Chicago","units":1,"geo_score":0.464,"ils":"0-15%","id":"aae58mvzbubf","address":"5554 W. Gladys","geo_precision":"street","ward":29,"state":"IL"},"type":"Feature","geometry":{"type":"Point","coordinates":[-87.678985,41.876939]}},{"properties":{"city":"Chicago","units":3,"geo_score":0.462,"ils":"0-15%","id":"aae58mxoai0q","address":"4043 N. Cortland","geo_precision":"street","ward":30,"state":"IL"},"type":"Feature","geometry":{"type":"Point","coordinates":[-87.66122,41.917073]}},{"properties":{"city":"Chicago","units":2,"geo_score":0.462,"ils":"16-30%","id":"aae58mwdxz4g","address":"1523 N. Kedvale","geo_precision":"street","ward":30,"state":"IL"},"type":"Feature","geometry":{"type":"Point","coordinates":[-87.729793,41.895765]}},{"properties":{"city":"Chicago","units":2,"geo_score":0.714,"ils":"16-30%","id":"aae58n2myi6b","address":"3859 W. Wrightwood","geo_precision":"city","ward":30,"state":"IL"},"type":"Feature","geometry":{"type":"Point","coordinates":[-87.68732,41.811929]}},{"properties":{"city":"Chicago","units":1,"geo_score":0.476,"ils":"16-30%","id":"aae58mxwvnnm","address":"2622 N. Mason","geo_precision":"street","ward":30,"state":"IL"},"type":"Feature","geometry":{"type":"Point","coordinates":[-87.769129,41.761116]}},{"properties":{"city":"Chicago","units":1,"geo_score":0.468,"ils":"16-30%","id":"aae58n0ef7h5","address":"2429 N. Tripp","geo_precision":"street","ward":31,"state":"IL"},"type":"Feature","geometry":{"type":"Point","coordinates":[-87.732267,41.895962]}},{"properties":{"city":"Chicago","units":1,"geo_score":0.462,"ils":"0-15%","id":"aae58mzxv3nx","address":"2701 N. Laramie","geo_precision":"street","ward":31,"state":"IL"},"type":"Feature","geometry":{"type":"Point","coordinates":[-87.755209,41.884319]}},{"properties":{"city":"Chicago","units":1,"geo_score":0.714,"ils":"0-15%","id":"aae58n0ek4c2","address":"1938 W. School Street","geo_precision":"city","ward":32,"state":"IL"},"type":"Feature","geometry":{"type":"Point","coordinates":[-87.68732,41.811929]}},{"properties":{"city":"Chicago","units":1,"geo_score":0.464,"ils":"16-30%","id":"aae58msf0gst","address":"2328 W. McLean","geo_precision":"street","ward":32,"state":"IL"},"type":"Feature","geometry":{"type":"Point","coordinates":[-87.6796,41.918487]}},{"properties":{"city":"Chicago","units":5,"geo_score":0.462,"ils":"0-15%","id":"aae58myj5ho0","address":"1501 W. Belmont","geo_precision":"street","ward":32,"state":"IL"},"type":"Feature","geometry":{"type":"Point","coordinates":[-87.638433,41.940411]}},{"properties":{"city":"Chicago","units":5,"geo_score":0.462,"ils":"16-30%","id":"aae58n2m95hu","address":"1501 W. Belmont","geo_precision":"street","ward":32,"state":"IL"},"type":"Feature","geometry":{"type":"Point","coordinates":[-87.638433,41.940411]}},{"properties":{"city":"Chicago","units":1,"geo_score":0.468,"ils":"0-15%","id":"aae58n28irot","address":"4043 N. Mozart","geo_precision":"street","ward":33,"state":"IL"},"type":"Feature","geometry":{"type":"Point","coordinates":[-87.698118,41.902409]}},{"properties":{"city":"Chicago","units":1,"geo_score":0.464,"ils":"16-30%","id":"aae58myiijog","address":"4500 N. Sawyer","geo_precision":"street","ward":33,"state":"IL"},"type":"Feature","geometry":{"type":"Point","coordinates":[-87.707428,41.898621]}},{"properties":{"city":"Chicago","units":1,"geo_score":0.464,"ils":"0-15%","id":"aae58mubsy97","address":"3518 W. Cullom","geo_precision":"street","ward":33,"state":"IL"},"type":"Feature","geometry":{"type":"Point","coordinates":[-87.66709,41.959796]}},{"properties":{"city":"Chicago","units":2,"geo_score":0.464,"ils":"0-15%","id":"aae58n3806r1","address":"2944 W. Cullom","geo_precision":"street","ward":33,"state":"IL"},"type":"Feature","geometry":{"type":"Point","coordinates":[-87.66709,41.959796]}},{"properties":{"city":"Chicago","units":1,"geo_score":0.464,"ils":"16-30%","id":"aae58mvl8jvp","address":"2944 W. Cullom","geo_precision":"street","ward":33,"state":"IL"},"type":"Feature","geometry":{"type":"Point","coordinates":[-87.66709,41.959796]}},{"properties":{"city":"Chicago","units":1,"geo_score":0.468,"ils":"0-15%","id":"aae58n2tmtdj","address":"2516 W. Foster","geo_precision":"street","ward":33,"state":"IL"},"type":"Feature","geometry":{"type":"Point","coordinates":[-87.804865,41.975511]}},{"properties":{"city":"Chicago","units":1,"geo_score":0.471,"ils":"0-15%","id":"aae58mys7e5m","address":"1148 W. 111th Place","geo_precision":"street","ward":34,"state":"IL"},"type":"Feature","geometry":{"type":"Point","coordinates":[-87.632195,41.692477]}},{"properties":{"city":"Chicago","units":6,"geo_score":0.457,"ils":"0-15%","id":"aae58mpb1em1","address":"11045 S. Wentworth","geo_precision":"street","ward":34,"state":"IL"},"type":"Feature","geometry":{"type":"Point","coordinates":[-87.63185,41.856198]}},{"properties":{"city":"Chicago","units":2,"geo_score":0.457,"ils":"16-30%","id":"aae58mspr5as","address":"11045 S. Wentworth","geo_precision":"street","ward":34,"state":"IL"},"type":"Feature","geometry":{"type":"Point","coordinates":[-87.63185,41.856198]}},{"properties":{"city":"Chicago","units":1,"geo_score":0.468,"ils":"0-15%","id":"aae58mohcx89","address":"10420 S. Union","geo_precision":"street","ward":34,"state":"IL"},"type":"Feature","geometry":{"type":"Point","coordinates":[-87.645016,41.863848]}},{"properties":{"city":"Chicago","units":2,"geo_score":0.462,"ils":"0-15%","id":"aae58n21u362","address":"1908 N. Kimball","geo_precision":"street","ward":35,"state":"IL"},"type":"Feature","geometry":{"type":"Point","coordinates":[-87.711664,41.910605]}},{"properties":{"city":"Chicago","units":4,"geo_score":0.468,"ils":"0-15%","id":"aae58mt62hvj","address":"2120 N. Mozart","geo_precision":"street","ward":35,"state":"IL"},"type":"Feature","geometry":{"type":"Point","coordinates":[-87.698118,41.902409]}},{"properties":{"city":"Chicago","units":1,"geo_score":0.464,"ils":"0-15%","id":"aae58mxtuoq7","address":"2901 N. Dawson","geo_precision":"street","ward":35,"state":"IL"},"type":"Feature","geometry":{"type":"Point","coordinates":[-87.713201,41.933189]}},{"properties":{"city":"Chicago","units":1,"geo_score":0.457,"ils":"0-15%","id":"aae58mssp3iu","address":"2621 N. Fairfield","geo_precision":"street","ward":35,"state":"IL"},"type":"Feature","geometry":{"type":"Point","coordinates":[-87.695145,41.884297]}},{"properties":{"city":"Chicago","units":2,"geo_score":0.464,"ils":"16-30%","id":"aae58molj1wn","address":"3402 W. Lyndale","geo_precision":"street","ward":35,"state":"IL"},"type":"Feature","geometry":{"type":"Point","coordinates":[-87.682688,41.922678]}},{"properties":{"city":"Chicago","units":1,"geo_score":0.462,"ils":"0-15%","id":"aae58mrq7al4","address":"1832 N. Humboldt","geo_precision":"street","ward":35,"state":"IL"},"type":"Feature","geometry":{"type":"Point","coordinates":[-87.702128,41.903957]}},{"properties":{"city":"Chicago","units":2,"geo_score":0.464,"ils":"16-30%","id":"aae58mxbqqov","address":"2921 N. Dawson","geo_precision":"street","ward":35,"state":"IL"},"type":"Feature","geometry":{"type":"Point","coordinates":[-87.713201,41.933189]}},{"properties":{"city":"Chicago","units":1,"geo_score":0.714,"ils":"0-15%","id":"aae58mqzny78","address":"3707 W. Wrightwood","geo_precision":"city","ward":35,"state":"IL"},"type":"Feature","geometry":{"type":"Point","coordinates":[-87.68732,41.811929]}},{"properties":{"city":"Chicago","units":1,"geo_score":0.468,"ils":"0-15%","id":"aae58mrumloy","address":"2749 N. Mozart","geo_precision":"street","ward":35,"state":"IL"},"type":"Feature","geometry":{"type":"Point","coordinates":[-87.698118,41.902409]}},{"properties":{"city":"Chicago","units":1,"geo_score":0.459,"ils":"0-15%","id":"aae58n1fuf5g","address":"5442 W. Augusta","geo_precision":"street","ward":37,"state":"IL"},"type":"Feature","geometry":{"type":"Point","coordinates":[-87.656646,41.899884]}},{"properties":{"city":"Chicago","units":9,"geo_score":0.482,"ils":"0-15%","id":"aae58msnfhs0","address":"4846 W. North","geo_precision":"street","ward":37,"state":"IL"},"type":"Feature","geometry":{"type":"Point","coordinates":[-87.618609,41.891034]}},{"properties":{"city":"Chicago","units":1,"geo_score":0.464,"ils":"0-15%","id":"aae58n0ujoau","address":"1413 N. Karlov","geo_precision":"street","ward":37,"state":"IL"},"type":"Feature","geometry":{"type":"Point","coordinates":[-87.728118,41.880696]}},{"properties":{"city":"Chicago","units":1,"geo_score":0.429,"ils":"0-15%","id":"aae58n2669b8","address":"4247 N. Hirsch","geo_precision":"street","ward":37,"state":"IL"},"type":"Feature","geometry":{"type":"Point","coordinates":[-87.683466,41.906726]}},{"properties":{"city":"Chicago","units":4,"geo_score":0.468,"ils":"0-15%","id":"aae58n3n5ylk","address":"4248 W. Hirsch","geo_precision":"street","ward":37,"state":"IL"},"type":"Feature","geometry":{"type":"Point","coordinates":[-87.683466,41.906726]}},{"properties":{"city":"Chicago","units":1,"geo_score":0.462,"ils":"16-30%","id":"aae58n22issw","address":"745 N. Central","geo_precision":"street","ward":37,"state":"IL"},"type":"Feature","geometry":{"type":"Point","coordinates":[-87.765057,41.885718]}},{"properties":{"city":"Chicago","units":1,"geo_score":0.457,"ils":"0-15%","id":"aae58mrrb54d","address":"4246 W. Kamerling","geo_precision":"street","ward":37,"state":"IL"},"type":"Feature","geometry":{"type":"Point","coordinates":[-87.726979,41.905367]}},{"properties":{"city":"Chicago","units":8,"geo_score":0.462,"ils":"16-30%","id":"aae58n1h9h4g","address":"723 N. Central","geo_precision":"street","ward":37,"state":"IL"},"type":"Feature","geometry":{"type":"Point","coordinates":[-87.765057,41.885718]}},{"properties":{"city":"Chicago","units":1,"geo_score":0.471,"ils":"0-15%","id":"aae58mraovg9","address":"5440 W. Huron","geo_precision":"street","ward":37,"state":"IL"},"type":"Feature","geometry":{"type":"Point","coordinates":[-87.631777,41.894825]}},{"properties":{"city":"Chicago","units":4,"geo_score":0.482,"ils":"0-15%","id":"aae58mvdye7n","address":"5422 W. North","geo_precision":"street","ward":37,"state":"IL"},"type":"Feature","geometry":{"type":"Point","coordinates":[-87.618609,41.891034]}},{"properties":{"city":"Chicago","units":2,"geo_score":0.482,"ils":"16-30%","id":"aae58mudfr3y","address":"5422 W. North","geo_precision":"street","ward":37,"state":"IL"},"type":"Feature","geometry":{"type":"Point","coordinates":[-87.618609,41.891034]}},{"properties":{"city":"Chicago","units":2,"geo_score":0.471,"ils":"0-15%","id":"aae58mvvpwj6","address":"4957 W. Huron","geo_precision":"street","ward":37,"state":"IL"},"type":"Feature","geometry":{"type":"Point","coordinates":[-87.631777,41.894825]}},{"properties":{"city":"Chicago","units":59,"geo_score":0.462,"ils":"0-15%","id":"aae58ms4f66w","address":"501 N. Central","geo_precision":"street","ward":37,"state":"IL"},"type":"Feature","geometry":{"type":"Point","coordinates":[-87.765057,41.885718]}},{"properties":{"city":"Chicago","units":1,"geo_score":0.455,"ils":"16-30%","id":"aae58n16nhul","address":"2126 S. California","geo_precision":"street","ward":38,"state":"IL"},"type":"Feature","geometry":{"type":"Point","coordinates":[-87.696177,41.876958]}},{"properties":{"city":"Chicago","units":1,"geo_score":0.464,"ils":"0-15%","id":"aae58mrkbmsy","address":"7033 W. Wolfram","geo_precision":"street","ward":38,"state":"IL"},"type":"Feature","geometry":{"type":"Point","coordinates":[-87.651465,41.933583]}},{"properties":{"city":"Chicago","units":1,"geo_score":0.471,"ils":"16-30%","id":"aae58n1rfh91","address":"4740 W. Grace","geo_precision":"street","ward":38,"state":"IL"},"type":"Feature","geometry":{"type":"Point","coordinates":[-87.64962,41.951198]}},{"properties":{"city":"Chicago","units":44,"geo_score":0.455,"ils":"0-15%","id":"aae58mvyfrkb","address":"4251 W. Irving Park","geo_precision":"street","ward":38,"state":"IL"},"type":"Feature","geometry":{"type":"Point","coordinates":[-87.6497,41.954561]}},{"properties":{"city":"Chicago","units":6,"geo_score":0.468,"ils":"0-15%","id":"aae58mu4qlal","address":"1737 W. Devon","geo_precision":"street","ward":40,"state":"IL"},"type":"Feature","geometry":{"type":"Point","coordinates":[-87.663615,41.998155]}},{"properties":{"city":"Chicago","units":1,"geo_score":0.471,"ils":"0-15%","id":"aae58n0of20a","address":"5753 N. Talman","geo_precision":"street","ward":40,"state":"IL"},"type":"Feature","geometry":{"type":"Point","coordinates":[-87.694784,41.939409]}},{"properties":{"city":"Chicago","units":4,"geo_score":0.459,"ils":"0-15%","id":"aae58n1pxx2n","address":"1537 W. Rosemont","geo_precision":"street","ward":40,"state":"IL"},"type":"Feature","geometry":{"type":"Point","coordinates":[-87.657708,41.9964]}},{"properties":{"city":"Chicago","units":1,"geo_score":0.468,"ils":"0-15%","id":"aae58mur7uz4","address":"1542 W. Thome","geo_precision":"street","ward":40,"state":"IL"},"type":"Feature","geometry":{"type":"Point","coordinates":[-87.667752,41.995442]}},{"properties":{"city":"Chicago","units":127,"geo_score":0.462,"ils":"0-15%","id":"aae58n43mtqk","address":"30 W. Chicago","geo_precision":"street","ward":42,"state":"IL"},"type":"Feature","geometry":{"type":"Point","coordinates":[-87.628986,41.896665]}},{"properties":{"city":"Chicago","units":69,"geo_score":0.464,"ils":"0-15%","id":"aae58n36rwfv","address":"3333 N. Marshfield","geo_precision":"street","ward":44,"state":"IL"},"type":"Feature","geometry":{"type":"Point","coordinates":[-87.670955,42.017603]}},{"properties":{"city":"Chicago","units":1,"geo_score":0.464,"ils":"0-15%","id":"aae58mripcbi","address":"5484 W. Higgins","geo_precision":"street","ward":45,"state":"IL"},"type":"Feature","geometry":{"type":"Point","coordinates":[-87.834745,41.98611]}},{"properties":{"city":"Chicago","units":32,"geo_score":0.462,"ils":"16-30%","id":"aae58mwh6wa4","address":"4541 N. Sheridan Road","geo_precision":"street","ward":46,"state":"IL"},"type":"Feature","geometry":{"type":"Point","coordinates":[-87.645012,41.952906]}},{"properties":{"city":"Chicago","units":18,"geo_score":0.464,"ils":"0-15%","id":"aae58mxpado6","address":"1134 W. Wilson","geo_precision":"street","ward":46,"state":"IL"},"type":"Feature","geometry":{"type":"Point","coordinates":[-87.653742,41.965444]}},{"properties":{"city":"Chicago","units":31,"geo_score":0.464,"ils":"0-15%","id":"aae58mxw4kn1","address":"915 W. Wilson","geo_precision":"street","ward":46,"state":"IL"},"type":"Feature","geometry":{"type":"Point","coordinates":[-87.653742,41.965444]}},{"properties":{"city":"Chicago","units":32,"geo_score":0.464,"ils":"16-30%","id":"aae58mq95hr6","address":"915 W. Wilson","geo_precision":"street","ward":46,"state":"IL"},"type":"Feature","geometry":{"type":"Point","coordinates":[-87.653742,41.965444]}},{"properties":{"city":"Chicago","units":5,"geo_score":0.464,"ils":"0-15%","id":"aae58my7w4ne","address":"927 W. Wilson","geo_precision":"street","ward":46,"state":"IL"},"type":"Feature","geometry":{"type":"Point","coordinates":[-87.653742,41.965444]}},{"properties":{"city":"Chicago","units":8,"geo_score":0.464,"ils":"16-30%","id":"aae58mre39wb","address":"927 W. Wilson","geo_precision":"street","ward":46,"state":"IL"},"type":"Feature","geometry":{"type":"Point","coordinates":[-87.653742,41.965444]}},{"properties":{"city":"Chicago","units":1,"geo_score":0.462,"ils":"0-15%","id":"aae58mv1ppwk","address":"900 W. Windsor","geo_precision":"street","ward":46,"state":"IL"},"type":"Feature","geometry":{"type":"Point","coordinates":[-87.649988,41.964513]}},{"properties":{"city":"Chicago","units":5,"geo_score":0.462,"ils":"16-30%","id":"aae58n3etkai","address":"900 W. Windsor","geo_precision":"street","ward":46,"state":"IL"},"type":"Feature","geometry":{"type":"Point","coordinates":[-87.649988,41.964513]}},{"properties":{"city":"Chicago","units":4,"geo_score":0.462,"ils":"16-30%","id":"aae58mzaj7ze","address":"4431 N. Clifton","geo_precision":"street","ward":46,"state":"IL"},"type":"Feature","geometry":{"type":"Point","coordinates":[-87.657125,41.921679]}},{"properties":{"city":"Chicago","units":5,"geo_score":0.464,"ils":"0-15%","id":"aae58mrxumc1","address":"1311 W. Leland","geo_precision":"street","ward":46,"state":"IL"},"type":"Feature","geometry":{"type":"Point","coordinates":[-87.651133,41.967334]}},{"properties":{"city":"Chicago","units":13,"geo_score":0.464,"ils":"16-30%","id":"aae58ms6skll","address":"1311 W. Leland","geo_precision":"street","ward":46,"state":"IL"},"type":"Feature","geometry":{"type":"Point","coordinates":[-87.651133,41.967334]}},{"properties":{"city":"Chicago","units":52,"geo_score":0.464,"ils":"0-15%","id":"aae58n223ph8","address":"920 W. Wilson","geo_precision":"street","ward":46,"state":"IL"},"type":"Feature","geometry":{"type":"Point","coordinates":[-87.653742,41.965444]}},{"properties":{"city":"Chicago","units":21,"geo_score":0.459,"ils":"0-15%","id":"aae58movthzx","address":"1039 W. Lawrence","geo_precision":"street","ward":46,"state":"IL"},"type":"Feature","geometry":{"type":"Point","coordinates":[-87.651528,41.969134]}},{"properties":{"city":"Chicago","units":7,"geo_score":0.468,"ils":"0-15%","id":"aae58mty39ud","address":"4727 N. Malden","geo_precision":"street","ward":46,"state":"IL"},"type":"Feature","geometry":{"type":"Point","coordinates":[-87.662332,41.961681]}},{"properties":{"city":"Chicago","units":7,"geo_score":0.468,"ils":"16-30%","id":"aae58msaof24","address":"4727 N. Malden","geo_precision":"street","ward":46,"state":"IL"},"type":"Feature","geometry":{"type":"Point","coordinates":[-87.662332,41.961681]}},{"properties":{"city":"Chicago","units":14,"geo_score":0.462,"ils":"0-15%","id":"aae58mx34jdc","address":"4040 N. Sheridan Road","geo_precision":"street","ward":46,"state":"IL"},"type":"Feature","geometry":{"type":"Point","coordinates":[-87.645012,41.952906]}},{"properties":{"city":"Chicago","units":1,"geo_score":0.462,"ils":"0-15%","id":"aae58mvydu2a","address":"831 W. Windsor","geo_precision":"street","ward":46,"state":"IL"},"type":"Feature","geometry":{"type":"Point","coordinates":[-87.649988,41.964513]}},{"properties":{"city":"Chicago","units":1,"geo_score":0.457,"ils":"0-15%","id":"aae58mvaln93","address":"847 W. Sunnyside","geo_precision":"street","ward":46,"state":"IL"},"type":"Feature","geometry":{"type":"Point","coordinates":[-87.654769,41.963606]}},{"properties":{"city":"Chicago","units":1,"geo_score":0.457,"ils":"16-30%","id":"aae58mz3re9f","address":"847 W. Sunnyside","geo_precision":"street","ward":46,"state":"IL"},"type":"Feature","geometry":{"type":"Point","coordinates":[-87.654769,41.963606]}},{"properties":{"city":"Chicago","units":2,"geo_score":0.464,"ils":"0-15%","id":"aae58n21nw2u","address":"4431 N. Racine","geo_precision":"street","ward":46,"state":"IL"},"type":"Feature","geometry":{"type":"Point","coordinates":[-87.657125,41.88115]}},{"properties":{"city":"Chicago","units":1,"geo_score":0.462,"ils":"0-15%","id":"aae58mwe5ddi","address":"4927 N. Kenmore","geo_precision":"street","ward":46,"state":"IL"},"type":"Feature","geometry":{"type":"Point","coordinates":[-87.654688,41.921265]}},{"properties":{"city":"Chicago","units":2,"geo_score":0.457,"ils":"0-15%","id":"aae58n1t49o0","address":"825 W. Sunnyside","geo_precision":"street","ward":46,"state":"IL"},"type":"Feature","geometry":{"type":"Point","coordinates":[-87.654769,41.963606]}},{"properties":{"city":"Chicago","units":9,"geo_score":0.457,"ils":"16-30%","id":"aae58mxvldbs","address":"825 W. Sunnyside","geo_precision":"street","ward":46,"state":"IL"},"type":"Feature","geometry":{"type":"Point","coordinates":[-87.654769,41.963606]}},{"properties":{"city":"Chicago","units":1,"geo_score":0.464,"ils":"16-30%","id":"aae58msdhhhu","address":"2433 W. Eastwood","geo_precision":"street","ward":47,"state":"IL"},"type":"Feature","geometry":{"type":"Point","coordinates":[-87.652923,41.966424]}},{"properties":{"city":"Chicago","units":1,"geo_score":0.459,"ils":"0-15%","id":"aae58n3z3v1x","address":"5450 N. Winthrop","geo_precision":"street","ward":48,"state":"IL"},"type":"Feature","geometry":{"type":"Point","coordinates":[-87.657033,41.96618]}},{"properties":{"city":"Chicago","units":1,"geo_score":0.462,"ils":"0-15%","id":"aae58mz6qlsy","address":"5701 N. Sheridan Road","geo_precision":"street","ward":48,"state":"IL"},"type":"Feature","geometry":{"type":"Point","coordinates":[-87.645012,41.952906]}},{"properties":{"city":"Chicago","units":20,"geo_score":0.459,"ils":"0-15%","id":"aae58mr8tju9","address":"5240 N. Winthrop","geo_precision":"street","ward":48,"state":"IL"},"type":"Feature","geometry":{"type":"Point","coordinates":[-87.657033,41.96618]}},{"properties":{"city":"Chicago","units":2,"geo_score":0.714,"ils":"16-30%","id":"aae58mv20oqo","address":"1016 W. Balmore","geo_precision":"city","ward":48,"state":"IL"},"type":"Feature","geometry":{"type":"Point","coordinates":[-87.68732,41.811929]}},{"properties":{"city":"Chicago","units":24,"geo_score":0.462,"ils":"0-15%","id":"aae58mzrzifm","address":"5700 N. Sheridan Road","geo_precision":"street","ward":48,"state":"IL"},"type":"Feature","geometry":{"type":"Point","coordinates":[-87.645012,41.952906]}},{"properties":{"city":"Chicago","units":11,"geo_score":0.462,"ils":"16-30%","id":"aae58msireii","address":"5700 N. Sheridan Road","geo_precision":"street","ward":48,"state":"IL"},"type":"Feature","geometry":{"type":"Point","coordinates":[-87.645012,41.952906]}},{"properties":{"city":"Chicago","units":2,"geo_score":0.462,"ils":"16-30%","id":"aae58mo1t5of","address":"5550 N. Kenmore","geo_precision":"street","ward":48,"state":"IL"},"type":"Feature","geometry":{"type":"Point","coordinates":[-87.654688,41.921265]}},{"properties":{"city":"Chicago","units":3,"geo_score":0.462,"ils":"16-30%","id":"aae58mxh0q07","address":"1055 W. Catalpa","geo_precision":"street","ward":48,"state":"IL"},"type":"Feature","geometry":{"type":"Point","coordinates":[-87.659256,41.981809]}},{"properties":{"city":"Chicago","units":34,"geo_score":0.459,"ils":"0-16%","id":"aae58mx197ec","address":"1061 W. Rosemont","geo_precision":"street","ward":48,"state":"IL"},"type":"Feature","geometry":{"type":"Point","coordinates":[-87.657708,41.9964]}},{"properties":{"city":"Chicago","units":11,"geo_score":0.462,"ils":"0-15%","id":"aae58mt4v08l","address":"5750 N. Sheridan Road","geo_precision":"street","ward":48,"state":"IL"},"type":"Feature","geometry":{"type":"Point","coordinates":[-87.645012,41.952906]}},{"properties":{"city":"Chicago","units":25,"geo_score":0.459,"ils":"0-15%","id":"aae58mv892ym","address":"5042 N. Winthrop","geo_precision":"street","ward":48,"state":"IL"},"type":"Feature","geometry":{"type":"Point","coordinates":[-87.657033,41.96618]}},{"properties":{"city":"Chicago","units":15,"geo_score":0.459,"ils":"16-30%","id":"aae58mvpo35q","address":"5042 N. Winthrop","geo_precision":"street","ward":48,"state":"IL"},"type":"Feature","geometry":{"type":"Point","coordinates":[-87.657033,41.96618]}},{"properties":{"city":"Chicago","units":15,"geo_score":0.459,"ils":"0-15%","id":"aae58mxkw9dg","address":"5326 N. Winthrop","geo_precision":"street","ward":48,"state":"IL"},"type":"Feature","geometry":{"type":"Point","coordinates":[-87.657033,41.96618]}},{"properties":{"city":"Chicago","units":7,"geo_score":0.459,"ils":"16-30%","id":"aae58mu1r8wz","address":"5326 N. Winthrop","geo_precision":"street","ward":48,"state":"IL"},"type":"Feature","geometry":{"type":"Point","coordinates":[-87.657033,41.96618]}},{"properties":{"city":"Chicago","units":5,"geo_score":0.462,"ils":"0-15%","id":"aae58mruuw93","address":"5730 N. Sheridan Road","geo_precision":"street","ward":48,"state":"IL"},"type":"Feature","geometry":{"type":"Point","coordinates":[-87.645012,41.952906]}},{"properties":{"city":"Chicago","units":6,"geo_score":0.462,"ils":"16-30%","id":"aae58n397kcu","address":"5730 N. Sheridan Road","geo_precision":"street","ward":48,"state":"IL"},"type":"Feature","geometry":{"type":"Point","coordinates":[-87.645012,41.952906]}},{"properties":{"city":"Chicago","units":8,"geo_score":0.459,"ils":"0-15%","id":"aae58muy5avz","address":"5054 N. Winthrop","geo_precision":"street","ward":48,"state":"IL"},"type":"Feature","geometry":{"type":"Point","coordinates":[-87.657033,41.96618]}},{"properties":{"city":"Chicago","units":20,"geo_score":0.462,"ils":"0-15%","id":"aae58mnz4jm9","address":"6748 N. Ashland","geo_precision":"street","ward":48,"state":"IL"},"type":"Feature","geometry":{"type":"Point","coordinates":[-87.66696,41.885329]}},{"properties":{"city":"Chicago","units":9,"geo_score":0.462,"ils":"16-30%","id":"aae58mqst46b","address":"6748 N. Ashland","geo_precision":"street","ward":48,"state":"IL"},"type":"Feature","geometry":{"type":"Point","coordinates":[-87.66696,41.885329]}},{"properties":{"city":"Chicago","units":2,"geo_score":0.462,"ils":"0-15%","id":"aae58msxzf2q","address":"6912 N. Ashland","geo_precision":"street","ward":49,"state":"IL"},"type":"Feature","geometry":{"type":"Point","coordinates":[-87.66696,41.885329]}},{"properties":{"city":"Chicago","units":3,"geo_score":0.462,"ils":"16-30%","id":"aae58mojieoi","address":"6912 N. Ashland","geo_precision":"street","ward":49,"state":"IL"},"type":"Feature","geometry":{"type":"Point","coordinates":[-87.66696,41.885329]}},{"properties":{"city":"Chicago","units":5,"geo_score":0.459,"ils":"0-15%","id":"aae58n3o5ol4","address":"7600 N. Bosworth","geo_precision":"street","ward":49,"state":"IL"},"type":"Feature","geometry":{"type":"Point","coordinates":[-87.666461,41.910222]}},{"properties":{"city":"Chicago","units":19,"geo_score":0.459,"ils":"16-30%","id":"aae58mpjoqem","address":"7600 N. Bosworth","geo_precision":"street","ward":49,"state":"IL"},"type":"Feature","geometry":{"type":"Point","coordinates":[-87.666461,41.910222]}},{"properties":{"city":"Chicago","units":1,"geo_score":0.462,"ils":"0-15%","id":"aae58n21k2t9","address":"6825 N. Sheridan Road","geo_precision":"street","ward":49,"state":"IL"},"type":"Feature","geometry":{"type":"Point","coordinates":[-87.645012,41.952906]}},{"properties":{"city":"Chicago","units":1,"geo_score":0.457,"ils":"0-15%","id":"aae58msopty3","address":"1456 W. Birchwood","geo_precision":"street","ward":49,"state":"IL"},"type":"Feature","geometry":{"type":"Point","coordinates":[-87.668213,42.018167]}},{"properties":{"city":"Chicago","units":5,"geo_score":0.462,"ils":"0-15%","id":"aae58mzyt6e2","address":"1700 W. Juneway Terrace","geo_precision":"street","ward":49,"state":"IL"},"type":"Feature","geometry":{"type":"Point","coordinates":[-87.66754,42.022237]}},{"properties":{"city":"Chicago","units":2,"geo_score":0.462,"ils":"16-30%","id":"aae58mpwk0pe","address":"1700 W. Juneway Terrace","geo_precision":"street","ward":49,"state":"IL"},"type":"Feature","geometry":{"type":"Point","coordinates":[-87.66754,42.022237]}},{"properties":{"city":"Chicago","units":1,"geo_score":0.462,"ils":"0-15%","id":"aae58mntlp77","address":"1714 W. Jonquil","geo_precision":"street","ward":49,"state":"IL"},"type":"Feature","geometry":{"type":"Point","coordinates":[-87.66742,42.021128]}},{"properties":{"city":"Chicago","units":5,"geo_score":0.464,"ils":"0-15%","id":"aae58mws71iy","address":"7720 N. Marshfield","geo_precision":"street","ward":49,"state":"IL"},"type":"Feature","geometry":{"type":"Point","coordinates":[-87.670955,42.017603]}},{"properties":{"city":"Chicago","units":22,"geo_score":0.459,"ils":"0-15%","id":"aae58mqerm5m","address":"1063 W. Columbia","geo_precision":"street","ward":49,"state":"IL"},"type":"Feature","geometry":{"type":"Point","coordinates":[-87.658478,42.00465]}},{"properties":{"city":"Chicago","units":12,"geo_score":0.462,"ils":"16-30%","id":"aae58mrf3jy2","address":"1221 W. Sherwin","geo_precision":"street","ward":49,"state":"IL"},"type":"Feature","geometry":{"type":"Point","coordinates":[-87.662598,42.015055]}},{"properties":{"city":"Chicago","units":5,"geo_score":0.462,"ils":"0-15%","id":"aae58mutcjcy","address":"1546 W. Jonquil Terrace","geo_precision":"street","ward":49,"state":"IL"},"type":"Feature","geometry":{"type":"Point","coordinates":[-87.66742,42.021128]}},{"properties":{"city":"Chicago","units":8,"geo_score":0.462,"ils":"0-15%","id":"aae58n2acdrl","address":"7320 N. Sheridan Road","geo_precision":"street","ward":49,"state":"IL"},"type":"Feature","geometry":{"type":"Point","coordinates":[-87.645012,41.952906]}},{"properties":{"city":"Chicago","units":7,"geo_score":0.462,"ils":"16-30%","id":"aae58mpj6pxr","address":"7320 N. Sheridan Road","geo_precision":"street","ward":49,"state":"IL"},"type":"Feature","geometry":{"type":"Point","coordinates":[-87.645012,41.952906]}},{"properties":{"city":"Chicago","units":1,"geo_score":0.459,"ils":"0-15%","id":"aae58n0k6kd2","address":"6214 N. Winthrop","geo_precision":"street","ward":49,"state":"IL"},"type":"Feature","geometry":{"type":"Point","coordinates":[-87.657033,41.96618]}},{"properties":{"city":"Chicago","units":5,"geo_score":0.471,"ils":"0-15%","id":"aae58n2ih1gl","address":"7417 N. Clark","geo_precision":"street","ward":49,"state":"IL"},"type":"Feature","geometry":{"type":"Point","coordinates":[-87.631093,41.890425]}},{"properties":{"city":"Chicago","units":4,"geo_score":0.462,"ils":"0-15%","id":"aae58mt4izek","address":"7725 N. Sheridan Road","geo_precision":"street","ward":49,"state":"IL"},"type":"Feature","geometry":{"type":"Point","coordinates":[-87.645012,41.952906]}},{"properties":{"city":"Chicago","units":2,"geo_score":0.462,"ils":"16-30%","id":"aae58mz16zn0","address":"7725 N. Sheridan Road","geo_precision":"street","ward":49,"state":"IL"},"type":"Feature","geometry":{"type":"Point","coordinates":[-87.645012,41.952906]}},{"properties":{"city":"Chicago","units":2,"geo_score":0.49,"ils":"16-30%","id":"aae58mwdbhfr","address":"7369 N. Damen","geo_precision":"street","ward":49,"state":"IL"},"type":"Feature","geometry":{"type":"Point","coordinates":[-87.674589,41.812481]}},{"properties":{"city":"Chicago","units":1,"geo_score":0.462,"ils":"0-15%","id":"aae58mumcgc8","address":"6030 N. Kenmore","geo_precision":"street","ward":49,"state":"IL"},"type":"Feature","geometry":{"type":"Point","coordinates":[-87.654688,41.921265]}},{"properties":{"city":"Chicago","units":3,"geo_score":0.462,"ils":"0-15%","id":"aae58mpk019t","address":"6758 N. Sheridan Road","geo_precision":"street","ward":49,"state":"IL"},"type":"Feature","geometry":{"type":"Point","coordinates":[-87.645012,41.952906]}},{"properties":{"city":"Chicago","units":3,"geo_score":0.462,"ils":"16-30%","id":"aae58n3kpfvd","address":"6758 N. Sheridan Road","geo_precision":"street","ward":49,"state":"IL"},"type":"Feature","geometry":{"type":"Point","coordinates":[-87.645012,41.952906]}},{"properties":{"city":"Chicago","units":3,"geo_score":0.468,"ils":"0-15%","id":"aae58mstwnwp","address":"1528 W. Pratt","geo_precision":"street","ward":49,"state":"IL"},"type":"Feature","geometry":{"type":"Point","coordinates":[-87.719158,42.004431]}},{"properties":{"city":"Chicago","units":1,"geo_score":0.462,"ils":"16-30%","id":"aae58muwdetc","address":"1421 W. Farwell","geo_precision":"street","ward":49,"state":"IL"},"type":"Feature","geometry":{"type":"Point","coordinates":[-87.658616,42.006803]}},{"properties":{"city":"Chicago","units":4,"geo_score":0.462,"ils":"0-15%","id":"aae58n11s9yu","address":"7600 N. Sheridan Road","geo_precision":"street","ward":49,"state":"IL"},"type":"Feature","geometry":{"type":"Point","coordinates":[-87.645012,41.952906]}},{"properties":{"city":"Chicago","units":21,"geo_score":0.468,"ils":"0-15%","id":"aae58mtd6jx9","address":"6928 N. Wayne","geo_precision":"street","ward":49,"state":"IL"},"type":"Feature","geometry":{"type":"Point","coordinates":[-87.662089,41.924797]}},{"properties":{"city":"Chicago","units":18,"geo_score":0.468,"ils":"16-30%","id":"aae58n150bvy","address":"6926 N. Wayne","geo_precision":"street","ward":49,"state":"IL"},"type":"Feature","geometry":{"type":"Point","coordinates":[-87.662089,41.924797]}},{"properties":{"city":"Chicago","units":1,"geo_score":0.464,"ils":"0-15%","id":"aae58mrtg7zh","address":"6500 N. Leavitt","geo_precision":"street","ward":50,"state":"IL"},"type":"Feature","geometry":{"type":"Point","coordinates":[-87.681623,41.884802]}},{"properties":{"city":"Chicago","units":1,"geo_score":0.464,"ils":"16-30%","id":"aae58mzgte8c","address":"2018 W. Arthur","geo_precision":"street","ward":50,"state":"IL"},"type":"Feature","geometry":{"type":"Point","coordinates":[-87.661351,42.000432]}},{"properties":{"city":"Chicago","units":16,"geo_score":0.459,"ils":"0-15%","id":"aae58n0thvg2","address":"1818 W. Peterson","geo_precision":"street","ward":50,"state":"IL"},"type":"Feature","geometry":{"type":"Point","coordinates":[-87.67526,41.990753]}},{"properties":{"city":"Chicago","units":18,"geo_score":0.459,"ils":"16-30%","id":"aae58n1gacpy","address":"1818 W. Peterson","geo_precision":"street","ward":50,"state":"IL"},"type":"Feature","geometry":{"type":"Point","coordinates":[-87.67526,41.990753]}},{"properties":{"city":"Chicago","units":2,"geo_score":0.468,"ils":"16-30%","id":"aae58mot6jg4","address":"6307 N. Mozart","geo_precision":"street","ward":50,"state":"IL"},"type":"Feature","geometry":{"type":"Point","coordinates":[-87.698118,41.902409]}},{"properties":{"city":"Chicago","units":7,"geo_score":0.455,"ils":"0-15%","id":"aae58msheqtx","address":"6142 N. California","geo_precision":"street","ward":50,"state":"IL"},"type":"Feature","geometry":{"type":"Point","coordinates":[-87.696177,41.876958]}},{"properties":{"city":"Chicago","units":8,"geo_score":0.455,"ils":"16-30%","id":"aae58mpp5zmy","address":"6142 N. California","geo_precision":"street","ward":50,"state":"IL"},"type":"Feature","geometry":{"type":"Point","coordinates":[-87.696177,41.876958]}},{"properties":{"city":"Chicago","units":6,"geo_score":0.468,"ils":"0-15%","id":"aae58mxic6m3","address":"6200 N. Hoyne","geo_precision":"street","ward":50,"state":"IL"},"type":"Feature","geometry":{"type":"Point","coordinates":[-87.679339,41.890364]}}],"is_temporal":false,"author":{"url":null,"metadata":null,"contact_name":null,"contact_address":null,"source":null,"contact_phone":null},"source":null,"pagination":{"sort":null,"start":0,"total":516,"limit":1000000},"state":"complete","tags":"","published":"2014-08-16T13:29:15-04:00","id":300603}