{"type":"FeatureCollection","data_type":"Dataset","url_type":null,"permissions":[{"permissions":{"download":true,"view":true},"group_id":"everyone"}],"classification":null,"title":"Stadium Data 2","count":70,"stream_id":301188,"contributor":{"url":"http://geocommons.com/users/57175","name":"ehwilhelm"},"data_attributes":null,"calculation_params":null,"icon_link":null,"link":"http://geocommons.com/overlays/301188.json","extent":[-122.224,25.7743,-71.027,47.4323],"geometry_types":["point"],"unique_name":null,"name":"Stadium Data 2","feature_count":70,"description":"","next_feature":null,"is_raster":false,"short_classification":"Y","stats":{"public share capital":{"max":100,"mean":61.0285714285714,"variance":1165.62236024845,"stdev":34.1412120500788,"min":0,"median":72},"public share adjusted (5)":{"max":217,"mean":75.9142857142857,"variance":1457.55776397516,"stdev":38.1779748542947,"min":11,"median":81},"total capital cost (2010)":{"max":1625,"mean":437.285714285714,"variance":80915.7722567288,"stdev":284.456977866124,"min":99,"median":364},"public cost adjusted (2010)":{"max":764,"mean":308.414285714286,"variance":34099.5795031056,"stdev":184.660714563509,"min":21,"median":308},"public capital cost (2010)":{"max":645,"mean":242.742857142857,"variance":26293.5850931677,"stdev":162.15296819105,"min":0,"median":244}},"features":[{"properties":{"city":"Arlington","geo_score":0.714,"public share capital":70,"public share adjusted (5)":80,"total capital cost (2010)":308,"league":"MLB","facility name":"Rangers Ballpark in Arlington","public capital cost (2010)":217,"public cost adjusted (2010)":248,"id":"aagjgovlkosc","geo_precision":"city","state":"TX","location":"Arlington/Dallas"},"type":"Feature","geometry":{"type":"Point","coordinates":[-97.291484,32.771419]}},{"properties":{"city":"Atlanta","geo_score":0.714,"public share capital":6,"public share adjusted (5)":28,"total capital cost (2010)":364,"league":"MLB","facility name":"Turner Field","public capital cost (2010)":21,"public cost adjusted (2010)":101,"id":"aagjgoweg07x","geo_precision":"city","state":"GA","location":"Atlanta"},"type":"Feature","geometry":{"type":"Point","coordinates":[-84.47405,33.844371]}},{"properties":{"city":"Atlanta","geo_score":0.714,"public share capital":91,"public share adjusted (5)":37,"total capital cost (2010)":294,"league":"NBA/NHL","facility name":"Philips Arena","public capital cost (2010)":266,"public cost adjusted (2010)":109,"id":"aagjgp2gqzg2","geo_precision":"city","state":"GA","location":"Atlanta"},"type":"Feature","geometry":{"type":"Point","coordinates":[-84.47405,33.844371]}},{"properties":{"city":"Atlanta","geo_score":0.714,"public share capital":100,"public share adjusted (5)":98,"total capital cost (2010)":364,"league":"NFL","facility name":"Georgia Dome","public capital cost (2010)":364,"public cost adjusted (2010)":355,"id":"aagjgovpsfvz","geo_precision":"city","state":"GA","location":"Atlanta"},"type":"Feature","geometry":{"type":"Point","coordinates":[-84.47405,33.844371]}},{"properties":{"city":"Baltimore","geo_score":0.714,"public share capital":95,"public share adjusted (5)":93,"total capital cost (2010)":302,"league":"MLB","facility name":"Oriole Park at Camden Yards","public capital cost (2010)":287,"public cost adjusted (2010)":282,"id":"aagjgoxpadfl","geo_precision":"city","state":"MD","location":"Baltimore"},"type":"Feature","geometry":{"type":"Point","coordinates":[-75.844658,39.058168]}},{"properties":{"city":"Baltimore","geo_score":0.714,"public share capital":90,"public share adjusted (5)":98,"total capital cost (2010)":409,"league":"NFL","facility name":"M&amp;T Bank Stadium","public capital cost (2010)":368,"public cost adjusted (2010)":403,"id":"aagjgp0gmspf","geo_precision":"city","state":"MD","location":"Baltimore"},"type":"Feature","geometry":{"type":"Point","coordinates":[-75.844658,39.058168]}},{"properties":{"city":"Boston","geo_score":0.714,"public share capital":0,"public share adjusted (5)":41,"total capital cost (2010)":158,"league":"MLB","facility name":"Fenway Park","public capital cost (2010)":0,"public cost adjusted (2010)":64,"id":"aagjgp510xq0","geo_precision":"city","state":"MA","location":"Boston"},"type":"Feature","geometry":{"type":"Point","coordinates":[-71.026964,42.370567]}},{"properties":{"city":"Boston","geo_score":0.714,"public share capital":8,"public share adjusted (5)":31,"total capital cost (2010)":241,"league":"NBA/NHL","facility name":"TD Garden","public capital cost (2010)":20,"public cost adjusted (2010)":74,"id":"aagjgp3ntnbw","geo_precision":"city","state":"MA","location":"Boston"},"type":"Feature","geometry":{"type":"Point","coordinates":[-71.026964,42.370567]}},{"properties":{"city":"Boston","geo_score":0.714,"public share capital":17,"public share adjusted (5)":18,"total capital cost (2010)":558,"league":"NFL/MLS","facility name":"Gilette Stadium","public capital cost (2010)":94,"public cost adjusted (2010)":103,"id":"aagjgp2flfos","geo_precision":"city","state":"MA","location":"Boston"},"type":"Feature","geometry":{"type":"Point","coordinates":[-71.026964,42.370567]}},{"properties":{"city":"Buffalo","geo_score":0.714,"public share capital":44,"public share adjusted (5)":35,"total capital cost (2010)":191,"league":"NHL","facility name":"First Niagra Center","public capital cost (2010)":84,"public cost adjusted (2010)":67,"id":"aagjgp0q2xgv","geo_precision":"city","state":"NY","location":"Buffalo"},"type":"Feature","geometry":{"type":"Point","coordinates":[-78.832706,42.929303]}},{"properties":{"city":"Buffalo","geo_score":0.714,"public share capital":100,"public share adjusted (5)":217,"total capital cost (2010)":99,"league":"NFL","facility name":"Ralph Wilson Stadium (R )","public capital cost (2010)":99,"public cost adjusted (2010)":215,"id":"aagjgotdxvka","geo_precision":"city","state":"NY","location":"Buffalo"},"type":"Feature","geometry":{"type":"Point","coordinates":[-78.832706,42.929303]}},{"properties":{"city":"Charlotte","geo_score":0.714,"public share capital":24,"public share adjusted (5)":48,"total capital cost (2010)":370,"league":"NFL","facility name":"Bank of America Satdium","public capital cost (2010)":90,"public cost adjusted (2010)":176,"id":"aagjgou4wk50","geo_precision":"city","state":"NC","location":"Charlotte"},"type":"Feature","geometry":{"type":"Point","coordinates":[-80.804151,35.26002]}},{"properties":{"city":"Chicago","geo_score":0.714,"public share capital":100,"public share adjusted (5)":107,"total capital cost (2010)":332,"league":"MLB","facility name":"US Cellular Field","public capital cost (2010)":332,"public cost adjusted (2010)":335,"id":"aagjgowks19x","geo_precision":"city","state":"IL","location":"Chicago"},"type":"Feature","geometry":{"type":"Point","coordinates":[-87.68732,41.811929]}},{"properties":{"city":"Chicago","geo_score":0.714,"public share capital":62,"public share adjusted (5)":59,"total capital cost (2010)":847,"league":"NFL","facility name":"Soldier Field (R )","public capital cost (2010)":521,"public cost adjusted (2010)":500,"id":"aagjgp8pq20s","geo_precision":"city","state":"IL","location":"Chicago"},"type":"Feature","geometry":{"type":"Point","coordinates":[-87.68732,41.811929]}},{"properties":{"city":"Chicago","geo_score":0.714,"public share capital":15,"public share adjusted (5)":41,"total capital cost (2010)":319,"league":"NBA/NHL","facility name":"United Center","public capital cost (2010)":47,"public cost adjusted (2010)":130,"id":"aagjgowibzg4","geo_precision":"city","state":"IL","location":"Chicago"},"type":"Feature","geometry":{"type":"Point","coordinates":[-87.68732,41.811929]}},{"properties":{"city":"Cincinnati","geo_score":0.714,"public share capital":91,"public share adjusted (5)":116,"total capital cost (2010)":422,"league":"MLB","facility name":"Great American Ballpark","public capital cost (2010)":384,"public cost adjusted (2010)":489,"id":"aagjgp0nnrdl","geo_precision":"city","state":"OH","location":"Cincinnati"},"type":"Feature","geometry":{"type":"Point","coordinates":[-84.53822,39.166759]}},{"properties":{"city":"Cincinnati","geo_score":0.714,"public share capital":90,"public share adjusted (5)":116,"total capital cost (2010)":609,"league":"NFL","facility name":"Paul Brown Stadium","public capital cost (2010)":547,"public cost adjusted (2010)":706,"id":"aagjgoulfg27","geo_precision":"city","state":"OH","location":"Cincinnati"},"type":"Feature","geometry":{"type":"Point","coordinates":[-84.53822,39.166759]}},{"properties":{"city":"Cleveland","geo_score":0.714,"public share capital":64,"public share adjusted (5)":86,"total capital cost (2010)":399,"league":"MLB","facility name":"Progressive Field","public capital cost (2010)":256,"public cost adjusted (2010)":344,"id":"aagjgoyacfty","geo_precision":"city","state":"OH","location":"Cleveland"},"type":"Feature","geometry":{"type":"Point","coordinates":[-81.599648,41.523401]}},{"properties":{"city":"Cleveland","geo_score":0.714,"public share capital":77,"public share adjusted (5)":103,"total capital cost (2010)":441,"league":"NFL","facility name":"Cleveland Browns Stadium","public capital cost (2010)":339,"public cost adjusted (2010)":453,"id":"aagjgoujhq3c","geo_precision":"city","state":"OH","location":"Cleveland"},"type":"Feature","geometry":{"type":"Point","coordinates":[-81.599648,41.523401]}},{"properties":{"city":"Columbus","geo_score":0.714,"public share capital":0,"public share adjusted (5)":36,"total capital cost (2010)":203,"league":"NHL","facility name":"Nationwide Arena","public capital cost (2010)":0,"public cost adjusted (2010)":73,"id":"aagjgp51xheq","geo_precision":"city","state":"OH","location":"Columbus"},"type":"Feature","geometry":{"type":"Point","coordinates":[-84.15053,40.97793]}},{"properties":{"city":"Dallas","geo_score":0.714,"public share capital":37,"public share adjusted (5)":55,"total capital cost (2010)":562,"league":"NBA/NHL","facility name":"American Airlines Center","public capital cost (2010)":207,"public cost adjusted (2010)":308,"id":"aagjgp8nylbe","geo_precision":"city","state":"TX","location":"Dallas"},"type":"Feature","geometry":{"type":"Point","coordinates":[-96.240533,32.370699]}},{"properties":{"city":"Arlington","geo_score":0.714,"public share capital":29,"public share adjusted (5)":52,"total capital cost (2010)":1243,"league":"NFL","facility name":"Cowboys Stadium","public capital cost (2010)":357,"public cost adjusted (2010)":651,"id":"aagjgou2ga2v","geo_precision":"city","state":"TX","location":"Dallas/Arlington"},"type":"Feature","geometry":{"type":"Point","coordinates":[-97.291484,32.771419]}},{"properties":{"city":"Denver","geo_score":0.714,"public share capital":76,"public share adjusted (5)":97,"total capital cost (2010)":334,"league":"MLB","facility name":"Coors Field","public capital cost (2010)":253,"public cost adjusted (2010)":323,"id":"aagjgow87jki","geo_precision":"city","state":"CO","location":"Denver"},"type":"Feature","geometry":{"type":"Point","coordinates":[-104.856808,39.726303]}},{"properties":{"city":"Denver","geo_score":0.714,"public share capital":3,"public share adjusted (5)":30,"total capital cost (2010)":250,"league":"NBA/NHL","facility name":"Pepsi Center","public capital cost (2010)":6,"public cost adjusted (2010)":74,"id":"aagjgp0ekqtk","geo_precision":"city","state":"CO","location":"Denver"},"type":"Feature","geometry":{"type":"Point","coordinates":[-104.856808,39.726303]}},{"properties":{"city":"Denver","geo_score":0.714,"public share capital":77,"public share adjusted (5)":86,"total capital cost (2010)":634,"league":"NFL","facility name":"Sports Authority Field","public capital cost (2010)":486,"public cost adjusted (2010)":545,"id":"aagjgozxlc4q","geo_precision":"city","state":"CO","location":"Denver"},"type":"Feature","geometry":{"type":"Point","coordinates":[-104.856808,39.726303]}},{"properties":{"city":"Detroit","geo_score":0.714,"public share capital":44,"public share adjusted (5)":63,"total capital cost (2010)":488,"league":"MLB","facility name":"Comerica Park","public capital cost (2010)":214,"public cost adjusted (2010)":309,"id":"aagjgp7l7938","geo_precision":"city","state":"MI","location":"Detroit"},"type":"Feature","geometry":{"type":"Point","coordinates":[-83.150823,42.239933]}},{"properties":{"city":"Detroit","geo_score":0.714,"public share capital":100,"public share adjusted (5)":132,"total capital cost (2010)":160,"league":"NHL","facility name":"Joe Louis Arena","public capital cost (2010)":160,"public cost adjusted (2010)":210,"id":"aagjgova8uv5","geo_precision":"city","state":"MI","location":"Detroit"},"type":"Feature","geometry":{"type":"Point","coordinates":[-83.150823,42.239933]}},{"properties":{"city":"Detroit","geo_score":0.714,"public share capital":66,"public share adjusted (5)":86,"total capital cost (2010)":629,"league":"NFL","facility name":"Ford Field","public capital cost (2010)":413,"public cost adjusted (2010)":543,"id":"aagjgoxuoy28","geo_precision":"city","state":"MI","location":"Detroit"},"type":"Feature","geometry":{"type":"Point","coordinates":[-83.150823,42.239933]}},{"properties":{"city":"East Rutherford","geo_score":0.714,"public share capital":2,"public share adjusted (5)":23,"total capital cost (2010)":1600,"league":"NFL/NFL","facility name":"Met Life Stadium","public capital cost (2010)":30,"public cost adjusted (2010)":376,"id":"aagjgp7gjbrp","geo_precision":"city","state":"NJ","location":"East Rutherford"},"type":"Feature","geometry":{"type":"Point","coordinates":[-74.109786,40.827449]}},{"properties":{"city":"Green Bay","geo_score":0.714,"public share capital":59,"public share adjusted (5)":81,"total capital cost (2010)":411,"league":"NFL","facility name":"Lambeau Field (R )","public capital cost (2010)":241,"public cost adjusted (2010)":334,"id":"aagjgoxfgbf6","geo_precision":"city","state":"WI","location":"Green Bay"},"type":"Feature","geometry":{"type":"Point","coordinates":[-87.745645,44.356106]}},{"properties":{"city":"Houston","geo_score":0.714,"public share capital":68,"public share adjusted (5)":80,"total capital cost (2010)":358,"league":"MLB","facility name":"Minute Maid Park","public capital cost (2010)":244,"public cost adjusted (2010)":288,"id":"aagjgoyj7bz7","geo_precision":"city","state":"TX","location":"Houston"},"type":"Feature","geometry":{"type":"Point","coordinates":[-96.919704,29.845783]}},{"properties":{"city":"Houston","geo_score":0.714,"public share capital":78,"public share adjusted (5)":109,"total capital cost (2010)":571,"league":"NFL","facility name":"Reliant Stadium","public capital cost (2010)":443,"public cost adjusted (2010)":623,"id":"aagjgozlilns","geo_precision":"city","state":"TX","location":"Houston"},"type":"Feature","geometry":{"type":"Point","coordinates":[-96.919704,29.845783]}},{"properties":{"city":"Indianapolis","geo_score":0.714,"public share capital":86,"public share adjusted (5)":102,"total capital cost (2010)":749,"league":"NFL","facility name":"Lucas Oil Stadium","public capital cost (2010)":645,"public cost adjusted (2010)":764,"id":"aagjgp1rwggb","geo_precision":"city","state":"IN","location":"Indianapolis"},"type":"Feature","geometry":{"type":"Point","coordinates":[-86.13216,39.775092]}},{"properties":{"city":"Kansas City","geo_score":0.714,"public share capital":90,"public share adjusted (5)":123,"total capital cost (2010)":255,"league":"MLB","facility name":"Kauffman Stadium (R )","public capital cost (2010)":229,"public cost adjusted (2010)":314,"id":"aagjgp1wllye","geo_precision":"city","state":"MO","location":"Kansas City"},"type":"Feature","geometry":{"type":"Point","coordinates":[-94.598583,39.102404]}},{"properties":{"city":"Kansas City","geo_score":0.714,"public share capital":67,"public share adjusted (5)":109,"total capital cost (2010)":375,"league":"NFL","facility name":"Arrowhead Stadium (R )","public capital cost (2010)":250,"public cost adjusted (2010)":408,"id":"aagjgoy3r0li","geo_precision":"city","state":"MO","location":"Kansas City"},"type":"Feature","geometry":{"type":"Point","coordinates":[-94.598583,39.102404]}},{"properties":{"city":"Los Angeles","geo_score":0.714,"public share capital":22,"public share adjusted (5)":52,"total capital cost (2010)":249,"league":"MLB","facility name":"Dodger Stadium","public capital cost (2010)":56,"public cost adjusted (2010)":130,"id":"aagjgoxmsec7","geo_precision":"city","state":"CA","location":"Los Angeles"},"type":"Feature","geometry":{"type":"Point","coordinates":[-120.618608,38.052816]}},{"properties":{"city":"Los Angeles","geo_score":0.714,"public share capital":18,"public share adjusted (5)":41,"total capital cost (2010)":535,"league":"NBA (2)/NHL","facility name":"Staples Center","public capital cost (2010)":98,"public cost adjusted (2010)":219,"id":"aagjgp73io4f","geo_precision":"city","state":"CA","location":"Los Angeles"},"type":"Feature","geometry":{"type":"Point","coordinates":[-120.618608,38.052816]}},{"properties":{"city":"Anaheim","geo_score":0.714,"public share capital":30,"public share adjusted (5)":18,"total capital cost (2010)":180,"league":"MLB","facility name":"Angel Stadium at Anaheim (R )","public capital cost (2010)":54,"public cost adjusted (2010)":33,"id":"aagjgoxqymzf","geo_precision":"city","state":"CA","location":"Los Angeles/Anaheim"},"type":"Feature","geometry":{"type":"Point","coordinates":[-117.769442,33.640302]}},{"properties":{"city":"Los Angeles","geo_score":0.714,"public share capital":100,"public share adjusted (5)":24,"total capital cost (2010)":199,"league":"NHL","facility name":"Honda Center","public capital cost (2010)":199,"public cost adjusted (2010)":47,"id":"aagjgp6u3mmd","geo_precision":"city","state":"CA","location":"Los Angeles/Anaheim"},"type":"Feature","geometry":{"type":"Point","coordinates":[-120.618608,38.052816]}},{"properties":{"city":"Miami","geo_score":0.714,"public share capital":5,"public share adjusted (5)":45,"total capital cost (2010)":249,"league":"MLB/NFL","facility name":"Sun Life Stadium","public capital cost (2010)":14,"public cost adjusted (2010)":111,"id":"aagjgosqxoe6","geo_precision":"city","state":"FL","location":"Miami"},"type":"Feature","geometry":{"type":"Point","coordinates":[-80.193659,25.774266]}},{"properties":{"city":"Miami","geo_score":0.714,"public share capital":87,"public share adjusted (5)":114,"total capital cost (2010)":320,"league":"NHL","facility name":"Bank Atlantic Center","public capital cost (2010)":279,"public cost adjusted (2010)":365,"id":"aagjgp7vn0zv","geo_precision":"city","state":"FL","location":"Miami"},"type":"Feature","geometry":{"type":"Point","coordinates":[-80.193659,25.774266]}},{"properties":{"city":"Miami","geo_score":0.714,"public share capital":5,"public share adjusted (5)":45,"total capital cost (2010)":249,"league":"NFL/MLB","facility name":"Sun Life Stadium","public capital cost (2010)":14,"public cost adjusted (2010)":111,"id":"aagjgowxpjxg","geo_precision":"city","state":"FL","location":"Miami"},"type":"Feature","geometry":{"type":"Point","coordinates":[-80.193659,25.774266]}},{"properties":{"city":"Milwaukee","geo_score":0.714,"public share capital":78,"public share adjusted (5)":110,"total capital cost (2010)":621,"league":"MLB","facility name":"Miller Park","public capital cost (2010)":485,"public cost adjusted (2010)":681,"id":"aagjgp2xmi4d","geo_precision":"city","state":"WI","location":"Milwaukee"},"type":"Feature","geometry":{"type":"Point","coordinates":[-87.958409,43.011264]}},{"properties":{"city":"Minneaplois","geo_score":0.714,"public share capital":73,"public share adjusted (5)":66,"total capital cost (2010)":176,"league":"NHL","facility name":"Xcel Energy Center","public capital cost (2010)":129,"public cost adjusted (2010)":116,"id":"aagjgp64ohlz","geo_precision":"city","state":"MN","location":"Minneaplois/St. Paul"},"type":"Feature","geometry":{"type":"Point","coordinates":[-93.273024,44.979265]}},{"properties":{"city":"Minneapolis","geo_score":0.714,"public share capital":64,"public share adjusted (5)":81,"total capital cost (2010)":555,"league":"MLB","facility name":"Target Field","public capital cost (2010)":356,"public cost adjusted (2010)":452,"id":"aagjgoyll7kz","geo_precision":"city","state":"MN","location":"Minneapolis"},"type":"Feature","geometry":{"type":"Point","coordinates":[-93.273024,44.979265]}},{"properties":{"city":"Minneapolis","geo_score":0.714,"public share capital":90,"public share adjusted (5)":11,"total capital cost (2010)":189,"league":"NFL","facility name":"Mall of America Field","public capital cost (2010)":169,"public cost adjusted (2010)":21,"id":"aagjgozdw972","geo_precision":"city","state":"MN","location":"Minneapolis"},"type":"Feature","geometry":{"type":"Point","coordinates":[-93.273024,44.979265]}},{"properties":{"city":"Nashville","geo_score":0.714,"public share capital":100,"public share adjusted (5)":108,"total capital cost (2010)":208,"league":"NHL","facility name":"Bridgestone Center","public capital cost (2010)":208,"public cost adjusted (2010)":226,"id":"aagjgp43dokd","geo_precision":"city","state":"TN","location":"Nashville"},"type":"Feature","geometry":{"type":"Point","coordinates":[-86.778098,36.165688]}},{"properties":{"city":"Nashville","geo_score":0.714,"public share capital":81,"public share adjusted (5)":102,"total capital cost (2010)":378,"league":"NFL","facility name":"LP Field","public capital cost (2010)":305,"public cost adjusted (2010)":384,"id":"aagjgp4egvbq","geo_precision":"city","state":"TN","location":"Nashville"},"type":"Feature","geometry":{"type":"Point","coordinates":[-86.778098,36.165688]}},{"properties":{"city":"New Orleans","geo_score":0.714,"public share capital":91,"public share adjusted (5)":119,"total capital cost (2010)":208,"league":"NFL","facility name":"Louisiana Superdome (R )","public capital cost (2010)":190,"public cost adjusted (2010)":248,"id":"aagjgp533kaz","geo_precision":"city","state":"LA","location":"New Orleans"},"type":"Feature","geometry":{"type":"Point","coordinates":[-89.930956,30.068812]}},{"properties":{"city":"New York","geo_score":0.714,"public share capital":0,"public share adjusted (5)":28,"total capital cost (2010)":348,"league":"NBA/NHL","facility name":"Madison Square Garden (R )","public capital cost (2010)":0,"public cost adjusted (2010)":97,"id":"aagjgp8kxfus","geo_precision":"city","state":"NY","location":"New York"},"type":"Feature","geometry":{"type":"Point","coordinates":[-74.005973,40.714269]}},{"properties":{"city":"New York","geo_score":0.714,"public share capital":18,"public share adjusted (5)":21,"total capital cost (2010)":1625,"league":"MLB","facility name":"Yankee Stadium II","public capital cost (2010)":298,"public cost adjusted (2010)":339,"id":"aagjgoth6nwq","geo_precision":"city","state":"NY","location":"New York City"},"type":"Feature","geometry":{"type":"Point","coordinates":[-74.005973,40.714269]}},{"properties":{"city":"New York","geo_score":0.714,"public share capital":20,"public share adjusted (5)":39,"total capital cost (2010)":723,"league":"MLB","facility name":"Citi Field","public capital cost (2010)":142,"public cost adjusted (2010)":284,"id":"aagjgp1d0y3j","geo_precision":"city","state":"NY","location":"New York City"},"type":"Feature","geometry":{"type":"Point","coordinates":[-74.005973,40.714269]}},{"properties":{"city":"New York","geo_score":0.714,"public share capital":100,"public share adjusted (5)":115,"total capital cost (2010)":150,"league":"NHL","facility name":"Nassau Veterans Memorial Coliseum","public capital cost (2010)":150,"public cost adjusted (2010)":173,"id":"aagjgp5sd5sx","geo_precision":"city","state":"NY","location":"New York/Uniondale"},"type":"Feature","geometry":{"type":"Point","coordinates":[-74.005973,40.714269]}},{"properties":{"city":"Oakland","geo_score":0.714,"public share capital":100,"public share adjusted (5)":92,"total capital cost (2010)":314,"league":"MLB/NFL","facility name":"O.Co Coliseum (R )","public capital cost (2010)":214,"public cost adjusted (2010)":288,"id":"aagjgp836yw6","geo_precision":"city","state":"CA","location":"Oakland"},"type":"Feature","geometry":{"type":"Point","coordinates":[-122.223779,37.786027]}},{"properties":{"city":"Philadelphia","geo_score":0.714,"public share capital":39,"public share adjusted (5)":56,"total capital cost (2010)":655,"league":"NFL","facility name":"Lincoln Finnacial Field","public capital cost (2010)":258,"public cost adjusted (2010)":368,"id":"aagjgowke3yk","geo_precision":"city","state":"PA","location":"Phiadelphia"},"type":"Feature","geometry":{"type":"Point","coordinates":[-75.11787,40.001811]}},{"properties":{"city":"Philadelphia","geo_score":0.714,"public share capital":70,"public share adjusted (5)":93,"total capital cost (2010)":565,"league":"MLB","facility name":"Citizens Bank Park","public capital cost (2010)":397,"public cost adjusted (2010)":528,"id":"aagjgoudgw5s","geo_precision":"city","state":"PA","location":"Philadelphia"},"type":"Feature","geometry":{"type":"Point","coordinates":[-75.11787,40.001811]}},{"properties":{"city":"Pittsburgh","geo_score":0.714,"public share capital":82,"public share adjusted (5)":100,"total capital cost (2010)":363,"league":"MLB","facility name":"PNC Park","public capital cost (2010)":296,"public cost adjusted (2010)":364,"id":"aagjgot0nhd7","geo_precision":"city","state":"PA","location":"Pittsburgh"},"type":"Feature","geometry":{"type":"Point","coordinates":[-80.024817,40.434436]}},{"properties":{"city":"Pittsburgh","geo_score":0.714,"public share capital":76,"public share adjusted (5)":97,"total capital cost (2010)":349,"league":"NFL","facility name":"Heins Field","public capital cost (2010)":266,"public cost adjusted (2010)":338,"id":"aagjgozwd07t","geo_precision":"city","state":"PA","location":"Pittsburgh"},"type":"Feature","geometry":{"type":"Point","coordinates":[-80.024817,40.434436]}},{"properties":{"city":"San Diego","geo_score":0.714,"public share capital":72,"public share adjusted (5)":93,"total capital cost (2010)":596,"league":"MLB","facility name":"Petco Park","public capital cost (2010)":430,"public cost adjusted (2010)":552,"id":"aagjgp12wvjb","geo_precision":"city","state":"CA","location":"San Diego"},"type":"Feature","geometry":{"type":"Point","coordinates":[-117.174366,32.7211]}},{"properties":{"city":"San Francisco","geo_score":0.714,"public share capital":14,"public share adjusted (5)":36,"total capital cost (2010)":485,"league":"MLB","facility name":"AT&amp;T Park","public capital cost (2010)":67,"public cost adjusted (2010)":176,"id":"aagjgp7ndqzd","geo_precision":"city","state":"CA","location":"San Francisco"},"type":"Feature","geometry":{"type":"Point","coordinates":[-118.298662,33.786594]}},{"properties":{"city":"San Francisco","geo_score":0.714,"public share capital":100,"public share adjusted (5)":81,"total capital cost (2010)":308,"league":"NFL","facility name":"Candlestick Park","public capital cost (2010)":308,"public cost adjusted (2010)":248,"id":"aagjgp0k9cuk","geo_precision":"city","state":"CA","location":"San Francisco"},"type":"Feature","geometry":{"type":"Point","coordinates":[-118.298662,33.786594]}},{"properties":{"city":"San Diego","geo_score":0.714,"public share capital":89,"public share adjusted (5)":108,"total capital cost (2010)":229,"league":"NFL","facility name":"Qualcomm Stadium","public capital cost (2010)":202,"public cost adjusted (2010)":246,"id":"aagjgp58wgn5","geo_precision":"city","state":"CA","location":"Sand Diego"},"type":"Feature","geometry":{"type":"Point","coordinates":[-117.174366,32.7211]}},{"properties":{"city":"Seattle","geo_score":0.714,"public share capital":76,"public share adjusted (5)":93,"total capital cost (2010)":718,"league":"MLB","facility name":"SafeCo Field","public capital cost (2010)":543,"public cost adjusted (2010)":664,"id":"aagjgp4itm5n","geo_precision":"city","state":"WA","location":"Seattle"},"type":"Feature","geometry":{"type":"Point","coordinates":[-121.803388,47.432251]}},{"properties":{"city":"Seattle","geo_score":0.714,"public share capital":70,"public share adjusted (5)":81,"total capital cost (2010)":560,"league":"NFL/MLS","facility name":"Century Link Field","public capital cost (2010)":391,"public cost adjusted (2010)":455,"id":"aagjgp8fypp6","geo_precision":"city","state":"WA","location":"Seattle"},"type":"Feature","geometry":{"type":"Point","coordinates":[-121.803388,47.432251]}},{"properties":{"city":"Saint Louis","geo_score":0.714,"public share capital":100,"public share adjusted (5)":116,"total capital cost (2010)":462,"league":"NFL","facility name":"Edward Jones Dome","public capital cost (2010)":462,"public cost adjusted (2010)":534,"id":"aagjgovfe46e","geo_precision":"city","state":"MO","location":"St Louis"},"type":"Feature","geometry":{"type":"Point","coordinates":[-92.254481,38.251613]}},{"properties":{"city":"Saint Louis","geo_score":0.714,"public share capital":67,"public share adjusted (5)":32,"total capital cost (2010)":401,"league":"MLB","facility name":"Busch Stadium III","public capital cost (2010)":269,"public cost adjusted (2010)":129,"id":"aagjgp70o4sg","geo_precision":"city","state":"MO","location":"St. Louis"},"type":"Feature","geometry":{"type":"Point","coordinates":[-92.254481,38.251613]}},{"properties":{"city":"Tampa Bay","geo_score":0.714,"public share capital":100,"public share adjusted (5)":126,"total capital cost (2010)":240,"league":"NFL","facility name":"Raymond James Stadium","public capital cost (2010)":240,"public cost adjusted (2010)":302,"id":"aagjgp55wlkk","geo_precision":"city","state":"FL","location":"Tampa Bay"},"type":"Feature","geometry":{"type":"Point","coordinates":[-82.582035,27.996097]}},{"properties":{"city":"Tampa","geo_score":0.714,"public share capital":93,"public share adjusted (5)":131,"total capital cost (2010)":271,"league":"MLB","facility name":"Tropicana Field (R )","public capital cost (2010)":251,"public cost adjusted (2010)":354,"id":"aagjgozce5kh","geo_precision":"city","state":"FL","location":"Tampa/St. Petersburg"},"type":"Feature","geometry":{"type":"Point","coordinates":[-82.582035,27.996097]}},{"properties":{"city":"Landover","geo_score":0.714,"public share capital":28,"public share adjusted (5)":51,"total capital cost (2010)":362,"league":"NFL","facility name":"FedEx Field","public capital cost (2010)":102,"public cost adjusted (2010)":185,"id":"aagjgp5cy6x5","geo_precision":"city","state":"MD","location":"Washington"},"type":"Feature","geometry":{"type":"Point","coordinates":[-76.89664,38.934]}},{"properties":{"city":"Washington","geo_score":0.714,"public share capital":88,"public share adjusted (5)":73,"total capital cost (2010)":721,"league":"MLB","facility name":"Nationals Park","public capital cost (2010)":636,"public cost adjusted (2010)":524,"id":"aagjgp5pi61x","geo_precision":"city","state":"DC","location":"Washington"},"type":"Feature","geometry":{"type":"Point","coordinates":[-77.036366,38.895112]}}],"is_temporal":false,"author":{"url":"","metadata":"","contact_name":"","contact_address":"","source":"","contact_phone":""},"source":"","pagination":{"sort":null,"start":0,"total":70,"limit":1000000},"state":"complete","tags":"","published":"2014-08-16T14:15:03-04:00","id":301188}