{"type":"FeatureCollection","data_type":"Data Feed","url_type":"csv","permissions":[{"permissions":{"download":true,"view":true},"group_id":"everyone"}],"classification":null,"title":"pub?key=0Ahz3aSEfYX0ndGxtaXp1WDRFWmsxdXBINUlYeFlWMEE&amp;single=true&amp;gid=0&amp;output=csv","count":136,"stream_id":301305,"contributor":{"url":"http://geocommons.com/users/40243","name":"drewweber"},"data_attributes":null,"calculation_params":null,"icon_link":null,"link":"http://geocommons.com/overlays/301305.json","extent":[0.0,0.0,0.0,0.0],"geometry_types":null,"unique_name":null,"name":"pub?key=0Ahz3aSEfYX0ndGxtaXp1WDRFWmsxdXBINUlYeFlWMEE&single=true&gid=0&output=csv","feature_count":136,"description":"","next_feature":null,"is_raster":false,"short_classification":"Y","features":[{"properties":{"month":"0","county":"Lancaster, Pennsylvania","year":"102","id":"aagrm3jwqj5e","life":"269"},"type":"Feature","geometry":null},{"properties":{"month":"0","county":"Centre, Pennsylvania","year":"216","id":"aagrm3f6nsip","life":"246"},"type":"Feature","geometry":null},{"properties":{"month":"0","county":"Berks, Pennsylvania","year":"47","id":"aagrm36fnuy3","life":"219"},"type":"Feature","geometry":null},{"properties":{"month":"0","county":"Dauphin, Pennsylvania","year":"62","id":"aagrm3gezvg7","life":"195"},"type":"Feature","geometry":null},{"properties":{"month":"10","county":"Tioga, Pennsylvania","year":"108","id":"aagrm3fzzofm","life":"174"},"type":"Feature","geometry":null},{"properties":{"month":"0","county":"Schuylkill, Pennsylvania","year":"0","id":"aagrm3j1riwe","life":"159"},"type":"Feature","geometry":null},{"properties":{"month":"0","county":"Lebanon, Pennsylvania","year":"40","id":"aagrm39rx88s","life":"156"},"type":"Feature","geometry":null},{"properties":{"month":"0","county":"Chester, Pennsylvania","year":"36","id":"aagrm3i0isri","life":"146"},"type":"Feature","geometry":null},{"properties":{"month":"0","county":"Huntingdon, Pennsylvania","year":"123","id":"aagrm3ddkvc3","life":"146"},"type":"Feature","geometry":null},{"properties":{"month":"0","county":"Cumberland, Pennsylvania","year":"30","id":"aagrm3akcitt","life":"144"},"type":"Feature","geometry":null},{"properties":{"month":"0","county":"Lucas, Ohio","year":"135","id":"aagrm3mhp42a","life":"135"},"type":"Feature","geometry":null},{"properties":{"month":"0","county":"Bedford, Pennsylvania","year":"0","id":"aagrm3g2hah8","life":"122"},"type":"Feature","geometry":null},{"properties":{"month":"0","county":"York, Pennsylvania","year":"0","id":"aagrm3co555t","life":"121"},"type":"Feature","geometry":null},{"properties":{"month":"0","county":"Clinton, Pennsylvania","year":"106","id":"aagrm3dalhpq","life":"116"},"type":"Feature","geometry":null},{"properties":{"month":"0","county":"Westmoreland, Pennsylvania","year":"0","id":"aagrm3d91uy2","life":"116"},"type":"Feature","geometry":null},{"properties":{"month":"0","county":"Perry, Pennsylvania","year":"11","id":"aagrm38nsl72","life":"110"},"type":"Feature","geometry":null},{"properties":{"month":"0","county":"Erie, Pennsylvania","year":"60","id":"aagrm3bmhknz","life":"110"},"type":"Feature","geometry":null},{"properties":{"month":"0","county":"Elkhart, Indiana","year":"0","id":"aagrm3dkplgt","life":"110"},"type":"Feature","geometry":null},{"properties":{"month":"0","county":"Potter, Pennsylvania","year":"0","id":"aagrm3lu5egr","life":"106"},"type":"Feature","geometry":null},{"properties":{"month":"0","county":"Northumberland, Pennsylvania","year":"0","id":"aagrm3hmuthr","life":"106"},"type":"Feature","geometry":null},{"properties":{"month":"0","county":"Clearfield, Pennsylvania","year":"60","id":"aagrm3irib89","life":"96"},"type":"Feature","geometry":null},{"properties":{"month":"0","county":"Columbia, Pennsylvania","year":"0","id":"aagrm3aq79qc","life":"96"},"type":"Feature","geometry":null},{"properties":{"month":"0","county":"Lycoming, Pennsylvania","year":"39","id":"aagrm36mx7xg","life":"93"},"type":"Feature","geometry":null},{"properties":{"month":"0","county":"Montour, Pennsylvania","year":"0","id":"aagrm3c1nwc8","life":"90"},"type":"Feature","geometry":null},{"properties":{"month":"0","county":"Passaic, New Jersey","year":"0","id":"aagrm37gcnx3","life":"83"},"type":"Feature","geometry":null},{"properties":{"month":"0","county":"Juniata, Pennsylvania","year":"12","id":"aagrm37unwpz","life":"82"},"type":"Feature","geometry":null},{"properties":{"month":"0","county":"Ottawa, Ohio","year":"82","id":"aagrm37sa540","life":"82"},"type":"Feature","geometry":null},{"properties":{"month":"0","county":"Snyder, Pennsylvania","year":"0","id":"aagrm3mhpoq7","life":"81"},"type":"Feature","geometry":null},{"properties":{"month":"0","county":"Somerset, Pennsylvania","year":"0","id":"aagrm37i769l","life":"78"},"type":"Feature","geometry":null},{"properties":{"month":"0","county":"Warren, Pennsylvania","year":"0","id":"aagrm39g6ddu","life":"76"},"type":"Feature","geometry":null},{"properties":{"month":"0","county":"Bradford, Pennsylvania","year":"60","id":"aagrm3lmx8iw","life":"74"},"type":"Feature","geometry":null},{"properties":{"month":"0","county":"Elk, Pennsylvania","year":"0","id":"aagrm3d6g8bq","life":"71"},"type":"Feature","geometry":null},{"properties":{"month":"0","county":"Philadelphia, Pennsylvania","year":"0","id":"aagrm37lq8pg","life":"71"},"type":"Feature","geometry":null},{"properties":{"month":"0","county":"Delaware, Pennsylvania","year":"0","id":"aagrm3en689v","life":"70"},"type":"Feature","geometry":null},{"properties":{"month":"0","county":"Indiana, Pennsylvania","year":"0","id":"aagrm3kkz8rr","life":"67"},"type":"Feature","geometry":null},{"properties":{"month":"0","county":"Buffalo, Nebraska","year":"0","id":"aagrm3ey8dvl","life":"67"},"type":"Feature","geometry":null},{"properties":{"month":"0","county":"Franklin, Pennsylvania","year":"35","id":"aagrm3cl5t0l","life":"67"},"type":"Feature","geometry":null},{"properties":{"month":"0","county":"Cape May, New Jersey","year":"0","id":"aagrm3ayh2xl","life":"65"},"type":"Feature","geometry":null},{"properties":{"month":"0","county":"Bucks, Pennsylvania","year":"15","id":"aagrm3ckftvp","life":"63"},"type":"Feature","geometry":null},{"properties":{"month":"0","county":"Island, Washington","year":"0","id":"aagrm3k91jii","life":"63"},"type":"Feature","geometry":null},{"properties":{"month":"0","county":"Sandusky, Ohio","year":"62","id":"aagrm3gyk8sx","life":"62"},"type":"Feature","geometry":null},{"properties":{"month":"0","county":"Hocking, Ohio","year":"0","id":"aagrm38a7v6y","life":"61"},"type":"Feature","geometry":null},{"properties":{"month":"0","county":"Blair, Pennsylvania","year":"51","id":"aagrm38e6oys","life":"61"},"type":"Feature","geometry":null},{"properties":{"month":"0","county":"Union, Pennsylvania","year":"0","id":"aagrm3bvaiwp","life":"61"},"type":"Feature","geometry":null},{"properties":{"month":"0","county":"Osceola, Florida","year":"0","id":"aagrm3ebubd9","life":"60"},"type":"Feature","geometry":null},{"properties":{"month":"0","county":"Fayette, Pennsylvania","year":"0","id":"aagrm3fx2q8k","life":"59"},"type":"Feature","geometry":null},{"properties":{"month":"0","county":"Holmes, Mississippi","year":"0","id":"aagrm3l7214a","life":"59"},"type":"Feature","geometry":null},{"properties":{"month":"0","county":"Lehigh, Pennsylvania","year":"0","id":"aagrm37tw98u","life":"58"},"type":"Feature","geometry":null},{"properties":{"month":"0","county":"Coconino, Arizona","year":"0","id":"aagrm39jhu1v","life":"57"},"type":"Feature","geometry":null},{"properties":{"month":"0","county":"Mifflin, Pennsylvania","year":"2","id":"aagrm35zdkj5","life":"54"},"type":"Feature","geometry":null},{"properties":{"month":"41","county":"Onondaga, New York","year":"41","id":"aagrm3ht3tps","life":"47"},"type":"Feature","geometry":null},{"properties":{"month":"0","county":"Atlantic, New Jersey","year":"0","id":"aagrm3i7ddve","life":"47"},"type":"Feature","geometry":null},{"properties":{"month":"0","county":"Adams, Pennsylvania","year":"0","id":"aagrm3hfsyff","life":"45"},"type":"Feature","geometry":null},{"properties":{"month":"0","county":"Luzerne, Pennsylvania","year":"0","id":"aagrm3aku52l","life":"45"},"type":"Feature","geometry":null},{"properties":{"month":"0","county":"Noble, Indiana","year":"0","id":"aagrm3ftmu3j","life":"43"},"type":"Feature","geometry":null},{"properties":{"month":"0","county":"Cameron, Pennsylvania","year":"0","id":"aagrm3czqcoz","life":"43"},"type":"Feature","geometry":null},{"properties":{"month":"0","county":"Jefferson, Pennsylvania","year":"6","id":"aagrm378qt6e","life":"43"},"type":"Feature","geometry":null},{"properties":{"month":"0","county":"Sullivan, Pennsylvania","year":"0","id":"aagrm3btlz83","life":"42"},"type":"Feature","geometry":null},{"properties":{"month":"0","county":"Carbon, Pennsylvania","year":"0","id":"aagrm3jx6vaj","life":"42"},"type":"Feature","geometry":null},{"properties":{"month":"0","county":"Crawford, Pennsylvania","year":"31","id":"aagrm3eebo6m","life":"41"},"type":"Feature","geometry":null},{"properties":{"month":"0","county":"LaPorte, Indiana","year":"0","id":"aagrm3jaitm6","life":"41"},"type":"Feature","geometry":null},{"properties":{"month":"0","county":"McKean, Pennsylvania","year":"0","id":"aagrm3ht6o7s","life":"40"},"type":"Feature","geometry":null},{"properties":{"month":"0","county":"St. Joseph, Indiana","year":"0","id":"aagrm3i9uhgj","life":"39"},"type":"Feature","geometry":null},{"properties":{"month":"0","county":"Porter, Indiana","year":"0","id":"aagrm3dxns9w","life":"38"},"type":"Feature","geometry":null},{"properties":{"month":"0","county":"Northampton, Pennsylvania","year":"0","id":"aagrm3cgogp0","life":"37"},"type":"Feature","geometry":null},{"properties":{"month":"0","county":"Kearney, Nebraska","year":"0","id":"aagrm36i8m0r","life":"36"},"type":"Feature","geometry":null},{"properties":{"month":"0","county":"Washington, Florida","year":"0","id":"aagrm3kmrahd","life":"35"},"type":"Feature","geometry":null},{"properties":{"month":"0","county":"Chambers, Texas","year":"0","id":"aagrm3g5vvgf","life":"35"},"type":"Feature","geometry":null},{"properties":{"month":"0","county":"Montgomery, Pennsylvania","year":"0","id":"aagrm3hqtogu","life":"35"},"type":"Feature","geometry":null},{"properties":{"month":"0","county":"Fulton, Pennsylvania","year":"8","id":"aagrm3lygvbu","life":"33"},"type":"Feature","geometry":null},{"properties":{"month":"0","county":"Ocean, New Jersey","year":"0","id":"aagrm3h8uvvo","life":"33"},"type":"Feature","geometry":null},{"properties":{"month":"0","county":"Brevard, Florida","year":"0","id":"aagrm381z511","life":"32"},"type":"Feature","geometry":null},{"properties":{"month":"0","county":"Cambria, Pennsylvania","year":"0","id":"aagrm3h6j7tp","life":"31"},"type":"Feature","geometry":null},{"properties":{"month":"0","county":"Lancaster, Nebraska","year":"0","id":"aagrm3frfgpb","life":"30"},"type":"Feature","geometry":null},{"properties":{"month":"0","county":"Ashtabula, Ohio","year":"0","id":"aagrm37l68km","life":"30"},"type":"Feature","geometry":null},{"properties":{"month":"0","county":"Queens, New York","year":"0","id":"aagrm3iwfxvw","life":"30"},"type":"Feature","geometry":null},{"properties":{"month":"0","county":"Monmouth, New Jersey","year":"0","id":"aagrm3fyge7g","life":"29"},"type":"Feature","geometry":null},{"properties":{"month":"0","county":"Clarion, Pennsylvania","year":"23","id":"aagrm3b7o2dt","life":"28"},"type":"Feature","geometry":null},{"properties":{"month":"0","county":"Phelps, Nebraska","year":"0","id":"aagrm3i8lb8b","life":"27"},"type":"Feature","geometry":null},{"properties":{"month":"0","county":"Yavapai, Arizona","year":"0","id":"aagrm382f7wr","life":"27"},"type":"Feature","geometry":null},{"properties":{"month":"0","county":"Cochise, Arizona","year":"0","id":"aagrm3g5twq5","life":"26"},"type":"Feature","geometry":null},{"properties":{"month":"0","county":"Venango, Pennsylvania","year":"0","id":"aagrm3kf1fjp","life":"26"},"type":"Feature","geometry":null},{"properties":{"month":"0","county":"Allegany, Maryland","year":"0","id":"aagrm3an6jrh","life":"26"},"type":"Feature","geometry":null},{"properties":{"month":"3","county":"Schuyler, New York","year":"25","id":"aagrm3gco1tl","life":"25"},"type":"Feature","geometry":null},{"properties":{"month":"0","county":"New York, New York","year":"0","id":"aagrm3m4lrzi","life":"24"},"type":"Feature","geometry":null},{"properties":{"month":"0","county":"Douglas, Nebraska","year":"0","id":"aagrm3aiidog","life":"21"},"type":"Feature","geometry":null},{"properties":{"month":"0","county":"Nassau, New York","year":"0","id":"aagrm3ixgjj8","life":"20"},"type":"Feature","geometry":null},{"properties":{"month":"0","county":"Glacier, Montana","year":"0","id":"aagrm3lfb9sn","life":"19"},"type":"Feature","geometry":null},{"properties":{"month":"0","county":"Wyoming, Pennsylvania","year":"0","id":"aagrm39gtb9w","life":"19"},"type":"Feature","geometry":null},{"properties":{"month":"0","county":"Armstrong, Pennsylvania","year":"19","id":"aagrm3k827j6","life":"19"},"type":"Feature","geometry":null},{"properties":{"month":"0","county":"Erie, Ohio","year":"19","id":"aagrm3brlhly","life":"19"},"type":"Feature","geometry":null},{"properties":{"month":"0","county":"Pima, Arizona","year":"0","id":"aagrm3lv0uvh","life":"17"},"type":"Feature","geometry":null},{"properties":{"month":"0","county":"Nipissing, Ontario","year":"0","id":"aagrm3m464s2","life":"16"},"type":"Feature","geometry":null},{"properties":{"month":"0","county":"Sarpy, Nebraska","year":"0","id":"aagrm38shdr5","life":"16"},"type":"Feature","geometry":null},{"properties":{"month":"0","county":"Mobile, Alabama","year":"0","id":"aagrm3a54w8i","life":"16"},"type":"Feature","geometry":null},{"properties":{"month":"0","county":"Santa Cruz, Arizona","year":"0","id":"aagrm385avcy","life":"15"},"type":"Feature","geometry":null},{"properties":{"month":"0","county":"Custer, Nebraska","year":"0","id":"aagrm3hyrbzh","life":"13"},"type":"Feature","geometry":null},{"properties":{"month":"0","county":"Accomack, Virginia","year":"0","id":"aagrm37tgoju","life":"13"},"type":"Feature","geometry":null},{"properties":{"month":"0","county":"Lorain, Ohio","year":"13","id":"aagrm3h8oqkg","life":"13"},"type":"Feature","geometry":null},{"properties":{"month":"0","county":"Cayuga, New York","year":"13","id":"aagrm3a7dxl8","life":"13"},"type":"Feature","geometry":null},{"properties":{"month":"0","county":"Oswego, New York","year":"0","id":"aagrm3fb6t1j","life":"12"},"type":"Feature","geometry":null},{"properties":{"month":"0","county":"Effingham, Georgia","year":"0","id":"aagrm3ffkhq9","life":"11"},"type":"Feature","geometry":null},{"properties":{"month":"0","county":"Forest, Pennsylvania","year":"0","id":"aagrm3gae8un","life":"11"},"type":"Feature","geometry":null},{"properties":{"month":"0","county":"Seneca, New York","year":"11","id":"aagrm3k2qy05","life":"11"},"type":"Feature","geometry":null},{"properties":{"month":"9","county":"Steuben, New York","year":"11","id":"aagrm3egike1","life":"11"},"type":"Feature","geometry":null},{"properties":{"month":"0","county":"Arapahoe, Colorado","year":"0","id":"aagrm3il6c7n","life":"10"},"type":"Feature","geometry":null},{"properties":{"month":"0","county":"Nassau, Florida","year":"0","id":"aagrm3dgcqh2","life":"10"},"type":"Feature","geometry":null},{"properties":{"month":"0","county":"New Castle, Delaware","year":"0","id":"aagrm3cwm6xj","life":"10"},"type":"Feature","geometry":null},{"properties":{"month":"9","county":"Cortland, New York","year":"9","id":"aagrm3frwg1u","life":"9"},"type":"Feature","geometry":null},{"properties":{"month":"0","county":"Essex, New York","year":"0","id":"aagrm37xek49","life":"9"},"type":"Feature","geometry":null},{"properties":{"month":"0","county":"Toronto, Ontario","year":"0","id":"aagrm3cjquut","life":"8"},"type":"Feature","geometry":null},{"properties":{"month":"0","county":"Orange, Florida","year":"0","id":"aagrm3h2s6i4","life":"7"},"type":"Feature","geometry":null},{"properties":{"month":"0","county":"Orangeburg, South Carolina","year":"0","id":"aagrm3jwplen","life":"7"},"type":"Feature","geometry":null},{"properties":{"month":"0","county":"Summit, Ohio","year":"7","id":"aagrm3gwe4hg","life":"7"},"type":"Feature","geometry":null},{"properties":{"month":"0","county":"Muskoka, Ontario","year":"0","id":"aagrm36s6905","life":"6"},"type":"Feature","geometry":null},{"properties":{"month":"0","county":"El Paso, Colorado","year":"0","id":"aagrm3dxflm7","life":"6"},"type":"Feature","geometry":null},{"properties":{"month":"0","county":"Trumbull, Ohio","year":"6","id":"aagrm3kko968","life":"6"},"type":"Feature","geometry":null},{"properties":{"month":"0","county":"Hamilton, New York","year":"0","id":"aagrm3kkwiqd","life":"6"},"type":"Feature","geometry":null},{"properties":{"month":"0","county":"Wells, Indiana","year":"0","id":"aagrm3a6ro22","life":"6"},"type":"Feature","geometry":null},{"properties":{"month":"0","county":"Larimer, Colorado","year":"0","id":"aagrm38t0edc","life":"5"},"type":"Feature","geometry":null},{"properties":{"month":"0","county":"Portage, Ohio","year":"5","id":"aagrm39waffp","life":"5"},"type":"Feature","geometry":null},{"properties":{"month":"0","county":"Kings, New York","year":"0","id":"aagrm3dqt6fp","life":"5"},"type":"Feature","geometry":null},{"properties":{"month":"0","county":"Cuyahoga, Ohio","year":"4","id":"aagrm3j4mvjo","life":"4"},"type":"Feature","geometry":null},{"properties":{"month":"0","county":"Apache, Arizona","year":"0","id":"aagrm3gfesj3","life":"4"},"type":"Feature","geometry":null},{"properties":{"month":"0","county":"Sussex, Delaware","year":"0","id":"aagrm37k7wjn","life":"3"},"type":"Feature","geometry":null},{"properties":{"month":"0","county":"Hampton, South Carolina","year":"0","id":"aagrm3f9as3r","life":"3"},"type":"Feature","geometry":null},{"properties":{"month":"0","county":"Colleton, South Carolina","year":"0","id":"aagrm3j0447c","life":"3"},"type":"Feature","geometry":null},{"properties":{"month":"0","county":"Crawford, Kansas","year":"0","id":"aagrm3i5w5ta","life":"2"},"type":"Feature","geometry":null},{"properties":{"month":"0","county":"Tompkins, New York","year":"0","id":"aagrm3ddzgyx","life":"2"},"type":"Feature","geometry":null},{"properties":{"month":"0","county":"Clay, Minnesota","year":"0","id":"aagrm3708x45","life":"2"},"type":"Feature","geometry":null},{"properties":{"month":"0","county":"Monroe, Florida","year":"0","id":"aagrm3l67f7j","life":"1"},"type":"Feature","geometry":null},{"properties":{"month":"0","county":"Forrest, Mississippi","year":"0","id":"aagrm35zg0ad","life":"1"},"type":"Feature","geometry":null},{"properties":{"month":"0","county":"Dorchester, South Carolina","year":"0","id":"aagrm3f6v5lq","life":"1"},"type":"Feature","geometry":null},{"properties":{"month":"0","county":"Harrison, Mississippi","year":"0","id":"aagrm3dw86tu","life":"1"},"type":"Feature","geometry":null},{"properties":{"month":"0","county":"Mercer, Pennsylvania","year":"0","id":"aagrm3djbovr","life":"1"},"type":"Feature","geometry":null},{"properties":{"month":"0","county":"Lauderdale, Mississippi","year":"0","id":"aagrm3l7ddsa","life":"1"},"type":"Feature","geometry":null}],"is_temporal":false,"author":{"url":"","metadata":null,"contact_name":null,"contact_address":null,"source":null,"contact_phone":null},"source":"","pagination":{"sort":null,"start":0,"total":136,"limit":1000000},"state":"parsed","tags":"","published":"2014-08-16T14:16:48-04:00","id":301305}