{"type":"FeatureCollection","data_type":"Dataset","url_type":null,"permissions":[{"permissions":{"download":true,"view":true},"group_id":"everyone"}],"classification":null,"title":"FY12 TTT","count":17,"stream_id":301751,"contributor":{"url":"http://geocommons.com/users/51639","name":"kcbacksnack"},"data_attributes":null,"calculation_params":null,"icon_link":null,"link":"http://geocommons.com/overlays/301751.json","extent":[-94.8529,38.8633,-94.3794,39.2266],"geometry_types":["point"],"unique_name":null,"name":"FY12 TTT","feature_count":17,"description":"","next_feature":null,"is_raster":false,"short_classification":"Y","stats":{},"features":[{"properties":{"city":"Kansas City","zip":"64132","st.":"MO","county":"JACKSON","geo_score":0.902,"pgm host name":"Hosanna Missionary Baptist Church","pgm type":"Kids in the Kitchen","id":"aai91237151i","address":"4027 East 67th Street","geo_precision":"range"},"type":"Feature","geometry":{"type":"Point","coordinates":[-94.538176,39.004388]}},{"properties":{"city":"Olathe","zip":"66062","st.":"KS","county":"JOHNSON","geo_score":0.724,"pgm host name":"Liberty View Elementary","pgm type":"Kids in the Kitchen","id":"aai911qco7qs","address":"14800 South Greenwood Street","geo_precision":"street"},"type":"Feature","geometry":{"type":"Point","coordinates":[-94.750183,38.863282]}},{"properties":{"city":"Overland Park","zip":"66212","st.":"KS","county":"JOHNSON","geo_score":0.342,"pgm host name":"Oak Grove Elementary","pgm type":"Kids in the Kitchen","id":"aai911vcq4kh","address":"5340 Oak Grove Road","geo_precision":"street"},"type":"Feature","geometry":{"type":"Point","coordinates":[-94.852916,39.045426]}},{"properties":{"city":"Lenexa","zip":"66213","st.":"KS","county":"JOHNSON","geo_score":0.818,"pgm host name":"Oak Hill Elementary","pgm type":"Kids in the Kitchen","id":"aai911ykbp4o","address":"10200 West 124th Street","geo_precision":"range"},"type":"Feature","geometry":{"type":"Point","coordinates":[-94.70407,38.903927]}},{"properties":{"city":"Kansas City","zip":"64151","st.":"MO","county":"PLATTE","geo_score":0.87,"pgm host name":"Platte Woods United Methodist Church","pgm type":"Kids in the Kitchen","id":"aai911ykuwk5","address":"7310 NW Prairie View Road","geo_precision":"range"},"type":"Feature","geometry":{"type":"Point","coordinates":[-94.653968,39.226638]}},{"properties":{"city":"Leawood","zip":"66224","st.":"KS","county":"JOHNSON","geo_score":0.824,"pgm host name":"Prairie Star Elementary","pgm type":"Kids in the Kitchen","id":"aai9120fueat","address":"3800 West 143rd Street","geo_precision":"range"},"type":"Feature","geometry":{"type":"Point","coordinates":[-94.626966,38.869259]}},{"properties":{"city":"Kansas City","zip":"66103","st.":"KS","county":"WYANDOTTE","geo_score":0.902,"pgm host name":"Rosedale Healthy Kids Initiative","pgm type":"Kids in the Kitchen","id":"aai911vff7hm","address":"4326 Lloyd Street","geo_precision":"range"},"type":"Feature","geometry":{"type":"Point","coordinates":[-94.617743,39.048475]}},{"properties":{"city":"Lees Summit","zip":"64081-","st.":"MO","county":"JACKSON","geo_score":0.902,"pgm host name":"Abundant Life Baptist Church","pgm type":"Project Strength","id":"aai911rwlknf","address":"414 SW Persels Road","geo_precision":"range"},"type":"Feature","geometry":{"type":"Point","coordinates":[-94.379373,38.896308]}},{"properties":{"city":"Kansas City","zip":"66106","st.":"KS","county":"WYANDOTTE","geo_score":0.805,"pgm host name":"Chelsea Plaza","pgm type":"Project Strength","id":"aai911ts0jrx","address":"566 Freeman Court","geo_precision":"range"},"type":"Feature","geometry":{"type":"Point","coordinates":[-94.625261,39.121821]}},{"properties":{"city":"Kansas City","zip":"64108","st.":"MO","county":"JACKSON","geo_score":0.823,"pgm host name":"Family Focus Center","pgm type":"Project Strength","id":"aai911ue29md","address":"1829 Madison Street","geo_precision":"range"},"type":"Feature","geometry":{"type":"Point","coordinates":[-94.59461,39.089956]}},{"properties":{"city":"Kansas City","zip":"66102","st.":"KS","county":"WYANDOTTE","geo_score":0.902,"pgm host name":"Grandview Park Presbyterian Church","pgm type":"Project Strength","id":"aai911zgue08","address":"1613 Wilson Boulevard","geo_precision":"range"},"type":"Feature","geometry":{"type":"Point","coordinates":[-94.648085,39.104029]}},{"properties":{"city":"Kansas City","zip":"64130","st.":"MO","county":"JACKSON","geo_score":0.902,"pgm host name":"Paraclete Manor","pgm type":"Project Strength","id":"aai911waicrk","address":"4725 Prospect Avenue","geo_precision":"range"},"type":"Feature","geometry":{"type":"Point","coordinates":[-94.554368,39.039404]}},{"properties":{"city":"Merriam","zip":"66204","st.":"KS","county":"JOHNSON","geo_score":0.714,"pgm host name":"Safe Home, Inc.","pgm type":"Project Strength","id":"aai911v4ma8s","address":"PO Box 4563","geo_precision":"zip"},"type":"Feature","geometry":{"type":"Point","coordinates":[-94.683188,38.974815]}},{"properties":{"city":"Kansas City","zip":"64127-","st.":"MO","county":"JACKSON","geo_score":0.902,"pgm host name":"Sheffield Family Life Center","pgm type":"Project Strength","id":"aai9123apm67","address":"5700 Winner Road","geo_precision":"range"},"type":"Feature","geometry":{"type":"Point","coordinates":[-94.515312,39.100996]}},{"properties":{"city":"Kansas City","zip":"64111-","st.":"MO","county":"JACKSON","geo_score":0.857,"pgm host name":"Ozanam Pathways","pgm type":"Teens","id":"aai911pfzrn4","address":"3100 Main Street, Suite 206","geo_precision":"street"},"type":"Feature","geometry":{"type":"Point","coordinates":[-94.58532,39.071031]}},{"properties":{"city":"Kansas City","zip":"64151","st.":"MO","county":"PLATTE","geo_score":0.87,"pgm host name":"Platte Woods United Methodist Church","pgm type":"Teens","id":"aai911tfoofy","address":"7310 NW Prairie View Road","geo_precision":"range"},"type":"Feature","geometry":{"type":"Point","coordinates":[-94.653968,39.226638]}},{"properties":{"city":"Kansas City","zip":"64131","st.":"MO","county":"JACKSON","geo_score":0.902,"pgm host name":"University Academy","pgm type":"Teens","id":"aai911wbimxq","address":"6801 Holmes Road","geo_precision":"range"},"type":"Feature","geometry":{"type":"Point","coordinates":[-94.57972,39.002618]}}],"is_temporal":false,"author":{"url":"","metadata":"","contact_name":"","contact_address":"","source":"","contact_phone":""},"source":"","pagination":{"sort":null,"start":0,"total":17,"limit":1000000},"state":"complete","tags":"","published":"2014-08-16T14:53:00-04:00","id":301751}