{"type":"FeatureCollection","data_type":"Dataset","url_type":null,"permissions":[{"permissions":{"download":true,"view":true},"group_id":"everyone"}],"classification":null,"title":"US Forestry Fire Resources NC","count":9,"stream_id":301904,"contributor":{"url":"http://geocommons.com/users/57079","name":"firenews"},"data_attributes":null,"calculation_params":null,"icon_link":null,"link":"http://geocommons.com/overlays/301904.json","extent":[-84.03,34.9918,-76.9797,35.9153],"geometry_types":["point"],"unique_name":null,"name":"US Forestry Fire Resources NC","feature_count":9,"description":"","next_feature":null,"is_raster":false,"short_classification":"Y","stats":{"latitude":{"max":35.915291,"mean":35.3818637777778,"variance":0.0913586052439451,"stdev":0.302255860561785,"median":35.335639,"min":34.991786},"id":{"max":13721,"mean":11823.2222222222,"variance":8340797.69444444,"stdev":2888.04392183437,"median":13697,"min":7242},"longitude":{"max":-76.979683,"mean":-81.956195,"variance":5.0170084878335,"stdev":2.23986796214275,"median":-82.568857,"min":-84.030022}},"features":[{"properties":{"name":"USFS - Croatan National Forest","latitude":34.991786,"county":"Craven","id":"aaiiyltn0z50","longitude":-76.979683,"address":"141 East Fisher Ave, \nNew Bern, NC 28560"},"type":"Feature","geometry":{"type":"Point","coordinates":[-76.979683,34.991786]}},{"properties":{"name":"USFS - Headquartes for US National Forests in NC","latitude":35.612267,"county":"Buncombe","id":"aaiiylja3uck","longitude":-82.568857,"address":"160-A Zillicoa St, \nAsheville, NC 28801"},"type":"Feature","geometry":{"type":"Point","coordinates":[-82.568857,35.612267]}},{"properties":{"name":"USFS - Nantahala National Forest Nantahala Ranger Station","latitude":35.169966,"county":"Macon","id":"aaiiyljcqw7t","longitude":-83.407005,"address":"90 Sloan Rd, \nFranklin, NC"},"type":"Feature","geometry":{"type":"Point","coordinates":[-83.407005,35.169966]}},{"properties":{"name":"USFS - Nantahala National Forest Service Cheoah Ranger Station","latitude":35.335639,"county":"Graham","id":"aaiiylivdsur","longitude":-83.827072,"address":"1070 Massey Branch Rd, \nRobbinsville, NC 28771"},"type":"Feature","geometry":{"type":"Point","coordinates":[-83.827072,35.335639]}},{"properties":{"name":"USFS - Nantahala National Forest Tusquitee Ranger Station","latitude":35.079496,"county":"Cherokee","id":"aaiiylgcsbe7","longitude":-84.030022,"address":"123 Woodland Drive, \nMurphy, NC"},"type":"Feature","geometry":{"type":"Point","coordinates":[-84.030022,35.079496]}},{"properties":{"name":"USFS - Pisgah National Forest Appalachian Ranger Station","latitude":35.915291,"county":"Yancey","id":"aaiiylqgp3ka","longitude":-82.296626,"address":"US Hwy 19 E, \nBurnsville, NC"},"type":"Feature","geometry":{"type":"Point","coordinates":[-82.296626,35.915291]}},{"properties":{"name":"USFS - Pisgah National Forest Grandfather Ranger Station","latitude":35.686274,"county":"Alexander","id":"aaiiyliqps2o","longitude":-81.910848,"address":"109 E Lawing Dr, \nNebo, NC 28761"},"type":"Feature","geometry":{"type":"Point","coordinates":[-81.910848,35.686274]}},{"properties":{"name":"USFS - Pisgah National Forest Pisgah Ranger Station","latitude":35.284135,"county":"Transylvania","id":"aaiiylgo1bdk","longitude":-82.723061,"address":"1001 Pisgah Hwy, \nPisgah Forest, NC 28768"},"type":"Feature","geometry":{"type":"Point","coordinates":[-82.723061,35.284135]}},{"properties":{"name":"USFS - Uwharrie National Forest","latitude":35.36192,"county":"Montgomery","id":"aaiiylpafug7","longitude":-79.862581,"address":"789 NC Hwy 24/27 East, \nTroy, NC 27371"},"type":"Feature","geometry":{"type":"Point","coordinates":[-79.862581,35.36192]}}],"is_temporal":false,"author":{"url":"","metadata":"","contact_name":"","contact_address":"","source":"","contact_phone":""},"source":"","pagination":{"sort":null,"start":0,"total":9,"limit":1000000},"state":"complete","tags":"","published":"2014-08-16T15:07:10-04:00","id":301904}