{"type":"FeatureCollection","data_type":"Dataset","url_type":null,"permissions":[{"permissions":{"download":true,"view":true},"group_id":"everyone"}],"classification":null,"title":"Fairfield_Residential_Updated","count":29,"stream_id":302502,"contributor":{"url":"http://geocommons.com/users/56179","name":"brian5635"},"data_attributes":null,"calculation_params":null,"icon_link":null,"link":"http://geocommons.com/overlays/302502.json","extent":[-122.729,32.7827,-117.008,38.5512],"geometry_types":["point"],"unique_name":null,"name":"Fairfield_Residential_Updated","feature_count":29,"description":"","next_feature":null,"is_raster":false,"short_classification":"Y","stats":{},"features":[{"properties":{"property name":"Alta Vista","city":"Escondido","zip":"92026","geo_score":0.961,"id":"aajjqz65gknc","address":"1245 Morning View Drive","geo_precision":"range","state":"CA"},"type":"Feature","geometry":{"type":"Point","coordinates":[-117.09699,33.138866]}},{"properties":{"property name":"Alterra","city":"La Mesa","zip":"91942","geo_score":1.0,"id":"aajjqz7m91wy","address":"8727 Fletcher Parkway","geo_precision":"range","state":"CA"},"type":"Feature","geometry":{"type":"Point","coordinates":[-117.011568,32.782719]}},{"properties":{"property name":"Avenel","city":"San Jose","zip":"95133","geo_score":1.0,"id":"aajjqz585646","address":"750 North King Road","geo_precision":"range","state":"CA"},"type":"Feature","geometry":{"type":"Point","coordinates":[-121.86918,37.366648]}},{"properties":{"property name":"Avery Park","city":"Fairfield","zip":"94533","geo_score":1.0,"id":"aajjqz822wcy","address":"2000 Clay Bank Rd.","geo_precision":"range","state":"CA"},"type":"Feature","geometry":{"type":"Point","coordinates":[-122.007228,38.265181]}},{"properties":{"property name":"Baycliff","city":"Richmond","zip":"94806","geo_score":0.938,"id":"aajjqz6hzlnr","address":"2300 Lancaster Drive","geo_precision":"range","state":"CA"},"type":"Feature","geometry":{"type":"Point","coordinates":[-122.341631,37.973527]}},{"properties":{"property name":"Belmont","city":"Pittsburg","zip":"94565","geo_score":1.0,"id":"aajjqzieop6g","address":"1010 Power Ave.","geo_precision":"range","state":"CA"},"type":"Feature","geometry":{"type":"Point","coordinates":[-121.906554,38.022668]}},{"properties":{"property name":"Bennington","city":"Fairfield","zip":"94533","geo_score":0.585,"id":"aajjqzd1j0kq","address":"2780 N Texas St.","geo_precision":"zip","state":"CA"},"type":"Feature","geometry":{"type":"Point","coordinates":[-122.020276,38.278428]}},{"properties":{"property name":"Bristol","city":"Dixon","zip":"95620","geo_score":0.68,"id":"aajjqzk7453x","address":"1550 Valley Glen Dr.","geo_precision":"street","state":"CA"},"type":"Feature","geometry":{"type":"Point","coordinates":[-121.826378,38.465719]}},{"properties":{"property name":"Canyon Rim","city":"San Diego","zip":"92129","geo_score":1.0,"id":"aajjqz9fyesz","address":"10845 Via Los Narcisos","geo_precision":"range","state":"CA"},"type":"Feature","geometry":{"type":"Point","coordinates":[-117.095644,32.97373]}},{"properties":{"property name":"Cerano (New const open Aug/2012)","city":"Milpitas","zip":"95035","geo_score":1.0,"id":"aajjqzkj5qbr","address":"501 Murphy Ranch Road","geo_precision":"range","state":"CA"},"type":"Feature","geometry":{"type":"Point","coordinates":[-121.927025,37.419793]}},{"properties":{"property name":"Dakota","city":"Winchester","zip":"92596","geo_score":0.805,"id":"aajjqz8wl616","address":"34875 Pourroy Road","geo_precision":"street","state":"CA"},"type":"Feature","geometry":{"type":"Point","coordinates":[-117.101074,33.601771]}},{"properties":{"property name":"Ellington","city":"Davis","zip":"95618","geo_score":0.913,"id":"aajjqz5kmra0","address":"4849 El Cemonte Ave.","geo_precision":"range","state":"CA"},"type":"Feature","geometry":{"type":"Point","coordinates":[-121.691323,38.551216]}},{"properties":{"property name":"Maribelle","city":"Santa Rosa","zip":"95401","geo_score":1.0,"id":"aajjqzi1ad79","address":"750 Apple Creek Ln.","geo_precision":"range","state":"CA"},"type":"Feature","geometry":{"type":"Point","coordinates":[-122.728699,38.433901]}},{"properties":{"property name":"Milano","city":"Torrance","zip":"90503","geo_score":1.0,"id":"aajjqz6hlq46","address":"20900 Anza Avenue","geo_precision":"range","state":"CA"},"type":"Feature","geometry":{"type":"Point","coordinates":[-118.362276,33.840446]}},{"properties":{"property name":"Muirlands","city":"San Ramon","zip":"94582","geo_score":0.61,"id":"aajjqzhs7pdu","address":"1108 Crestfield Drive","geo_precision":"street","state":"CA"},"type":"Feature","geometry":{"type":"Point","coordinates":[-122.036992,37.683596]}},{"properties":{"property name":"Pravada","city":"La Mesa","zip":"91942","geo_score":1.0,"id":"aajjqzkmneg7","address":"8625 Fletcher Parkway","geo_precision":"range","state":"CA"},"type":"Feature","geometry":{"type":"Point","coordinates":[-117.007912,32.784199]}},{"properties":{"property name":"Rancho Corrales","city":"Simi Valley","zip":"93065","geo_score":1.0,"id":"aajjqzdys24v","address":"643 Country Club Dr.","geo_precision":"range","state":"CA"},"type":"Feature","geometry":{"type":"Point","coordinates":[-118.815758,34.251577]}},{"properties":{"property name":"Sierra del Oro","city":"Corona","zip":"92882","geo_score":1.0,"id":"aajjqziugj76","address":"1456 Serfas Club Drive","geo_precision":"range","state":"CA"},"type":"Feature","geometry":{"type":"Point","coordinates":[-117.623286,33.86968]}},{"properties":{"property name":"Stratton","city":"San Diego","zip":"92111","geo_score":0.512,"id":"aajjqzhl8eyj","address":"3884 1/2 Caminito Aguilar","geo_precision":"street","state":"CA"},"type":"Feature","geometry":{"type":"Point","coordinates":[-117.17669,32.817158]}},{"properties":{"property name":"Summerlyn","city":"Poway","zip":"92064","geo_score":1.0,"id":"aajjqzf2iggc","address":"13409 Midland Road","geo_precision":"range","state":"CA"},"type":"Feature","geometry":{"type":"Point","coordinates":[-117.036368,32.958975]}},{"properties":{"property name":"Thornbridge","city":"San Jose","zip":"95111","geo_score":0.708,"id":"aajjqzieljzz","address":"5210 Monterey Road","geo_precision":"street","state":"CA"},"type":"Feature","geometry":{"type":"Point","coordinates":[-121.79386,37.250503]}},{"properties":{"property name":"Trestles","city":"San Jose","zip":"95126","geo_score":1.0,"id":"aajjqzcy8f4c","address":"1566 Scott St.","geo_precision":"range","state":"CA"},"type":"Feature","geometry":{"type":"Point","coordinates":[-121.919377,37.319578]}},{"properties":{"property name":"Turnleaf","city":"San Jose","zip":"95117","geo_score":1.0,"id":"aajjqzb19gu2","address":"3201 Loma Verde Drive","geo_precision":"range","state":"CA"},"type":"Feature","geometry":{"type":"Point","coordinates":[-121.954389,37.298871]}},{"properties":{"property name":"Verdant (New Const Open 8/2013)","city":"San Jose","zip":"95134","geo_score":0.526,"id":"aajjqzeyzgq8","address":"3700 Casa Verde","geo_precision":"street","state":"CA"},"type":"Feature","geometry":{"type":"Point","coordinates":[-121.989695,37.318657]}},{"properties":{"property name":"Walden Glen","city":"Buena Park","zip":"90621","geo_score":1.0,"id":"aajjqzea54tx","address":"6664 Knott Ave","geo_precision":"range","state":"CA"},"type":"Feature","geometry":{"type":"Point","coordinates":[-118.011065,33.863295]}},{"properties":{"property name":"Waterstone","city":"Tracy","zip":"95377","geo_score":0.585,"id":"aajjqz5txn8e","address":"1951 W Middlefield Dr.","geo_precision":"zip","state":"CA"},"type":"Feature","geometry":{"type":"Point","coordinates":[-121.444621,37.724331]}},{"properties":{"property name":"Westbrook","city":"San Diego","zip":"92126","geo_score":0.585,"id":"aajjqzfimb2n","address":"7194 Schilling Ave","geo_precision":"zip","state":"CA"},"type":"Feature","geometry":{"type":"Point","coordinates":[-117.144916,32.899613]}},{"properties":{"property name":"Westchester Park","city":"Tustin","zip":"92780","geo_score":1.0,"id":"aajjqzkjoz4j","address":"1602 Nisson Rd","geo_precision":"range","state":"CA"},"type":"Feature","geometry":{"type":"Point","coordinates":[-117.811795,33.73045]}},{"properties":{"property name":"Wyndover","city":"Novato","zip":"94947","geo_score":1.0,"id":"aajjqzi25f5g","address":"809 Diablo Ave.","geo_precision":"range","state":"CA"},"type":"Feature","geometry":{"type":"Point","coordinates":[-122.573444,38.103002]}}],"is_temporal":false,"author":{"url":"","metadata":null,"contact_name":null,"contact_address":null,"source":null,"contact_phone":null},"source":"","pagination":{"sort":null,"start":0,"total":29,"limit":1000000},"state":"complete","tags":"","published":"2014-08-16T15:57:58-04:00","id":302502}