{"type":"FeatureCollection","data_type":"Dataset Analysis","url_type":null,"permissions":[{"permissions":{"download":true,"view":true},"group_id":"everyone"}],"classification":null,"title":"Intersection of 'hispanic zip codees 2012' and 'hispanic zip codees 2012 at&amp;T park'","count":72,"stream_id":303011,"contributor":{"url":"http://geocommons.com/users/41433","name":"kishorehari"},"data_attributes":null,"calculation_params":{"input":{"columns":[{"id":"303008"},{"id":"303009"}],"merge":"prefer_1"},"calculation":"intersect"},"icon_link":null,"link":"http://geocommons.com/overlays/303011.json","extent":[-122.563,36.8694,-121.282,38.5544],"geometry_types":["point"],"unique_name":null,"name":"Intersection of 'hispanic zip codees 2012' and 'hispanic zip codees 2012 at&T park'","feature_count":72,"description":"Dataset created by the intersection of 1) hispanic zip codees 2012 and 2) hispanic zip codees 2012 at&amp;T park","next_feature":null,"is_raster":false,"short_classification":"Y","stats":{"zip_code":{"max":null,"median":null,"min":null},"geo_score":{"max":0.714,"mean":0.713999999999999,"variance":7.99971622195956e-31,"stdev":8.9441132718451e-16,"median":0.714,"min":0.714},"frequency":{"max":6,"mean":1.54166666666667,"variance":0.786971830985915,"stdev":0.887114328024249,"median":1,"min":1}},"features":[{"properties":{"zip_code":"94003","geo_score":0.714,"id":"aakaqknj3172","geo_precision":"zip","frequency":1},"type":"Feature","geometry":{"type":"Point","coordinates":[-122.334825,37.381144]}},{"properties":{"zip_code":"94014","geo_score":0.714,"id":"aakaqkkba5ct","geo_precision":"zip","frequency":4},"type":"Feature","geometry":{"type":"Point","coordinates":[-122.459695,37.676878]}},{"properties":{"zip_code":"94015","geo_score":0.714,"id":"aakaqkm6umi7","geo_precision":"zip","frequency":2},"type":"Feature","geometry":{"type":"Point","coordinates":[-122.475234,37.676864]}},{"properties":{"zip_code":"94041","geo_score":0.714,"id":"aakaqkgmwz1p","geo_precision":"zip","frequency":1},"type":"Feature","geometry":{"type":"Point","coordinates":[-121.705327,37.189396]}},{"properties":{"zip_code":"94041","geo_score":0.714,"id":"aakaqkgmwz1p","geo_precision":"zip","frequency":1},"type":"Feature","geometry":{"type":"Point","coordinates":[-121.705327,37.189396]}},{"properties":{"zip_code":"94041","geo_score":0.714,"id":"aakaqkgmwz1p","geo_precision":"zip","frequency":1},"type":"Feature","geometry":{"type":"Point","coordinates":[-121.705327,37.189396]}},{"properties":{"zip_code":"94080","geo_score":0.714,"id":"aakaqkmx07on","geo_precision":"zip","frequency":3},"type":"Feature","geometry":{"type":"Point","coordinates":[-122.411361,37.638546]}},{"properties":{"zip_code":"94086","geo_score":0.714,"id":"aakaqkr25hr6","geo_precision":"zip","frequency":2},"type":"Feature","geometry":{"type":"Point","coordinates":[-121.705327,37.189396]}},{"properties":{"zip_code":"94086","geo_score":0.714,"id":"aakaqkr25hr6","geo_precision":"zip","frequency":2},"type":"Feature","geometry":{"type":"Point","coordinates":[-121.705327,37.189396]}},{"properties":{"zip_code":"94086","geo_score":0.714,"id":"aakaqkr25hr6","geo_precision":"zip","frequency":2},"type":"Feature","geometry":{"type":"Point","coordinates":[-121.705327,37.189396]}},{"properties":{"zip_code":"94087","geo_score":0.714,"id":"aakaqkp61asg","geo_precision":"zip","frequency":1},"type":"Feature","geometry":{"type":"Point","coordinates":[-121.705327,37.189396]}},{"properties":{"zip_code":"94087","geo_score":0.714,"id":"aakaqkp61asg","geo_precision":"zip","frequency":1},"type":"Feature","geometry":{"type":"Point","coordinates":[-121.705327,37.189396]}},{"properties":{"zip_code":"94087","geo_score":0.714,"id":"aakaqkp61asg","geo_precision":"zip","frequency":1},"type":"Feature","geometry":{"type":"Point","coordinates":[-121.705327,37.189396]}},{"properties":{"zip_code":"94107","geo_score":0.714,"id":"aakaqkmgtxp4","geo_precision":"zip","frequency":1},"type":"Feature","geometry":{"type":"Point","coordinates":[-122.393681,37.769029]}},{"properties":{"zip_code":"94109","geo_score":0.714,"id":"aakaqksv5hdj","geo_precision":"zip","frequency":2},"type":"Feature","geometry":{"type":"Point","coordinates":[-122.420782,37.795219]}},{"properties":{"zip_code":"94110","geo_score":0.714,"id":"aakaqksukfvm","geo_precision":"zip","frequency":3},"type":"Feature","geometry":{"type":"Point","coordinates":[-122.416281,37.748932]}},{"properties":{"zip_code":"94112","geo_score":0.714,"id":"aakaqkmbsklm","geo_precision":"zip","frequency":1},"type":"Feature","geometry":{"type":"Point","coordinates":[-122.439382,37.721981]}},{"properties":{"zip_code":"94122","geo_score":0.714,"id":"aakaqks6trnr","geo_precision":"zip","frequency":2},"type":"Feature","geometry":{"type":"Point","coordinates":[-122.475732,37.761179]}},{"properties":{"zip_code":"94124","geo_score":0.714,"id":"aakaqklm260v","geo_precision":"zip","frequency":3},"type":"Feature","geometry":{"type":"Point","coordinates":[-122.382857,37.73123]}},{"properties":{"zip_code":"94131","geo_score":0.714,"id":"aakaqki0ia49","geo_precision":"zip","frequency":2},"type":"Feature","geometry":{"type":"Point","coordinates":[-122.443182,37.74363]}},{"properties":{"zip_code":"94134","geo_score":0.714,"id":"aakaqkrjt8yo","geo_precision":"zip","frequency":1},"type":"Feature","geometry":{"type":"Point","coordinates":[-122.410832,37.72168]}},{"properties":{"zip_code":"94304","geo_score":0.714,"id":"aakaqktnngfi","geo_precision":"zip","frequency":1},"type":"Feature","geometry":{"type":"Point","coordinates":[-121.705327,37.189396]}},{"properties":{"zip_code":"94304","geo_score":0.714,"id":"aakaqktnngfi","geo_precision":"zip","frequency":1},"type":"Feature","geometry":{"type":"Point","coordinates":[-121.705327,37.189396]}},{"properties":{"zip_code":"94304","geo_score":0.714,"id":"aakaqktnngfi","geo_precision":"zip","frequency":1},"type":"Feature","geometry":{"type":"Point","coordinates":[-121.705327,37.189396]}},{"properties":{"zip_code":"94510","geo_score":0.714,"id":"aakaqknlqwvo","geo_precision":"zip","frequency":1},"type":"Feature","geometry":{"type":"Point","coordinates":[-122.032061,38.1012]}},{"properties":{"zip_code":"94538","geo_score":0.714,"id":"aakaqkosn07h","geo_precision":"zip","frequency":1},"type":"Feature","geometry":{"type":"Point","coordinates":[-121.95832,37.509453]}},{"properties":{"zip_code":"94540","geo_score":0.714,"id":"aakaqkp0yq6w","geo_precision":"zip","frequency":1},"type":"Feature","geometry":{"type":"Point","coordinates":[-121.921498,37.680181]}},{"properties":{"zip_code":"94549","geo_score":0.714,"id":"aakaqkr6ziyz","geo_precision":"zip","frequency":1},"type":"Feature","geometry":{"type":"Point","coordinates":[-122.120089,37.901223]}},{"properties":{"zip_code":"94553","geo_score":0.714,"id":"aakaqkljykb9","geo_precision":"zip","frequency":2},"type":"Feature","geometry":{"type":"Point","coordinates":[-122.075241,37.983533]}},{"properties":{"zip_code":"94564","geo_score":0.714,"id":"aakaqkrt21na","geo_precision":"zip","frequency":1},"type":"Feature","geometry":{"type":"Point","coordinates":[-122.243294,37.990772]}},{"properties":{"zip_code":"94568","geo_score":0.714,"id":"aakaqkjrf4l8","geo_precision":"zip","frequency":1},"type":"Feature","geometry":{"type":"Point","coordinates":[-121.988017,38.041309]}},{"properties":{"zip_code":"94577","geo_score":0.714,"id":"aakaqkhbdyjx","geo_precision":"zip","frequency":1},"type":"Feature","geometry":{"type":"Point","coordinates":[-122.158621,37.715629]}},{"properties":{"zip_code":"94585","geo_score":0.714,"id":"aakaqkmjhxcz","geo_precision":"zip","frequency":1},"type":"Feature","geometry":{"type":"Point","coordinates":[-121.849958,38.076864]}},{"properties":{"zip_code":"94587","geo_score":0.714,"id":"aakaqkoruw2j","geo_precision":"zip","frequency":1},"type":"Feature","geometry":{"type":"Point","coordinates":[-121.97362,37.589084]}},{"properties":{"zip_code":"94589","geo_score":0.714,"id":"aakaqkrzerxe","geo_precision":"zip","frequency":1},"type":"Feature","geometry":{"type":"Point","coordinates":[-122.280383,38.158221]}},{"properties":{"zip_code":"94590","geo_score":0.714,"id":"aakaqkm7eak5","geo_precision":"zip","frequency":2},"type":"Feature","geometry":{"type":"Point","coordinates":[-122.25328,38.096719]}},{"properties":{"zip_code":"94591","geo_score":0.714,"id":"aakaqki25a2x","geo_precision":"zip","frequency":2},"type":"Feature","geometry":{"type":"Point","coordinates":[-122.206292,38.114249]}},{"properties":{"zip_code":"94601","geo_score":0.714,"id":"aakaqkt1ih1p","geo_precision":"zip","frequency":3},"type":"Feature","geometry":{"type":"Point","coordinates":[-122.223779,37.786027]}},{"properties":{"zip_code":"94603","geo_score":0.714,"id":"aakaqkq4u1l3","geo_precision":"zip","frequency":1},"type":"Feature","geometry":{"type":"Point","coordinates":[-122.198428,37.761778]}},{"properties":{"zip_code":"94605","geo_score":0.714,"id":"aakaqkqnp46a","geo_precision":"zip","frequency":6},"type":"Feature","geometry":{"type":"Point","coordinates":[-122.156626,37.759322]}},{"properties":{"zip_code":"94606","geo_score":0.714,"id":"aakaqki053kc","geo_precision":"zip","frequency":2},"type":"Feature","geometry":{"type":"Point","coordinates":[-122.243979,37.789927]}},{"properties":{"zip_code":"94611","geo_score":0.714,"id":"aakaqku4oa2m","geo_precision":"zip","frequency":1},"type":"Feature","geometry":{"type":"Point","coordinates":[-122.231635,37.824372]}},{"properties":{"zip_code":"94658","geo_score":0.714,"id":"aakaqkmun9e0","geo_precision":"zip","frequency":1},"type":"Feature","geometry":{"type":"Point","coordinates":[-122.270803,37.804372]}},{"properties":{"zip_code":"94706","geo_score":0.714,"id":"aakaqkjmawsc","geo_precision":"zip","frequency":1},"type":"Feature","geometry":{"type":"Point","coordinates":[-122.29828,37.889525]}},{"properties":{"zip_code":"94801","geo_score":0.714,"id":"aakaqkizdnnp","geo_precision":"zip","frequency":3},"type":"Feature","geometry":{"type":"Point","coordinates":[-122.367471,37.958813]}},{"properties":{"zip_code":"94803","geo_score":0.714,"id":"aakaqkh6kco5","geo_precision":"zip","frequency":1},"type":"Feature","geometry":{"type":"Point","coordinates":[-122.206177,37.966422]}},{"properties":{"zip_code":"94925","geo_score":0.714,"id":"aakaqkpshmn3","geo_precision":"zip","frequency":1},"type":"Feature","geometry":{"type":"Point","coordinates":[-122.512035,37.925039]}},{"properties":{"zip_code":"94941","geo_score":0.714,"id":"aakaqksj57w8","geo_precision":"zip","frequency":1},"type":"Feature","geometry":{"type":"Point","coordinates":[-122.562937,37.886325]}},{"properties":{"zip_code":"95023","geo_score":0.714,"id":"aakaqku4fj2p","geo_precision":"zip","frequency":1},"type":"Feature","geometry":{"type":"Point","coordinates":[-121.400491,36.869398]}},{"properties":{"zip_code":"95050","geo_score":0.714,"id":"aakaqkpuj652","geo_precision":"zip","frequency":2},"type":"Feature","geometry":{"type":"Point","coordinates":[-121.705327,37.189396]}},{"properties":{"zip_code":"95050","geo_score":0.714,"id":"aakaqkpuj652","geo_precision":"zip","frequency":2},"type":"Feature","geometry":{"type":"Point","coordinates":[-121.705327,37.189396]}},{"properties":{"zip_code":"95050","geo_score":0.714,"id":"aakaqkpuj652","geo_precision":"zip","frequency":2},"type":"Feature","geometry":{"type":"Point","coordinates":[-121.705327,37.189396]}},{"properties":{"zip_code":"95060","geo_score":0.714,"id":"aakaqkv07hom","geo_precision":"zip","frequency":3},"type":"Feature","geometry":{"type":"Point","coordinates":[-122.111126,37.052748]}},{"properties":{"zip_code":"95112","geo_score":0.714,"id":"aakaqkfn0ffe","geo_precision":"zip","frequency":2},"type":"Feature","geometry":{"type":"Point","coordinates":[-121.892093,37.37004]}},{"properties":{"zip_code":"95123","geo_score":0.714,"id":"aakaqkhh10lw","geo_precision":"zip","frequency":2},"type":"Feature","geometry":{"type":"Point","coordinates":[-121.705327,37.189396]}},{"properties":{"zip_code":"95123","geo_score":0.714,"id":"aakaqkhh10lw","geo_precision":"zip","frequency":2},"type":"Feature","geometry":{"type":"Point","coordinates":[-121.705327,37.189396]}},{"properties":{"zip_code":"95123","geo_score":0.714,"id":"aakaqkhh10lw","geo_precision":"zip","frequency":2},"type":"Feature","geometry":{"type":"Point","coordinates":[-121.705327,37.189396]}},{"properties":{"zip_code":"95125","geo_score":0.714,"id":"aakaqkvadfdn","geo_precision":"zip","frequency":1},"type":"Feature","geometry":{"type":"Point","coordinates":[-121.705327,37.189396]}},{"properties":{"zip_code":"95125","geo_score":0.714,"id":"aakaqkvadfdn","geo_precision":"zip","frequency":1},"type":"Feature","geometry":{"type":"Point","coordinates":[-121.705327,37.189396]}},{"properties":{"zip_code":"95125","geo_score":0.714,"id":"aakaqkvadfdn","geo_precision":"zip","frequency":1},"type":"Feature","geometry":{"type":"Point","coordinates":[-121.705327,37.189396]}},{"properties":{"zip_code":"95126","geo_score":0.714,"id":"aakaqkuthhni","geo_precision":"zip","frequency":1},"type":"Feature","geometry":{"type":"Point","coordinates":[-121.705327,37.189396]}},{"properties":{"zip_code":"95126","geo_score":0.714,"id":"aakaqkuthhni","geo_precision":"zip","frequency":1},"type":"Feature","geometry":{"type":"Point","coordinates":[-121.705327,37.189396]}},{"properties":{"zip_code":"95126","geo_score":0.714,"id":"aakaqkuthhni","geo_precision":"zip","frequency":1},"type":"Feature","geometry":{"type":"Point","coordinates":[-121.705327,37.189396]}},{"properties":{"zip_code":"95130","geo_score":0.714,"id":"aakaqkmmywa0","geo_precision":"zip","frequency":1},"type":"Feature","geometry":{"type":"Point","coordinates":[-121.705327,37.189396]}},{"properties":{"zip_code":"95130","geo_score":0.714,"id":"aakaqkmmywa0","geo_precision":"zip","frequency":1},"type":"Feature","geometry":{"type":"Point","coordinates":[-121.705327,37.189396]}},{"properties":{"zip_code":"95130","geo_score":0.714,"id":"aakaqkmmywa0","geo_precision":"zip","frequency":1},"type":"Feature","geometry":{"type":"Point","coordinates":[-121.705327,37.189396]}},{"properties":{"zip_code":"95132","geo_score":0.714,"id":"aakaqkqpqlhy","geo_precision":"zip","frequency":1},"type":"Feature","geometry":{"type":"Point","coordinates":[-121.86051,37.386329]}},{"properties":{"zip_code":"95136","geo_score":0.714,"id":"aakaqktbj8e7","geo_precision":"zip","frequency":1},"type":"Feature","geometry":{"type":"Point","coordinates":[-121.705327,37.189396]}},{"properties":{"zip_code":"95136","geo_score":0.714,"id":"aakaqktbj8e7","geo_precision":"zip","frequency":1},"type":"Feature","geometry":{"type":"Point","coordinates":[-121.705327,37.189396]}},{"properties":{"zip_code":"95136","geo_score":0.714,"id":"aakaqktbj8e7","geo_precision":"zip","frequency":1},"type":"Feature","geometry":{"type":"Point","coordinates":[-121.705327,37.189396]}},{"properties":{"zip_code":"95655","geo_score":0.714,"id":"aakaqkpgtf8d","geo_precision":"zip","frequency":1},"type":"Feature","geometry":{"type":"Point","coordinates":[-121.28181,38.554406]}},{"properties":{"zip_code":"95687","geo_score":0.714,"id":"aakaqkglnpi3","geo_precision":"zip","frequency":2},"type":"Feature","geometry":{"type":"Point","coordinates":[-121.912773,38.35056]}}],"is_temporal":false,"author":{"url":null,"metadata":null,"contact_name":null,"contact_address":null,"source":null,"contact_phone":null},"source":null,"pagination":{"sort":null,"start":0,"total":72,"limit":1000000},"state":"complete","tags":"","published":"2014-08-16T16:28:45-04:00","id":303011}