{"type":"FeatureCollection","data_type":"Dataset","url_type":null,"permissions":[{"permissions":{"download":true,"view":true},"group_id":"everyone"}],"classification":null,"title":"hispanic zip codees 2012","count":110,"stream_id":303008,"contributor":{"url":"http://geocommons.com/users/41433","name":"kishorehari"},"data_attributes":null,"calculation_params":null,"icon_link":null,"link":"http://geocommons.com/overlays/303008.json","extent":[-122.916,36.8544,-73.9523,40.6611],"geometry_types":["point"],"unique_name":null,"name":"hispanic zip codees 2012","feature_count":110,"description":"","next_feature":null,"is_raster":false,"short_classification":"Y","stats":{"frequency":{"max":6,"mean":1.53636363636364,"variance":0.856463719766471,"stdev":0.925453250989196,"median":1,"min":1}},"features":[{"properties":{"zip_code":"11225","geo_score":0.714,"id":"aakaqk9l36ml","geo_precision":"zip","frequency":1},"type":"Feature","geometry":{"type":"Point","coordinates":[-73.952295,40.661096]}},{"properties":{"zip_code":"94002","geo_score":0.714,"id":"aakaqk4zti39","geo_precision":"zip","frequency":1},"type":"Feature","geometry":{"type":"Point","coordinates":[-122.29339,37.516644]}},{"properties":{"zip_code":"94003","geo_score":0.714,"id":"aakaqknj3172","geo_precision":"zip","frequency":1},"type":"Feature","geometry":{"type":"Point","coordinates":[-122.334825,37.381144]}},{"properties":{"zip_code":"94010","geo_score":0.714,"id":"aakaqksa14kl","geo_precision":"zip","frequency":1},"type":"Feature","geometry":{"type":"Point","coordinates":[-122.379416,37.574103]}},{"properties":{"zip_code":"94014","geo_score":0.714,"id":"aakaqkkba5ct","geo_precision":"zip","frequency":4},"type":"Feature","geometry":{"type":"Point","coordinates":[-122.459695,37.676878]}},{"properties":{"zip_code":"94015","geo_score":0.714,"id":"aakaqkm6umi7","geo_precision":"zip","frequency":2},"type":"Feature","geometry":{"type":"Point","coordinates":[-122.475234,37.676864]}},{"properties":{"zip_code":"94025","geo_score":0.714,"id":"aakaqks6ws9m","geo_precision":"zip","frequency":1},"type":"Feature","geometry":{"type":"Point","coordinates":[-122.159409,37.476327]}},{"properties":{"zip_code":"94041","geo_score":0.714,"id":"aakaqkgmwz1p","geo_precision":"zip","frequency":1},"type":"Feature","geometry":{"type":"Point","coordinates":[-121.705327,37.189396]}},{"properties":{"zip_code":"94063","geo_score":0.714,"id":"aakaqkt4dcf7","geo_precision":"zip","frequency":2},"type":"Feature","geometry":{"type":"Point","coordinates":[-122.212846,37.490387]}},{"properties":{"zip_code":"94066","geo_score":0.714,"id":"aakaqklunel1","geo_precision":"zip","frequency":2},"type":"Feature","geometry":{"type":"Point","coordinates":[-122.404417,37.616602]}},{"properties":{"zip_code":"94070","geo_score":0.714,"id":"aakaqkr1henn","geo_precision":"zip","frequency":2},"type":"Feature","geometry":{"type":"Point","coordinates":[-122.29815,37.498586]}},{"properties":{"zip_code":"94080","geo_score":0.714,"id":"aakaqkmx07on","geo_precision":"zip","frequency":3},"type":"Feature","geometry":{"type":"Point","coordinates":[-122.411361,37.638546]}},{"properties":{"zip_code":"94086","geo_score":0.714,"id":"aakaqkr25hr6","geo_precision":"zip","frequency":2},"type":"Feature","geometry":{"type":"Point","coordinates":[-121.705327,37.189396]}},{"properties":{"zip_code":"94087","geo_score":0.714,"id":"aakaqkp61asg","geo_precision":"zip","frequency":1},"type":"Feature","geometry":{"type":"Point","coordinates":[-121.705327,37.189396]}},{"properties":{"zip_code":"94107","geo_score":0.714,"id":"aakaqkmgtxp4","geo_precision":"zip","frequency":1},"type":"Feature","geometry":{"type":"Point","coordinates":[-122.393681,37.769029]}},{"properties":{"zip_code":"94109","geo_score":0.714,"id":"aakaqksv5hdj","geo_precision":"zip","frequency":2},"type":"Feature","geometry":{"type":"Point","coordinates":[-122.420782,37.795219]}},{"properties":{"zip_code":"94110","geo_score":0.714,"id":"aakaqksukfvm","geo_precision":"zip","frequency":3},"type":"Feature","geometry":{"type":"Point","coordinates":[-122.416281,37.748932]}},{"properties":{"zip_code":"94112","geo_score":0.714,"id":"aakaqkmbsklm","geo_precision":"zip","frequency":1},"type":"Feature","geometry":{"type":"Point","coordinates":[-122.439382,37.721981]}},{"properties":{"zip_code":"94114","geo_score":0.714,"id":"aakaqklae1zr","geo_precision":"zip","frequency":3},"type":"Feature","geometry":{"type":"Point","coordinates":[-122.439332,37.758279]}},{"properties":{"zip_code":"94115","geo_score":0.714,"id":"aakaqkm3pieg","geo_precision":"zip","frequency":1},"type":"Feature","geometry":{"type":"Point","coordinates":[-122.437032,37.786028]}},{"properties":{"zip_code":"94116","geo_score":0.714,"id":"aakaqku6roq4","geo_precision":"zip","frequency":2},"type":"Feature","geometry":{"type":"Point","coordinates":[-122.483232,37.743857]}},{"properties":{"zip_code":"94117","geo_score":0.714,"id":"aakaqkiqg29t","geo_precision":"zip","frequency":3},"type":"Feature","geometry":{"type":"Point","coordinates":[-122.443882,37.769079]}},{"properties":{"zip_code":"94118","geo_score":0.714,"id":"aakaqkrlklso","geo_precision":"zip","frequency":1},"type":"Feature","geometry":{"type":"Point","coordinates":[-122.459982,37.778779]}},{"properties":{"zip_code":"94121","geo_score":0.714,"id":"aakaqknt7dl2","geo_precision":"zip","frequency":1},"type":"Feature","geometry":{"type":"Point","coordinates":[-122.491682,37.777129]}},{"properties":{"zip_code":"94122","geo_score":0.714,"id":"aakaqks6trnr","geo_precision":"zip","frequency":2},"type":"Feature","geometry":{"type":"Point","coordinates":[-122.475732,37.761179]}},{"properties":{"zip_code":"94124","geo_score":0.714,"id":"aakaqklm260v","geo_precision":"zip","frequency":3},"type":"Feature","geometry":{"type":"Point","coordinates":[-122.382857,37.73123]}},{"properties":{"zip_code":"94131","geo_score":0.714,"id":"aakaqki0ia49","geo_precision":"zip","frequency":2},"type":"Feature","geometry":{"type":"Point","coordinates":[-122.443182,37.74363]}},{"properties":{"zip_code":"94132","geo_score":0.714,"id":"aakaqkv7bb9k","geo_precision":"zip","frequency":2},"type":"Feature","geometry":{"type":"Point","coordinates":[-122.482483,37.722631]}},{"properties":{"zip_code":"94133","geo_score":0.714,"id":"aakaqkusflsh","geo_precision":"zip","frequency":2},"type":"Feature","geometry":{"type":"Point","coordinates":[-122.412193,37.805762]}},{"properties":{"zip_code":"94134","geo_score":0.714,"id":"aakaqkrjt8yo","geo_precision":"zip","frequency":1},"type":"Feature","geometry":{"type":"Point","coordinates":[-122.410832,37.72168]}},{"properties":{"zip_code":"94304","geo_score":0.714,"id":"aakaqktnngfi","geo_precision":"zip","frequency":1},"type":"Feature","geometry":{"type":"Point","coordinates":[-121.705327,37.189396]}},{"properties":{"zip_code":"94510","geo_score":0.714,"id":"aakaqknlqwvo","geo_precision":"zip","frequency":1},"type":"Feature","geometry":{"type":"Point","coordinates":[-122.032061,38.1012]}},{"properties":{"zip_code":"94521","geo_score":0.714,"id":"aakaqkkrpkrs","geo_precision":"zip","frequency":1},"type":"Feature","geometry":{"type":"Point","coordinates":[-121.960045,37.951661]}},{"properties":{"zip_code":"94523","geo_score":0.714,"id":"aakaqkfzvmal","geo_precision":"zip","frequency":1},"type":"Feature","geometry":{"type":"Point","coordinates":[-122.052741,37.941312]}},{"properties":{"zip_code":"94530","geo_score":0.714,"id":"aakaqko5pkna","geo_precision":"zip","frequency":1},"type":"Feature","geometry":{"type":"Point","coordinates":[-122.30248,37.918024]}},{"properties":{"zip_code":"94534","geo_score":0.714,"id":"aakaqkhhjkjf","geo_precision":"zip","frequency":1},"type":"Feature","geometry":{"type":"Point","coordinates":[-122.264316,38.107945]}},{"properties":{"zip_code":"94538","geo_score":0.714,"id":"aakaqkosn07h","geo_precision":"zip","frequency":1},"type":"Feature","geometry":{"type":"Point","coordinates":[-121.95832,37.509453]}},{"properties":{"zip_code":"94540","geo_score":0.714,"id":"aakaqkp0yq6w","geo_precision":"zip","frequency":1},"type":"Feature","geometry":{"type":"Point","coordinates":[-121.921498,37.680181]}},{"properties":{"zip_code":"94549","geo_score":0.714,"id":"aakaqkr6ziyz","geo_precision":"zip","frequency":1},"type":"Feature","geometry":{"type":"Point","coordinates":[-122.120089,37.901223]}},{"properties":{"zip_code":"94553","geo_score":0.714,"id":"aakaqkljykb9","geo_precision":"zip","frequency":2},"type":"Feature","geometry":{"type":"Point","coordinates":[-122.075241,37.983533]}},{"properties":{"zip_code":"94555","geo_score":0.714,"id":"aakaqktgfo1e","geo_precision":"zip","frequency":1},"type":"Feature","geometry":{"type":"Point","coordinates":[-122.063323,37.570681]}},{"properties":{"zip_code":"94564","geo_score":0.714,"id":"aakaqkrt21na","geo_precision":"zip","frequency":1},"type":"Feature","geometry":{"type":"Point","coordinates":[-122.243294,37.990772]}},{"properties":{"zip_code":"94568","geo_score":0.714,"id":"aakaqkjrf4l8","geo_precision":"zip","frequency":1},"type":"Feature","geometry":{"type":"Point","coordinates":[-121.988017,38.041309]}},{"properties":{"zip_code":"94577","geo_score":0.714,"id":"aakaqkhbdyjx","geo_precision":"zip","frequency":1},"type":"Feature","geometry":{"type":"Point","coordinates":[-122.158621,37.715629]}},{"properties":{"zip_code":"94582","geo_score":0.0,"id":"aakaqkkbm0r9","geo_precision":"unmatched","frequency":1},"type":"Feature","geometry":null},{"properties":{"zip_code":"94583","geo_score":0.714,"id":"aakaqkrojoaf","geo_precision":"zip","frequency":1},"type":"Feature","geometry":{"type":"Point","coordinates":[-121.975531,37.768556]}},{"properties":{"zip_code":"94585","geo_score":0.714,"id":"aakaqkmjhxcz","geo_precision":"zip","frequency":1},"type":"Feature","geometry":{"type":"Point","coordinates":[-121.849958,38.076864]}},{"properties":{"zip_code":"94587","geo_score":0.714,"id":"aakaqkoruw2j","geo_precision":"zip","frequency":1},"type":"Feature","geometry":{"type":"Point","coordinates":[-121.97362,37.589084]}},{"properties":{"zip_code":"94589","geo_score":0.714,"id":"aakaqkrzerxe","geo_precision":"zip","frequency":1},"type":"Feature","geometry":{"type":"Point","coordinates":[-122.280383,38.158221]}},{"properties":{"zip_code":"94590","geo_score":0.714,"id":"aakaqkm7eak5","geo_precision":"zip","frequency":2},"type":"Feature","geometry":{"type":"Point","coordinates":[-122.25328,38.096719]}},{"properties":{"zip_code":"94591","geo_score":0.714,"id":"aakaqki25a2x","geo_precision":"zip","frequency":2},"type":"Feature","geometry":{"type":"Point","coordinates":[-122.206292,38.114249]}},{"properties":{"zip_code":"94596","geo_score":0.714,"id":"aakaqkseg58u","geo_precision":"zip","frequency":1},"type":"Feature","geometry":{"type":"Point","coordinates":[-122.076074,37.884925]}},{"properties":{"zip_code":"94601","geo_score":0.714,"id":"aakaqkt1ih1p","geo_precision":"zip","frequency":3},"type":"Feature","geometry":{"type":"Point","coordinates":[-122.223779,37.786027]}},{"properties":{"zip_code":"94603","geo_score":0.714,"id":"aakaqkq4u1l3","geo_precision":"zip","frequency":1},"type":"Feature","geometry":{"type":"Point","coordinates":[-122.198428,37.761778]}},{"properties":{"zip_code":"94605","geo_score":0.714,"id":"aakaqkqnp46a","geo_precision":"zip","frequency":6},"type":"Feature","geometry":{"type":"Point","coordinates":[-122.156626,37.759322]}},{"properties":{"zip_code":"94606","geo_score":0.714,"id":"aakaqki053kc","geo_precision":"zip","frequency":2},"type":"Feature","geometry":{"type":"Point","coordinates":[-122.243979,37.789927]}},{"properties":{"zip_code":"94608","geo_score":0.714,"id":"aakaqkvt024o","geo_precision":"zip","frequency":1},"type":"Feature","geometry":{"type":"Point","coordinates":[-122.29548,37.833876]}},{"properties":{"zip_code":"94609","geo_score":0.714,"id":"aakaqkj0au7i","geo_precision":"zip","frequency":1},"type":"Feature","geometry":{"type":"Point","coordinates":[-122.26328,37.834776]}},{"properties":{"zip_code":"94611","geo_score":0.714,"id":"aakaqku4oa2m","geo_precision":"zip","frequency":1},"type":"Feature","geometry":{"type":"Point","coordinates":[-122.231635,37.824372]}},{"properties":{"zip_code":"94612","geo_score":0.714,"id":"aakaqktfzjvc","geo_precision":"zip","frequency":1},"type":"Feature","geometry":{"type":"Point","coordinates":[-122.27018,37.809435]}},{"properties":{"zip_code":"94619","geo_score":0.714,"id":"aakaqkvwqbgk","geo_precision":"zip","frequency":1},"type":"Feature","geometry":{"type":"Point","coordinates":[-122.167126,37.783877]}},{"properties":{"zip_code":"94621","geo_score":0.714,"id":"aakaqkmr8913","geo_precision":"zip","frequency":1},"type":"Feature","geometry":{"type":"Point","coordinates":[-122.196689,37.742529]}},{"properties":{"zip_code":"94658","geo_score":0.714,"id":"aakaqkmun9e0","geo_precision":"zip","frequency":1},"type":"Feature","geometry":{"type":"Point","coordinates":[-122.270803,37.804372]}},{"properties":{"zip_code":"94703","geo_score":0.714,"id":"aakaqkh21hvl","geo_precision":"zip","frequency":1},"type":"Feature","geometry":{"type":"Point","coordinates":[-122.27573,37.865725]}},{"properties":{"zip_code":"94704","geo_score":0.714,"id":"aakaqkm8ba94","geo_precision":"zip","frequency":1},"type":"Feature","geometry":{"type":"Point","coordinates":[-122.256729,37.866975]}},{"properties":{"zip_code":"94705","geo_score":0.714,"id":"aakaqko0ckcx","geo_precision":"zip","frequency":1},"type":"Feature","geometry":{"type":"Point","coordinates":[-122.242029,37.85983]}},{"properties":{"zip_code":"94706","geo_score":0.714,"id":"aakaqkjmawsc","geo_precision":"zip","frequency":1},"type":"Feature","geometry":{"type":"Point","coordinates":[-122.29828,37.889525]}},{"properties":{"zip_code":"94708","geo_score":0.714,"id":"aakaqkqbhfyv","geo_precision":"zip","frequency":1},"type":"Feature","geometry":{"type":"Point","coordinates":[-122.260429,37.891825]}},{"properties":{"zip_code":"94709","geo_score":0.714,"id":"aakaqkgtptvv","geo_precision":"zip","frequency":1},"type":"Feature","geometry":{"type":"Point","coordinates":[-122.26553,37.879825]}},{"properties":{"zip_code":"94710","geo_score":0.714,"id":"aakaqkj04emn","geo_precision":"zip","frequency":1},"type":"Feature","geometry":{"type":"Point","coordinates":[-122.30273,37.873366]}},{"properties":{"zip_code":"94801","geo_score":0.714,"id":"aakaqkizdnnp","geo_precision":"zip","frequency":3},"type":"Feature","geometry":{"type":"Point","coordinates":[-122.367471,37.958813]}},{"properties":{"zip_code":"94803","geo_score":0.714,"id":"aakaqkh6kco5","geo_precision":"zip","frequency":1},"type":"Feature","geometry":{"type":"Point","coordinates":[-122.206177,37.966422]}},{"properties":{"zip_code":"94901","geo_score":0.714,"id":"aakaqkn6f8y2","geo_precision":"zip","frequency":2},"type":"Feature","geometry":{"type":"Point","coordinates":[-122.504286,37.970948]}},{"properties":{"zip_code":"94904","geo_score":0.714,"id":"aakaqkjrco59","geo_precision":"zip","frequency":1},"type":"Feature","geometry":{"type":"Point","coordinates":[-122.5572,37.952147]}},{"properties":{"zip_code":"94920","geo_score":0.714,"id":"aakaqkm264zu","geo_precision":"zip","frequency":1},"type":"Feature","geometry":{"type":"Point","coordinates":[-122.471917,37.884093]}},{"properties":{"zip_code":"94925","geo_score":0.714,"id":"aakaqkpshmn3","geo_precision":"zip","frequency":1},"type":"Feature","geometry":{"type":"Point","coordinates":[-122.512035,37.925039]}},{"properties":{"zip_code":"94928","geo_score":0.714,"id":"aakaqkkeo21j","geo_precision":"zip","frequency":3},"type":"Feature","geometry":{"type":"Point","coordinates":[-122.698398,38.345663]}},{"properties":{"zip_code":"94941","geo_score":0.714,"id":"aakaqksj57w8","geo_precision":"zip","frequency":1},"type":"Feature","geometry":{"type":"Point","coordinates":[-122.562937,37.886325]}},{"properties":{"zip_code":"94947","geo_score":0.714,"id":"aakaqkvkzxeq","geo_precision":"zip","frequency":1},"type":"Feature","geometry":{"type":"Point","coordinates":[-122.620893,38.09502]}},{"properties":{"zip_code":"94949","geo_score":0.714,"id":"aakaqkg9pqzf","geo_precision":"zip","frequency":2},"type":"Feature","geometry":{"type":"Point","coordinates":[-122.549702,38.06881]}},{"properties":{"zip_code":"94954","geo_score":0.714,"id":"aakaqkog1xhc","geo_precision":"zip","frequency":2},"type":"Feature","geometry":{"type":"Point","coordinates":[-122.574526,38.225816]}},{"properties":{"zip_code":"94965","geo_score":0.714,"id":"aakaqkuv6shr","geo_precision":"zip","frequency":2},"type":"Feature","geometry":{"type":"Point","coordinates":[-122.531423,37.850417]}},{"properties":{"zip_code":"95020","geo_score":0.714,"id":"aakaqkqm4zji","geo_precision":"zip","frequency":1},"type":"Feature","geometry":{"type":"Point","coordinates":[-121.493849,37.023347]}},{"properties":{"zip_code":"95023","geo_score":0.714,"id":"aakaqku4fj2p","geo_precision":"zip","frequency":1},"type":"Feature","geometry":{"type":"Point","coordinates":[-121.400491,36.869398]}},{"properties":{"zip_code":"95024","geo_score":0.714,"id":"aakaqkgry1pq","geo_precision":"zip","frequency":1},"type":"Feature","geometry":{"type":"Point","coordinates":[-121.411909,36.85443]}},{"properties":{"zip_code":"95035","geo_score":0.714,"id":"aakaqknatpb7","geo_precision":"zip","frequency":1},"type":"Feature","geometry":{"type":"Point","coordinates":[-121.861989,37.436454]}},{"properties":{"zip_code":"95050","geo_score":0.714,"id":"aakaqkpuj652","geo_precision":"zip","frequency":2},"type":"Feature","geometry":{"type":"Point","coordinates":[-121.705327,37.189396]}},{"properties":{"zip_code":"95060","geo_score":0.714,"id":"aakaqkv07hom","geo_precision":"zip","frequency":3},"type":"Feature","geometry":{"type":"Point","coordinates":[-122.111126,37.052748]}},{"properties":{"zip_code":"95112","geo_score":0.714,"id":"aakaqkfn0ffe","geo_precision":"zip","frequency":2},"type":"Feature","geometry":{"type":"Point","coordinates":[-121.892093,37.37004]}},{"properties":{"zip_code":"95121","geo_score":0.714,"id":"aakaqkix0a49","geo_precision":"zip","frequency":1},"type":"Feature","geometry":{"type":"Point","coordinates":[-121.797977,37.298592]}},{"properties":{"zip_code":"95123","geo_score":0.714,"id":"aakaqkhh10lw","geo_precision":"zip","frequency":2},"type":"Feature","geometry":{"type":"Point","coordinates":[-121.705327,37.189396]}},{"properties":{"zip_code":"95125","geo_score":0.714,"id":"aakaqkvadfdn","geo_precision":"zip","frequency":1},"type":"Feature","geometry":{"type":"Point","coordinates":[-121.705327,37.189396]}},{"properties":{"zip_code":"95126","geo_score":0.714,"id":"aakaqkuthhni","geo_precision":"zip","frequency":1},"type":"Feature","geometry":{"type":"Point","coordinates":[-121.705327,37.189396]}},{"properties":{"zip_code":"95130","geo_score":0.714,"id":"aakaqkmmywa0","geo_precision":"zip","frequency":1},"type":"Feature","geometry":{"type":"Point","coordinates":[-121.705327,37.189396]}},{"properties":{"zip_code":"95132","geo_score":0.714,"id":"aakaqkqpqlhy","geo_precision":"zip","frequency":1},"type":"Feature","geometry":{"type":"Point","coordinates":[-121.86051,37.386329]}},{"properties":{"zip_code":"95136","geo_score":0.714,"id":"aakaqktbj8e7","geo_precision":"zip","frequency":1},"type":"Feature","geometry":{"type":"Point","coordinates":[-121.705327,37.189396]}},{"properties":{"zip_code":"95377","geo_score":0.714,"id":"aakaqkq4tiyp","geo_precision":"zip","frequency":1},"type":"Feature","geometry":{"type":"Point","coordinates":[-121.444621,37.724331]}},{"properties":{"zip_code":"95391","geo_score":0.0,"id":"aakaqkop09oz","geo_precision":"unmatched","frequency":1},"type":"Feature","geometry":null},{"properties":{"zip_code":"95401","geo_score":0.714,"id":"aakaqkmekp4l","geo_precision":"zip","frequency":2},"type":"Feature","geometry":{"type":"Point","coordinates":[-122.783159,38.450412]}},{"properties":{"zip_code":"95403","geo_score":0.714,"id":"aakaqklcf10w","geo_precision":"zip","frequency":1},"type":"Feature","geometry":{"type":"Point","coordinates":[-122.810328,38.477043]}},{"properties":{"zip_code":"95404","geo_score":0.714,"id":"aakaqknhbqaz","geo_precision":"zip","frequency":2},"type":"Feature","geometry":{"type":"Point","coordinates":[-122.656296,38.452642]}},{"properties":{"zip_code":"95405","geo_score":0.714,"id":"aakaqkk27xay","geo_precision":"zip","frequency":1},"type":"Feature","geometry":{"type":"Point","coordinates":[-122.786392,38.444714]}},{"properties":{"zip_code":"95407","geo_score":0.714,"id":"aakaqkn73tvz","geo_precision":"zip","frequency":6},"type":"Feature","geometry":{"type":"Point","coordinates":[-122.741849,38.389113]}},{"properties":{"zip_code":"95409","geo_score":0.714,"id":"aakaqkj6orm7","geo_precision":"zip","frequency":3},"type":"Feature","geometry":{"type":"Point","coordinates":[-122.626545,38.462575]}},{"properties":{"zip_code":"95425","geo_score":0.714,"id":"aakaqkgeowhu","geo_precision":"zip","frequency":1},"type":"Feature","geometry":{"type":"Point","coordinates":[-122.91333,38.638928]}},{"properties":{"zip_code":"95472","geo_score":0.714,"id":"aakaqkj1xwgb","geo_precision":"zip","frequency":2},"type":"Feature","geometry":{"type":"Point","coordinates":[-122.915552,38.372415]}},{"properties":{"zip_code":"95476","geo_score":0.714,"id":"aakaqktbatmx","geo_precision":"zip","frequency":1},"type":"Feature","geometry":{"type":"Point","coordinates":[-122.476819,38.255943]}},{"properties":{"zip_code":"95492","geo_score":0.714,"id":"aakaqkvwdq3k","geo_precision":"zip","frequency":1},"type":"Feature","geometry":{"type":"Point","coordinates":[-122.8041,38.532827]}},{"properties":{"zip_code":"95655","geo_score":0.714,"id":"aakaqkpgtf8d","geo_precision":"zip","frequency":1},"type":"Feature","geometry":{"type":"Point","coordinates":[-121.28181,38.554406]}},{"properties":{"zip_code":"95687","geo_score":0.714,"id":"aakaqkglnpi3","geo_precision":"zip","frequency":2},"type":"Feature","geometry":{"type":"Point","coordinates":[-121.912773,38.35056]}}],"is_temporal":false,"author":{"url":"","metadata":"","contact_name":"","contact_address":"","source":"","contact_phone":""},"source":"","pagination":{"sort":null,"start":0,"total":110,"limit":1000000},"state":"complete","tags":"","published":"2014-08-16T16:28:36-04:00","id":303008}