{"type":"FeatureCollection","data_type":"Dataset","url_type":null,"permissions":[{"permissions":{"download":true,"view":true},"group_id":"everyone"}],"classification":null,"title":"Teaching and Training Health Facilities","count":77,"stream_id":303124,"contributor":{"url":"http://geocommons.com/users/54256","name":"mwdcsend"},"data_attributes":null,"calculation_params":null,"icon_link":null,"link":"http://geocommons.com/overlays/303124.json","extent":[-2.58805,4.92525,0.47897,11.0599],"geometry_types":["point"],"unique_name":null,"name":"Teaching and Training Health Facilities","feature_count":77,"description":"","next_feature":null,"is_raster":false,"short_classification":"Y","stats":{"latitude":{"max":11.05988,"mean":6.84248222222222,"variance":3.10294007966921,"stdev":1.76151641481685,"median":6.415,"min":4.92525},"longitude":{"max":0.47897,"mean":-0.73817675,"variance":0.591073758243678,"stdev":0.768813214144813,"median":-0.64254,"min":-2.58805}},"features":[{"properties":{"latitude":6.69715,"region":"Ashanti","district":"Kumasi Metropolitan","facilityname":"Komfo Anokye Teaching Hospital","type":"Teaching Hospital","ownership":"Government","town":"Bantama","longitude":-1.63015,"id":"aaknkre0djex"},"type":"Feature","geometry":{"type":"Point","coordinates":[-1.63015,6.69715]}},{"properties":{"latitude":5.53719,"region":"Greater Accra","district":"Accra Metropolitan","facilityname":"Korle-Bu Teaching Hospital","type":"Teaching Hospital","ownership":"Private","town":"Korle-bu","longitude":-0.2266,"id":"aaknkrjehhgi"},"type":"Feature","geometry":{"type":"Point","coordinates":[-0.2266,5.53719]}},{"properties":{"latitude":9.39338,"region":"Northern","district":"Tamale Metropolitan","facilityname":"Tamale Teaching Hospital","type":"Teaching Hospital","ownership":"Government","town":"Tamale Central","longitude":-0.82368,"id":"aaknkrnyp72u"},"type":"Feature","geometry":{"type":"Point","coordinates":[-0.82368,9.39338]}},{"properties":{"latitude":null,"region":"Ashanti","district":"Asante-Akim North Municipal","facilityname":"Agogo Nurses Training Coll","type":"Training Institution","ownership":"Government","town":"Agogo","longitude":null,"id":"aaknkrbalm3l"},"type":"Feature","geometry":null},{"properties":{"latitude":null,"region":"Ashanti","district":"Offinso Municipal","facilityname":"Offinso Nurses/Midwifery Training School","type":"Training Institution","ownership":"Government","town":"Offinso","longitude":null,"id":"aaknkrjvchyi"},"type":"Feature","geometry":null},{"properties":{"latitude":null,"region":"Ashanti","district":"Adansi North","facilityname":"Fomena Community Health Nurses Training School","type":"Training Institution","ownership":"Government","town":"Fomena","longitude":null,"id":"aaknkr9wckjt"},"type":"Feature","geometry":null},{"properties":{"latitude":null,"region":"Ashanti","district":"Bekwai Municipal","facilityname":"Kokofu Health Assistants Training School","type":"Training Institution","ownership":"Government","town":"Kokofu","longitude":null,"id":"aaknkre7g08n"},"type":"Feature","geometry":null},{"properties":{"latitude":null,"region":"Ashanti","district":"Ahafo-Ano North","facilityname":"Tepa Health Assistants Training School","type":"Training Institution","ownership":"Government","town":"Tepa","longitude":null,"id":"aaknkrc1ikk1"},"type":"Feature","geometry":null},{"properties":{"latitude":7.02345,"region":"Ashanti","district":"Mampong Municipal","facilityname":"Mampong Midwifery Training School","type":"Training Institution","ownership":"Government","town":"Mampong","longitude":-1.23598,"id":"aaknkre7quq6"},"type":"Feature","geometry":{"type":"Point","coordinates":[-1.23598,7.02345]}},{"properties":{"latitude":7.02321,"region":"Ashanti","district":"Mampong Municipal","facilityname":"Mampong Health Assistants Training School","type":"Training Institution","ownership":"Government","town":"Mampong","longitude":-0.23593,"id":"aaknkrdd3obg"},"type":"Feature","geometry":{"type":"Point","coordinates":[-0.23593,7.02321]}},{"properties":{"latitude":6.4148,"region":"Ashanti","district":"Kumasi Metropolitan","facilityname":"Kumasi Nurses/Midwifery Training School","type":"Training Institution","ownership":"Government","town":"Kumasi","longitude":-1.37507,"id":"aaknkrgt3wfe"},"type":"Feature","geometry":{"type":"Point","coordinates":[-1.37507,6.4148]}},{"properties":{"latitude":null,"region":"Ashanti","district":"Kumasi Metropolitan","facilityname":"Kwadaso Nurses Training College","type":"Training Institution","ownership":"Government","town":"Kwadaso","longitude":null,"id":"aaknkrlzng37"},"type":"Feature","geometry":null},{"properties":{"latitude":6.4148,"region":"Ashanti","district":"Kumasi Metropolitan","facilityname":"Kumasi Ear Nose &amp; Throat","type":"Training Institution","ownership":"Government","town":"Kumasi","longitude":-1.37507,"id":"aaknkr8ele6p"},"type":"Feature","geometry":{"type":"Point","coordinates":[-1.37507,6.4148]}},{"properties":{"latitude":6.415,"region":"Ashanti","district":"Kumasi Metropolitan","facilityname":"Kumasi Anasthesia","type":"Training Institution","ownership":"Government","town":"Kumasi","longitude":-1.37548,"id":"aaknkrnjirrx"},"type":"Feature","geometry":{"type":"Point","coordinates":[-1.37548,6.415]}},{"properties":{"latitude":null,"region":"Ashanti","district":"Kumasi Metropolitan","facilityname":"Premier Nursing School (General Nursing)","type":"Training Institution","ownership":"Private","town":"Kumasi","longitude":null,"id":"aaknkrmtah8r"},"type":"Feature","geometry":null},{"properties":{"latitude":7.44325,"region":"Brong Ahafo","district":"Berekum Municipal","facilityname":"Berekum Nurses/Midwifery Training College","type":"Training Institution","ownership":"Government","town":"Berekum","longitude":-2.58805,"id":"aaknkrbmeolw"},"type":"Feature","geometry":{"type":"Point","coordinates":[-2.58805,7.44325]}},{"properties":{"latitude":7.33817,"region":"Brong Ahafo","district":"Sunyani","facilityname":"Sunyani Nurses Training College/Health Assistants Training School","type":"Training Institution","ownership":"Government","town":"Sunyani","longitude":-2.32858,"id":"aaknkrf3gvcv"},"type":"Feature","geometry":{"type":"Point","coordinates":[-2.32858,7.33817]}},{"properties":{"latitude":null,"region":"Brong Ahafo","district":"Tano North","facilityname":"Tanoso Community Health Nurses Training School","type":"Training Institution","ownership":"Government","town":"Tanoso","longitude":null,"id":"aaknkrcs09d1"},"type":"Feature","geometry":null},{"properties":{"latitude":null,"region":"Brong Ahafo","district":"Kintampo North Municipal","facilityname":"Kintampo Rural Health Training School","type":"Training Institution","ownership":"Government","town":"Kintampo","longitude":null,"id":"aaknkrdjujyt"},"type":"Feature","geometry":null},{"properties":{"latitude":null,"region":"Brong Ahafo","district":"Asunafo South","facilityname":"Tanoso Community Health Nurses Training School","type":"Training Institution","ownership":"Government","town":"Tanoso","longitude":null,"id":"aaknkrk730dx"},"type":"Feature","geometry":null},{"properties":{"latitude":null,"region":"Brong Ahafo","district":"Kintampo North Municipal","facilityname":"Kintampo Rural Health Training School","type":"Training Institution","ownership":"Government","town":"Kintampo","longitude":null,"id":"aaknkrm7btil"},"type":"Feature","geometry":null},{"properties":{"latitude":null,"region":"Central","district":"Twifu-Hemang-Lower Denkyira","facilityname":"Twifo Praso Health Assistants Training School","type":"Training Institution","ownership":"Government","town":"Twifo Praso","longitude":null,"id":"aaknkrlqjxpm"},"type":"Feature","geometry":null},{"properties":{"latitude":null,"region":"Central","district":"Upper Denkyira East","facilityname":"Dunkwa Health Assistants Training School","type":"Training Institution","ownership":"Government","town":"Dunkwa","longitude":null,"id":"aaknkrkf2q6y"},"type":"Feature","geometry":null},{"properties":{"latitude":5.10248,"region":"Central","district":"Cape Coast Metropolitan","facilityname":"Cape Coast Nurses &amp; Midwife Training School","type":"Training Institution","ownership":"Government","town":"Ola","longitude":-1.25688,"id":"aaknkr84pk5u"},"type":"Feature","geometry":{"type":"Point","coordinates":[-1.25688,5.10248]}},{"properties":{"latitude":5.37109,"region":"Central","district":"Efutu Municipal","facilityname":"Winneba Community Health Nurses Training School","type":"Training Institution","ownership":"Government","town":"Winneba","longitude":-0.64254,"id":"aaknkr8ozoxz"},"type":"Feature","geometry":{"type":"Point","coordinates":[-0.64254,5.37109]}},{"properties":{"latitude":5.10162,"region":"Central","district":"Komenda-Edina-Eguafo-Abirem Municipal","facilityname":"Ankaful Nurses Training College","type":"Training Institution","ownership":"Government","town":"Ankaful","longitude":-1.2709,"id":"aaknkr7tcn08"},"type":"Feature","geometry":{"type":"Point","coordinates":[-1.2709,5.10162]}},{"properties":{"latitude":6.5821,"region":"Eastern","district":"Kwahu South","facilityname":"Atibie Midwifery Training School/Health Assistants Training School","type":"Training Institution","ownership":"Government","town":"Atibie","longitude":-0.73416,"id":"aaknkrevbaeu"},"type":"Feature","geometry":{"type":"Point","coordinates":[-0.73416,6.5821]}},{"properties":{"latitude":6.54514,"region":"Eastern","district":"Kwahu West","facilityname":"Nkawkaw Nurses Training College","type":"Training Institution","ownership":"Government","town":"Adoagyiri","longitude":-0.77397,"id":"aaknkrm00cdk"},"type":"Feature","geometry":{"type":"Point","coordinates":[-0.77397,6.54514]}},{"properties":{"latitude":6.0764,"region":"Eastern","district":"New Juaben","facilityname":"Koforidua Nurses Training College","type":"Training Institution","ownership":"Government","town":"Medical Village","longitude":-0.248233,"id":"aaknkricb5ew"},"type":"Feature","geometry":{"type":"Point","coordinates":[-0.248233,6.0764]}},{"properties":{"latitude":6.07627,"region":"Eastern","district":"New Juaben","facilityname":"Koforidua Midwifery Training School","type":"Training Institution","ownership":"Government","town":"Adweso","longitude":-0.2489,"id":"aaknkrhlrik1"},"type":"Feature","geometry":{"type":"Point","coordinates":[-0.2489,6.07627]}},{"properties":{"latitude":null,"region":"Eastern","district":"Birim South","facilityname":"Akim Oda Community Health Nurses Training School","type":"Training Institution","ownership":"Government","town":"Akim Oda","longitude":null,"id":"aaknkr9fmuj0"},"type":"Feature","geometry":null},{"properties":{"latitude":5.53972,"region":"Greater Accra","district":"Accra Metropolitan","facilityname":"Korle-Bu Midwifery Training School","type":"Training Institution","ownership":"Government","town":"Korle-Bu","longitude":-0.23044,"id":"aaknkra8frxv"},"type":"Feature","geometry":{"type":"Point","coordinates":[-0.23044,5.53972]}},{"properties":{"latitude":5.65793,"region":"Greater Accra","district":"Tema Metropolitan","facilityname":"Narh Bita Nursing Training School","type":"Training Institution","ownership":"Private","town":"Tema Community 4","longitude":-0.01062,"id":"aaknkrmf4apu"},"type":"Feature","geometry":{"type":"Point","coordinates":[-0.01062,5.65793]}},{"properties":{"latitude":5.54027,"region":"Greater Accra","district":"Accra Metropolitan","facilityname":"Korle-Bu Nurses Training College","type":"Training Institution","ownership":"Government","town":"Korle-Bu","longitude":-0.23095,"id":"aaknkrjmmnzt"},"type":"Feature","geometry":{"type":"Point","coordinates":[-0.23095,5.54027]}},{"properties":{"latitude":5.71554,"region":"Greater Accra","district":"Ga East","facilityname":"Pantang Nurses Training College","type":"Training Institution","ownership":"Government","town":"Pantang","longitude":-0.18749,"id":"aaknkr9mlkvq"},"type":"Feature","geometry":{"type":"Point","coordinates":[-0.18749,5.71554]}},{"properties":{"latitude":5.53823,"region":"Greater Accra","district":"Accra Metropolitan","facilityname":"Korle-Bu School of Hygiene","type":"Training Institution","ownership":"Government","town":"Korle-Bu","longitude":-0.2329,"id":"aaknkrn9871w"},"type":"Feature","geometry":{"type":"Point","coordinates":[-0.2329,5.53823]}},{"properties":{"latitude":5.53885,"region":"Greater Accra","district":"Accra Metropolitan","facilityname":"Korle-Bu School of Medical Laboratory Technology","type":"Training Institution","ownership":"Government","town":"Korle-Bu","longitude":-0.22915,"id":"aaknkrezztkq"},"type":"Feature","geometry":{"type":"Point","coordinates":[-0.22915,5.53885]}},{"properties":{"latitude":5.53764,"region":"Greater Accra","district":"Accra Metropolitan","facilityname":"Korle-Bu School of Radiology","type":"Training Institution","ownership":"Government","town":"Korle-Bu","longitude":-0.22591,"id":"aaknkrmng3ht"},"type":"Feature","geometry":{"type":"Point","coordinates":[-0.22591,5.53764]}},{"properties":{"latitude":5.53857,"region":"Greater Accra","district":"Accra Metropolitan","facilityname":"University of Ghana Medical School","type":"Training Institution","ownership":"Government","town":"Korle-Bu","longitude":-0.22933,"id":"aaknkrnosfbm"},"type":"Feature","geometry":{"type":"Point","coordinates":[-0.22933,5.53857]}},{"properties":{"latitude":null,"region":"Greater Accra","district":"Accra Metropolitan","facilityname":"Teshie Health Assistants Training School","type":"Training Institution","ownership":"Government","town":"Teshie","longitude":null,"id":"aaknkrgf0a1j"},"type":"Feature","geometry":null},{"properties":{"latitude":null,"region":"Greater Accra","district":"Ga East","facilityname":"Pantang Health Assistants Training School","type":"Training Institution","ownership":"Government","town":"Pantang","longitude":null,"id":"aaknkrnifrfw"},"type":"Feature","geometry":null},{"properties":{"latitude":null,"region":"Greater Accra","district":"Accra Metropolitan","facilityname":"Korle-Bu Opthamalmic","type":"Training Institution","ownership":"Government","town":"Korle-Bu","longitude":null,"id":"aaknkrjli87x"},"type":"Feature","geometry":null},{"properties":{"latitude":null,"region":"Greater Accra","district":"Accra Metropolitan","facilityname":"Korle-Bu Pery Operative","type":"Training Institution","ownership":"Government","town":"Korle-Bu","longitude":null,"id":"aaknkrhz9gbe"},"type":"Feature","geometry":null},{"properties":{"latitude":null,"region":"Greater Accra","district":"Accra Metropolitan","facilityname":"Korle-Bu Public Health","type":"Training Institution","ownership":"Government","town":"Korle-Bu","longitude":null,"id":"aaknkrk3u36j"},"type":"Feature","geometry":null},{"properties":{"latitude":null,"region":"Greater Accra","district":"Accra Metropolitan","facilityname":"Military Nurses Training College","type":"Training Institution","ownership":"Government","town":"37","longitude":null,"id":"aaknkr7ml2x0"},"type":"Feature","geometry":null},{"properties":{"latitude":null,"region":"Greater Accra","district":"Ga West","facilityname":"Western Hills School of Nursing (General Nursing)","type":"Training Institution","ownership":"Private","town":"Ofankor","longitude":null,"id":"aaknkrgbfkww"},"type":"Feature","geometry":null},{"properties":{"latitude":null,"region":"Greater Accra","district":"Ga East","facilityname":"Health Concern (Health Assistants Clinical)","type":"Training Institution","ownership":"Private","town":"Hatso","longitude":null,"id":"aaknkrcwq0pl"},"type":"Feature","geometry":null},{"properties":{"latitude":null,"region":"Greater Accra","district":"Tema Metropolitan","facilityname":"Nyaniba (Health Assistants Training School Clinical)","type":"Training Institution","ownership":"Private","town":"Tema","longitude":null,"id":"aaknkre6jasl"},"type":"Feature","geometry":null},{"properties":{"latitude":null,"region":"Greater Accra","district":"Accra Metropolitan","facilityname":"Martin Luther Health Assistants Training School","type":"Training Institution","ownership":"Private","town":"Odorkor","longitude":null,"id":"aaknkrgvz73u"},"type":"Feature","geometry":null},{"properties":{"latitude":9.46047,"region":"Northern","district":"Tamale Metropolitan","facilityname":"Tamale School of Hygiene","type":"Training Institution","ownership":"Government","town":"Zagyuri","longitude":-0.8437,"id":"aaknkrjjxw0u"},"type":"Feature","geometry":{"type":"Point","coordinates":[-0.8437,9.46047]}},{"properties":{"latitude":9.41714,"region":"Northern","district":"Tamale Metropolitan","facilityname":"Tamale Community Health Nurses Training School","type":"Training Institution","ownership":"Government","town":"Sangani","longitude":-0.83578,"id":"aaknkrjb8skm"},"type":"Feature","geometry":{"type":"Point","coordinates":[-0.83578,9.41714]}},{"properties":{"latitude":9.38961,"region":"Northern","district":"Tamale Metropolitan","facilityname":"Tamale Nurses Training School","type":"Training Institution","ownership":"Government","town":"Tamale","longitude":-0.3251,"id":"aaknkrl7xjuz"},"type":"Feature","geometry":{"type":"Point","coordinates":[-0.3251,9.38961]}},{"properties":{"latitude":null,"region":"Northern","district":"West Gonja","facilityname":"Damango Health Assistants Training School","type":"Training Institution","ownership":"Government","town":"Damango","longitude":null,"id":"aaknkre1w173"},"type":"Feature","geometry":null},{"properties":{"latitude":null,"region":"Northern","district":"Yendi","facilityname":"Yendi Health Assistants Training School","type":"Training Institution","ownership":"Government","town":"Yendi","longitude":null,"id":"aaknkr83s99t"},"type":"Feature","geometry":null},{"properties":{"latitude":null,"region":"Northern","district":"East Mamprusi","facilityname":"Nalerigu Health Assistants Training School","type":"Training Institution","ownership":"Government","town":"Nalerigu","longitude":null,"id":"aaknkrid3u75"},"type":"Feature","geometry":null},{"properties":{"latitude":null,"region":"Northern","district":"East Gonja","facilityname":"Kpembe Health Assistants Training School","type":"Training Institution","ownership":"Government","town":"Kpembe","longitude":null,"id":"aaknkrh70q2t"},"type":"Feature","geometry":null},{"properties":{"latitude":11.05988,"region":"Upper East","district":"Bawku Municipal","facilityname":"Bawku Presby Nurses Training College","type":"Training Institution","ownership":"CHAG","town":"Bawku","longitude":-0.23234,"id":"aaknkrladrp6"},"type":"Feature","geometry":{"type":"Point","coordinates":[-0.23234,11.05988]}},{"properties":{"latitude":10.80552,"region":"Upper East","district":"Bolgatanga Municipal","facilityname":"Bolgatanga Midwifery Training College","type":"Training Institution","ownership":"Government","town":"Zaare","longitude":-0.86319,"id":"aaknkrjp9inf"},"type":"Feature","geometry":{"type":"Point","coordinates":[-0.86319,10.80552]}},{"properties":{"latitude":10.81136,"region":"Upper East","district":"Bolgatanga Municipal","facilityname":"Bolgatanga Nurses Training College","type":"Training Institution","ownership":"Government","town":"Zaare","longitude":-0.85969,"id":"aaknkrky4hv2"},"type":"Feature","geometry":{"type":"Point","coordinates":[-0.85969,10.81136]}},{"properties":{"latitude":null,"region":"Upper East","district":"Navrongo","facilityname":"Navrongo Community Health Nurses Training School","type":"Training Institution","ownership":"Government","town":"Navrongo","longitude":null,"id":"aaknkrmf4tek"},"type":"Feature","geometry":null},{"properties":{"latitude":null,"region":"Upper East","district":"Bolgatanga Municipal","facilityname":"Bolgatanga Health Assistants Training School","type":"Training Institution","ownership":"Government","town":"Bolgatanga","longitude":null,"id":"aaknkr8gqa4n"},"type":"Feature","geometry":null},{"properties":{"latitude":null,"region":"Upper West","district":"Jirapa","facilityname":"Jirapa Nurses Training Colleage","type":"Training Institution","ownership":"Government","town":"Jirapa","longitude":null,"id":"aaknkrh1c5kw"},"type":"Feature","geometry":null},{"properties":{"latitude":null,"region":"Upper West","district":"Jirapa","facilityname":"Jirapa Community Health Nurses Training School","type":"Training Institution","ownership":"Government","town":"Jirapa","longitude":null,"id":"aaknkrjyjgmo"},"type":"Feature","geometry":null},{"properties":{"latitude":null,"region":"Upper West","district":"Jirapa","facilityname":"Jirapa Midwifery Training School","type":"Training Institution","ownership":"Government","town":"Jirapa","longitude":null,"id":"aaknkrezkiar"},"type":"Feature","geometry":null},{"properties":{"latitude":null,"region":"Upper West","district":"Wa","facilityname":"Wa Health Assistants Training School","type":"Training Institution","ownership":"Government","town":"Wa","longitude":null,"id":"aaknkreg6uow"},"type":"Feature","geometry":null},{"properties":{"latitude":6.5994,"region":"Volta","district":"Ho Municipal","facilityname":"Ho Community Health Nurses Training School","type":"Training Institution","ownership":"Government","town":"Ho","longitude":0.47897,"id":"aaknkrey29r6"},"type":"Feature","geometry":{"type":"Point","coordinates":[0.47897,6.5994]}},{"properties":{"latitude":6.59994,"region":"Volta","district":"Ho Municipal","facilityname":"Ho Nurses Training College","type":"Training Institution","ownership":"Government","town":"Ho","longitude":0.47897,"id":"aaknkr80c0jk"},"type":"Feature","geometry":{"type":"Point","coordinates":[0.47897,6.59994]}},{"properties":{"latitude":7.15849,"region":"Volta","district":"Hohoe","facilityname":"Hohoe Midwifery Training School","type":"Training Institution","ownership":"Government","town":"Hohoe","longitude":0.47239,"id":"aaknkra91lzv"},"type":"Feature","geometry":{"type":"Point","coordinates":[0.47239,7.15849]}},{"properties":{"latitude":null,"region":"Volta","district":"Keta","facilityname":"Keta Health Assistants Training School","type":"Training Institution","ownership":"Government","town":"Keta","longitude":null,"id":"aaknkrbrxuv6"},"type":"Feature","geometry":null},{"properties":{"latitude":null,"region":"Volta","district":"Ho Municipal","facilityname":"Ho School of Hygiene","type":"Training Institution","ownership":"Government","town":"Ho","longitude":null,"id":"aaknkrd6etap"},"type":"Feature","geometry":null},{"properties":{"latitude":4.94005,"region":"Western","district":"Nzema East","facilityname":"Essiama Community Health Nurses Training School","type":"Training Institution","ownership":"CHAG","town":"Essiama","longitude":-2.35363,"id":"aaknkr7s26dk"},"type":"Feature","geometry":{"type":"Point","coordinates":[-2.35363,4.94005]}},{"properties":{"latitude":4.92525,"region":"Western","district":"Shama Ahanta East","facilityname":"Sekondi Nurses/Midwifery Training Colleage","type":"Training Institution","ownership":"Government","town":"Sekondi","longitude":-1.7443,"id":"aaknkrm72onv"},"type":"Feature","geometry":{"type":"Point","coordinates":[-1.7443,4.92525]}},{"properties":{"latitude":null,"region":"Western","district":"Sefwi-Akontombra","facilityname":"Sefwi-Akontombra Health Assistance Training School","type":"Training Institution","ownership":"Government","town":null,"longitude":null,"id":"aaknkrd7tdo7"},"type":"Feature","geometry":null},{"properties":{"latitude":null,"region":"Western","district":"Ahanta West","facilityname":"Asanta Health Assistance Training School","type":"Training Institution","ownership":"Government","town":null,"longitude":null,"id":"aaknkrj9gekm"},"type":"Feature","geometry":null},{"properties":{"latitude":null,"region":"Western","district":"Wassa-Amenfi West","facilityname":"Asankragwa Health Assistance Training School","type":"Training Institution","ownership":"Government","town":"Asankragwa","longitude":null,"id":"aaknkrj6a14j"},"type":"Feature","geometry":null},{"properties":{"latitude":null,"region":"Western","district":"Wassa West","facilityname":"Takwa Nurses/Midwifery Training Colleage","type":"Training Institution","ownership":"Government","town":"Takwa","longitude":null,"id":"aaknkrbhsf30"},"type":"Feature","geometry":null},{"properties":{"latitude":null,"region":"Western","district":"Wassa West","facilityname":"Community Health Nurse Training Colleage","type":"Training Institution","ownership":"Government","town":"Dwiregum","longitude":null,"id":"aaknkrl4fpcj"},"type":"Feature","geometry":null}],"is_temporal":false,"author":{"url":"","metadata":"","contact_name":"","contact_address":"","source":"","contact_phone":""},"source":"","pagination":{"sort":null,"start":0,"total":77,"limit":1000000},"state":"complete","tags":"","published":"2014-08-16T16:45:52-04:00","id":303124}