{"type":"FeatureCollection","data_type":"Dataset","url_type":null,"permissions":[{"permissions":{"download":true,"view":true},"group_id":"everyone"}],"classification":null,"title":"Maternity Homes in Ghana","count":369,"stream_id":303135,"contributor":{"url":"http://geocommons.com/users/54256","name":"mwdcsend"},"data_attributes":null,"calculation_params":null,"icon_link":null,"link":"http://geocommons.com/overlays/303135.json","extent":[-3.23505,4.8957,1.191,11.063],"geometry_types":["point"],"unique_name":null,"name":"Maternity Homes in Ghana","feature_count":369,"description":"","next_feature":null,"is_raster":false,"short_classification":"Y","stats":{"latitude":{"max":11.06304,"mean":6.49725763486842,"variance":0.981022584188754,"stdev":0.990465842010089,"median":6.543433,"min":4.8957},"longitude":{"max":1.191,"mean":-1.23481778289474,"variance":1.01292174211331,"stdev":1.00644013339757,"median":-1.52227,"min":-3.23505}},"features":[{"properties":{"latitude":7.0,"region":"Ashanti","district":"Atwima-Nwabiagya","facilityname":"Abuakwa Maternity Home","type":"Maternity Home","ownership":"Private","town":"Abuakwa","longitude":-2.0,"id":"aaknm3q00msx"},"type":"Feature","geometry":{"type":"Point","coordinates":[-2.0,7.0]}},{"properties":{"latitude":6.88364,"region":"Ashanti","district":"Ahafo-Ano South","facilityname":"Adom Maternity Home","type":"Maternity Home","ownership":"Private","town":"Adinyana","longitude":-1.87334,"id":"aaknm3vf3ap0"},"type":"Feature","geometry":{"type":"Point","coordinates":[-1.87334,6.88364]}},{"properties":{"latitude":6.94912,"region":"Ashanti","district":"Sekyere South","facilityname":"Afamaso Maternity Home","type":"Maternity Home","ownership":"Private","town":"Afamaso","longitude":-1.50873,"id":"aaknm3qmc156"},"type":"Feature","geometry":{"type":"Point","coordinates":[-1.50873,6.94912]}},{"properties":{"latitude":7.0,"region":"Ashanti","district":"Atwima-Nwabiagya","facilityname":"Akropong Maternity Home","type":"Maternity Home","ownership":"Private","town":"Akropong","longitude":-2.0,"id":"aaknm3r9bqvk"},"type":"Feature","geometry":{"type":"Point","coordinates":[-2.0,7.0]}},{"properties":{"latitude":6.99961,"region":"Ashanti","district":"Ahafo-Ano North","facilityname":"Alice Memorial Maternity Clinic","type":"Maternity Home","ownership":"Private","town":"Tepa","longitude":-2.17134,"id":"aaknm3p70e8i"},"type":"Feature","geometry":{"type":"Point","coordinates":[-2.17134,6.99961]}},{"properties":{"latitude":6.79262,"region":"Ashanti","district":"Ejisu-Juaben Municipal","facilityname":"Amponsah Konadu Memorial Maternity Home","type":"Maternity Home","ownership":"Private","town":"Bonwire","longitude":-1.47187,"id":"aaknm3jmbby4"},"type":"Feature","geometry":{"type":"Point","coordinates":[-1.47187,6.79262]}},{"properties":{"latitude":6.99542,"region":"Ashanti","district":"Ahafo-Ano North","facilityname":"Anane Aya Maternity Home","type":"Maternity Home","ownership":"Private","town":"Akwasiase","longitude":-2.19993,"id":"aaknm3lmqxaq"},"type":"Feature","geometry":{"type":"Point","coordinates":[-2.19993,6.99542]}},{"properties":{"latitude":6.63159,"region":"Ashanti","district":"Bosomtwe","facilityname":"Sophia Maternity Home","type":"Maternity Home","ownership":"Private","town":"Esereso","longitude":-1.56147,"id":"aaknm3olr7lm"},"type":"Feature","geometry":{"type":"Point","coordinates":[-1.56147,6.63159]}},{"properties":{"latitude":null,"region":"Ashanti","district":"Bosomtwe","facilityname":"God's Grace Maternity Home","type":"Maternity Home","ownership":"Private","town":"Aputuagya","longitude":null,"id":"aaknm3msdipk"},"type":"Feature","geometry":null},{"properties":{"latitude":6.95871,"region":"Ashanti","district":"Ahafo-Ano North","facilityname":"Anyinasuso Maternity Home","type":"Maternity Home","ownership":"Private","town":"Anyinasuso","longitude":-2.10015,"id":"aaknm3gwo40c"},"type":"Feature","geometry":{"type":"Point","coordinates":[-2.10015,6.95871]}},{"properties":{"latitude":6.95511,"region":"Ashanti","district":"Mampong Municipal","facilityname":"Apaa Maternity Home","type":"Maternity Home","ownership":"Private","town":"Apaa","longitude":-1.43465,"id":"aaknm3gwmdm7"},"type":"Feature","geometry":{"type":"Point","coordinates":[-1.43465,6.95511]}},{"properties":{"latitude":6.61458,"region":"Ashanti","district":"Atwima-Kwanwoma","facilityname":"Eye Adom Maternity Home","type":"Maternity Home","ownership":"Private","town":"Brofoyeduru","longitude":-1.65857,"id":"aaknm3qjx7g6"},"type":"Feature","geometry":{"type":"Point","coordinates":[-1.65857,6.61458]}},{"properties":{"latitude":6.54199,"region":"Ashanti","district":"Atwima-Mponua","facilityname":"Barniekrom maternity home","type":"Maternity Home","ownership":"Government","town":"Barniekrom","longitude":-2.17473,"id":"aaknm3lgd11u"},"type":"Feature","geometry":{"type":"Point","coordinates":[-2.17473,6.54199]}},{"properties":{"latitude":6.64692,"region":"Ashanti","district":"Atwima-Mponua","facilityname":"Bethel Maternity Home","type":"Maternity Home","ownership":"Private","town":"Enyinamoso","longitude":-1.90327,"id":"aaknm3jkm0nm"},"type":"Feature","geometry":{"type":"Point","coordinates":[-1.90327,6.64692]}},{"properties":{"latitude":6.19886,"region":"Ashanti","district":"Obuasi Municipal","facilityname":"Cecilia Maternity  Home","type":"Maternity Home","ownership":"Private","town":"Kwabrafoso","longitude":-1.65574,"id":"aaknm3w6zc70"},"type":"Feature","geometry":{"type":"Point","coordinates":[-1.65574,6.19886]}},{"properties":{"latitude":6.75486,"region":"Ashanti","district":"Kwabre","facilityname":"Christ Our Hope Maternity Home","type":"Maternity Home","ownership":"Private","town":"Ntonso","longitude":-1.52744,"id":"aaknm3klufec"},"type":"Feature","geometry":{"type":"Point","coordinates":[-1.52744,6.75486]}},{"properties":{"latitude":6.62776,"region":"Ashanti","district":"Asante-Akim North Municipal","facilityname":"Daasebre Maternity Home","type":"Maternity Home","ownership":"Private","town":"Ahenebronuum","longitude":-1.21314,"id":"aaknm3m51cq5"},"type":"Feature","geometry":{"type":"Point","coordinates":[-1.21314,6.62776]}},{"properties":{"latitude":6.4804,"region":"Ashanti","district":"Amansie West","facilityname":"Dora Maternity Clinic","type":"Maternity Home","ownership":"Private","town":"Pakyi  No 2","longitude":-1.4951,"id":"aaknm3u7gs9x"},"type":"Feature","geometry":{"type":"Point","coordinates":[-1.4951,6.4804]}},{"properties":{"latitude":6.84821,"region":"Ashanti","district":"Sekyere East","facilityname":"Effiduase Trust Maternity Home","type":"Maternity Home","ownership":"Private","town":"Effiduase","longitude":-1.39412,"id":"aaknm3i2wgsg"},"type":"Feature","geometry":{"type":"Point","coordinates":[-1.39412,6.84821]}},{"properties":{"latitude":6.19235,"region":"Ashanti","district":"Obuasi Municipal","facilityname":"Emmanuel  Maternity  Home","type":"Maternity Home","ownership":"Private","town":"Boete","longitude":-1.64475,"id":"aaknm3om5y6a"},"type":"Feature","geometry":{"type":"Point","coordinates":[-1.64475,6.19235]}},{"properties":{"latitude":7.37894,"region":"Ashanti","district":"Ejura Sekyeredumasi","facilityname":"Enso Nyameye Maternity Home","type":"Maternity Home","ownership":"Private","town":"Kontokori Line","longitude":-1.35796,"id":"aaknm3up1fdf"},"type":"Feature","geometry":{"type":"Point","coordinates":[-1.35796,7.37894]}},{"properties":{"latitude":6.61458,"region":"Ashanti","district":"Atwima-Kwanwoma","facilityname":"Eye Adom Maternity Home","type":"Maternity Home","ownership":"Private","town":"Brofoyeduru","longitude":-1.65857,"id":"aaknm3se6m3n"},"type":"Feature","geometry":{"type":"Point","coordinates":[-1.65857,6.61458]}},{"properties":{"latitude":6.78875,"region":"Ashanti","district":"Afigya-Kwabre","facilityname":"Gladys Maternity Home","type":"Maternity Home","ownership":"Private","town":"Kodie","longitude":-1.56109,"id":"aaknm3r9snbi"},"type":"Feature","geometry":{"type":"Point","coordinates":[-1.56109,6.78875]}},{"properties":{"latitude":7.0,"region":"Ashanti","district":"Atwima-Nwabiagya","facilityname":"God is Able Maternity Home","type":"Maternity Home","ownership":"Private","town":"Sepase","longitude":-2.0,"id":"aaknm3lapc6h"},"type":"Feature","geometry":{"type":"Point","coordinates":[-2.0,7.0]}},{"properties":{"latitude":6.73257,"region":"Ashanti","district":"Ejisu-Juaben Municipal","facilityname":"Grace Maternity Home and Clinic","type":"Maternity Home","ownership":"Private","town":"Akyawkrom","longitude":-1.46146,"id":"aaknm3kr9abe"},"type":"Feature","geometry":{"type":"Point","coordinates":[-1.46146,6.73257]}},{"properties":{"latitude":6.71479,"region":"Ashanti","district":"Ejisu-Juaben Municipal","facilityname":"Humble Maternity Home","type":"Maternity Home","ownership":"Private","town":"Kokobra","longitude":-1.52225,"id":"aaknm3qa598u"},"type":"Feature","geometry":{"type":"Point","coordinates":[-1.52225,6.71479]}},{"properties":{"latitude":6.81462,"region":"Ashanti","district":"Afigya-Kwabre","facilityname":"Jalua  Maternity Home","type":"Maternity Home","ownership":"Private","town":"Nkukua Buoho","longitude":-1.64877,"id":"aaknm3kzjn6t"},"type":"Feature","geometry":{"type":"Point","coordinates":[-1.64877,6.81462]}},{"properties":{"latitude":6.20313,"region":"Ashanti","district":"Obuasi Municipal","facilityname":"Jemina Maternity Home","type":"Maternity Home","ownership":"Private","town":"Obuasi Central","longitude":-1.66816,"id":"aaknm3veyfoe"},"type":"Feature","geometry":{"type":"Point","coordinates":[-1.66816,6.20313]}},{"properties":{"latitude":6.73865,"region":"Ashanti","district":"Ejisu-Juaben Municipal","facilityname":"Jesus Is Lord Maternity Home","type":"Maternity Home","ownership":"Private","town":"Tikrom","longitude":-1.51092,"id":"aaknm3pjiyub"},"type":"Feature","geometry":{"type":"Point","coordinates":[-1.51092,6.73865]}},{"properties":{"latitude":6.79962,"region":"Ashanti","district":"Kwabre","facilityname":"Joy Maternity Home","type":"Maternity Home","ownership":"Private","town":"Mamponteng","longitude":-1.64543,"id":"aaknm3ukjj7c"},"type":"Feature","geometry":{"type":"Point","coordinates":[-1.64543,6.79962]}},{"properties":{"latitude":6.71524,"region":"Ashanti","district":"Ejisu-Juaben Municipal","facilityname":"Mama Tina Maternity Home","type":"Maternity Home","ownership":"Private","town":"Kwamo","longitude":-1.50509,"id":"aaknm3hm7fxl"},"type":"Feature","geometry":{"type":"Point","coordinates":[-1.50509,6.71524]}},{"properties":{"latitude":6.47682,"region":"Ashanti","district":"Amansie West","facilityname":"Manso Nkwanta Maternity Home","type":"Maternity Home","ownership":"Private","town":"Manso Nkwanta","longitude":-1.87916,"id":"aaknm3vh8j9s"},"type":"Feature","geometry":{"type":"Point","coordinates":[-1.87916,6.47682]}},{"properties":{"latitude":6.35241,"region":"Ashanti","district":"Amansie Central","facilityname":"Marben Maternity","type":"Maternity Home","ownership":"Private","town":"Jacobu","longitude":-1.67799,"id":"aaknm3s8bgb6"},"type":"Feature","geometry":{"type":"Point","coordinates":[-1.67799,6.35241]}},{"properties":{"latitude":6.72122,"region":"Ashanti","district":"Ejisu-Juaben Municipal","facilityname":"Memorial Maternity Home","type":"Maternity Home","ownership":"Private","town":"Okyerekrom","longitude":-1.52589,"id":"aaknm3j50jx9"},"type":"Feature","geometry":{"type":"Point","coordinates":[-1.52589,6.72122]}},{"properties":{"latitude":7.0,"region":"Ashanti","district":"Atwima-Nwabiagya","facilityname":"Nana Frema Maternity Home","type":"Maternity Home","ownership":"Private","town":"Adankwame","longitude":-2.0,"id":"aaknm3t06wh9"},"type":"Feature","geometry":{"type":"Point","coordinates":[-2.0,7.0]}},{"properties":{"latitude":7.0,"region":"Ashanti","district":"Atwima-Nwabiagya","facilityname":"Nyama Maternity Home","type":"Maternity Home","ownership":"Private","town":"Achiase","longitude":-2.0,"id":"aaknm3j73hbc"},"type":"Feature","geometry":{"type":"Point","coordinates":[-2.0,7.0]}},{"properties":{"latitude":6.54096,"region":"Ashanti","district":"Amansie West","facilityname":"Nyame Akwan Maternity","type":"Maternity Home","ownership":"Private","town":"Mpatoum","longitude":-1.93229,"id":"aaknm3pfvtm7"},"type":"Feature","geometry":{"type":"Point","coordinates":[-1.93229,6.54096]}},{"properties":{"latitude":6.77474,"region":"Ashanti","district":"Afigya-Kwabre","facilityname":"Owusua Maternity Home","type":"Maternity Home","ownership":"Private","town":"Bronkong","longitude":-1.63906,"id":"aaknm3hzwzmu"},"type":"Feature","geometry":{"type":"Point","coordinates":[-1.63906,6.77474]}},{"properties":{"latitude":6.86521,"region":"Ashanti","district":"Sekyere Afram Plains","facilityname":"Oyoko Our Lady Maternity Home","type":"Maternity Home","ownership":"Private","town":"Oyoko","longitude":-1.38976,"id":"aaknm3pp6925"},"type":"Feature","geometry":{"type":"Point","coordinates":[-1.38976,6.86521]}},{"properties":{"latitude":6.89428,"region":"Ashanti","district":"Sekyere Afram Plains","facilityname":"Peace and Comfort Maternity Clinic","type":"Maternity Home","ownership":"Private","town":"Kumawu Bodomasi","longitude":-1.25522,"id":"aaknm3p3ygat"},"type":"Feature","geometry":{"type":"Point","coordinates":[-1.25522,6.89428]}},{"properties":{"latitude":6.52668,"region":"Ashanti","district":"Ejisu-Juaben Municipal","facilityname":"Peminase Maternity Home","type":"Maternity Home","ownership":"Government","town":"Peminase","longitude":-1.31086,"id":"aaknm3h57rvg"},"type":"Feature","geometry":{"type":"Point","coordinates":[-1.31086,6.52668]}},{"properties":{"latitude":6.72345,"region":"Ashanti","district":"Ejisu-Juaben Municipal","facilityname":"Queen Victoria Maternity Home and Clinic","type":"Maternity Home","ownership":"Private","town":"Serwaa Akura","longitude":-1.47869,"id":"aaknm3teh8wo"},"type":"Feature","geometry":{"type":"Point","coordinates":[-1.47869,6.72345]}},{"properties":{"latitude":6.52025,"region":"Ashanti","district":"Asante-Akim South","facilityname":"Rose Maternity Home","type":"Maternity Home","ownership":"Private","town":"Obogu","longitude":-1.12042,"id":"aaknm3o8fbsx"},"type":"Feature","geometry":{"type":"Point","coordinates":[-1.12042,6.52025]}},{"properties":{"latitude":7.05921,"region":"Ashanti","district":"Mampong Municipal","facilityname":"Sister Philipa Maternity Home","type":"Maternity Home","ownership":"Private","town":"Mampong Kokoase","longitude":-1.39703,"id":"aaknm3vkypg7"},"type":"Feature","geometry":{"type":"Point","coordinates":[-1.39703,7.05921]}},{"properties":{"latitude":6.84578,"region":"Ashanti","district":"Ahafo-Ano South","facilityname":"St. Anns Maternity Home","type":"Maternity Home","ownership":"Private","town":"Essibey Nkwata","longitude":-1.76006,"id":"aaknm3oc8zkb"},"type":"Feature","geometry":{"type":"Point","coordinates":[-1.76006,6.84578]}},{"properties":{"latitude":7.22643,"region":"Ashanti","district":"Ejura Sekyeredumasi","facilityname":"St. Anthony Maternity Clinic","type":"Maternity Home","ownership":"Government","town":"Anyinasu","longitude":-1.58011,"id":"aaknm3mz9wkt"},"type":"Feature","geometry":{"type":"Point","coordinates":[-1.58011,7.22643]}},{"properties":{"latitude":7.0,"region":"Ashanti","district":"Atwima-Nwabiagya","facilityname":"St. Micheal Maternity Home","type":"Maternity Home","ownership":"Private","town":"Achiase","longitude":-2.0,"id":"aaknm3vyq2co"},"type":"Feature","geometry":{"type":"Point","coordinates":[-2.0,7.0]}},{"properties":{"latitude":6.76359,"region":"Ashanti","district":"Afigya-Kwabre","facilityname":"St. Theresa's Maternity Home","type":"Maternity Home","ownership":"Private","town":"Atimatim","longitude":-1.61093,"id":"aaknm3hvzgwd"},"type":"Feature","geometry":{"type":"Point","coordinates":[-1.61093,6.76359]}},{"properties":{"latitude":6.20762,"region":"Ashanti","district":"Obuasi Municipal","facilityname":"The Queens Maternity Home","type":"Maternity Home","ownership":"Private","town":"New Estate-Obuasi","longitude":-1.67233,"id":"aaknm3n0kbbz"},"type":"Feature","geometry":{"type":"Point","coordinates":[-1.67233,6.20762]}},{"properties":{"latitude":6.45139,"region":"Ashanti","district":"Bekwai Municipal","facilityname":"Tinkwamah Maternity Home","type":"Maternity Home","ownership":"Private","town":"Amoaful","longitude":-1.56537,"id":"aaknm3jrx9am"},"type":"Feature","geometry":{"type":"Point","coordinates":[-1.56537,6.45139]}},{"properties":{"latitude":6.19277,"region":"Ashanti","district":"Obuasi Municipal","facilityname":"Twumwaa Maternity Home","type":"Maternity Home","ownership":"Private","town":"Brahabebome","longitude":-1.62455,"id":"aaknm3tcm31m"},"type":"Feature","geometry":{"type":"Point","coordinates":[-1.62455,6.19277]}},{"properties":{"latitude":6.65836,"region":"Ashanti","district":"Atwima-Mponua","facilityname":"Victory Christ Maternity Home","type":"Maternity Home","ownership":"Private","town":"Mpasatia","longitude":-1.84223,"id":"aaknm3mwnhz8"},"type":"Feature","geometry":{"type":"Point","coordinates":[-1.84223,6.65836]}},{"properties":{"latitude":6.19917,"region":"Ashanti","district":"Obuasi Municipal","facilityname":"Watt 250 Maternity  Home","type":"Maternity Home","ownership":"Private","town":"Kwabrafoso","longitude":-1.65556,"id":"aaknm3v7oc9w"},"type":"Feature","geometry":{"type":"Point","coordinates":[-1.65556,6.19917]}},{"properties":{"latitude":6.72505,"region":"Ashanti","district":"Ejisu-Juaben Municipal","facilityname":"Yaa Asantewaa Maternity Clinic","type":"Maternity Home","ownership":"Private","town":"Ejisu","longitude":-1.46998,"id":"aaknm3okthxz"},"type":"Feature","geometry":{"type":"Point","coordinates":[-1.46998,6.72505]}},{"properties":{"latitude":null,"region":"Ashanti","district":"Atwima-Nwabiagya","facilityname":"Achiase Nyama Maternity Home","type":"Maternity Home","ownership":"Private","town":"Achiase","longitude":null,"id":"aaknm3h451aw"},"type":"Feature","geometry":null},{"properties":{"latitude":null,"region":"Ashanti","district":"Atwima-Mponua","facilityname":"Anyinamso Maternity Home","type":"Maternity Home","ownership":"Private","town":"Anyinamso","longitude":null,"id":"aaknm3mla04x"},"type":"Feature","geometry":null},{"properties":{"latitude":null,"region":"Ashanti","district":"Ahafo-Ano North","facilityname":"Ante Amma Maternity Home","type":"Maternity Home","ownership":"Private","town":"Abonsuaso","longitude":null,"id":"aaknm3tzk7ih"},"type":"Feature","geometry":null},{"properties":{"latitude":null,"region":"Ashanti","district":"Ahafo-Ano North","facilityname":"Janet Maternity Home","type":"Maternity Home","ownership":"Private","town":"Anyinasuso","longitude":null,"id":"aaknm3itq0z0"},"type":"Feature","geometry":null},{"properties":{"latitude":6.82287,"region":"Ashanti","district":"Kumasi Metropolitan","facilityname":"Adeb-Sab Maternity Home and Clinic","type":"Maternity Home","ownership":"Private","town":"Magazine","longitude":-1.52227,"id":"aaknm3gf668j"},"type":"Feature","geometry":{"type":"Point","coordinates":[-1.52227,6.82287]}},{"properties":{"latitude":6.84002,"region":"Ashanti","district":"Kumasi Metropolitan","facilityname":"Aded-Sab Maternity Home","type":"Maternity Home","ownership":"Private","town":"Maakro","longitude":-1.55372,"id":"aaknm3gwlbfd"},"type":"Feature","geometry":{"type":"Point","coordinates":[-1.55372,6.84002]}},{"properties":{"latitude":6.84819,"region":"Ashanti","district":"Kumasi Metropolitan","facilityname":"Alpha Maternity Home","type":"Maternity Home","ownership":"Private","town":"Sokoban","longitude":-1.54934,"id":"aaknm3gcgrgq"},"type":"Feature","geometry":{"type":"Point","coordinates":[-1.54934,6.84819]}},{"properties":{"latitude":6.84775,"region":"Ashanti","district":"Kumasi Metropolitan","facilityname":"Amamata Memorial Maternity Home","type":"Maternity Home","ownership":"Private","town":"Sawaba","longitude":-1.56165,"id":"aaknm3uo786r"},"type":"Feature","geometry":{"type":"Point","coordinates":[-1.56165,6.84775]}},{"properties":{"latitude":6.79751,"region":"Ashanti","district":"Kumasi Metropolitan","facilityname":"Ampomaa Memorial Maternity Home","type":"Maternity Home","ownership":"Private","town":"Anwomaso-High Tension","longitude":-1.50148,"id":"aaknm3ltt6vt"},"type":"Feature","geometry":{"type":"Point","coordinates":[-1.50148,6.79751]}},{"properties":{"latitude":6.71566,"region":"Ashanti","district":"Kumasi Metropolitan","facilityname":"Ayiwa Maternity Home","type":"Maternity Home","ownership":"Private","town":"New Suame","longitude":-1.63377,"id":"aaknm3lsfdtp"},"type":"Feature","geometry":{"type":"Point","coordinates":[-1.63377,6.71566]}},{"properties":{"latitude":6.73838,"region":"Ashanti","district":"Kumasi Metropolitan","facilityname":"Baby Pearl Maternity Home/Clinic","type":"Maternity Home","ownership":"Private","town":"Buokrom","longitude":-1.58911,"id":"aaknm3m0bzki"},"type":"Feature","geometry":{"type":"Point","coordinates":[-1.58911,6.73838]}},{"properties":{"latitude":6.71371,"region":"Ashanti","district":"Kumasi Metropolitan","facilityname":"Boatemaa Maternity Home","type":"Maternity Home","ownership":"Private","town":"Asokore Mampong","longitude":-1.56683,"id":"aaknm3oknkzr"},"type":"Feature","geometry":{"type":"Point","coordinates":[-1.56683,6.71371]}},{"properties":{"latitude":6.74944,"region":"Ashanti","district":"Kumasi Metropolitan","facilityname":"Central Maternity Home","type":"Maternity Home","ownership":"Private","town":"Pankrono","longitude":-1.60418,"id":"aaknm3vmsdau"},"type":"Feature","geometry":{"type":"Point","coordinates":[-1.60418,6.74944]}},{"properties":{"latitude":6.73331,"region":"Ashanti","district":"Kumasi Metropolitan","facilityname":"Central Maternity Home - ANNEX","type":"Maternity Home","ownership":"Private","town":"Tafo Zongo","longitude":-1.63381,"id":"aaknm3gpc1xf"},"type":"Feature","geometry":{"type":"Point","coordinates":[-1.63381,6.73331]}},{"properties":{"latitude":6.69561,"region":"Ashanti","district":"Kumasi Metropolitan","facilityname":"Comfort Maternity Home","type":"Maternity Home","ownership":"Private","town":"Oduom","longitude":-1.54194,"id":"aaknm3k1h06g"},"type":"Feature","geometry":{"type":"Point","coordinates":[-1.54194,6.69561]}},{"properties":{"latitude":6.70995,"region":"Ashanti","district":"Kumasi Metropolitan","facilityname":"Ebenezer Maternity Home","type":"Maternity Home","ownership":"Private","town":"Abrepo Junction","longitude":-1.63812,"id":"aaknm3o65dau"},"type":"Feature","geometry":{"type":"Point","coordinates":[-1.63812,6.70995]}},{"properties":{"latitude":6.69491,"region":"Ashanti","district":"Kumasi Metropolitan","facilityname":"Eliza Maternity Home","type":"Maternity Home","ownership":"Private","town":"Akwatialine","longitude":-1.60748,"id":"aaknm3lqi1f0"},"type":"Feature","geometry":{"type":"Point","coordinates":[-1.60748,6.69491]}},{"properties":{"latitude":6.71477,"region":"Ashanti","district":"Kumasi Metropolitan","facilityname":"Faith Maternity Home","type":"Maternity Home","ownership":"Private","town":"Krofrom","longitude":-1.61574,"id":"aaknm3jz1rpw"},"type":"Feature","geometry":{"type":"Point","coordinates":[-1.61574,6.71477]}},{"properties":{"latitude":6.68061,"region":"Ashanti","district":"Kumasi Metropolitan","facilityname":"Florence Maternity Home","type":"Maternity Home","ownership":"Private","town":"Anloga","longitude":-1.59284,"id":"aaknm3qgr45t"},"type":"Feature","geometry":{"type":"Point","coordinates":[-1.59284,6.68061]}},{"properties":{"latitude":6.75109,"region":"Ashanti","district":"Kumasi Metropolitan","facilityname":"God's Glory Maternity Clinic","type":"Maternity Home","ownership":"Private","town":"Kronum","longitude":-1.63885,"id":"aaknm3pua9dg"},"type":"Feature","geometry":{"type":"Point","coordinates":[-1.63885,6.75109]}},{"properties":{"latitude":6.75545,"region":"Ashanti","district":"Kumasi Metropolitan","facilityname":"Happy Day Maternity Home","type":"Maternity Home","ownership":"Private","town":"Kronum","longitude":-1.64439,"id":"aaknm3vma3xy"},"type":"Feature","geometry":{"type":"Point","coordinates":[-1.64439,6.75545]}},{"properties":{"latitude":6.73081,"region":"Ashanti","district":"Kumasi Metropolitan","facilityname":"Holy Rosary Maternity Home","type":"Maternity Home","ownership":"Private","town":"Old Tafo","longitude":-1.61914,"id":"aaknm3nmu9jy"},"type":"Feature","geometry":{"type":"Point","coordinates":[-1.61914,6.73081]}},{"properties":{"latitude":6.74132,"region":"Ashanti","district":"Kumasi Metropolitan","facilityname":"Humble Maternity Home - Annex","type":"Maternity Home","ownership":"Private","town":"Pankrono Estate","longitude":-1.60525,"id":"aaknm3jodiza"},"type":"Feature","geometry":{"type":"Point","coordinates":[-1.60525,6.74132]}},{"properties":{"latitude":6.65464,"region":"Ashanti","district":"Kumasi Metropolitan","facilityname":"Kaase Maternity Home","type":"Maternity Home","ownership":"Private","town":"Kaase","longitude":-1.60718,"id":"aaknm3tkrbpj"},"type":"Feature","geometry":{"type":"Point","coordinates":[-1.60718,6.65464]}},{"properties":{"latitude":6.72244,"region":"Ashanti","district":"Kumasi Metropolitan","facilityname":"Kezia Maternity Home and Clinic","type":"Maternity Home","ownership":"Private","town":"Buokrom","longitude":-1.59061,"id":"aaknm3p4snv2"},"type":"Feature","geometry":{"type":"Point","coordinates":[-1.59061,6.72244]}},{"properties":{"latitude":6.64408,"region":"Ashanti","district":"Kumasi Metropolitan","facilityname":"Maame Serwa Maternity Home","type":"Maternity Home","ownership":"Private","town":"Atonsu-Bokro","longitude":-1.59206,"id":"aaknm3l7aty0"},"type":"Feature","geometry":{"type":"Point","coordinates":[-1.59206,6.64408]}},{"properties":{"latitude":6.75131,"region":"Ashanti","district":"Kumasi Metropolitan","facilityname":"Maggie's Maternity Home","type":"Maternity Home","ownership":"Private","town":"Atafoa - Pankrono","longitude":-1.61758,"id":"aaknm3qttde0"},"type":"Feature","geometry":{"type":"Point","coordinates":[-1.61758,6.75131]}},{"properties":{"latitude":6.71839,"region":"Ashanti","district":"Kumasi Metropolitan","facilityname":"Majero Maternity Home and Clinic","type":"Maternity Home","ownership":"Private","town":"Ampabame","longitude":-1.65101,"id":"aaknm3plz034"},"type":"Feature","geometry":{"type":"Point","coordinates":[-1.65101,6.71839]}},{"properties":{"latitude":6.74306,"region":"Ashanti","district":"Kumasi Metropolitan","facilityname":"Mammie Maternity Home","type":"Maternity Home","ownership":"Private","town":"Buokrom Estate","longitude":-1.59227,"id":"aaknm3w9xoop"},"type":"Feature","geometry":{"type":"Point","coordinates":[-1.59227,6.74306]}},{"properties":{"latitude":6.67783,"region":"Ashanti","district":"Kumasi Metropolitan","facilityname":"Mary's Maternity Home","type":"Maternity Home","ownership":"Private","town":"New Asokwa","longitude":-1.60169,"id":"aaknm3qahifp"},"type":"Feature","geometry":{"type":"Point","coordinates":[-1.60169,6.67783]}},{"properties":{"latitude":6.69429,"region":"Ashanti","district":"Kumasi Metropolitan","facilityname":"Mintah Afari Maternity Home","type":"Maternity Home","ownership":"Private","town":"Bompata","longitude":-1.61605,"id":"aaknm3goph18"},"type":"Feature","geometry":{"type":"Point","coordinates":[-1.61605,6.69429]}},{"properties":{"latitude":6.69232,"region":"Ashanti","district":"Kumasi Metropolitan","facilityname":"New Life Maternity  Home and Clinic","type":"Maternity Home","ownership":"Private","town":"Zongo-Ayigya","longitude":-1.57003,"id":"aaknm3v0v8lh"},"type":"Feature","geometry":{"type":"Point","coordinates":[-1.57003,6.69232]}},{"properties":{"latitude":6.69702,"region":"Ashanti","district":"Kumasi Metropolitan","facilityname":"New Life Maternity and Clinic","type":"Maternity Home","ownership":"Private","town":"Anwomase-Bebre","longitude":-1.53315,"id":"aaknm3su88mn"},"type":"Feature","geometry":{"type":"Point","coordinates":[-1.53315,6.69702]}},{"properties":{"latitude":6.70131,"region":"Ashanti","district":"Kumasi Metropolitan","facilityname":"Nyame ye Maternity Home","type":"Maternity Home","ownership":"Private","town":"Asawase","longitude":-1.60595,"id":"aaknm3uqz1xv"},"type":"Feature","geometry":{"type":"Point","coordinates":[-1.60595,6.70131]}},{"properties":{"latitude":6.64775,"region":"Ashanti","district":"Kumasi Metropolitan","facilityname":"Our Lady Maternity Home","type":"Maternity Home","ownership":"Private","town":"Bokro-Atonsu","longitude":-1.59059,"id":"aaknm3v2g82k"},"type":"Feature","geometry":{"type":"Point","coordinates":[-1.59059,6.64775]}},{"properties":{"latitude":6.70437,"region":"Ashanti","district":"Kumasi Metropolitan","facilityname":"Owusuwa Memorial Maternity Maternity","type":"Maternity Home","ownership":"Private","town":"Adukrom","longitude":-1.58533,"id":"aaknm3g3t1ce"},"type":"Feature","geometry":{"type":"Point","coordinates":[-1.58533,6.70437]}},{"properties":{"latitude":6.69977,"region":"Ashanti","district":"Kumasi Metropolitan","facilityname":"Owusuaa Maternity Home","type":"Maternity Home","ownership":"Private","town":"Aboabo","longitude":-1.59931,"id":"aaknm3n5yjya"},"type":"Feature","geometry":{"type":"Point","coordinates":[-1.59931,6.69977]}},{"properties":{"latitude":6.68739,"region":"Ashanti","district":"Kumasi Metropolitan","facilityname":"Paradise Maternity and Clinic","type":"Maternity Home","ownership":"Private","town":"Ayigya","longitude":-1.57368,"id":"aaknm3ukv7dj"},"type":"Feature","geometry":{"type":"Point","coordinates":[-1.57368,6.68739]}},{"properties":{"latitude":6.70981,"region":"Ashanti","district":"Kumasi Metropolitan","facilityname":"Queen of Peace Maternity Home","type":"Maternity Home","ownership":"Private","town":"Adoato","longitude":-1.64148,"id":"aaknm3sgb7gl"},"type":"Feature","geometry":{"type":"Point","coordinates":[-1.64148,6.70981]}},{"properties":{"latitude":6.67908,"region":"Ashanti","district":"Kumasi Metropolitan","facilityname":"Queen Victory Maternity Home","type":"Maternity Home","ownership":"Private","town":"Anloga","longitude":-1.59208,"id":"aaknm3qdt0ul"},"type":"Feature","geometry":{"type":"Point","coordinates":[-1.59208,6.67908]}},{"properties":{"latitude":6.70227,"region":"Ashanti","district":"Kumasi Metropolitan","facilityname":"Rucky Memorial Maternity Clinic","type":"Maternity Home","ownership":"Private","town":"Sawaba","longitude":-1.58091,"id":"aaknm3hr62nq"},"type":"Feature","geometry":{"type":"Point","coordinates":[-1.58091,6.70227]}},{"properties":{"latitude":6.75172,"region":"Ashanti","district":"Kumasi Metropolitan","facilityname":"Shalom Maternity Home","type":"Maternity Home","ownership":"Private","town":"Pankrono","longitude":-1.60518,"id":"aaknm3ixl9aj"},"type":"Feature","geometry":{"type":"Point","coordinates":[-1.60518,6.75172]}},{"properties":{"latitude":6.69352,"region":"Ashanti","district":"Kumasi Metropolitan","facilityname":"St. Helena Maternity Home","type":"Maternity Home","ownership":"Private","town":"Anwiam","longitude":-1.54722,"id":"aaknm3v0rztl"},"type":"Feature","geometry":{"type":"Point","coordinates":[-1.54722,6.69352]}},{"properties":{"latitude":6.73629,"region":"Ashanti","district":"Kumasi Metropolitan","facilityname":"The Word Maternity Home","type":"Maternity Home","ownership":"Private","town":"Mile 4- Old Tafo","longitude":-1.61189,"id":"aaknm3ukxrcs"},"type":"Feature","geometry":{"type":"Point","coordinates":[-1.61189,6.73629]}},{"properties":{"latitude":6.72516,"region":"Ashanti","district":"Kumasi Metropolitan","facilityname":"Tinkwama Maternity Home","type":"Maternity Home","ownership":"Private","town":"Asuogya","longitude":-1.64419,"id":"aaknm3lg4p2n"},"type":"Feature","geometry":{"type":"Point","coordinates":[-1.64419,6.72516]}},{"properties":{"latitude":6.71613,"region":"Ashanti","district":"Kumasi Metropolitan","facilityname":"Turkson Memorial Maternity Home","type":"Maternity Home","ownership":"Private","town":"Old Suame","longitude":-1.62977,"id":"aaknm3gb2o7c"},"type":"Feature","geometry":{"type":"Point","coordinates":[-1.62977,6.71613]}},{"properties":{"latitude":6.69609,"region":"Ashanti","district":"Kumasi Metropolitan","facilityname":"Vibro Maternity Home and Clinic","type":"Maternity Home","ownership":"Private","town":"Anwomase-Bebre","longitude":-1.53127,"id":"aaknm3iqhqfc"},"type":"Feature","geometry":{"type":"Point","coordinates":[-1.53127,6.69609]}},{"properties":{"latitude":6.68806,"region":"Ashanti","district":"Kumasi Metropolitan","facilityname":"Victory Clinic and Maternity Home","type":"Maternity Home","ownership":"Private","town":"Ayigya","longitude":-1.57589,"id":"aaknm3h1meg0"},"type":"Feature","geometry":{"type":"Point","coordinates":[-1.57589,6.68806]}},{"properties":{"latitude":null,"region":"Ashanti","district":"Kumasi Metropolitan","facilityname":"Asawasi Nyame Ye Maternity Home","type":"Maternity Home","ownership":"Private","town":"Asawasi","longitude":null,"id":"aaknm3ozzm50"},"type":"Feature","geometry":null},{"properties":{"latitude":null,"region":"Ashanti","district":"Kumasi Metropolitan","facilityname":"Maud Maternity Home","type":"Maternity Home","ownership":"Private","town":"Ahensan","longitude":null,"id":"aaknm3l1b7za"},"type":"Feature","geometry":null},{"properties":{"latitude":null,"region":"Ashanti","district":"Kumasi Metropolitan","facilityname":"Philip Maternity Home","type":"Maternity Home","ownership":"Private","town":"Tanoso","longitude":null,"id":"aaknm3wfscq3"},"type":"Feature","geometry":null},{"properties":{"latitude":null,"region":"Ashanti","district":"Kumasi Metropolitan","facilityname":"St. Monica Maternity Hme","type":"Maternity Home","ownership":"Private","town":"Ampabame","longitude":null,"id":"aaknm3j4tww1"},"type":"Feature","geometry":null},{"properties":{"latitude":null,"region":"Ashanti","district":"Kumasi Metropolitan","facilityname":"Asadu Maternity Home","type":"Maternity Home","ownership":"Private","town":"Sokoban","longitude":null,"id":"aaknm3rhbi1b"},"type":"Feature","geometry":null},{"properties":{"latitude":null,"region":"Ashanti","district":"Kumasi Metropolitan","facilityname":"Living Waters Maternity Home","type":"Maternity Home","ownership":"Private","town":"Odeneho Kwadaso","longitude":null,"id":"aaknm3vq9vce"},"type":"Feature","geometry":null},{"properties":{"latitude":null,"region":"Ashanti","district":"Kumasi Metropolitan","facilityname":"Yonkodo Maternity Home","type":"Maternity Home","ownership":"Private","town":"South Suntreso","longitude":null,"id":"aaknm3s8sg3p"},"type":"Feature","geometry":null},{"properties":{"latitude":null,"region":"Ashanti","district":"Kumasi Metropolitan","facilityname":"Calvary Maternity Home","type":"Maternity Home","ownership":"Private","town":"Nwamasi","longitude":null,"id":"aaknm3ohjjo0"},"type":"Feature","geometry":null},{"properties":{"latitude":null,"region":"Ashanti","district":"Kumasi Metropolitan","facilityname":"Divine Maternity Home","type":"Maternity Home","ownership":"Private","town":"Kwadaso Estate","longitude":null,"id":"aaknm3qug4dd"},"type":"Feature","geometry":null},{"properties":{"latitude":null,"region":"Ashanti","district":"Kumasi Metropolitan","facilityname":"Kpodo Maternity Home","type":"Maternity Home","ownership":"Private","town":"Kpodo","longitude":null,"id":"aaknm3nyf52h"},"type":"Feature","geometry":null},{"properties":{"latitude":null,"region":"Ashanti","district":"Kumasi Metropolitan","facilityname":"New Birth Maternity Home","type":"Maternity Home","ownership":"Private","town":"Old Tafo","longitude":null,"id":"aaknm3myabxu"},"type":"Feature","geometry":null},{"properties":{"latitude":6.80205,"region":"Brong Ahafo","district":"Asunafo North Municipal","facilityname":"Agyei Mensah Maternity Home","type":"Maternity Home","ownership":"Private","town":"Gaoso","longitude":-2.51738,"id":"aaknm3to22aw"},"type":"Feature","geometry":{"type":"Point","coordinates":[-2.51738,6.80205]}},{"properties":{"latitude":6.9004,"region":"Brong Ahafo","district":"Asunafo North Municipal","facilityname":"District Assembly Maternity Home","type":"Maternity Home","ownership":"Government","town":"Mim","longitude":-2.5589,"id":"aaknm3it2utm"},"type":"Feature","geometry":{"type":"Point","coordinates":[-2.5589,6.9004]}},{"properties":{"latitude":6.94324,"region":"Brong Ahafo","district":"Asunafo North Municipal","facilityname":"Dankwa Maternity Home","type":"Maternity Home","ownership":"Private","town":"Kasapin","longitude":-2.80505,"id":"aaknm3pcdmip"},"type":"Feature","geometry":{"type":"Point","coordinates":[-2.80505,6.94324]}},{"properties":{"latitude":6.6507,"region":"Brong Ahafo","district":"Asunafo South","facilityname":"Vic Maternity Home","type":"Maternity Home","ownership":"Private","town":"Norbeko","longitude":-2.42445,"id":"aaknm3slpdl3"},"type":"Feature","geometry":{"type":"Point","coordinates":[-2.42445,6.6507]}},{"properties":{"latitude":6.83205,"region":"Brong Ahafo","district":"Asutifi","facilityname":"Nyameadom Maternity  Home","type":"Maternity Home","ownership":"Government","town":"Twabidi No.1","longitude":-2.362,"id":"aaknm3t53iyk"},"type":"Feature","geometry":{"type":"Point","coordinates":[-2.362,6.83205]}},{"properties":{"latitude":6.99387,"region":"Brong Ahafo","district":"Asutifi","facilityname":"St. Elizabeth Maternity Home","type":"Maternity Home","ownership":"Private","town":"Nkensere","longitude":-2.53687,"id":"aaknm3we0f7b"},"type":"Feature","geometry":{"type":"Point","coordinates":[-2.53687,6.99387]}},{"properties":{"latitude":6.98035,"region":"Brong Ahafo","district":"Asutifi","facilityname":"Esther Nyarko Maternity Home","type":"Maternity Home","ownership":"Private","town":"Kenyasi","longitude":-2.38637,"id":"aaknm3nz5uvj"},"type":"Feature","geometry":{"type":"Point","coordinates":[-2.38637,6.98035]}},{"properties":{"latitude":7.46482,"region":"Brong Ahafo","district":"Berekum Municipal","facilityname":"Christie Maternity Home","type":"Maternity Home","ownership":"Private","town":"Berekum","longitude":-2.57323,"id":"aaknm3sj84u4"},"type":"Feature","geometry":{"type":"Point","coordinates":[-2.57323,7.46482]}},{"properties":{"latitude":7.45745,"region":"Brong Ahafo","district":"Berekum Municipal","facilityname":"Aggie Maternity Home","type":"Maternity Home","ownership":"Private","town":"Berekum","longitude":-2.58685,"id":"aaknm3qodfl6"},"type":"Feature","geometry":{"type":"Point","coordinates":[-2.58685,7.45745]}},{"properties":{"latitude":7.44315,"region":"Brong Ahafo","district":"Berekum Municipal","facilityname":"Palm Avenue Maternity Home","type":"Maternity Home","ownership":"Private","town":"Berekum","longitude":-2.58212,"id":"aaknm3ptoqi6"},"type":"Feature","geometry":{"type":"Point","coordinates":[-2.58212,7.44315]}},{"properties":{"latitude":7.45795,"region":"Brong Ahafo","district":"Berekum Municipal","facilityname":"Philomina Maternity Home","type":"Maternity Home","ownership":"Private","town":"Berekum","longitude":-2.60001,"id":"aaknm3ha3a5v"},"type":"Feature","geometry":{"type":"Point","coordinates":[-2.60001,7.45795]}},{"properties":{"latitude":7.46191,"region":"Brong Ahafo","district":"Berekum Municipal","facilityname":"Angels maternity home","type":"Maternity Home","ownership":"Private","town":"Berekum","longitude":-2.59254,"id":"aaknm3pjuft1"},"type":"Feature","geometry":{"type":"Point","coordinates":[-2.59254,7.46191]}},{"properties":{"latitude":7.45051,"region":"Brong Ahafo","district":"Berekum Municipal","facilityname":"Emi Maternity Home","type":"Maternity Home","ownership":"Private","town":"Berekum","longitude":-2.57339,"id":"aaknm3g3qbcs"},"type":"Feature","geometry":{"type":"Point","coordinates":[-2.57339,7.45051]}},{"properties":{"latitude":7.00092,"region":"Brong Ahafo","district":"Dormaa Municipal","facilityname":"Kwaben Maternity Home","type":"Maternity Home","ownership":"Private","town":"Yuwusukrom","longitude":-3.0862,"id":"aaknm3t0vlvf"},"type":"Feature","geometry":{"type":"Point","coordinates":[-3.0862,7.00092]}},{"properties":{"latitude":7.01659,"region":"Brong Ahafo","district":"Dormaa Municipal","facilityname":"Ceci Maternity Home","type":"Maternity Home","ownership":"Government","town":"Nkrankwanta","longitude":-3.04393,"id":"aaknm3p1yadi"},"type":"Feature","geometry":{"type":"Point","coordinates":[-3.04393,7.01659]}},{"properties":{"latitude":7.50335,"region":"Brong Ahafo","district":"Jaman South","facilityname":"Angel's Maternity Home","type":"Maternity Home","ownership":"Government","town":"Atuna","longitude":-2.91504,"id":"aaknm3pg80z7"},"type":"Feature","geometry":{"type":"Point","coordinates":[-2.91504,7.50335]}},{"properties":{"latitude":7.68227,"region":"Brong Ahafo","district":"Jaman South","facilityname":"Elizabeth Maternity Home","type":"Maternity Home","ownership":"CHAG","town":"Dwenem","longitude":-2.78494,"id":"aaknm3nmqf1k"},"type":"Feature","geometry":{"type":"Point","coordinates":[-2.78494,7.68227]}},{"properties":{"latitude":7.63643,"region":"Brong Ahafo","district":"Jaman South","facilityname":"Vida's Maternity Home","type":"Maternity Home","ownership":"Private","town":"Kwameseikrom","longitude":-2.90541,"id":"aaknm3oppkb4"},"type":"Feature","geometry":{"type":"Point","coordinates":[-2.90541,7.63643]}},{"properties":{"latitude":7.74365,"region":"Brong Ahafo","district":"Jaman South","facilityname":"St. Micheal Maternity Home","type":"Maternity Home","ownership":"Private","town":"Adamsu","longitude":-2.80623,"id":"aaknm3hsjjrr"},"type":"Feature","geometry":{"type":"Point","coordinates":[-2.80623,7.74365]}},{"properties":{"latitude":7.77289,"region":"Brong Ahafo","district":"Jaman South","facilityname":"Saviour's Maternity Home","type":"Maternity Home","ownership":"Private","town":"Kofitiakrom","longitude":-2.84769,"id":"aaknm3nj2ppx"},"type":"Feature","geometry":{"type":"Point","coordinates":[-2.84769,7.77289]}},{"properties":{"latitude":8.0674,"region":"Brong Ahafo","district":"Kintampo North Municipal","facilityname":"Glory Prince of  Peace Maternity Home","type":"Maternity Home","ownership":"Government","town":"Kintampo","longitude":-1.72109,"id":"aaknm3g44ccj"},"type":"Feature","geometry":{"type":"Point","coordinates":[-1.72109,8.0674]}},{"properties":{"latitude":7.99955,"region":"Brong Ahafo","district":"Kintampo South","facilityname":"Perpetual Health Maternity Home","type":"Maternity Home","ownership":"Government","town":"Apesika","longitude":-1.54873,"id":"aaknm3sqy1ff"},"type":"Feature","geometry":{"type":"Point","coordinates":[-1.54873,7.99955]}},{"properties":{"latitude":8.22924,"region":"Brong Ahafo","district":"Pru","facilityname":"Bernice Maternity Home","type":"Maternity Home","ownership":"Government","town":"Yeji","longitude":-0.65164,"id":"aaknm3m67g1p"},"type":"Feature","geometry":{"type":"Point","coordinates":[-0.65164,8.22924]}},{"properties":{"latitude":7.29254,"region":"Brong Ahafo","district":"Sunyani","facilityname":"Florence Maternity Home","type":"Maternity Home","ownership":"Private","town":"Kofibadukrom","longitude":-2.9723,"id":"aaknm3t9chpu"},"type":"Feature","geometry":{"type":"Point","coordinates":[-2.9723,7.29254]}},{"properties":{"latitude":7.40584,"region":"Brong Ahafo","district":"Sunyani","facilityname":"Amponsah Memorial Maternity Home","type":"Maternity Home","ownership":"Government","town":"Nsoatre","longitude":-2.46534,"id":"aaknm3kx3qwa"},"type":"Feature","geometry":{"type":"Point","coordinates":[-2.46534,7.40584]}},{"properties":{"latitude":7.37068,"region":"Brong Ahafo","district":"Sunyani","facilityname":"Hannah Maternity Home","type":"Maternity Home","ownership":"Private","town":"Odumase","longitude":-2.31991,"id":"aaknm3uv58n1"},"type":"Feature","geometry":{"type":"Point","coordinates":[-2.31991,7.37068]}},{"properties":{"latitude":7.33862,"region":"Brong Ahafo","district":"Sunyani","facilityname":"Monica's Maternity Home","type":"Maternity Home","ownership":"Private","town":"Sunyani","longitude":-2.31295,"id":"aaknm3hfc9ze"},"type":"Feature","geometry":{"type":"Point","coordinates":[-2.31295,7.33862]}},{"properties":{"latitude":7.34097,"region":"Brong Ahafo","district":"Sunyani","facilityname":"Peace Maternity Home","type":"Maternity Home","ownership":"Government","town":"Sunyani","longitude":-2.2999,"id":"aaknm3vr0m30"},"type":"Feature","geometry":{"type":"Point","coordinates":[-2.2999,7.34097]}},{"properties":{"latitude":7.92632,"region":"Brong Ahafo","district":"Tain","facilityname":"Tafsiru Maternity Home","type":"Maternity Home","ownership":"Government","town":"Menji","longitude":-2.38335,"id":"aaknm3nm5zjl"},"type":"Feature","geometry":{"type":"Point","coordinates":[-2.38335,7.92632]}},{"properties":{"latitude":7.04685,"region":"Brong Ahafo","district":"Tano South","facilityname":"Trinity Maternity Home","type":"Maternity Home","ownership":"CHAG","town":"Brosankro","longitude":-2.10048,"id":"aaknm3v2bbvt"},"type":"Feature","geometry":{"type":"Point","coordinates":[-2.10048,7.04685]}},{"properties":{"latitude":7.59118,"region":"Brong Ahafo","district":"Techiman","facilityname":"Arm's Maternity Home","type":"Maternity Home","ownership":"Private","town":"Techiman","longitude":-1.93813,"id":"aaknm3kj6y1g"},"type":"Feature","geometry":{"type":"Point","coordinates":[-1.93813,7.59118]}},{"properties":{"latitude":7.56965,"region":"Brong Ahafo","district":"Techiman","facilityname":"Kristo Nti  Maternity Home","type":"Maternity Home","ownership":"Private","town":"Techiman","longitude":-1.94848,"id":"aaknm3mdnrcd"},"type":"Feature","geometry":{"type":"Point","coordinates":[-1.94848,7.56965]}},{"properties":{"latitude":7.59064,"region":"Brong Ahafo","district":"Techiman","facilityname":"Alice Maternity Home","type":"Maternity Home","ownership":"Private","town":"Gyako","longitude":-1.94684,"id":"aaknm3hu741u"},"type":"Feature","geometry":{"type":"Point","coordinates":[-1.94684,7.59064]}},{"properties":{"latitude":7.57921,"region":"Brong Ahafo","district":"Techiman","facilityname":"Nkwahia Maternity Home","type":"Maternity Home","ownership":"Private","town":"Techiman","longitude":-1.93076,"id":"aaknm3lxb54t"},"type":"Feature","geometry":{"type":"Point","coordinates":[-1.93076,7.57921]}},{"properties":{"latitude":7.74081,"region":"Brong Ahafo","district":"Wenchi","facilityname":"Gov't. Maternity Home","type":"Maternity Home","ownership":"Government","town":"Wenchi","longitude":-2.11169,"id":"aaknm3rskpwn"},"type":"Feature","geometry":{"type":"Point","coordinates":[-2.11169,7.74081]}},{"properties":{"latitude":7.74042,"region":"Brong Ahafo","district":"Wenchi","facilityname":"Nyaase Royal Maternity  Home","type":"Maternity Home","ownership":"Private","town":"Wenchi Bandaline","longitude":-2.10208,"id":"aaknm3p3tbh4"},"type":"Feature","geometry":{"type":"Point","coordinates":[-2.10208,7.74042]}},{"properties":{"latitude":null,"region":"Brong Ahafo","district":"Dormaa Municipal","facilityname":"Florence Maternity Home","type":"Maternity Home","ownership":"Private","town":"Wamfie","longitude":null,"id":"aaknm3ihoof7"},"type":"Feature","geometry":null},{"properties":{"latitude":null,"region":"Brong Ahafo","district":"Dormaa Municipal","facilityname":"EMC Kwaku Any Maternity Home","type":"Maternity Home","ownership":"Private","town":"Wamfie","longitude":null,"id":"aaknm3qy2ah7"},"type":"Feature","geometry":null},{"properties":{"latitude":null,"region":"Brong Ahafo","district":"Tain","facilityname":"Nyarko Maternity Home","type":"Maternity Home","ownership":"Private","town":"Seikwa","longitude":null,"id":"aaknm3h80q5d"},"type":"Feature","geometry":null},{"properties":{"latitude":null,"region":"Brong Ahafo","district":"Kintampo South","facilityname":"Adom Maternity Home","type":"Maternity Home","ownership":"Private","town":"Kimtampo","longitude":null,"id":"aaknm3g4t0q2"},"type":"Feature","geometry":null},{"properties":{"latitude":null,"region":"Brong Ahafo","district":"Tano South","facilityname":"Brosankro Maternity Home","type":"Maternity Home","ownership":"Private","town":"Brosankro","longitude":null,"id":"aaknm3rjhu43"},"type":"Feature","geometry":null},{"properties":{"latitude":null,"region":"Brong Ahafo","district":"Asutifi","facilityname":"Blessed Family Maternity Home","type":"Maternity Home","ownership":"Private","town":"Dadiesoaba","longitude":null,"id":"aaknm3ukl3j7"},"type":"Feature","geometry":null},{"properties":{"latitude":null,"region":"Brong Ahafo","district":"Atebubu-Amanten","facilityname":"Adom Maternity Home","type":"Maternity Home","ownership":"Private","town":"Atebubu","longitude":null,"id":"aaknm3tmyol6"},"type":"Feature","geometry":null},{"properties":{"latitude":null,"region":"Brong Ahafo","district":"Berekum Municipal","facilityname":"Clean Hands Maternity Home","type":"Maternity Home","ownership":"Private","town":"Berekum","longitude":null,"id":"aaknm3lxonhc"},"type":"Feature","geometry":null},{"properties":{"latitude":null,"region":"Brong Ahafo","district":"Dormaa Municipal","facilityname":"Florence Maternity Home","type":"Maternity Home","ownership":"Maternity Home","town":null,"longitude":null,"id":"aaknm3pxryuy"},"type":"Feature","geometry":null},{"properties":{"latitude":null,"region":"Brong Ahafo","district":"Dormaa Municipal","facilityname":"EMC Kwaku Any Maternity Home","type":"Maternity Home","ownership":"Maternity Home","town":null,"longitude":null,"id":"aaknm3jtm2iz"},"type":"Feature","geometry":null},{"properties":{"latitude":null,"region":"Brong Ahafo","district":"Tain","facilityname":"Nyarko Maternity Home","type":"Maternity Home","ownership":"Private","town":null,"longitude":null,"id":"aaknm3rp28mp"},"type":"Feature","geometry":null},{"properties":{"latitude":null,"region":"Brong Ahafo","district":"Kintampo South","facilityname":"Adom Maternity Home","type":"Maternity Home","ownership":"Private","town":null,"longitude":null,"id":"aaknm3qvmlww"},"type":"Feature","geometry":null},{"properties":{"latitude":null,"region":"Brong Ahafo","district":"Tano South","facilityname":"Brosankro Maternity Home","type":"Maternity Home","ownership":"Private","town":null,"longitude":null,"id":"aaknm3ig8ib8"},"type":"Feature","geometry":null},{"properties":{"latitude":5.694,"region":"Central","district":"Assin North Municipal","facilityname":"Cecilia &amp; Sammy Maternity Home","type":"Maternity Home","ownership":"Private","town":"Foso","longitude":-1.2738,"id":"aaknm3klf2bq"},"type":"Feature","geometry":{"type":"Point","coordinates":[-1.2738,5.694]}},{"properties":{"latitude":5.52543,"region":"Central","district":"Awutu Senya","facilityname":"Holy Family Maternity Home","type":"Maternity Home","ownership":"Private","town":"Kasoa","longitude":-0.42337,"id":"aaknm3ge3od0"},"type":"Feature","geometry":{"type":"Point","coordinates":[-0.42337,5.52543]}},{"properties":{"latitude":5.53093,"region":"Central","district":"Awutu Senya","facilityname":"Connie's Maternity Home","type":"Maternity Home","ownership":"Private","town":"Kasoa","longitude":-0.42262,"id":"aaknm3wfwv5c"},"type":"Feature","geometry":{"type":"Point","coordinates":[-0.42262,5.53093]}},{"properties":{"latitude":5.52294,"region":"Central","district":"Awutu Senya","facilityname":"Margo Maternity Home","type":"Maternity Home","ownership":"Private","town":"Kasoa","longitude":-0.48043,"id":"aaknm3j05ko5"},"type":"Feature","geometry":{"type":"Point","coordinates":[-0.48043,5.52294]}},{"properties":{"latitude":5.26938,"region":"Central","district":"Mfantseman","facilityname":"St. Anthony Maternity Home","type":"Maternity Home","ownership":"Private","town":"Mankessim","longitude":-1.01679,"id":"aaknm3suy9m0"},"type":"Feature","geometry":{"type":"Point","coordinates":[-1.01679,5.26938]}},{"properties":{"latitude":null,"region":"Central","district":"Mfantseman","facilityname":"Gods Gift Maternity Home","type":"Maternity Home","ownership":"Private","town":null,"longitude":null,"id":"aaknm3krhbrq"},"type":"Feature","geometry":null},{"properties":{"latitude":5.67184,"region":"Central","district":"Twifu-Hemang-Lower Denkyira","facilityname":"St. Florence Maternity Home","type":"Maternity Home","ownership":"Private","town":"Bempongagye","longitude":-1.54191,"id":"aaknm3rwducz"},"type":"Feature","geometry":{"type":"Point","coordinates":[-1.54191,5.67184]}},{"properties":{"latitude":5.96162,"region":"Central","district":"Upper Denkyira East","facilityname":"Cecilia Maternity Clinic","type":"Maternity Home","ownership":"Government","town":"Dunkwa","longitude":-1.78057,"id":"aaknm3mb47gs"},"type":"Feature","geometry":{"type":"Point","coordinates":[-1.78057,5.96162]}},{"properties":{"latitude":null,"region":"Central","district":"Agona East","facilityname":"El-Shaddai Maternity Home","type":"Maternity Home","ownership":"Government","town":null,"longitude":null,"id":"aaknm3msuuz8"},"type":"Feature","geometry":null},{"properties":{"latitude":null,"region":"Central","district":"Agona East","facilityname":"Jonof Maternity Home","type":"Maternity Home","ownership":"Government","town":null,"longitude":null,"id":"aaknm3sq1p8j"},"type":"Feature","geometry":null},{"properties":{"latitude":5.53114,"region":"Central","district":"Agona West Municipal","facilityname":"Glaco Maternity Home","type":"Maternity Home","ownership":"Private","town":"Desuanim","longitude":-0.69791,"id":"aaknm3izvizg"},"type":"Feature","geometry":{"type":"Point","coordinates":[-0.69791,5.53114]}},{"properties":{"latitude":null,"region":"Central","district":"Agona West Municipal","facilityname":"Dergewa Maternity Home","type":"Maternity Home","ownership":"Government","town":null,"longitude":null,"id":"aaknm3i6fayz"},"type":"Feature","geometry":null},{"properties":{"latitude":5.48024,"region":"Central","district":"Ajumako-Enyan-Essiam","facilityname":"Ann's Maternity Home","type":"Maternity Home","ownership":"Private","town":"Ajumako Entumbil","longitude":-0.93238,"id":"aaknm3k5g33z"},"type":"Feature","geometry":{"type":"Point","coordinates":[-0.93238,5.48024]}},{"properties":{"latitude":null,"region":"Central","district":"Asikuma-Odoben-Brakwa","facilityname":"Ocran Maternity Home","type":"Maternity Home","ownership":"Government","town":null,"longitude":null,"id":"aaknm3qfde3o"},"type":"Feature","geometry":null},{"properties":{"latitude":5.92693,"region":"Central","district":"Assin North Municipal","facilityname":"Rex Maternity Home","type":"Maternity Home","ownership":"Private","town":"Praso","longitude":-1.35901,"id":"aaknm3rxcejq"},"type":"Feature","geometry":{"type":"Point","coordinates":[-1.35901,5.92693]}},{"properties":{"latitude":5.69698,"region":"Central","district":"Assin North Municipal","facilityname":"Ebenezer Clinic &amp; Matenity Home .","type":"Maternity Home","ownership":"CHAG","town":"Foso Station","longitude":-1.27703,"id":"aaknm3gfha3g"},"type":"Feature","geometry":{"type":"Point","coordinates":[-1.27703,5.69698]}},{"properties":{"latitude":5.38334,"region":"Central","district":"Assin South","facilityname":"Nyankumasi Ahenkro Health Centre","type":"Maternity Home","ownership":"Government","town":"Nyaokumasi Ahenkro","longitude":-1.14932,"id":"aaknm3q3cl3f"},"type":"Feature","geometry":{"type":"Point","coordinates":[-1.14932,5.38334]}},{"properties":{"latitude":5.67413,"region":"Central","district":"Awutu Senya","facilityname":"Fausty's Maternity Home","type":"Maternity Home","ownership":"Private","town":"Bawjiase","longitude":-0.55933,"id":"aaknm3umqret"},"type":"Feature","geometry":{"type":"Point","coordinates":[-0.55933,5.67413]}},{"properties":{"latitude":5.30355,"region":"Central","district":"Awutu Senya","facilityname":"Chirsty's Maternity Home","type":"Maternity Home","ownership":"Private","town":"Senya Bereku","longitude":-0.31051,"id":"aaknm3spchmy"},"type":"Feature","geometry":{"type":"Point","coordinates":[-0.31051,5.30355]}},{"properties":{"latitude":null,"region":"Central","district":"Awutu Senya","facilityname":"Marfred Maternity Home","type":"Maternity Home","ownership":"Government","town":null,"longitude":null,"id":"aaknm3gche67"},"type":"Feature","geometry":null},{"properties":{"latitude":null,"region":"Central","district":"Awutu Senya","facilityname":"Mighty Crag Marternity Home","type":"Maternity Home","ownership":"Government","town":null,"longitude":null,"id":"aaknm3il2p7r"},"type":"Feature","geometry":null},{"properties":{"latitude":5.32045,"region":"Central","district":"Awutu Senya","facilityname":"Wesely Maternity Home","type":"Maternity Home","ownership":"Government","town":"Kasoa","longitude":-0.2626,"id":"aaknm3ozzd3r"},"type":"Feature","geometry":{"type":"Point","coordinates":[-0.2626,5.32045]}},{"properties":{"latitude":5.11088,"region":"Central","district":"Cape Coast Metropolitan","facilityname":"The Saint Maternity Home","type":"Maternity Home","ownership":"Private","town":"Borofoyedur","longitude":-1.23425,"id":"aaknm3hu31aq"},"type":"Feature","geometry":{"type":"Point","coordinates":[-1.23425,5.11088]}},{"properties":{"latitude":5.34224,"region":"Central","district":"Efutu Municipal","facilityname":"Bethel Maternity Home","type":"Maternity Home","ownership":"Private","town":"Winneba","longitude":-0.62985,"id":"aaknm3kdv16g"},"type":"Feature","geometry":{"type":"Point","coordinates":[-0.62985,5.34224]}},{"properties":{"latitude":5.46673,"region":"Central","district":"Gomoa East","facilityname":"Nadom Maternity Home","type":"Maternity Home","ownership":"Private","town":"Nyanyano","longitude":-0.41123,"id":"aaknm3v112xz"},"type":"Feature","geometry":{"type":"Point","coordinates":[-0.41123,5.46673]}},{"properties":{"latitude":null,"region":"Central","district":"Gomoa East","facilityname":"Margo Maternity Home","type":"Maternity Home","ownership":"Private","town":null,"longitude":null,"id":"aaknm3w4rt60"},"type":"Feature","geometry":null},{"properties":{"latitude":5.33737,"region":"Central","district":"Gomoa West","facilityname":"Godfry Memorial Clinic","type":"Maternity Home","ownership":"Private","town":"Ankamu","longitude":-0.76385,"id":"aaknm3uc6kjn"},"type":"Feature","geometry":{"type":"Point","coordinates":[-0.76385,5.33737]}},{"properties":{"latitude":5.08477,"region":"Central","district":"Komenda-Edina-Eguafo-Abirem Municipal","facilityname":"Paa Wartemberg Memorial Maternity Home","type":"Maternity Home","ownership":"Private","town":"Chaple Square","longitude":-1.34962,"id":"aaknm3ty49b8"},"type":"Feature","geometry":{"type":"Point","coordinates":[-1.34962,5.08477]}},{"properties":{"latitude":5.05144,"region":"Central","district":"Komenda-Edina-Eguafo-Abirem Municipal","facilityname":"Nyame Te Ase Maternity Home","type":"Maternity Home","ownership":"Private","town":"Low Cost","longitude":-1.49758,"id":"aaknm450w7dc"},"type":"Feature","geometry":{"type":"Point","coordinates":[-1.49758,5.05144]}},{"properties":{"latitude":null,"region":"Central","district":"Komenda-Edina-Eguafo-Abirem Municipal","facilityname":"Good Sheperd Maternity Home","type":"Maternity Home","ownership":"Private","town":null,"longitude":null,"id":"aaknm4098ggv"},"type":"Feature","geometry":null},{"properties":{"latitude":6.0887,"region":"Eastern","district":"Akwapim North","facilityname":"Nyarkoa Memorial Maternity Home","type":"Maternity Home","ownership":"Private","town":"Okorase","longitude":-0.26166,"id":"aaknm426681z"},"type":"Feature","geometry":{"type":"Point","coordinates":[-0.26166,6.0887]}},{"properties":{"latitude":5.9492,"region":"Eastern","district":"Akwapim North","facilityname":"Semehyia Maternity Home","type":"Maternity Home","ownership":"Private","town":"Adwaso","longitude":-0.21217,"id":"aaknm4acnlgt"},"type":"Feature","geometry":{"type":"Point","coordinates":[-0.21217,5.9492]}},{"properties":{"latitude":5.90735,"region":"Eastern","district":"Akwapim North","facilityname":"Private Maternity Home","type":"Maternity Home","ownership":"Private","town":"Mampong","longitude":-0.14371,"id":"aaknm48xzy67"},"type":"Feature","geometry":{"type":"Point","coordinates":[-0.14371,5.90735]}},{"properties":{"latitude":5.80974,"region":"Eastern","district":"Akwapim South","facilityname":"Emelia Maternity Home","type":"Maternity Home","ownership":"Private","town":"Ahodjo Ketewa","longitude":-0.34121,"id":"aaknm42nesop"},"type":"Feature","geometry":{"type":"Point","coordinates":[-0.34121,5.80974]}},{"properties":{"latitude":6.210117,"region":"Eastern","district":"Asuogyamang","facilityname":"Hedwigs Maternity Home","type":"Maternity Home","ownership":"Private","town":"Apaaso New Senchi","longitude":0.081583,"id":"aaknm4bzlrhp"},"type":"Feature","geometry":{"type":"Point","coordinates":[0.081583,6.210117]}},{"properties":{"latitude":6.38227,"region":"Eastern","district":"Atiwa","facilityname":"Aggies Maternity Home","type":"Maternity Home","ownership":"Private","town":"Anyinam","longitude":-0.55049,"id":"aaknm3y0c4k4"},"type":"Feature","geometry":{"type":"Point","coordinates":[-0.55049,6.38227]}},{"properties":{"latitude":6.16845,"region":"Eastern","district":"Birim North","facilityname":"Holy Horniel Maternity Home","type":"Maternity Home","ownership":"Private","town":"Brenase","longitude":-1.14141,"id":"aaknm4787dqp"},"type":"Feature","geometry":{"type":"Point","coordinates":[-1.14141,6.16845]}},{"properties":{"latitude":6.46666,"region":"Eastern","district":"Birim North","facilityname":"Okoasi Maternity Home","type":"Maternity Home","ownership":"Private","town":"Okoasi","longitude":-0.88828,"id":"aaknm3ymm62c"},"type":"Feature","geometry":{"type":"Point","coordinates":[-0.88828,6.46666]}},{"properties":{"latitude":5.796,"region":"Eastern","district":"Birim south","facilityname":"Emmanuel Maternity Home","type":"Maternity Home","ownership":"Private","town":"Asuoso","longitude":-0.79191,"id":"aaknm44k14eu"},"type":"Feature","geometry":{"type":"Point","coordinates":[-0.79191,5.796]}},{"properties":{"latitude":5.940039,"region":"Eastern","district":"Birim south","facilityname":"Ntoaboase Maternity Home","type":"Maternity Home","ownership":"Private","town":"Atiankama Nkwanta","longitude":-0.83103,"id":"aaknm3wvcw8s"},"type":"Feature","geometry":{"type":"Point","coordinates":[-0.83103,5.940039]}},{"properties":{"latitude":5.9269,"region":"Eastern","district":"Birim south","facilityname":"Oda Paulina Maternity Home","type":"Maternity Home","ownership":"Private","town":"Oda","longitude":-0.99626,"id":"aaknm464lwk3"},"type":"Feature","geometry":{"type":"Point","coordinates":[-0.99626,5.9269]}},{"properties":{"latitude":5.92185,"region":"Eastern","district":"Birim south","facilityname":"Mawuli Maternity Home","type":"Maternity Home","ownership":"Private","town":"Oda","longitude":-0.98033,"id":"aaknm4586w7y"},"type":"Feature","geometry":{"type":"Point","coordinates":[-0.98033,5.92185]}},{"properties":{"latitude":6.2524,"region":"Eastern","district":"East Akim","facilityname":"Nightingale Maternity Home","type":"Maternity Home","ownership":"Private","town":"Osiem","longitude":-0.41868,"id":"aaknm47crxcb"},"type":"Feature","geometry":{"type":"Point","coordinates":[-0.41868,6.2524]}},{"properties":{"latitude":6.2197,"region":"Eastern","district":"East Akim","facilityname":"Reliance Maternity Home","type":"Maternity Home","ownership":"Private","town":"Tafo Ati","longitude":-0.06687,"id":"aaknm40umlnq"},"type":"Feature","geometry":{"type":"Point","coordinates":[-0.06687,6.2197]}},{"properties":{"latitude":6.20097,"region":"Eastern","district":"East Akim","facilityname":"Willie Kings Maternity Home","type":"Maternity Home","ownership":"Private","town":"Mid Tafo","longitude":-0.37285,"id":"aaknm3xmlzvc"},"type":"Feature","geometry":{"type":"Point","coordinates":[-0.37285,6.20097]}},{"properties":{"latitude":6.16076,"region":"Eastern","district":"Kwaebibirem","facilityname":"Yehowa Behwe Maternity Home","type":"Maternity Home","ownership":"Private","town":"Takyimann","longitude":-0.66918,"id":"aaknm4ctfssx"},"type":"Feature","geometry":{"type":"Point","coordinates":[-0.66918,6.16076]}},{"properties":{"latitude":6.71279,"region":"Eastern","district":"Kwahu South","facilityname":"Hweehwee Maternity Home","type":"Maternity Home","ownership":"Government","town":"Hweehwewe","longitude":-0.91537,"id":"aaknm3xczblo"},"type":"Feature","geometry":{"type":"Point","coordinates":[-0.91537,6.71279]}},{"properties":{"latitude":6.55225,"region":"Eastern","district":"Kwahu South","facilityname":"Miaso Maternity Home","type":"Maternity Home","ownership":"Government","town":"Miaso","longitude":-0.47854,"id":"aaknm3ycwqta"},"type":"Feature","geometry":{"type":"Point","coordinates":[-0.47854,6.55225]}},{"properties":{"latitude":6.59981,"region":"Eastern","district":"Kwahu South","facilityname":"Oframanso Maternity Home","type":"Maternity Home","ownership":"Government","town":"Oframanso","longitude":-0.55891,"id":"aaknm427lu6r"},"type":"Feature","geometry":{"type":"Point","coordinates":[-0.55891,6.59981]}},{"properties":{"latitude":6.65174,"region":"Eastern","district":"Kwahu South","facilityname":"St. Joseph Maternity Home","type":"Maternity Home","ownership":"CHAG","town":"Kwawu Tafo","longitude":-0.66607,"id":"aaknm3yvds04"},"type":"Feature","geometry":{"type":"Point","coordinates":[-0.66607,6.65174]}},{"properties":{"latitude":6.71609,"region":"Eastern","district":"Kwahu South","facilityname":"Onyame Adom Maternity Home","type":"Maternity Home","ownership":"Government","town":"Hweehwee","longitude":-0.81728,"id":"aaknm3zgpgh2"},"type":"Feature","geometry":{"type":"Point","coordinates":[-0.81728,6.71609]}},{"properties":{"latitude":6.543433,"region":"Eastern","district":"Kwahu West","facilityname":"Asuboni Maternity Home","type":"Maternity Home","ownership":"Private","town":"Asuboni","longitude":-0.776067,"id":"aaknm46bw0z1"},"type":"Feature","geometry":{"type":"Point","coordinates":[-0.776067,6.543433]}},{"properties":{"latitude":6.54766,"region":"Eastern","district":"Kwahu West","facilityname":"Angels Maternity Home","type":"Maternity Home","ownership":"Private","town":"Nkawkaw Zongo","longitude":-0.76327,"id":"aaknm4013p03"},"type":"Feature","geometry":{"type":"Point","coordinates":[-0.76327,6.54766]}},{"properties":{"latitude":6.54345,"region":"Eastern","district":"Kwahu West","facilityname":"Nkawkaw Asuboni Maternity Home","type":"Maternity Home","ownership":"Private","town":"Nkawkaw Asuboni","longitude":-0.77604,"id":"aaknm42l53zu"},"type":"Feature","geometry":{"type":"Point","coordinates":[-0.77604,6.54345]}},{"properties":{"latitude":6.56264,"region":"Eastern","district":"Kwahu West","facilityname":"Nya Akoma Maternity Home","type":"Maternity Home","ownership":"Private","town":"Nkawkaw West","longitude":-0.78253,"id":"aaknm4c120mp"},"type":"Feature","geometry":{"type":"Point","coordinates":[-0.78253,6.56264]}},{"properties":{"latitude":6.39409,"region":"Eastern","district":"Manya Krobo","facilityname":"Maryend Maternity Home","type":"Maternity Home","ownership":"Private","town":"Odometta","longitude":-0.14592,"id":"aaknm42mb880"},"type":"Feature","geometry":{"type":"Point","coordinates":[-0.14592,6.39409]}},{"properties":{"latitude":6.39756,"region":"Eastern","district":"Manya Krobo","facilityname":"Dora Maternity Home","type":"Maternity Home","ownership":"Private","town":"Asesewa","longitude":-0.14847,"id":"aaknm41ixcqy"},"type":"Feature","geometry":{"type":"Point","coordinates":[-0.14847,6.39756]}},{"properties":{"latitude":6.122905,"region":"Eastern","district":"Manya Krobo","facilityname":"Lydia Maternity Home","type":"Maternity Home","ownership":"Private","town":"Menekpo","longitude":-0.00085,"id":"aaknm4bf0o4s"},"type":"Feature","geometry":{"type":"Point","coordinates":[-0.00085,6.122905]}},{"properties":{"latitude":6.25592,"region":"Eastern","district":"Manya Krobo","facilityname":"New Life Maternity Home","type":"Maternity Home","ownership":"Private","town":"Otrokper","longitude":-0.11447,"id":"aaknm43nkq9c"},"type":"Feature","geometry":{"type":"Point","coordinates":[-0.11447,6.25592]}},{"properties":{"latitude":6.08824,"region":"Eastern","district":"New Juaben","facilityname":"Nightangle Maternity Home","type":"Maternity Home","ownership":"Private","town":"Koforidua","longitude":-0.26039,"id":"aaknm412ru4s"},"type":"Feature","geometry":{"type":"Point","coordinates":[-0.26039,6.08824]}},{"properties":{"latitude":6.07036,"region":"Eastern","district":"New Juaben","facilityname":"Eureka Maternity Home","type":"Maternity Home","ownership":"Private","town":"Bronya Junction","longitude":-0.241,"id":"aaknm3z8tdnf"},"type":"Feature","geometry":{"type":"Point","coordinates":[-0.241,6.07036]}},{"properties":{"latitude":6.09066,"region":"Eastern","district":"New Juaben","facilityname":"Pats Maternity Home","type":"Maternity Home","ownership":"Private","town":"Koforidua","longitude":-0.25863,"id":"aaknm4135i6c"},"type":"Feature","geometry":{"type":"Point","coordinates":[-0.25863,6.09066]}},{"properties":{"latitude":5.99022,"region":"Eastern","district":"Suhum Kraboa Coaltar","facilityname":"Aggies Maternity Home","type":"Maternity Home","ownership":"Private","town":"Amanase","longitude":-0.42849,"id":"aaknm46war87"},"type":"Feature","geometry":{"type":"Point","coordinates":[-0.42849,5.99022]}},{"properties":{"latitude":5.79256,"region":"Eastern","district":"West Akim","facilityname":"Edith Maternity Home","type":"Maternity Home","ownership":"Private","town":"Adieso","longitude":-0.48845,"id":"aaknm495wa66"},"type":"Feature","geometry":{"type":"Point","coordinates":[-0.48845,5.79256]}},{"properties":{"latitude":6.24947,"region":"Eastern","district":"Yilo Krobo","facilityname":"Bethel Maternity Home","type":"Maternity Home","ownership":"Private","town":"Klo-Agogo","longitude":-0.22317,"id":"aaknm45mofnn"},"type":"Feature","geometry":{"type":"Point","coordinates":[-0.22317,6.24947]}},{"properties":{"latitude":6.11198,"region":"Eastern","district":"Yilo Krobo","facilityname":"El-Shaddai Maternity Home","type":"Maternity Home","ownership":"Private","town":"Sawer","longitude":-0.00604,"id":"aaknm43lmlhd"},"type":"Feature","geometry":{"type":"Point","coordinates":[-0.00604,6.11198]}},{"properties":{"latitude":6.09853,"region":"Eastern","district":"Yilo Krobo","facilityname":"Unity Maternity Home","type":"Maternity Home","ownership":"Private","town":"New Somanya/Sra","longitude":-0.01851,"id":"aaknm4beusns"},"type":"Feature","geometry":{"type":"Point","coordinates":[-0.01851,6.09853]}},{"properties":{"latitude":null,"region":"Eastern","district":"Fanteakwa","facilityname":"His Grace Maternity Home","type":"Maternity Home","ownership":"Private","town":"Hemang","longitude":null,"id":"aaknm4abgknb"},"type":"Feature","geometry":null},{"properties":{"latitude":null,"region":"Eastern","district":"Upper Manya","facilityname":"Daales Maternity Home","type":"Maternity Home","ownership":"Private","town":"Otrokpe","longitude":null,"id":"aaknm47vsk7u"},"type":"Feature","geometry":null},{"properties":{"latitude":null,"region":"Eastern","district":"Birim North","facilityname":"Comfort Maternity Home","type":"Maternity Home","ownership":"Private","town":"Ofoase","longitude":null,"id":"aaknm48cco1v"},"type":"Feature","geometry":null},{"properties":{"latitude":null,"region":"Eastern","district":"Kwahu South","facilityname":"Comfort Maternity Home","type":"Maternity Home","ownership":"Private","town":"Nkyenekyene","longitude":null,"id":"aaknm44n3lft"},"type":"Feature","geometry":null},{"properties":{"latitude":5.59714,"region":"Greater Accra","district":"Accra Metropolitan","facilityname":"Arakan Maternity Home","type":"Maternity Home","ownership":"Quasi-Government","town":"Burma Camp","longitude":-0.15088,"id":"aaknm4aqdx6v"},"type":"Feature","geometry":{"type":"Point","coordinates":[-0.15088,5.59714]}},{"properties":{"latitude":5.6396,"region":"Greater Accra","district":"Accra Metropolitan","facilityname":"Amanda Maternity Home &amp; Clinic (formerly Abaya Clinic &amp; Maternity Home)","type":"Maternity Home","ownership":"Private","town":"East Legon","longitude":-0.16437,"id":"aaknm44m3wbe"},"type":"Feature","geometry":{"type":"Point","coordinates":[-0.16437,5.6396]}},{"properties":{"latitude":5.58463,"region":"Greater Accra","district":"Accra Metropolitan","facilityname":"Asomdwehene Maternity Home","type":"Maternity Home","ownership":"Private","town":"Odorkor","longitude":-0.27062,"id":"aaknm3y97wlo"},"type":"Feature","geometry":{"type":"Point","coordinates":[-0.27062,5.58463]}},{"properties":{"latitude":5.59436,"region":"Greater Accra","district":"Ga West","facilityname":"Brazza Maternity Home &amp; Clinic","type":"Maternity Home","ownership":"Private","town":"North Kwashieman","longitude":-0.2707,"id":"aaknm3ydej75"},"type":"Feature","geometry":{"type":"Point","coordinates":[-0.2707,5.59436]}},{"properties":{"latitude":5.66848,"region":"Greater Accra","district":"Tema Metropolitan","facilityname":"B's Maternity Home","type":"Maternity Home","ownership":"Private","town":"Tema Community 8","longitude":-0.01108,"id":"aaknm3x7nadx"},"type":"Feature","geometry":{"type":"Point","coordinates":[-0.01108,5.66848]}},{"properties":{"latitude":5.57994,"region":"Greater Accra","district":"Accra Metropolitan","facilityname":"Christ The King Mat Home &amp; Clinic","type":"Maternity Home","ownership":"Private","town":"Bubuashie (Atico last stop)","longitude":-0.24725,"id":"aaknm3wx2gds"},"type":"Feature","geometry":{"type":"Point","coordinates":[-0.24725,5.57994]}},{"properties":{"latitude":5.51994,"region":"Greater Accra","district":"Accra Metropolitan","facilityname":"Community Clinic &amp; Maternity Home","type":"Maternity Home","ownership":"Private","town":"Glefe (Behing the largoon)","longitude":-0.27101,"id":"aaknm4bndp5o"},"type":"Feature","geometry":{"type":"Point","coordinates":[-0.27101,5.51994]}},{"properties":{"latitude":5.75781,"region":"Greater Accra","district":"Ga West","facilityname":"Ediths Maternity Home","type":"Maternity Home","ownership":"Private","town":"Medie","longitude":-0.02641,"id":"aaknm419bkqo"},"type":"Feature","geometry":{"type":"Point","coordinates":[-0.02641,5.75781]}},{"properties":{"latitude":5.60656,"region":"Greater Accra","district":"Ga West","facilityname":"Eme's Maternity Home &amp; Clinic","type":"Maternity Home","ownership":"Private","town":"North Kwashieman","longitude":-0.27205,"id":"aaknm40lfg5e"},"type":"Feature","geometry":{"type":"Point","coordinates":[-0.27205,5.60656]}},{"properties":{"latitude":5.58564,"region":"Greater Accra","district":"Accra Metropolitan","facilityname":"Emmanuel Maternity Home &amp; Clinic","type":"Maternity Home","ownership":"Private","town":"Awoshie","longitude":-0.27895,"id":"aaknm44xlgwp"},"type":"Feature","geometry":{"type":"Point","coordinates":[-0.27895,5.58564]}},{"properties":{"latitude":5.68927,"region":"Greater Accra","district":"Ga West","facilityname":"Fausty Maternity Home","type":"Maternity Home","ownership":"Private","town":"Horbor","longitude":-0.42634,"id":"aaknm42w04iv"},"type":"Feature","geometry":{"type":"Point","coordinates":[-0.42634,5.68927]}},{"properties":{"latitude":5.52571,"region":"Greater Accra","district":"Accra Metropolitan","facilityname":"Felidan Maternity Home","type":"Maternity Home","ownership":"Private","town":"Chemuna (Chorkor)","longitude":-0.25049,"id":"aaknm46bydam"},"type":"Feature","geometry":{"type":"Point","coordinates":[-0.25049,5.52571]}},{"properties":{"latitude":5.59793,"region":"Greater Accra","district":"Accra Metropolitan","facilityname":"El Shadai Mat Home &amp; Clinic","type":"Maternity Home","ownership":"Private","town":"Nyamekye (Darkuman)","longitude":-0.25534,"id":"aaknm48triit"},"type":"Feature","geometry":{"type":"Point","coordinates":[-0.25534,5.59793]}},{"properties":{"latitude":5.70392,"region":"Greater Accra","district":"Tema Metropolitan","facilityname":"Esther Memorial Maternity Home &amp; Clinic","type":"Maternity Home","ownership":"Private","town":"Ashaima New Town","longitude":-0.02951,"id":"aaknm44966hx"},"type":"Feature","geometry":{"type":"Point","coordinates":[-0.02951,5.70392]}},{"properties":{"latitude":5.67082,"region":"Greater Accra","district":"Ga East","facilityname":"Fransko Maternity Home (same as Francisca Maternity Home)","type":"Maternity Home","ownership":"Private","town":"Madina","longitude":-0.17037,"id":"aaknm48yf9rq"},"type":"Feature","geometry":{"type":"Point","coordinates":[-0.17037,5.67082]}},{"properties":{"latitude":5.57741,"region":"Greater Accra","district":"Ga West","facilityname":"Gbawe Clinic &amp; Maternity Home","type":"Maternity Home","ownership":"Private","town":"Gbawe","longitude":-0.2846,"id":"aaknm4chfddz"},"type":"Feature","geometry":{"type":"Point","coordinates":[-0.2846,5.57741]}},{"properties":{"latitude":5.5867,"region":"Greater Accra","district":"Accra Metropolitan","facilityname":"Gloria's Maternity Home","type":"Maternity Home","ownership":"Private","town":"New Town","longitude":-0.20833,"id":"aaknm499idih"},"type":"Feature","geometry":{"type":"Point","coordinates":[-0.20833,5.5867]}},{"properties":{"latitude":5.56844,"region":"Greater Accra","district":"Accra Metropolitan","facilityname":"Goodwill Maternity Home","type":"Maternity Home","ownership":"Private","town":"Asylum Down","longitude":-0.20448,"id":"aaknm4bv8yaq"},"type":"Feature","geometry":{"type":"Point","coordinates":[-0.20448,5.56844]}},{"properties":{"latitude":5.68191,"region":"Greater Accra","district":"Tema Metropolitan","facilityname":"Grace &amp; Peace Clinic &amp; Maternity Home","type":"Maternity Home","ownership":"Private","town":"Ashalebotwe","longitude":-0.14157,"id":"aaknm41imctp"},"type":"Feature","geometry":{"type":"Point","coordinates":[-0.14157,5.68191]}},{"properties":{"latitude":5.87929,"region":"Greater Accra","district":"Dangme west","facilityname":"Grace Maternity Home","type":"Maternity Home","ownership":"Private","town":"Dodowa","longitude":-0.10627,"id":"aaknm424sry1"},"type":"Feature","geometry":{"type":"Point","coordinates":[-0.10627,5.87929]}},{"properties":{"latitude":5.58553,"region":"Greater Accra","district":"Accra Metropolitan","facilityname":"Grace Maternity Home &amp; Clinic","type":"Maternity Home","ownership":"Private","town":"Awoshie (last stop)","longitude":-0.27977,"id":"aaknm3xorz29"},"type":"Feature","geometry":{"type":"Point","coordinates":[-0.27977,5.58553]}},{"properties":{"latitude":5.52961,"region":"Greater Accra","district":"Accra Metropolitan","facilityname":"Hannah Larbie's Maternity Home","type":"Maternity Home","ownership":"Private","town":"Chorkor (near Abodwe)","longitude":-0.24151,"id":"aaknm40w6la2"},"type":"Feature","geometry":{"type":"Point","coordinates":[-0.24151,5.52961]}},{"properties":{"latitude":5.5639,"region":"Greater Accra","district":"Accra Metropolitan","facilityname":"Hebron Maternity &amp; Clinic","type":"Maternity Home","ownership":"Private","town":"La","longitude":-0.15154,"id":"aaknm4cmy3xc"},"type":"Feature","geometry":{"type":"Point","coordinates":[-0.15154,5.5639]}},{"properties":{"latitude":5.5501,"region":"Greater Accra","district":"Accra Metropolitan","facilityname":"Henrietta Clinic &amp; Maternity Home","type":"Maternity Home","ownership":"Private","town":"Lartebiokorshie (near Nkruma flats)","longitude":-0.232,"id":"aaknm3ztrgaf"},"type":"Feature","geometry":{"type":"Point","coordinates":[-0.232,5.5501]}},{"properties":{"latitude":5.54065,"region":"Greater Accra","district":"Accra Metropolitan","facilityname":"James Town Maternity Home","type":"Maternity Home","ownership":"Government","town":"James Town","longitude":-0.21591,"id":"aaknm3woz8yy"},"type":"Feature","geometry":{"type":"Point","coordinates":[-0.21591,5.54065]}},{"properties":{"latitude":5.5621,"region":"Greater Accra","district":"Accra Metropolitan","facilityname":"Jordan's Maternity Home","type":"Maternity Home","ownership":"Private","town":"La","longitude":-0.16464,"id":"aaknm44z5so4"},"type":"Feature","geometry":{"type":"Point","coordinates":[-0.16464,5.5621]}},{"properties":{"latitude":5.55837,"region":"Greater Accra","district":"Accra Metropolitan","facilityname":"Juliana Aku Clegg Maternity home","type":"Maternity Home","ownership":"Private","town":"Zongo junction","longitude":-0.23957,"id":"aaknm4axtc50"},"type":"Feature","geometry":{"type":"Point","coordinates":[-0.23957,5.55837]}},{"properties":{"latitude":5.52397,"region":"Greater Accra","district":"Accra Metropolitan","facilityname":"Lagoon Clinic &amp; Maternity home","type":"Maternity Home","ownership":"Private","town":"Mpoase (off Glefe rd)","longitude":-0.26406,"id":"aaknm4673nr9"},"type":"Feature","geometry":{"type":"Point","coordinates":[-0.26406,5.52397]}},{"properties":{"latitude":5.58704,"region":"Greater Accra","district":"Accra Metropolitan","facilityname":"Laura's Maternity Home &amp; Clinic","type":"Maternity Home","ownership":"Private","town":"Darkuman","longitude":-0.24794,"id":"aaknm4795ynk"},"type":"Feature","geometry":{"type":"Point","coordinates":[-0.24794,5.58704]}},{"properties":{"latitude":5.65484,"region":"Greater Accra","district":"Ga West","facilityname":"Lizzie Matternity Home &amp; Clinic","type":"Maternity Home","ownership":"Private","town":"Ofankor","longitude":-0.27076,"id":"aaknm4c8foya"},"type":"Feature","geometry":{"type":"Point","coordinates":[-0.27076,5.65484]}},{"properties":{"latitude":5.64608,"region":"Greater Accra","district":"Ga West","facilityname":"Margo Maternity Home","type":"Maternity Home","ownership":"Private","town":"Jei Krodua","longitude":-0.49304,"id":"aaknm42tl1ni"},"type":"Feature","geometry":{"type":"Point","coordinates":[-0.49304,5.64608]}},{"properties":{"latitude":5.71726,"region":"Greater Accra","district":"Ga East","facilityname":"Mother Love Health Care Cantre","type":"Maternity Home","ownership":"Private","town":"Adenta","longitude":-0.16644,"id":"aaknm3ykcn0n"},"type":"Feature","geometry":{"type":"Point","coordinates":[-0.16644,5.71726]}},{"properties":{"latitude":5.54216,"region":"Greater Accra","district":"Accra Metropolitan","facilityname":"Mother's Pride Clinic &amp; Maternity Home","type":"Maternity Home","ownership":"Private","town":"Mamprobi (off juncion before salvation army)","longitude":-0.24507,"id":"aaknm3wse8co"},"type":"Feature","geometry":{"type":"Point","coordinates":[-0.24507,5.54216]}},{"properties":{"latitude":5.52609,"region":"Greater Accra","district":"Accra Metropolitan","facilityname":"Mercy Maternity Home &amp; Clinic","type":"Maternity Home","ownership":"Private","town":"Agege (Glefe near largoon)","longitude":-0.27449,"id":"aaknm47hjwno"},"type":"Feature","geometry":{"type":"Point","coordinates":[-0.27449,5.52609]}},{"properties":{"latitude":5.69924,"region":"Greater Accra","district":"Tema Metropolitan","facilityname":"New Edem Maternity Home","type":"Maternity Home","ownership":"Private","town":"Ashaiman (Nii Amui Park {Manannanyo}","longitude":-0.03531,"id":"aaknm3ylalqw"},"type":"Feature","geometry":{"type":"Point","coordinates":[-0.03531,5.69924]}},{"properties":{"latitude":5.58962,"region":"Greater Accra","district":"Accra Metropolitan","facilityname":"North Kaneshie Maternity Home","type":"Maternity Home","ownership":"Private","town":"Demond (North Kaneshie)","longitude":-0.2433,"id":"aaknm40vbrws"},"type":"Feature","geometry":{"type":"Point","coordinates":[-0.2433,5.58962]}},{"properties":{"latitude":5.55401,"region":"Greater Accra","district":"Accra Metropolitan","facilityname":"Osu Government Maternity Home","type":"Maternity Home","ownership":"Government","town":"Osu","longitude":-0.18494,"id":"aaknm3yr9fw9"},"type":"Feature","geometry":{"type":"Point","coordinates":[-0.18494,5.55401]}},{"properties":{"latitude":5.70281,"region":"Greater Accra","district":"Tema Metropolitan","facilityname":"Nyamebetyere Maternity Home","type":"Maternity Home","ownership":"Private","town":"Ashaiman Lebanon","longitude":-0.04369,"id":"aaknm408pb8a"},"type":"Feature","geometry":{"type":"Point","coordinates":[-0.04369,5.70281]}},{"properties":{"latitude":5.55206,"region":"Greater Accra","district":"Accra Metropolitan","facilityname":"Nyameadom Maternity Clinic","type":"Maternity Home","ownership":"Private","town":"Dansoman (before sahara)","longitude":-0.26433,"id":"aaknm487szye"},"type":"Feature","geometry":{"type":"Point","coordinates":[-0.26433,5.55206]}},{"properties":{"latitude":5.6189,"region":"Greater Accra","district":"Accra Metropolitan","facilityname":"Peoga Maternity Home","type":"Maternity Home","ownership":"Private","town":"Nungua","longitude":-0.08294,"id":"aaknm44lma1a"},"type":"Feature","geometry":{"type":"Point","coordinates":[-0.08294,5.6189]}},{"properties":{"latitude":5.59935,"region":"Greater Accra","district":"Accra Metropolitan","facilityname":"Prince of Peace Maternity Home &amp; Clinic","type":"Maternity Home","ownership":"Private","town":"Fadama","longitude":-0.24462,"id":"aaknm4b53l5q"},"type":"Feature","geometry":{"type":"Point","coordinates":[-0.24462,5.59935]}},{"properties":{"latitude":5.65991,"region":"Greater Accra","district":"Tema Metropolitan","facilityname":"St Mary's Maternity Home","type":"Maternity Home","ownership":"Private","town":"Tema Community 7","longitude":-0.01244,"id":"aaknm3ygqo3z"},"type":"Feature","geometry":{"type":"Point","coordinates":[-0.01244,5.65991]}},{"properties":{"latitude":5.58754,"region":"Greater Accra","district":"Accra Metropolitan","facilityname":"Rehoboth Maternity Home (formerly Mother Mary Maternity Home)","type":"Maternity Home","ownership":"Private","town":"Darkuman","longitude":-0.25108,"id":"aaknm41emmpv"},"type":"Feature","geometry":{"type":"Point","coordinates":[-0.25108,5.58754]}},{"properties":{"latitude":5.56542,"region":"Greater Accra","district":"Accra Metropolitan","facilityname":"St Maurice Maternity Home","type":"Maternity Home","ownership":"Private","town":"La","longitude":-0.14468,"id":"aaknm434k75i"},"type":"Feature","geometry":{"type":"Point","coordinates":[-0.14468,5.56542]}},{"properties":{"latitude":5.69443,"region":"Greater Accra","district":"Ga West","facilityname":"Stand Firm Maternity Home","type":"Maternity Home","ownership":"Private","town":"Pokuase","longitude":-0.28026,"id":"aaknm3ynhy8q"},"type":"Feature","geometry":{"type":"Point","coordinates":[-0.28026,5.69443]}},{"properties":{"latitude":5.57194,"region":"Greater Accra","district":"Accra Metropolitan","facilityname":"Tee's Maternity Home","type":"Maternity Home","ownership":"Private","town":"La","longitude":-0.14955,"id":"aaknm46pmdtc"},"type":"Feature","geometry":{"type":"Point","coordinates":[-0.14955,5.57194]}},{"properties":{"latitude":5.57678,"region":"Greater Accra","district":"Accra Metropolitan","facilityname":"The Finger of God Maternity Home","type":"Maternity Home","ownership":"Private","town":"Teshie","longitude":-0.10985,"id":"aaknm4a9a8p0"},"type":"Feature","geometry":{"type":"Point","coordinates":[-0.10985,5.57678]}},{"properties":{"latitude":5.58422,"region":"Greater Accra","district":"Accra Metropolitan","facilityname":"Vic's Maternity Home","type":"Maternity Home","ownership":"Private","town":"New Town","longitude":-0.20776,"id":"aaknm448a0cu"},"type":"Feature","geometry":{"type":"Point","coordinates":[-0.20776,5.58422]}},{"properties":{"latitude":5.52873,"region":"Greater Accra","district":"Accra Metropolitan","facilityname":"Victor's Maternity &amp; Child Health Clinic","type":"Maternity Home","ownership":"Private","town":"Bubuashie","longitude":-0.23366,"id":"aaknm49ks6yt"},"type":"Feature","geometry":{"type":"Point","coordinates":[-0.23366,5.52873]}},{"properties":{"latitude":null,"region":"Greater Accra","district":"Ga West","facilityname":"Bertmis Maternity Home","type":"Maternity Home","ownership":"Private","town":"Tabora","longitude":null,"id":"aaknm45a53q0"},"type":"Feature","geometry":null},{"properties":{"latitude":8.76973,"region":"Northern","district":"Central Gonja","facilityname":"Tina's Maternity Home","type":"Maternity Home","ownership":"Private","town":"Buipe","longitude":-1.45284,"id":"aaknm4bavn4n"},"type":"Feature","geometry":{"type":"Point","coordinates":[-1.45284,8.76973]}},{"properties":{"latitude":9.27356,"region":"Northern","district":"Sawla-Tuna-Kalba","facilityname":"Ever Green Maternity Home","type":"Maternity Home","ownership":"Private","town":"Sawla","longitude":-2.414,"id":"aaknm3z0mi3f"},"type":"Feature","geometry":{"type":"Point","coordinates":[-2.414,9.27356]}},{"properties":{"latitude":9.27094,"region":"Northern","district":"Sawla-Tuna-Kalba","facilityname":"Friends Maternity Home","type":"Maternity Home","ownership":"Private","town":"Sawla","longitude":-2.41542,"id":"aaknm410vb33"},"type":"Feature","geometry":{"type":"Point","coordinates":[-2.41542,9.27094]}},{"properties":{"latitude":9.39169,"region":"Northern","district":"Tamale Metropolitan","facilityname":"Deahas Maternity Home","type":"Maternity Home","ownership":"Private","town":"Lamashegu","longitude":-0.34907,"id":"aaknm49as6l7"},"type":"Feature","geometry":{"type":"Point","coordinates":[-0.34907,9.39169]}},{"properties":{"latitude":9.43237,"region":"Northern","district":"Tamale Metropolitan","facilityname":"Fulera Maternity Home","type":"Maternity Home","ownership":"Private","town":"Choggu Yapalsi","longitude":-0.86083,"id":"aaknm475dobv"},"type":"Feature","geometry":{"type":"Point","coordinates":[-0.86083,9.43237]}},{"properties":{"latitude":9.39869,"region":"Northern","district":"Tamale Metropolitan","facilityname":"As-Salam Materniyt Home","type":"Maternity Home","ownership":"Government","town":"Sabonjida","longitude":-0.84419,"id":"aaknm3zf4kod"},"type":"Feature","geometry":{"type":"Point","coordinates":[-0.84419,9.39869]}},{"properties":{"latitude":11.06304,"region":"Upper East","district":"Bawku Municipal","facilityname":"Kadara Maternity Home","type":"Maternity Home","ownership":"Private","town":"Bawku","longitude":-0.24403,"id":"aaknm4cnsrbf"},"type":"Feature","geometry":{"type":"Point","coordinates":[-0.24403,11.06304]}},{"properties":{"latitude":11.06291,"region":"Upper East","district":"Bawku Municipal","facilityname":"Islam Maternity Clinic","type":"Maternity Home","ownership":"Private","town":"Bawku-Kariamah","longitude":-0.23989,"id":"aaknm3xyph8g"},"type":"Feature","geometry":{"type":"Point","coordinates":[-0.23989,11.06291]}},{"properties":{"latitude":10.99494,"region":"Upper West","district":"Lambussie","facilityname":"Kanyiri Maternity Home","type":"Maternity Home","ownership":"Private","town":"Hamile","longitude":-2.73306,"id":"aaknm49a2vuy"},"type":"Feature","geometry":{"type":"Point","coordinates":[-2.73306,10.99494]}},{"properties":{"latitude":10.85498,"region":"Upper West","district":"Lawra","facilityname":"Good Shepherd Maternity Home","type":"Maternity Home","ownership":"Private","town":"Nandom residential ar","longitude":-2.75622,"id":"aaknm41rnmot"},"type":"Feature","geometry":{"type":"Point","coordinates":[-2.75622,10.85498]}},{"properties":{"latitude":10.05653,"region":"Upper West","district":"Wa Municipal","facilityname":"Hajia Rahinatu Sena Maternity Home","type":"Maternity Home","ownership":"Private","town":"Wa kabanye","longitude":-2.50066,"id":"aaknm3zep38c"},"type":"Feature","geometry":{"type":"Point","coordinates":[-2.50066,10.05653]}},{"properties":{"latitude":9.79036,"region":"Upper West","district":"Wa West","facilityname":"Progress Maternity Home","type":"Maternity Home","ownership":"Private","town":"Nyoli","longitude":-2.51505,"id":"aaknm4b8czx3"},"type":"Feature","geometry":{"type":"Point","coordinates":[-2.51505,9.79036]}},{"properties":{"latitude":null,"region":"Volta","district":"Ho Municipal","facilityname":"Dora's Maternity Home","type":"Maternity Home","ownership":"Private","town":"Kpedze","longitude":null,"id":"aaknm3xwnyvs"},"type":"Feature","geometry":null},{"properties":{"latitude":null,"region":"Volta","district":"Ho Municipal","facilityname":"Nightingale maternity Home","type":"Maternity Home","ownership":"Private","town":"Nyive","longitude":null,"id":"aaknm4494idk"},"type":"Feature","geometry":null},{"properties":{"latitude":7.59752,"region":"Volta","district":"Kadjebi","facilityname":"Faith  Maternity Home","type":"Maternity Home","ownership":"Private","town":"Dzindjiso","longitude":0.52753,"id":"aaknm48tjsfu"},"type":"Feature","geometry":{"type":"Point","coordinates":[0.52753,7.59752]}},{"properties":{"latitude":7.52754,"region":"Volta","district":"Kadjebi","facilityname":"Dede Maternity Home","type":"Maternity Home","ownership":"Private","town":null,"longitude":0.47695,"id":"aaknm49vcypt"},"type":"Feature","geometry":{"type":"Point","coordinates":[0.47695,7.52754]}},{"properties":{"latitude":5.78283,"region":"Volta","district":"Keta","facilityname":"Crowns Maternity Home","type":"Maternity Home","ownership":"Private","town":"Keta","longitude":0.72263,"id":"aaknm46okr7f"},"type":"Feature","geometry":{"type":"Point","coordinates":[0.72263,5.78283]}},{"properties":{"latitude":5.82579,"region":"Volta","district":"Keta","facilityname":"Nancy's Maternity Home","type":"Maternity Home","ownership":"Private","town":"Keta","longitude":0.95,"id":"aaknm3zt5jfm"},"type":"Feature","geometry":{"type":"Point","coordinates":[0.95,5.82579]}},{"properties":{"latitude":6.066667,"region":"Volta","district":"Keta","facilityname":"Kafui Maternity Home","type":"Maternity Home","ownership":"Private","town":"Abor","longitude":0.862067,"id":"aaknm3y7ua77"},"type":"Feature","geometry":{"type":"Point","coordinates":[0.862067,6.066667]}},{"properties":{"latitude":5.79618,"region":"Volta","district":"Keta","facilityname":"Holy Maternity Home","type":"Maternity Home","ownership":"Private","town":"Angloga","longitude":0.90419,"id":"aaknm43iuem9"},"type":"Feature","geometry":{"type":"Point","coordinates":[0.90419,5.79618]}},{"properties":{"latitude":5.88564,"region":"Volta","district":"Keta","facilityname":"Madam Mary Maternity Home","type":"Maternity Home","ownership":"Private","town":"Vui","longitude":0.98164,"id":"aaknm43i2xb6"},"type":"Feature","geometry":{"type":"Point","coordinates":[0.98164,5.88564]}},{"properties":{"latitude":6.11724,"region":"Volta","district":"Ketu","facilityname":"Beno's Maternity/Clinic","type":"Maternity Home","ownership":"Private","town":"Aflao","longitude":1.191,"id":"aaknm3zg2tqo"},"type":"Feature","geometry":{"type":"Point","coordinates":[1.191,6.11724]}},{"properties":{"latitude":6.11867,"region":"Volta","district":"Ketu","facilityname":"Sunkwa Maternity Home","type":"Maternity Home","ownership":"Private","town":"Aflao","longitude":1.18727,"id":"aaknm4d1z0w9"},"type":"Feature","geometry":{"type":"Point","coordinates":[1.18727,6.11867]}},{"properties":{"latitude":6.14131,"region":"Volta","district":"Ketu","facilityname":"St. Anthony Maternity/Clinic","type":"Maternity Home","ownership":"Private","town":"Kopeyia","longitude":1.11281,"id":"aaknm44xbvdu"},"type":"Feature","geometry":{"type":"Point","coordinates":[1.11281,6.14131]}},{"properties":{"latitude":6.07404,"region":"Volta","district":"Ketu","facilityname":"Sarah's Maternity Home","type":"Maternity Home","ownership":"Private","town":"Agbozume","longitude":1.03176,"id":"aaknm3xakyd7"},"type":"Feature","geometry":{"type":"Point","coordinates":[1.03176,6.07404]}},{"properties":{"latitude":7.00259,"region":"Volta","district":"Kpando","facilityname":"Wisdom Maternity Home","type":"Maternity Home","ownership":"Private","town":"Kpando Torkor","longitude":0.2615,"id":"aaknm42hnoj6"},"type":"Feature","geometry":{"type":"Point","coordinates":[0.2615,7.00259]}},{"properties":{"latitude":6.99665,"region":"Volta","district":"Kpando","facilityname":"Matty's Maternity Home","type":"Maternity Home","ownership":"Private","town":"Kpando","longitude":0.29543,"id":"aaknm46cio4r"},"type":"Feature","geometry":{"type":"Point","coordinates":[0.29543,6.99665]}},{"properties":{"latitude":7.06507,"region":"Volta","district":"Kpando","facilityname":"Angela Zahnizer Maternity Home","type":"Maternity Home","ownership":"Private","town":"Agbenorhoe","longitude":0.30577,"id":"aaknm49ql4ep"},"type":"Feature","geometry":{"type":"Point","coordinates":[0.30577,7.06507]}},{"properties":{"latitude":8.06431,"region":"Volta","district":"Krachi East","facilityname":"Nyietor Naz. Maternity Home","type":"Maternity Home","ownership":"Private","town":"Dambai","longitude":0.018651,"id":"aaknm3y1n9j5"},"type":"Feature","geometry":{"type":"Point","coordinates":[0.018651,8.06431]}},{"properties":{"latitude":6.60373,"region":"Volta","district":"South Dayi","facilityname":"Hope Maternity Home","type":"Maternity Home","ownership":"Private","town":"Tongo Dzemeni","longitude":0.17458,"id":"aaknm3y4t6gq"},"type":"Feature","geometry":{"type":"Point","coordinates":[0.17458,6.60373]}},{"properties":{"latitude":6.60058,"region":"Volta","district":"South Dayi","facilityname":"St Pauls Maternity Home","type":"Maternity Home","ownership":"Private","town":"Dzemeni","longitude":0.16716,"id":"aaknm47z7x4c"},"type":"Feature","geometry":{"type":"Point","coordinates":[0.16716,6.60058]}},{"properties":{"latitude":5.99312,"region":"Volta","district":"South Tongu","facilityname":"Good Sheperd Maternity Home","type":"Maternity Home","ownership":"Private","town":"Sogakope","longitude":0.58098,"id":"aaknm428et8m"},"type":"Feature","geometry":{"type":"Point","coordinates":[0.58098,5.99312]}},{"properties":{"latitude":null,"region":"Volta","district":"Jasikan","facilityname":"St Anthony Maternity Home","type":"Maternity Home","ownership":"CHAG","town":null,"longitude":null,"id":"aaknm4a16cjm"},"type":"Feature","geometry":null},{"properties":{"latitude":null,"region":"Volta","district":"Jasikan","facilityname":"Gbedemah Maternity Home","type":"Maternity Home","ownership":"Private","town":null,"longitude":null,"id":"aaknm3xiiuqt"},"type":"Feature","geometry":null},{"properties":{"latitude":null,"region":"Volta","district":"Jasikan","facilityname":"Truth Maternity Home","type":"Maternity Home","ownership":"Private","town":null,"longitude":null,"id":"aaknm41vr27f"},"type":"Feature","geometry":null},{"properties":{"latitude":null,"region":"Volta","district":"Keta","facilityname":"God's Grace Maternity Home","type":"Maternity Home","ownership":"Private","town":null,"longitude":null,"id":"aaknm4b125pj"},"type":"Feature","geometry":null},{"properties":{"latitude":null,"region":"Volta","district":"Ketu","facilityname":"Mawuenyega Maternity Home","type":"Maternity Home","ownership":"Private","town":null,"longitude":null,"id":"aaknm46h26t2"},"type":"Feature","geometry":null},{"properties":{"latitude":null,"region":"Volta","district":"Ketu","facilityname":"St Christopher Maternity Home","type":"Maternity Home","ownership":"Private","town":null,"longitude":null,"id":"aaknm3y741zg"},"type":"Feature","geometry":null},{"properties":{"latitude":null,"region":"Volta","district":"Nkwanta","facilityname":"Kpassa Maternity Home","type":"Maternity Home","ownership":"Private","town":"Kpassa","longitude":null,"id":"aaknm49rafvo"},"type":"Feature","geometry":null},{"properties":{"latitude":null,"region":"Volta","district":"South Dayi","facilityname":"Salam Maternity Home","type":"Maternity Home","ownership":"Private","town":"Kayra","longitude":null,"id":"aaknm44nan9t"},"type":"Feature","geometry":null},{"properties":{"latitude":6.12855,"region":"Volta","district":"Akatsi","facilityname":"Nancy Maternity Home","type":"Maternity Home","ownership":"Private","town":"Akatsi","longitude":0.79422,"id":"aaknm44dfmdz"},"type":"Feature","geometry":{"type":"Point","coordinates":[0.79422,6.12855]}},{"properties":{"latitude":6.12747,"region":"Volta","district":"Akatsi","facilityname":"St Peters Maternity Home","type":"Maternity Home","ownership":"Private","town":"Akatsi","longitude":0.80371,"id":"aaknm3x3j5gm"},"type":"Feature","geometry":{"type":"Point","coordinates":[0.80371,6.12747]}},{"properties":{"latitude":null,"region":"Western","district":"Ahanta West","facilityname":"Akuba Ewoo Midwife/Maternity","type":"Maternity Home","ownership":"Private","town":"Akuba Ewoo","longitude":null,"id":"aaknm3ygss1u"},"type":"Feature","geometry":null},{"properties":{"latitude":6.11798,"region":"Western","district":"Aowin Suaman","facilityname":"Eno Mary Maternity Home","type":"Maternity Home","ownership":"Private","town":"Dadieso","longitude":-3.02821,"id":"aaknm43zwdzc"},"type":"Feature","geometry":{"type":"Point","coordinates":[-3.02821,6.11798]}},{"properties":{"latitude":6.82523,"region":"Western","district":"Bia","facilityname":"Peace Maternity Home","type":"Maternity Home","ownership":"Private","town":"Adabokrom","longitude":-3.02003,"id":"aaknm4c0dzuj"},"type":"Feature","geometry":{"type":"Point","coordinates":[-3.02003,6.82523]}},{"properties":{"latitude":6.66045,"region":"Western","district":"Bia","facilityname":"St.Ann's Midwife/Maternity","type":"Maternity Home","ownership":"Private","town":"Oseikojokrom","longitude":-3.23505,"id":"aaknm3wo6z8f"},"type":"Feature","geometry":{"type":"Point","coordinates":[-3.23505,6.66045]}},{"properties":{"latitude":6.40582,"region":"Western","district":"Bia","facilityname":"Lizzy's Maternity Home","type":"Maternity Home","ownership":"Private","town":"Akaatiso","longitude":-3.19942,"id":"aaknm3xukxtq"},"type":"Feature","geometry":{"type":"Point","coordinates":[-3.19942,6.40582]}},{"properties":{"latitude":6.40912,"region":"Western","district":"Bia","facilityname":"Gina's Maternity Home","type":"Maternity Home","ownership":"Private","town":"Akaatiso","longitude":-3.19761,"id":"aaknm3zisnia"},"type":"Feature","geometry":{"type":"Point","coordinates":[-3.19761,6.40912]}},{"properties":{"latitude":6.66296,"region":"Western","district":"Bia","facilityname":"Florence Midwife/Maternity","type":"Maternity Home","ownership":"Private","town":"Debiso","longitude":-3.09236,"id":"aaknm436b3cq"},"type":"Feature","geometry":{"type":"Point","coordinates":[-3.09236,6.66296]}},{"properties":{"latitude":6.52429,"region":"Western","district":"Bia","facilityname":"Osbert Maternity Home","type":"Maternity Home","ownership":"Private","town":"Elluokrom","longitude":-2.92798,"id":"aaknm3y9gkvd"},"type":"Feature","geometry":{"type":"Point","coordinates":[-2.92798,6.52429]}},{"properties":{"latitude":6.76802,"region":"Western","district":"Bia","facilityname":"Kristo Nti Maternity Home","type":"Maternity Home","ownership":"Private","town":"Yawmatwa","longitude":-3.18959,"id":"aaknm437r4fy"},"type":"Feature","geometry":{"type":"Point","coordinates":[-3.18959,6.76802]}},{"properties":{"latitude":6.32662,"region":"Western","district":"Juabeso","facilityname":"Florence Maternity Home","type":"Maternity Home","ownership":"Private","town":"Bonsu Nkwanta","longitude":-3.01429,"id":"aaknm4avimhm"},"type":"Feature","geometry":{"type":"Point","coordinates":[-3.01429,6.32662]}},{"properties":{"latitude":6.322,"region":"Western","district":"Juabeso","facilityname":"New Brekum Midwife/Maternity","type":"Maternity Home","ownership":"Private","town":"New Brekum","longitude":-3.04024,"id":"aaknm41ipjmb"},"type":"Feature","geometry":{"type":"Point","coordinates":[-3.04024,6.322]}},{"properties":{"latitude":6.29693,"region":"Western","district":"Juabeso","facilityname":"Maggie's Maternity Home","type":"Maternity Home","ownership":"Private","town":"Gyatokrom","longitude":-3.09052,"id":"aaknm4a9ohor"},"type":"Feature","geometry":{"type":"Point","coordinates":[-3.09052,6.29693]}},{"properties":{"latitude":6.39272,"region":"Western","district":"Juabeso","facilityname":"Anna's Maternity Home","type":"Maternity Home","ownership":"Private","town":"Anhwiafutu","longitude":-2.97626,"id":"aaknm44nc6kq"},"type":"Feature","geometry":{"type":"Point","coordinates":[-2.97626,6.39272]}},{"properties":{"latitude":6.2227,"region":"Western","district":"Juabeso","facilityname":"Seria Memorial Maternity Home","type":"Maternity Home","ownership":"Private","town":"Sefwi Boadi","longitude":-2.75791,"id":"aaknm3xuq42v"},"type":"Feature","geometry":{"type":"Point","coordinates":[-2.75791,6.2227]}},{"properties":{"latitude":5.56673,"region":"Western","district":"Mpohor-Wassa East","facilityname":"It is the Lord Maternity Home","type":"Maternity Home","ownership":"Private","town":"Atieku","longitude":-1.694,"id":"aaknm3xmhzon"},"type":"Feature","geometry":{"type":"Point","coordinates":[-1.694,5.56673]}},{"properties":{"latitude":5.42863,"region":"Western","district":"Mpohor-Wassa East","facilityname":"It is the Lord Maternity Home","type":"Maternity Home","ownership":"Private","town":"Manponso","longitude":-1.63259,"id":"aaknm41vsj2x"},"type":"Feature","geometry":{"type":"Point","coordinates":[-1.63259,5.42863]}},{"properties":{"latitude":5.4101,"region":"Western","district":"Prestea-Huni Valley","facilityname":"Adom Maternity Home","type":"Maternity Home","ownership":"Private","town":"Enyinabrim","longitude":-1.63574,"id":"aaknm4chs2ia"},"type":"Feature","geometry":{"type":"Point","coordinates":[-1.63574,5.4101]}},{"properties":{"latitude":5.23899,"region":"Western","district":"Mpohor-Wassa East","facilityname":"The Glory of God Maternity Home","type":"Maternity Home","ownership":"Private","town":"Sekyere Krobo","longitude":-1.60781,"id":"aaknm45qiue9"},"type":"Feature","geometry":{"type":"Point","coordinates":[-1.60781,5.23899]}},{"properties":{"latitude":6.00543,"region":"Western","district":"Sefwi Wiawso","facilityname":"Salem Maternity Home","type":"Maternity Home","ownership":"Private","town":"Edewarakrom","longitude":-2.81545,"id":"aaknm3x4p6uh"},"type":"Feature","geometry":{"type":"Point","coordinates":[-2.81545,6.00543]}},{"properties":{"latitude":6.04838,"region":"Western","district":"Sefwi-Akontombra","facilityname":"Suzzy's Maternity Home","type":"Maternity Home","ownership":"Private","town":"Akontombra","longitude":-2.87306,"id":"aaknm46k9y9i"},"type":"Feature","geometry":{"type":"Point","coordinates":[-2.87306,6.04838]}},{"properties":{"latitude":6.42708,"region":"Western","district":"Sefwi Wiawso","facilityname":"Lizzy Maternity Home","type":"Maternity Home","ownership":"Private","town":"Asawinso","longitude":-2.70756,"id":"aaknm3z9n3lv"},"type":"Feature","geometry":{"type":"Point","coordinates":[-2.70756,6.42708]}},{"properties":{"latitude":6.15151,"region":"Western","district":"Sefwi-Akontombra","facilityname":"Gyanwah Memorial Maternity Home","type":"Maternity Home","ownership":"Private","town":"Nsawura","longitude":-2.60515,"id":"aaknm47m0y0l"},"type":"Feature","geometry":{"type":"Point","coordinates":[-2.60515,6.15151]}},{"properties":{"latitude":4.97472,"region":"Western","district":"Shama Ahanta East","facilityname":"Stratford Clinic / Maternity Home","type":"Maternity Home","ownership":"Private","town":"Kojokrom","longitude":-1.7269,"id":"aaknm3zofpmf"},"type":"Feature","geometry":{"type":"Point","coordinates":[-1.7269,4.97472]}},{"properties":{"latitude":4.91692,"region":"Western","district":"Shama Ahanta East","facilityname":"Jemima Maternity Home/Clinic","type":"Maternity Home","ownership":"Private","town":"Kwesimintsim","longitude":-1.78779,"id":"aaknm40pukdd"},"type":"Feature","geometry":{"type":"Point","coordinates":[-1.78779,4.91692]}},{"properties":{"latitude":4.93625,"region":"Western","district":"Shama Ahanta East","facilityname":"Lily Maternity Home","type":"Maternity Home","ownership":"Private","town":"Sekondi","longitude":-1.71728,"id":"aaknm429wrqz"},"type":"Feature","geometry":{"type":"Point","coordinates":[-1.71728,4.93625]}},{"properties":{"latitude":4.94447,"region":"Western","district":"Shama Ahanta East","facilityname":"Our Ladys Clinic","type":"Maternity Home","ownership":"Private","town":"Fijai Hill","longitude":-1.74971,"id":"aaknm4br5slo"},"type":"Feature","geometry":{"type":"Point","coordinates":[-1.74971,4.94447]}},{"properties":{"latitude":4.8957,"region":"Western","district":"Shama Ahanta East","facilityname":"Mrs Akoto Maternity Home","type":"Maternity Home","ownership":"Private","town":"Esikafoambantem No. 1","longitude":-1.76235,"id":"aaknm40fsmln"},"type":"Feature","geometry":{"type":"Point","coordinates":[-1.76235,4.8957]}},{"properties":{"latitude":5.44631,"region":"Western","district":"Wassa West","facilityname":"Grace Maternity Home","type":"Maternity Home","ownership":"Private","town":"Old Destimony","longitude":-2.13222,"id":"aaknm3zb894d"},"type":"Feature","geometry":{"type":"Point","coordinates":[-2.13222,5.44631]}},{"properties":{"latitude":5.43077,"region":"Western","district":"Prestea-Huni Valley","facilityname":"Ebenezer Maternity Home","type":"Maternity Home","ownership":"Private","town":"Dagarti Compound","longitude":-2.1468,"id":"aaknm4adkx1v"},"type":"Feature","geometry":{"type":"Point","coordinates":[-2.1468,5.43077]}},{"properties":{"latitude":5.30068,"region":"Western","district":"Tarkwa Nsuaem Municipal","facilityname":"Ami Memorial Maternity Home","type":"Maternity Home","ownership":"Private","town":"Tarkwa Naboso","longitude":-1.99527,"id":"aaknm49y9ird"},"type":"Feature","geometry":{"type":"Point","coordinates":[-1.99527,5.30068]}},{"properties":{"latitude":5.26352,"region":"Western","district":"Tarkwa Nsuaem Municipal","facilityname":"Vivian's Maternity Home","type":"Maternity Home","ownership":"Private","town":"Bankyim","longitude":-2.00929,"id":"aaknm45o5g8l"},"type":"Feature","geometry":{"type":"Point","coordinates":[-2.00929,5.26352]}},{"properties":{"latitude":5.2999,"region":"Western","district":"Tarkwa Nsuaem Municipal","facilityname":"Bosumtwe Maternity Home","type":"Maternity Home","ownership":"Private","town":"New Layout","longitude":-1.98891,"id":"aaknm472m1qv"},"type":"Feature","geometry":{"type":"Point","coordinates":[-1.98891,5.2999]}},{"properties":{"latitude":5.36424,"region":"Western","district":"Wassa West","facilityname":"Adom Maternity Home","type":"Maternity Home","ownership":"Private","town":"Aboso","longitude":-1.94511,"id":"aaknm3yknx58"},"type":"Feature","geometry":{"type":"Point","coordinates":[-1.94511,5.36424]}},{"properties":{"latitude":null,"region":"Western","district":"Bia","facilityname":"Eye Ewurade Maternity Home","type":"Maternity Home","ownership":"Private","town":null,"longitude":null,"id":"aaknm3y7w6on"},"type":"Feature","geometry":null},{"properties":{"latitude":null,"region":"Western","district":"Juabeso","facilityname":"Ghana Moslem Mission Maternity Home","type":"Maternity Home","ownership":"Islamic","town":null,"longitude":null,"id":"aaknm4bgbynw"},"type":"Feature","geometry":null},{"properties":{"latitude":null,"region":"Western","district":"Juabeso","facilityname":"Serwaa Maternity Home","type":"Maternity Home","ownership":"Private","town":null,"longitude":null,"id":"aaknm48rmq7b"},"type":"Feature","geometry":null},{"properties":{"latitude":null,"region":"Western","district":"Juabeso","facilityname":"The Promise of God Maternity Home","type":"Maternity Home","ownership":"Private","town":null,"longitude":null,"id":"aaknm4btegod"},"type":"Feature","geometry":null},{"properties":{"latitude":null,"region":"Western","district":"Juabeso","facilityname":"Rose Maternity Home","type":"Maternity Home","ownership":"Private","town":null,"longitude":null,"id":"aaknm46c25mq"},"type":"Feature","geometry":null},{"properties":{"latitude":null,"region":"Western","district":"Shama Ahanta East","facilityname":"Anaji Maternity Home","type":"Maternity Home","ownership":"Private","town":null,"longitude":null,"id":"aaknm4939san"},"type":"Feature","geometry":null},{"properties":{"latitude":null,"region":"Western","district":"Mpohor-Wassa East","facilityname":"Glory of God Maternity Home","type":"Maternity Home","ownership":"Private","town":null,"longitude":null,"id":"aaknm41upyau"},"type":"Feature","geometry":null},{"properties":{"latitude":null,"region":"Western","district":"Wassa West","facilityname":"S.A.B Maternity Home","type":"Maternity Home","ownership":"Private","town":null,"longitude":null,"id":"aaknm3xowd2j"},"type":"Feature","geometry":null},{"properties":{"latitude":null,"region":"Western","district":"Sefwi Wiawso","facilityname":"Kaytess Maternity Home","type":"Maternity Home","ownership":"Private","town":"Kaytess","longitude":null,"id":"aaknm3x3aa7e"},"type":"Feature","geometry":null},{"properties":{"latitude":null,"region":"Western","district":"Juabeso","facilityname":"Nallice Maternity","type":"Maternity Home","ownership":"Private","town":null,"longitude":null,"id":"aaknm4a55nbf"},"type":"Feature","geometry":null},{"properties":{"latitude":null,"region":"Western","district":"Pretea-Huni Valley","facilityname":"Adom Maternity Home","type":"Maternity Home","ownership":"Private","town":"Aboso","longitude":null,"id":"aaknm42sny1x"},"type":"Feature","geometry":null}],"is_temporal":false,"author":{"url":"","metadata":"","contact_name":"","contact_address":"","source":"","contact_phone":""},"source":"","pagination":{"sort":null,"start":0,"total":369,"limit":1000000},"state":"complete","tags":"","published":"2014-08-16T16:47:25-04:00","id":303135}