{"type":"FeatureCollection","data_type":"Dataset","url_type":null,"permissions":[{"permissions":{"download":true,"view":true},"group_id":"everyone"}],"classification":null,"title":"Regional Health Derectorates in Ghana","count":9,"stream_id":303196,"contributor":{"url":"http://geocommons.com/users/54256","name":"mwdcsend"},"data_attributes":null,"calculation_params":null,"icon_link":null,"link":"http://geocommons.com/overlays/303196.json","extent":[-2.50076,4.9405,-0.20348,10.7967],"geometry_types":["point"],"unique_name":null,"name":"Regional Health Derectorates in Ghana","feature_count":9,"description":"","next_feature":null,"is_raster":false,"short_classification":"Y","stats":{"latitude":{"max":10.79672,"variance":5.17885961993925,"mean":7.18778066666667,"stdev":2.27571079444187,"min":4.9405,"median":6.088483},"longitude":{"max":-0.20348,"variance":0.824784852041695,"mean":-1.09544222222222,"stdev":0.90817666345359,"min":-2.50076,"median":-0.85762}},"features":[{"properties":{"latitude":7.340233,"region":"Brong Ahafo","district":"Sunyani","facilityname":"Brong Ahafo Regional Health Directorate","type":"Regional Health Directorate","ownership":"Government","town":"Sunyani","longitude":-2.335633,"id":"aaksay0jyl1m"},"type":"Feature","geometry":{"type":"Point","coordinates":[-2.335633,7.340233]}},{"properties":{"latitude":5.10162,"region":"Central","district":"Cape Coast Metropolitan","facilityname":"Regional Health Directorate","type":"Regional Health Directorate","ownership":"Government","town":"Cape Coast","longitude":-1.2709,"id":"aaksaxzfjx53"},"type":"Feature","geometry":{"type":"Point","coordinates":[-1.2709,5.10162]}},{"properties":{"latitude":6.088483,"region":"Eastern","district":"New Juaben","facilityname":"Regional Health Directorate","type":"Regional Health Directorate","ownership":"Government","town":"Koforidua","longitude":-0.270767,"id":"aaksay425746"},"type":"Feature","geometry":{"type":"Point","coordinates":[-0.270767,6.088483]}},{"properties":{"latitude":5.55802,"region":"Greater Accra","district":"Accra Metropolitan","facilityname":"Regional Health Directorate","type":"Regional Health Directorate","ownership":"Government","town":"Adabraka","longitude":-0.20629,"id":"aaksaxp9z68t"},"type":"Feature","geometry":{"type":"Point","coordinates":[-0.20629,5.55802]}},{"properties":{"latitude":5.56179,"region":"Greater Accra","district":"Accra Metropolitan","facilityname":"Regional Health Directorate (new site)","type":"Regional Health Directorate","ownership":"Government","town":"Adabraka","longitude":-0.20348,"id":"aaksay0p4s5i"},"type":"Feature","geometry":{"type":"Point","coordinates":[-0.20348,5.56179]}},{"properties":{"latitude":9.2425,"region":"Northern","district":"Tamale Metropolitan","facilityname":"Regional Health Directorate","type":"Regional Health Directorate","ownership":"Government","town":"Ministries","longitude":-0.50203,"id":"aaksaxrypby9"},"type":"Feature","geometry":{"type":"Point","coordinates":[-0.50203,9.2425]}},{"properties":{"latitude":10.79672,"region":"Upper East","district":"Bolgatanga Municipal","facilityname":"Bolgatanga Regional Health Directorate","type":"Regional Health Directorate","ownership":"Government","town":"Bolgatanga","longitude":-0.85762,"id":"aaksaxrpczvq"},"type":"Feature","geometry":{"type":"Point","coordinates":[-0.85762,10.79672]}},{"properties":{"latitude":10.06016,"region":"Upper West","district":"Wa Municipal","facilityname":"Wa Regional Health Directorate","type":"Regional Health Directorate","ownership":"Government","town":"Wa","longitude":-2.50076,"id":"aaksaxzpvlho"},"type":"Feature","geometry":{"type":"Point","coordinates":[-2.50076,10.06016]}},{"properties":{"latitude":4.9405,"region":"Western","district":"Shama Ahanta East","facilityname":"Western Regional Health Directorate","type":"Regional Health Directorate","ownership":"Government","town":"Sekondi","longitude":-1.7115,"id":"aaksay1zesgr"},"type":"Feature","geometry":{"type":"Point","coordinates":[-1.7115,4.9405]}}],"is_temporal":false,"author":{"url":"","metadata":"","contact_name":"","contact_address":"","source":"","contact_phone":""},"source":"","pagination":{"sort":null,"start":0,"total":9,"limit":1000000},"state":"complete","tags":"","published":"2014-08-16T16:52:04-04:00","id":303196}