{"type":"FeatureCollection","data_type":"Dataset","url_type":null,"permissions":[{"permissions":{"download":true,"view":true},"group_id":"everyone"}],"classification":null,"title":"District Hospitals in GHana","count":82,"stream_id":303138,"contributor":{"url":"http://geocommons.com/users/54256","name":"mwdcsend"},"data_attributes":null,"calculation_params":null,"icon_link":null,"link":"http://geocommons.com/overlays/303138.json","extent":[-2.88944,4.79799,1.18013,10.9362],"geometry_types":["point"],"unique_name":null,"name":"District Hospitals in GHana","feature_count":82,"description":"","next_feature":null,"is_raster":false,"short_classification":"Y","stats":{"latitude":{"max":10.93621,"variance":2.9097590527392,"mean":7.2430348375,"stdev":1.70580158656838,"min":4.79799,"median":6.62436},"longitude":{"max":1.18013,"variance":1.02662780046384,"mean":-1.0966824125,"stdev":1.01322643099351,"min":-2.88944,"median":-0.99725}},"features":[{"properties":{"latitude":10.53334,"region":"Upper West","district":"Jirapa","facilityname":"St. Joseph's Hospital","type":"District Hospital","ownership":"CHAG","town":"Jirapa","longitude":-2.69916,"id":"aaknmkhnyriz"},"type":"Feature","geometry":{"type":"Point","coordinates":[-2.69916,10.53334]}},{"properties":{"latitude":6.53752,"region":"Ashanti","district":"Bosomtwe","facilityname":"Kuntenase Government Hospital","type":"District Hospital","ownership":"Government","town":"Kuntenase","longitude":-1.47454,"id":"aaknmkljvfdp"},"type":"Feature","geometry":{"type":"Point","coordinates":[-1.47454,6.53752]}},{"properties":{"latitude":6.45605,"region":"Ashanti","district":"Bekwai Municipal","facilityname":"Bekwai Government Hospital","type":"District Hospital","ownership":"Government","town":"Bekwai","longitude":-1.57857,"id":"aaknmkqqfqpv"},"type":"Feature","geometry":{"type":"Point","coordinates":[-1.57857,6.45605]}},{"properties":{"latitude":6.84739,"region":"Ashanti","district":"Sekyere East","facilityname":"Effiduase District Hospital","type":"District Hospital","ownership":"Government","town":"Effiduase","longitude":-1.39373,"id":"aaknmkl6eam7"},"type":"Feature","geometry":{"type":"Point","coordinates":[-1.39373,6.84739]}},{"properties":{"latitude":7.38906,"region":"Ashanti","district":"Ejura Sekyeredumasi","facilityname":"Ejura District Hospital","type":"District Hospital","ownership":"Government","town":"Ejura","longitude":-1.35197,"id":"aaknmkjtwpmk"},"type":"Feature","geometry":{"type":"Point","coordinates":[-1.35197,7.38906]}},{"properties":{"latitude":6.81602,"region":"Ashanti","district":"Ejisu-Juaben Municipal","facilityname":"Juaben Government Hospital","type":"District Hospital","ownership":"Government","town":"Juaben","longitude":-1.41392,"id":"aaknmkrq9uhk"},"type":"Feature","geometry":{"type":"Point","coordinates":[-1.41392,6.81602]}},{"properties":{"latitude":6.59223,"region":"Ashanti","district":"Asante-Akim South","facilityname":"Juaso District Hospital","type":"District Hospital","ownership":"Government","town":"Juaso","longitude":-1.12113,"id":"aaknmkoqjszi"},"type":"Feature","geometry":{"type":"Point","coordinates":[-1.12113,6.59223]}},{"properties":{"latitude":6.62436,"region":"Ashanti","district":"Asante-Akim North Municipal","facilityname":"Konongo-Odumasi Government Hospital","type":"District Hospital","ownership":"Government","town":"Konongo","longitude":-1.21792,"id":"aaknmkn8w50b"},"type":"Feature","geometry":{"type":"Point","coordinates":[-1.21792,6.62436]}},{"properties":{"latitude":7.04563,"region":"Ashanti","district":"Mampong Municipal","facilityname":"Mampong District Hospital","type":"District Hospital","ownership":"Government","town":"Mampong","longitude":-1.40219,"id":"aaknmkw318kv"},"type":"Feature","geometry":{"type":"Point","coordinates":[-1.40219,7.04563]}},{"properties":{"latitude":6.84819,"region":"Ashanti","district":"Afigya-Kwabre","facilityname":"Methodist Faith Healing Hospital","type":"District Hospital","ownership":"CHAG","town":"Ankaase","longitude":-1.54934,"id":"aaknmkwacw5t"},"type":"Feature","geometry":{"type":"Point","coordinates":[-1.54934,6.84819]}},{"properties":{"latitude":6.05456,"region":"Ashanti","district":"Adansi South","facilityname":"New Edubiase Hospital","type":"District Hospital","ownership":"Government","town":"New Edubiase","longitude":-1.39281,"id":"aaknmkoj0wnn"},"type":"Feature","geometry":{"type":"Point","coordinates":[-1.39281,6.05456]}},{"properties":{"latitude":7.31957,"region":"Ashanti","district":"Offinso North","facilityname":"Nkenkasu District Hospital","type":"District Hospital","ownership":"Government","town":"Nkenkasu","longitude":-1.90289,"id":"aaknmkp15axp"},"type":"Feature","geometry":{"type":"Point","coordinates":[-1.90289,7.31957]}},{"properties":{"latitude":6.60115,"region":"Ashanti","district":"Atwima-Mponua","facilityname":"Nyinahin Government Hospital","type":"District Hospital","ownership":"Government","town":"Nyinahin","longitude":-2.10999,"id":"aaknmkpr3ola"},"type":"Feature","geometry":{"type":"Point","coordinates":[-2.10999,6.60115]}},{"properties":{"latitude":6.99966,"region":"Ashanti","district":"Ahafo-Ano North","facilityname":"Tepa District Hospital","type":"District Hospital","ownership":"Government","town":"Tepa","longitude":-2.16102,"id":"aaknmkoj8yzw"},"type":"Feature","geometry":{"type":"Point","coordinates":[-2.16102,6.99966]}},{"properties":{"latitude":6.80162,"region":"Ashanti","district":"Kwabre","facilityname":"Asonomaso Government Hospital","type":"District Hospital","ownership":"Government","town":"Asonamaso","longitude":-1.51374,"id":"aaknmkt05zxc"},"type":"Feature","geometry":{"type":"Point","coordinates":[-1.51374,6.80162]}},{"properties":{"latitude":6.8057,"region":"Brong Ahafo","district":"Asunafo North Municipal","facilityname":"Goaso Hospital","type":"District Hospital","ownership":"Government","town":"Goaso","longitude":-2.52181,"id":"aaknmko06yzk"},"type":"Feature","geometry":{"type":"Point","coordinates":[-2.52181,6.8057]}},{"properties":{"latitude":7.74807,"region":"Brong Ahafo","district":"Atebubu-Amanten","facilityname":"Atebubu Government Hospital","type":"District Hospital","ownership":"Government","town":"Atebubu","longitude":-0.98197,"id":"aaknmkm2x7pv"},"type":"Feature","geometry":{"type":"Point","coordinates":[-0.98197,7.74807]}},{"properties":{"latitude":7.27537,"region":"Brong Ahafo","district":"Dormaa Municipal","facilityname":"Dormaa Presby Hospital","type":"District Hospital","ownership":"Government","town":"Dormaa","longitude":-2.86803,"id":"aaknmku61jhf"},"type":"Feature","geometry":{"type":"Point","coordinates":[-2.86803,7.27537]}},{"properties":{"latitude":7.95085,"region":"Brong Ahafo","district":"Jaman North","facilityname":"Sampa District Hospital","type":"District Hospital","ownership":"Government","town":".Sampa","longitude":-2.695,"id":"aaknmkpjsqgz"},"type":"Feature","geometry":{"type":"Point","coordinates":[-2.695,7.95085]}},{"properties":{"latitude":8.05098,"region":"Brong Ahafo","district":"Kintampo North Municipal","facilityname":"Kintampo District Hospital","type":"District Hospital","ownership":"Government","town":"Kintampo","longitude":-1.7312,"id":"aaknmkjqn3cg"},"type":"Feature","geometry":{"type":"Point","coordinates":[-1.7312,8.05098]}},{"properties":{"latitude":7.73115,"region":"Brong Ahafo","district":"Sene","facilityname":"Sene District Hospital","type":"District Hospital","ownership":"Government","town":"Kwame Danso","longitude":-0.68588,"id":"aaknmktycmlk"},"type":"Feature","geometry":{"type":"Point","coordinates":[-0.68588,7.73115]}},{"properties":{"latitude":7.08831,"region":"Brong Ahafo","district":"Tano South","facilityname":"Bechem Government Hospital","type":"District Hospital","ownership":"Government","town":"Bechem","longitude":-2.02947,"id":"aaknmkpmmrox"},"type":"Feature","geometry":{"type":"Point","coordinates":[-2.02947,7.08831]}},{"properties":{"latitude":5.2045,"region":"Central","district":"Mfantseman","facilityname":"Saltpond Government Hospital","type":"District Hospital","ownership":"Government","town":"Saltpond","longitude":-1.05614,"id":"aaknmkgn0jpc"},"type":"Feature","geometry":{"type":"Point","coordinates":[-1.05614,5.2045]}},{"properties":{"latitude":5.61089,"region":"Central","district":"Twifu-Hemang-Lower Denkyira","facilityname":"Praso Hospital","type":"District Hospital","ownership":"Government","town":"Twifu Praso","longitude":-1.54928,"id":"aaknmkrpk84l"},"type":"Feature","geometry":{"type":"Point","coordinates":[-1.54928,5.61089]}},{"properties":{"latitude":5.96243,"region":"Central","district":"Upper Denkyira East","facilityname":"Dunkwa Hospital","type":"District Hospital","ownership":"Government","town":"Dunkwa-On-Offin","longitude":-1.77927,"id":"aaknmks1bthq"},"type":"Feature","geometry":{"type":"Point","coordinates":[-1.77927,5.96243]}},{"properties":{"latitude":5.34485,"region":"Central","district":"Abura-Asebu-Kwamankese","facilityname":"Abura Dunkwa Hospital","type":"District Hospital","ownership":"Government","town":"Abura Dunkwa","longitude":-1.17108,"id":"aaknmkmoiip7"},"type":"Feature","geometry":{"type":"Point","coordinates":[-1.17108,5.34485]}},{"properties":{"latitude":5.53532,"region":"Central","district":"Agona West Municipal","facilityname":"Agona Swedru Govermnt Hospital","type":"District Hospital","ownership":"Government","town":"Swedru","longitude":-0.6926,"id":"aaknmkqlad3k"},"type":"Feature","geometry":{"type":"Point","coordinates":[-0.6926,5.53532]}},{"properties":{"latitude":5.4237,"region":"Central","district":"Ajumako-Enyan-Essiam","facilityname":"Ajumako Hospital","type":"District Hospital","ownership":"Government","town":"Ajumako","longitude":-0.95484,"id":"aaknmkmqnso6"},"type":"Feature","geometry":{"type":"Point","coordinates":[-0.95484,5.4237]}},{"properties":{"latitude":5.6996,"region":"Central","district":"Assin North Municipal","facilityname":"St. Francis Xavier Hospital","type":"District Hospital","ownership":"CHAG","town":"Foso","longitude":-1.28136,"id":"aaknmkw82432"},"type":"Feature","geometry":{"type":"Point","coordinates":[-1.28136,5.6996]}},{"properties":{"latitude":5.34374,"region":"Central","district":"Efutu Municipal","facilityname":"Winneba Government Hospital","type":"District Hospital","ownership":"Government","town":"Winneba","longitude":-0.6229,"id":"aaknmkhgq3oh"},"type":"Feature","geometry":{"type":"Point","coordinates":[-0.6229,5.34374]}},{"properties":{"latitude":7.04888,"region":"Eastern","district":"Kwahu North","facilityname":"Donkorkrom Presby Hospital","type":"District Hospital","ownership":"CHAG","town":"Donkorkrom","longitude":-0.07725,"id":"aaknmkmpmiwb"},"type":"Feature","geometry":{"type":"Point","coordinates":[-0.07725,7.04888]}},{"properties":{"latitude":5.92163,"region":"Eastern","district":"Akwapim North","facilityname":"Tetteh Quarshie Memorial Hospital","type":"District Hospital","ownership":"Government","town":"Mampong","longitude":-0.13319,"id":"aaknmkrrljow"},"type":"Feature","geometry":{"type":"Point","coordinates":[-0.13319,5.92163]}},{"properties":{"latitude":5.81045,"region":"Eastern","district":"Akwapim South","facilityname":"Nsawam Hospital","type":"District Hospital","ownership":"Government","town":"Nsawam","longitude":-0.33749,"id":"aaknmku8pd2o"},"type":"Feature","geometry":{"type":"Point","coordinates":[-0.33749,5.81045]}},{"properties":{"latitude":6.43727,"region":"Eastern","district":"Atiwa","facilityname":"Enyiresi Hospital","type":"District Hospital","ownership":"Government","town":"Enyiresi","longitude":-0.58676,"id":"aaknmkkiluu0"},"type":"Feature","geometry":{"type":"Point","coordinates":[-0.58676,6.43727]}},{"properties":{"latitude":6.33577,"region":"Eastern","district":"Birim North","facilityname":"New Abirem Hospital","type":"District Hospital","ownership":"Government","town":"New Abirem","longitude":-0.99725,"id":"aaknmkkxmlkh"},"type":"Feature","geometry":{"type":"Point","coordinates":[-0.99725,6.33577]}},{"properties":{"latitude":5.92785,"region":"Eastern","district":"Birim south","facilityname":"Akim Oda Hospital","type":"District Hospital","ownership":"Government","town":"Oda","longitude":-0.98527,"id":"aaknmksid0lo"},"type":"Feature","geometry":{"type":"Point","coordinates":[-0.98527,5.92785]}},{"properties":{"latitude":6.16775,"region":"Eastern","district":"East Akim","facilityname":"Kyebi Governmentt Hospital","type":"District Hospital","ownership":"Government","town":"Kyebi","longitude":-0.55446,"id":"aaknmksqx7rd"},"type":"Feature","geometry":{"type":"Point","coordinates":[-0.55446,6.16775]}},{"properties":{"latitude":6.39813,"region":"Eastern","district":"Fanteakwa","facilityname":"Begoro Hospital","type":"District Hospital","ownership":"Government","town":"Begoro","longitude":-0.36885,"id":"aaknmkjh9hsc"},"type":"Feature","geometry":{"type":"Point","coordinates":[-0.36885,6.39813]}},{"properties":{"latitude":6.27345,"region":"Eastern","district":"Kwaebibirem","facilityname":"Kade Hospital","type":"District Hospital","ownership":"Government","town":"Kade","longitude":-0.992983,"id":"aaknmkw8brxf"},"type":"Feature","geometry":{"type":"Point","coordinates":[-0.992983,6.27345]}},{"properties":{"latitude":6.58119,"region":"Eastern","district":"Kwahu South","facilityname":"Atibie Government Hospital","type":"District Hospital","ownership":"Government","town":"Atibie","longitude":-0.73417,"id":"aaknmkjo2cr6"},"type":"Feature","geometry":{"type":"Point","coordinates":[-0.73417,6.58119]}},{"properties":{"latitude":6.47555,"region":"Eastern","district":"Kwahu West","facilityname":"Holy Family Hospital","type":"District Hospital","ownership":"CHAG","town":"Nkawkaw","longitude":-0.77237,"id":"aaknmkop8ra2"},"type":"Feature","geometry":{"type":"Point","coordinates":[-0.77237,6.47555]}},{"properties":{"latitude":6.119267,"region":"Eastern","district":"Manya Krobo","facilityname":"Atua Government Hospital","type":"District Hospital","ownership":"Government","town":"Atua","longitude":-0.00193,"id":"aaknmkg5jbev"},"type":"Feature","geometry":{"type":"Point","coordinates":[-0.00193,6.119267]}},{"properties":{"latitude":6.0373,"region":"Eastern","district":"Suhum Kraboa Coaltar","facilityname":"Suhum Government Hospital","type":"District Hospital","ownership":"Government","town":"Suhum","longitude":-0.44543,"id":"aaknmkn4ego8"},"type":"Feature","geometry":{"type":"Point","coordinates":[-0.44543,6.0373]}},{"properties":{"latitude":5.85455,"region":"Eastern","district":"West Akim","facilityname":"Asamankese Government Hospital","type":"District Hospital","ownership":"Government","town":"Asamankese","longitude":-0.67891,"id":"aaknmkl9x4qt"},"type":"Feature","geometry":{"type":"Point","coordinates":[-0.67891,5.85455]}},{"properties":{"latitude":5.88888,"region":"Greater Accra","district":"Dangme East","facilityname":"Dangme East District Hospital","type":"District Hospital","ownership":"Government","town":"Ada","longitude":0.56949,"id":"aaknmktfyegu"},"type":"Feature","geometry":{"type":"Point","coordinates":[0.56949,5.88888]}},{"properties":{"latitude":9.0276,"region":"Northern","district":"Bole","facilityname":"Bole Hospital","type":"District Hospital","ownership":"Government","town":"Bole","longitude":-2.49736,"id":"aaknmkvusvci"},"type":"Feature","geometry":{"type":"Point","coordinates":[-2.49736,9.0276]}},{"properties":{"latitude":8.55733,"region":"Northern","district":"East Gonja","facilityname":"Salaga  Hospital","type":"District Hospital","ownership":"Government","town":"Salaga","longitude":-0.51437,"id":"aaknmkvw19un"},"type":"Feature","geometry":{"type":"Point","coordinates":[-0.51437,8.55733]}},{"properties":{"latitude":10.51973,"region":"Northern","district":"East Mamprusi","facilityname":"Baptist Medical Centre","type":"District Hospital","ownership":"CHAG","town":"Nalerigu","longitude":-0.36573,"id":"aaknmkrxjp5m"},"type":"Feature","geometry":{"type":"Point","coordinates":[-0.36573,10.51973]}},{"properties":{"latitude":9.92814,"region":"Northern","district":"Gushegu","facilityname":"Gushegu  Hospital","type":"District Hospital","ownership":"Government","town":"Gushegu","longitude":-0.21489,"id":"aaknmkikq8tm"},"type":"Feature","geometry":{"type":"Point","coordinates":[-0.21489,9.92814]}},{"properties":{"latitude":8.85756,"region":"Northern","district":"Nanumba North","facilityname":"Bimbilla  Hospital","type":"District Hospital","ownership":"Government","town":"Bimbilla","longitude":-0.05562,"id":"aaknmkp6drfr"},"type":"Feature","geometry":{"type":"Point","coordinates":[-0.05562,8.85756]}},{"properties":{"latitude":9.61862,"region":"Northern","district":"Savelugu-Nanton","facilityname":"Savelugu  Hospital","type":"District Hospital","ownership":"Government","town":"Savelugu","longitude":-0.82929,"id":"aaknmkl6k7ps"},"type":"Feature","geometry":{"type":"Point","coordinates":[-0.82929,9.61862]}},{"properties":{"latitude":9.40046,"region":"Northern","district":"Tamale Metropolitan","facilityname":"Tamale West Hospital","type":"District Hospital","ownership":"Government","town":"Zogyele","longitude":-0.8503,"id":"aaknmki1sn8v"},"type":"Feature","geometry":{"type":"Point","coordinates":[-0.8503,9.40046]}},{"properties":{"latitude":9.06302,"region":"Northern","district":"West Gonja","facilityname":"Damongo Hospital","type":"District Hospital","ownership":"CHAG","town":"Damongo","longitude":-1.79872,"id":"aaknmkg9dnpp"},"type":"Feature","geometry":{"type":"Point","coordinates":[-1.79872,9.06302]}},{"properties":{"latitude":10.34633,"region":"Northern","district":"West Mamprusi","facilityname":"Walewale  Hospital","type":"District Hospital","ownership":"Government","town":"Walewale","longitude":-0.80854,"id":"aaknmkp3tdy1"},"type":"Feature","geometry":{"type":"Point","coordinates":[-0.80854,10.34633]}},{"properties":{"latitude":9.44604,"region":"Northern","district":"Yendi","facilityname":"Yendi Hospital","type":"District Hospital","ownership":"Government","town":"Yendi","longitude":-0.00402,"id":"aaknmkqo1trh"},"type":"Feature","geometry":{"type":"Point","coordinates":[-0.00402,9.44604]}},{"properties":{"latitude":10.9145,"region":"Upper East","district":"Bongo","facilityname":"Bongo Hospital","type":"District Hospital","ownership":"Government","town":"Bongo/Wegurugo","longitude":-0.80727,"id":"aaknmksm1knm"},"type":"Feature","geometry":{"type":"Point","coordinates":[-0.80727,10.9145]}},{"properties":{"latitude":10.73339,"region":"Upper East","district":"Builsa","facilityname":"Sandema Hospital","type":"District Hospital","ownership":"Government","town":"Sandema","longitude":-1.28786,"id":"aaknmkmfb6a8"},"type":"Feature","geometry":{"type":"Point","coordinates":[-1.28786,10.73339]}},{"properties":{"latitude":10.88299,"region":"Upper East","district":"Kassena-Nankana","facilityname":"War Memorial Hospital","type":"District Hospital","ownership":"Government","town":"Navrongo","longitude":-1.08528,"id":"aaknmkrbnsbo"},"type":"Feature","geometry":{"type":"Point","coordinates":[-1.08528,10.88299]}},{"properties":{"latitude":10.93621,"region":"Upper East","district":"Bawku West","facilityname":"Zebilla  Hospital","type":"District Hospital","ownership":"Government","town":"Zebilla","longitude":-0.47351,"id":"aaknmkgawcrm"},"type":"Feature","geometry":{"type":"Point","coordinates":[-0.47351,10.93621]}},{"properties":{"latitude":10.64202,"region":"Upper West","district":"Lawra","facilityname":"Lawra District Hospital","type":"District Hospital","ownership":"Government","town":"Lawra","longitude":-2.88784,"id":"aaknmkntzfxp"},"type":"Feature","geometry":{"type":"Point","coordinates":[-2.88784,10.64202]}},{"properties":{"latitude":10.36238,"region":"Upper West","district":"Nadowli","facilityname":"Nadowli District  Hospital","type":"District Hospital","ownership":"Government","town":"Nadowli","longitude":-2.65785,"id":"aaknmkhpbcqj"},"type":"Feature","geometry":{"type":"Point","coordinates":[-2.65785,10.36238]}},{"properties":{"latitude":10.87758,"region":"Upper West","district":"Sissala East","facilityname":"Tumu District Hospital","type":"District Hospital","ownership":"Government","town":"Tumu","longitude":-1.98649,"id":"aaknmklj1jr2"},"type":"Feature","geometry":{"type":"Point","coordinates":[-1.98649,10.87758]}},{"properties":{"latitude":7.15849,"region":"Volta","district":"Hohoe","facilityname":"Hohoe Government Hospital","type":"District Hospital","ownership":"Government","town":"Hohoe","longitude":0.47239,"id":"aaknmkt57cu4"},"type":"Feature","geometry":{"type":"Point","coordinates":[0.47239,7.15849]}},{"properties":{"latitude":7.40135,"region":"Volta","district":"Jasikan","facilityname":"Jasikan Hospital","type":"District Hospital","ownership":"Government","town":"Jasikan","longitude":0.46459,"id":"aaknmktz2cvb"},"type":"Feature","geometry":{"type":"Point","coordinates":[0.46459,7.40135]}},{"properties":{"latitude":6.11762,"region":"Volta","district":"Ketu","facilityname":"Aflao Hospital","type":"District Hospital","ownership":"Government","town":"Aflao","longitude":1.18013,"id":"aaknmkwdk60g"},"type":"Feature","geometry":{"type":"Point","coordinates":[1.18013,6.11762]}},{"properties":{"latitude":7.79476,"region":"Volta","district":"Krachi West","facilityname":"Krachi District Hospital","type":"District Hospital","ownership":"Government","town":"Krachi","longitude":-0.05729,"id":"aaknmkvyxr2h"},"type":"Feature","geometry":{"type":"Point","coordinates":[-0.05729,7.79476]}},{"properties":{"latitude":8.25756,"region":"Volta","district":"Nkwanta","facilityname":"Nkwanta Dsitrict Hospital","type":"District Hospital","ownership":"Government","town":"Nkwanta","longitude":0.50838,"id":"aaknmkqkt63d"},"type":"Feature","geometry":{"type":"Point","coordinates":[0.50838,8.25756]}},{"properties":{"latitude":6.07347,"region":"Volta","district":"North Tongu","facilityname":"Adidome Hospital","type":"District Hospital","ownership":"Government","town":"Adidome","longitude":0.49812,"id":"aaknmkqtjfz5"},"type":"Feature","geometry":{"type":"Point","coordinates":[0.49812,6.07347]}},{"properties":{"latitude":6.5337,"region":"Volta","district":"South Dayi","facilityname":"Peki Government Hospital","type":"District Hospital","ownership":"Government","town":"Peki","longitude":0.22594,"id":"aaknmkvgii9g"},"type":"Feature","geometry":{"type":"Point","coordinates":[0.22594,6.5337]}},{"properties":{"latitude":6.00774,"region":"Volta","district":"South Tongu","facilityname":"Sogakope District Hospital","type":"District Hospital","ownership":"Government","town":"Sogakope","longitude":0.61563,"id":"aaknmkubm9zj"},"type":"Feature","geometry":{"type":"Point","coordinates":[0.61563,6.00774]}},{"properties":{"latitude":6.13877,"region":"Volta","district":"Akatsi","facilityname":"Akatsi District Hospital","type":"District Hospital","ownership":"Government","town":"Akatsi","longitude":0.80901,"id":"aaknmkkqz5cs"},"type":"Feature","geometry":{"type":"Point","coordinates":[0.80901,6.13877]}},{"properties":{"latitude":4.79799,"region":"Western","district":"Ahanta West","facilityname":"Dixcove Hospital.","type":"District Hospital","ownership":"Government","town":"Dixcove","longitude":-1.94978,"id":"aaknmkpve5sa"},"type":"Feature","geometry":{"type":"Point","coordinates":[-1.94978,4.79799]}},{"properties":{"latitude":null,"region":"Western","district":"Ahanta West","facilityname":"Nana Hima-Dekyi Hospital","type":"District Hospital","ownership":"Government","town":null,"longitude":null,"id":"aaknmkmfy795"},"type":"Feature","geometry":null},{"properties":{"latitude":5.82974,"region":"Western","district":"Aowin Suaman","facilityname":"Enchi Government Hospital","type":"District Hospital","ownership":"Government","town":"Enchi","longitude":-2.82118,"id":"aaknmkrcoo9h"},"type":"Feature","geometry":{"type":"Point","coordinates":[-2.82118,5.82974]}},{"properties":{"latitude":6.45658,"region":"Western","district":"Bibiani-Anhwiaso-Bekwai","facilityname":"Bibiani Government Hospital","type":"District Hospital","ownership":"Government","town":"Bibiani","longitude":-2.32238,"id":"aaknmkth7eq9"},"type":"Feature","geometry":{"type":"Point","coordinates":[-2.32238,6.45658]}},{"properties":{"latitude":5.05314,"region":"Western","district":"Jomoro","facilityname":"Half Assini Government Hospital","type":"District Hospital","ownership":"Government","town":"Half Assini","longitude":-2.88944,"id":"aaknmkpsexf2"},"type":"Feature","geometry":{"type":"Point","coordinates":[-2.88944,5.05314]}},{"properties":{"latitude":6.33418,"region":"Western","district":"Juabeso","facilityname":"Juaboso Government Hospital","type":"District Hospital","ownership":"Government","town":"Juabeso","longitude":-2.82972,"id":"aaknmkqi8v08"},"type":"Feature","geometry":{"type":"Point","coordinates":[-2.82972,6.33418]}},{"properties":{"latitude":4.86653,"region":"Western","district":"Nzema East Municipal","facilityname":"Axim Government Hospital","type":"District Hospital","ownership":"Government","town":"Axim","longitude":-2.23889,"id":"aaknmkkrmapw"},"type":"Feature","geometry":{"type":"Point","coordinates":[-2.23889,4.86653]}},{"properties":{"latitude":6.20632,"region":"Western","district":"Sefwi Wiawso","facilityname":"Sefwi Wiawso Hospital","type":"District Hospital","ownership":"Government","town":"Wiawso","longitude":-2.49419,"id":"aaknmki4oo8b"},"type":"Feature","geometry":{"type":"Point","coordinates":[-2.49419,6.20632]}},{"properties":{"latitude":5.7813,"region":"Western","district":"Wassa-Amenfi East","facilityname":"Wassa Akropong Government Hospital","type":"District Hospital","ownership":"Government","town":"Wassa Akoropong","longitude":-2.08352,"id":"aaknmklwmems"},"type":"Feature","geometry":{"type":"Point","coordinates":[-2.08352,5.7813]}},{"properties":{"latitude":null,"region":"Western","district":"Ahanta West","facilityname":"Nana Hima-Dekyi Hospital","type":"District Hospital","ownership":"Government","town":null,"longitude":null,"id":"aaknmkw3tynm"},"type":"Feature","geometry":null},{"properties":{"latitude":6.99992,"region":"Volta","district":"Kpando","facilityname":"Kpando Margret Marquat Hospital","type":"District Hospital","ownership":"CHAG","town":"Kpando","longitude":0.30312,"id":"aaknmkm0dmts"},"type":"Feature","geometry":{"type":"Point","coordinates":[0.30312,6.99992]}}],"is_temporal":false,"author":{"url":"","metadata":"","contact_name":"","contact_address":"","source":"","contact_phone":""},"source":"","pagination":{"sort":null,"start":0,"total":82,"limit":1000000},"state":"complete","tags":"","published":"2014-08-16T16:48:37-04:00","id":303138}