{"type":"FeatureCollection","data_type":"Dataset","url_type":null,"permissions":[{"permissions":{"download":true,"view":true},"group_id":"everyone"}],"classification":null,"title":"Lat_Long_income","count":133,"stream_id":304414,"contributor":{"url":"http://geocommons.com/users/53506","name":"EMuvundamina"},"data_attributes":null,"calculation_params":null,"icon_link":null,"link":"http://geocommons.com/overlays/304414.json","extent":[-83.2234,36.5927,-75.7014,39.2369],"geometry_types":["point"],"unique_name":null,"name":"Lat_Long_income","feature_count":133,"description":"","next_feature":null,"is_raster":false,"short_classification":"Y","stats":{"latitude":{"max":39.236948,"mean":37.5750414962406,"variance":0.489434334368929,"stdev":0.699595836443392,"median":37.3898125,"min":36.5926795},"longitude":{"max":-75.7014465,"mean":-78.5302344210526,"variance":2.98323863058856,"stdev":1.72720543960137,"median":-78.1954245,"min":-83.2233515},"income":{"max":80978.0,"mean":39626.7518796993,"variance":147632452.672818,"stdev":12150.40956811,"median":36701.0,"min":22026.0}},"features":[{"properties":{"latitude":37.738248,"county":"Accomack","zip code":"23301","longitude":-75.7014465,"id":"aaofs77nz4bw","income":30130.0,"state":"Virginia"},"type":"Feature","geometry":{"type":"Point","coordinates":[-75.7014465,37.738248]}},{"properties":{"latitude":38.00029,"county":"Albemarle","zip code":"22901","longitude":-78.5236515,"id":"aaofs74ed6at","income":50795.0,"state":"Virginia"},"type":"Feature","geometry":{"type":"Point","coordinates":[-78.5236515,38.00029]}},{"properties":{"latitude":38.8151135,"county":"Alexandria","zip code":"22301","longitude":-77.0908235,"id":"aaofs74ynuoh","income":56161.0,"state":"Virginia"},"type":"Feature","geometry":{"type":"Point","coordinates":[-77.0908235,38.8151135]}},{"properties":{"latitude":37.778543,"county":"Alleghany","zip code":"24422","longitude":-79.9541555,"id":"aaofs7eur4hn","income":38716.0,"state":"Virginia"},"type":"Feature","geometry":{"type":"Point","coordinates":[-79.9541555,37.778543]}},{"properties":{"latitude":37.3451245,"county":"Amelia","zip code":"23002","longitude":-77.9448295,"id":"aaofs7d3rfy9","income":40161.0,"state":"Virginia"},"type":"Feature","geometry":{"type":"Point","coordinates":[-77.9448295,37.3451245]}},{"properties":{"latitude":37.5999245,"county":"Amherst","zip code":"24521","longitude":-79.15228,"id":"aaofs7e71l9a","income":37019.0,"state":"Virginia"},"type":"Feature","geometry":{"type":"Point","coordinates":[-79.15228,37.5999245]}},{"properties":{"latitude":37.377197,"county":"Appomattox","zip code":"23939","longitude":-78.806439,"id":"aaofs745rmv9","income":36847.0,"state":"Virginia"},"type":"Feature","geometry":{"type":"Point","coordinates":[-78.806439,37.377197]}},{"properties":{"latitude":38.8808165,"county":"Arlington","zip code":"22201","longitude":-77.102156,"id":"aaofs7dwvk21","income":62830.0,"state":"Virginia"},"type":"Feature","geometry":{"type":"Point","coordinates":[-77.102156,38.8808165]}},{"properties":{"latitude":38.1797155,"county":"Augusta","zip code":"22843","longitude":-79.1413325,"id":"aaofs72ytk4j","income":43097.0,"state":"Virginia"},"type":"Feature","geometry":{"type":"Point","coordinates":[-79.1413325,38.1797155]}},{"properties":{"latitude":38.055311,"county":"Bath","zip code":"24412","longitude":-79.746367,"id":"aaofs778ippl","income":34756.0,"state":"Virginia"},"type":"Feature","geometry":{"type":"Point","coordinates":[-79.746367,38.055311]}},{"properties":{"latitude":37.3120195,"county":"Bedford","zip code":"24095","longitude":-79.52068,"id":"aaofs79dlgvp","income":43528.0,"state":"Virginia"},"type":"Feature","geometry":{"type":"Point","coordinates":[-79.52068,37.3120195]}},{"properties":{"latitude":37.3357895,"county":"Bedford","zip code":"25401","longitude":-79.523332,"id":"aaofs79nztpb","income":29170.0,"state":"Virginia"},"type":"Feature","geometry":{"type":"Point","coordinates":[-79.523332,37.3357895]}},{"properties":{"latitude":37.127348,"county":"Bland","zip code":"24314","longitude":-81.15842,"id":"aaofs7a0m3nw","income":29962.0,"state":"Virginia"},"type":"Feature","geometry":{"type":"Point","coordinates":[-81.15842,37.127348]}},{"properties":{"latitude":37.555083,"county":"Botetourt","zip code":"24050","longitude":-79.786269,"id":"aaofs78tbfrq","income":48419.0,"state":"Virginia"},"type":"Feature","geometry":{"type":"Point","coordinates":[-79.786269,37.555083]}},{"properties":{"latitude":36.635757,"county":"Bristol","zip code":"24201","longitude":-82.173227,"id":"aaofs78ghz5z","income":27012.0,"state":"Virginia"},"type":"Feature","geometry":{"type":"Point","coordinates":[-82.173227,36.635757]}},{"properties":{"latitude":36.7843455,"county":"Brunswick","zip code":"23821","longitude":-77.851022,"id":"aaofs76wnnjn","income":31138.0,"state":"Virginia"},"type":"Feature","geometry":{"type":"Point","coordinates":[-77.851022,36.7843455]}},{"properties":{"latitude":37.288111,"county":"Buchanan","zip code":"24239","longitude":-82.027372,"id":"aaofs7dnvcnl","income":22026.0,"state":"Virginia"},"type":"Feature","geometry":{"type":"Point","coordinates":[-82.027372,37.288111]}},{"properties":{"latitude":37.5632195,"county":"Buckingham","zip code":"23004","longitude":-78.5365435,"id":"aaofs73xifu6","income":29507.0,"state":"Virginia"},"type":"Feature","geometry":{"type":"Point","coordinates":[-78.5365435,37.5632195]}},{"properties":{"latitude":37.728649,"county":"Buena Vista","zip code":"24416","longitude":-79.3550665,"id":"aaofs76bdtpm","income":31406.0,"state":"Virginia"},"type":"Feature","geometry":{"type":"Point","coordinates":[-79.3550665,37.728649]}},{"properties":{"latitude":37.2279755,"county":"Campbell","zip code":"24517","longitude":-79.1335465,"id":"aaofs7aweal3","income":37020.0,"state":"Virginia"},"type":"Feature","geometry":{"type":"Point","coordinates":[-79.1335465,37.2279755]}},{"properties":{"latitude":38.0145195,"county":"Caroline","zip code":"22427","longitude":-77.3560385,"id":"aaofs7alxuq0","income":39889.0,"state":"Virginia"},"type":"Feature","geometry":{"type":"Point","coordinates":[-77.3560385,38.0145195]}},{"properties":{"latitude":36.7448065,"county":"Carroll","zip code":"24317","longitude":-80.7480645,"id":"aaofs75wppnl","income":30112.0,"state":"Virginia"},"type":"Feature","geometry":{"type":"Point","coordinates":[-80.7480645,36.7448065]}},{"properties":{"latitude":37.3567695,"county":"Charles City","zip code":"23030","longitude":-77.071575,"id":"aaofs7caixpu","income":42744.0,"state":"Virginia"},"type":"Feature","geometry":{"type":"Point","coordinates":[-77.071575,37.3567695]}},{"properties":{"latitude":36.973334,"county":"Charlotte","zip code":"23923","longitude":-78.673953,"id":"aaofs7cvlg6t","income":28709.0,"state":"Virginia"},"type":"Feature","geometry":{"type":"Point","coordinates":[-78.673953,36.973334]}},{"properties":{"latitude":38.0400875,"county":"Charlottesville","zip code":"22902","longitude":-78.484974,"id":"aaofs79d8mk8","income":31054.0,"state":"Virginia"},"type":"Feature","geometry":{"type":"Point","coordinates":[-78.484974,38.0400875]}},{"properties":{"latitude":36.708498,"county":"Chesapeake","zip code":"23320","longitude":-76.278525,"id":"aaofs7g58j8e","income":50692.0,"state":"Virginia"},"type":"Feature","geometry":{"type":"Point","coordinates":[-76.278525,36.708498]}},{"properties":{"latitude":37.3898125,"county":"Chesterfield","zip code":"23112","longitude":-77.5612945,"id":"aaofs7geuhr9","income":58264.0,"state":"Virginia"},"type":"Feature","geometry":{"type":"Point","coordinates":[-77.5612945,37.3898125]}},{"properties":{"latitude":39.1220455,"county":"Clarke","zip code":"20130","longitude":-77.990069,"id":"aaofs7g8j5i9","income":51723.0,"state":"Virginia"},"type":"Feature","geometry":{"type":"Point","coordinates":[-77.990069,39.1220455]}},{"properties":{"latitude":37.265853,"county":"Colonial Heights","zip code":"23834","longitude":-77.3969435,"id":"aaofs7cfe3hh","income":42585.0,"state":"Virginia"},"type":"Feature","geometry":{"type":"Point","coordinates":[-77.3969435,37.265853]}},{"properties":{"latitude":37.7809145,"county":"Covington","zip code":"24426","longitude":-79.9875105,"id":"aaofs76wr5cp","income":29944.0,"state":"Virginia"},"type":"Feature","geometry":{"type":"Point","coordinates":[-79.9875105,37.7809145]}},{"properties":{"latitude":37.4875955,"county":"Craig","zip code":"24127","longitude":-80.222319,"id":"aaofs73tzy30","income":37722.0,"state":"Virginia"},"type":"Feature","geometry":{"type":"Point","coordinates":[-80.222319,37.4875955]}},{"properties":{"latitude":38.503714,"county":"Culpeper","zip code":"20106","longitude":-77.9253525,"id":"aaofs78lqlnw","income":45725.0,"state":"Virginia"},"type":"Feature","geometry":{"type":"Point","coordinates":[-77.9253525,38.503714]}},{"properties":{"latitude":37.525493,"county":"Cumberland","zip code":"23027","longitude":-78.2686725,"id":"aaofs7emi09h","income":31557.0,"state":"Virginia"},"type":"Feature","geometry":{"type":"Point","coordinates":[-78.2686725,37.525493]}},{"properties":{"latitude":36.5926795,"county":"Danville","zip code":"24540","longitude":-79.410942,"id":"aaofs72ygr6f","income":26753.0,"state":"Virginia"},"type":"Feature","geometry":{"type":"Point","coordinates":[-79.410942,36.5926795]}},{"properties":{"latitude":37.1310775,"county":"Dickenson","zip code":"24217","longitude":-82.344886,"id":"aaofs7hdp5ol","income":23066.0,"state":"Virginia"},"type":"Feature","geometry":{"type":"Point","coordinates":[-82.344886,37.1310775]}},{"properties":{"latitude":37.0723615,"county":"Dinwiddie","zip code":"23822","longitude":-77.6474915,"id":"aaofs7fwfpfr","income":41312.0,"state":"Virginia"},"type":"Feature","geometry":{"type":"Point","coordinates":[-77.6474915,37.0723615]}},{"properties":{"latitude":36.6961285,"county":"Emporia","zip code":"22436","longitude":-77.535302,"id":"aaofs7856vce","income":29650.0,"state":"Virginia"},"type":"Feature","geometry":{"type":"Point","coordinates":[-77.535302,36.6961285]}},{"properties":{"latitude":37.945318,"county":"Essex","zip code":"20120","longitude":-76.919141,"id":"aaofs7djw354","income":36828.0,"state":"Virginia"},"type":"Feature","geometry":{"type":"Point","coordinates":[-76.919141,37.945318]}},{"properties":{"latitude":38.8316475,"county":"Fairfax","zip code":"22030","longitude":-77.28904,"id":"aaofs77oc317","income":80978.0,"state":"Virginia"},"type":"Feature","geometry":{"type":"Point","coordinates":[-77.28904,38.8316475]}},{"properties":{"latitude":38.8523965,"county":"Fairfax","zip code":"22040","longitude":-77.301838,"id":"aaofs74w6cwc","income":67719.0,"state":"Virginia"},"type":"Feature","geometry":{"type":"Point","coordinates":[-77.301838,38.8523965]}},{"properties":{"latitude":38.8842425,"county":"Falls Church","zip code":"20115","longitude":-77.1720645,"id":"aaofs733q6w0","income":74496.0,"state":"Virginia"},"type":"Feature","geometry":{"type":"Point","coordinates":[-77.1720645,38.8842425]}},{"properties":{"latitude":38.711498,"county":"Fauquier","zip code":"25002","longitude":-77.8308815,"id":"aaofs731pnxe","income":61643.0,"state":"Virginia"},"type":"Feature","geometry":{"type":"Point","coordinates":[-77.8308815,38.711498]}},{"properties":{"latitude":36.916103,"county":"Floyd","zip code":"24072","longitude":-80.3692,"id":"aaofs7cu45yy","income":31877.0,"state":"Virginia"},"type":"Feature","geometry":{"type":"Point","coordinates":[-80.3692,36.916103]}},{"properties":{"latitude":37.8483535,"county":"Fluvanna","zip code":"22963","longitude":-78.2774385,"id":"aaofs7c5wi1b","income":46260.0,"state":"Virginia"},"type":"Feature","geometry":{"type":"Point","coordinates":[-78.2774385,37.8483535]}},{"properties":{"latitude":37.0069125,"county":"Franklin","zip code":"23851","longitude":-79.913875,"id":"aaofs7773wgq","income":37860.0,"state":"Virginia"},"type":"Feature","geometry":{"type":"Point","coordinates":[-79.913875,37.0069125]}},{"properties":{"latitude":39.236948,"county":"Frederick","zip code":"22602","longitude":-78.2886405,"id":"aaofs72bce9r","income":47218.0,"state":"Virginia"},"type":"Feature","geometry":{"type":"Point","coordinates":[-78.2886405,39.236948]}},{"properties":{"latitude":38.298345,"county":"Fredericksburg","zip code":"22401","longitude":-77.489906,"id":"aaofs7a0zjq8","income":34158.0,"state":"Virginia"},"type":"Feature","geometry":{"type":"Point","coordinates":[-77.489906,38.298345]}},{"properties":{"latitude":36.6605265,"county":"Galax","zip code":"24333","longitude":-80.9136475,"id":"aaofs7dk5pv1","income":27744.0,"state":"Virginia"},"type":"Feature","geometry":{"type":"Point","coordinates":[-80.9136475,36.6605265]}},{"properties":{"latitude":37.314577,"county":"Giles","zip code":"24086","longitude":-80.723925,"id":"aaofs740bd89","income":34781.0,"state":"Virginia"},"type":"Feature","geometry":{"type":"Point","coordinates":[-80.723925,37.314577]}},{"properties":{"latitude":37.418245,"county":"Gloucester","zip code":"23001","longitude":-76.5084025,"id":"aaofs73nj1m8","income":45234.0,"state":"Virginia"},"type":"Feature","geometry":{"type":"Point","coordinates":[-76.5084025,37.418245]}},{"properties":{"latitude":37.7339355,"county":"Goochland","zip code":"23014","longitude":-77.887853,"id":"aaofs7444q74","income":56204.0,"state":"Virginia"},"type":"Feature","geometry":{"type":"Point","coordinates":[-77.887853,37.7339355]}},{"properties":{"latitude":36.6827825,"county":"Grayson","zip code":"26707","longitude":-81.2576735,"id":"aaofs7h9fucy","income":28856.0,"state":"Virginia"},"type":"Feature","geometry":{"type":"Point","coordinates":[-81.2576735,36.6827825]}},{"properties":{"latitude":38.3301325,"county":"Greene","zip code":"22935","longitude":-78.475071,"id":"aaofs7a6xreb","income":45753.0,"state":"Virginia"},"type":"Feature","geometry":{"type":"Point","coordinates":[-78.475071,38.3301325]}},{"properties":{"latitude":36.721471,"county":"Greensville","zip code":"23847","longitude":-77.531996,"id":"aaofs7byionv","income":32544.0,"state":"Virginia"},"type":"Feature","geometry":{"type":"Point","coordinates":[-77.531996,36.721471]}},{"properties":{"latitude":36.8015155,"county":"Halifax","zip code":"24520","longitude":-78.883933,"id":"aaofs7ere5g0","income":29809.0,"state":"Virginia"},"type":"Feature","geometry":{"type":"Point","coordinates":[-78.883933,36.8015155]}},{"properties":{"latitude":37.0230015,"county":"Hampton","zip code":"23630","longitude":-76.292459,"id":"aaofs75rswz9","income":39358.0,"state":"Virginia"},"type":"Feature","geometry":{"type":"Point","coordinates":[-76.292459,37.0230015]}},{"properties":{"latitude":37.7723405,"county":"Hanover","zip code":"23005","longitude":-77.45244,"id":"aaofs78almdu","income":59180.0,"state":"Virginia"},"type":"Feature","geometry":{"type":"Point","coordinates":[-77.45244,37.7723405]}},{"properties":{"latitude":38.4393105,"county":"Harrisonburg","zip code":"22801","longitude":-78.8711825,"id":"aaofs7gyg2sh","income":30406.0,"state":"Virginia"},"type":"Feature","geometry":{"type":"Point","coordinates":[-78.8711825,38.4393105]}},{"properties":{"latitude":37.5311825,"county":"Henrico","zip code":"23058","longitude":-77.4159355,"id":"aaofs7b7bdz9","income":48974.0,"state":"Virginia"},"type":"Feature","geometry":{"type":"Point","coordinates":[-77.4159355,37.5311825]}},{"properties":{"latitude":36.6990385,"county":"Henry","zip code":"24054","longitude":-79.8678965,"id":"aaofs7co4znu","income":31790.0,"state":"Virginia"},"type":"Feature","geometry":{"type":"Point","coordinates":[-79.8678965,36.6990385]}},{"properties":{"latitude":38.385967,"county":"Highland","zip code":"24413","longitude":-79.5591575,"id":"aaofs72wkxi6","income":29767.0,"state":"Virginia"},"type":"Feature","geometry":{"type":"Point","coordinates":[-79.5591575,38.385967]}},{"properties":{"latitude":37.287627,"county":"Hopewell","zip code":"23860","longitude":-77.295075,"id":"aaofs7eigyyq","income":32573.0,"state":"Virginia"},"type":"Feature","geometry":{"type":"Point","coordinates":[-77.295075,37.287627]}},{"properties":{"latitude":36.8989385,"county":"Isle of Wight","zip code":"23304","longitude":-76.6877865,"id":"aaofs75aryen","income":45443.0,"state":"Virginia"},"type":"Feature","geometry":{"type":"Point","coordinates":[-76.6877865,36.8989385]}},{"properties":{"latitude":37.3104515,"county":"James City","zip code":"23081","longitude":-76.746769,"id":"aaofs7fkicwg","income":55720.0,"state":"Virginia"},"type":"Feature","geometry":{"type":"Point","coordinates":[-76.746769,37.3104515]}},{"properties":{"latitude":37.701739,"county":"King and Queen","zip code":"23023","longitude":-76.916164,"id":"aaofs77dygps","income":35987.0,"state":"Virginia"},"type":"Feature","geometry":{"type":"Point","coordinates":[-76.916164,37.701739]}},{"properties":{"latitude":38.2710765,"county":"King George","zip code":"22448","longitude":-77.1726145,"id":"aaofs7bibvq4","income":49981.0,"state":"Virginia"},"type":"Feature","geometry":{"type":"Point","coordinates":[-77.1726145,38.2710765]}},{"properties":{"latitude":37.7139295,"county":"King William","zip code":"23009","longitude":-77.061353,"id":"aaofs76leb09","income":50096.0,"state":"Virginia"},"type":"Feature","geometry":{"type":"Point","coordinates":[-77.061353,37.7139295]}},{"properties":{"latitude":37.713145,"county":"Lancaster","zip code":"22480","longitude":-76.4099465,"id":"aaofs78rgozs","income":33405.0,"state":"Virginia"},"type":"Feature","geometry":{"type":"Point","coordinates":[-76.4099465,37.713145]}},{"properties":{"latitude":36.74353,"county":"Lee","zip code":"24218","longitude":-83.2233515,"id":"aaofs7bdr5su","income":23227.0,"state":"Virginia"},"type":"Feature","geometry":{"type":"Point","coordinates":[-83.2233515,36.74353]}},{"properties":{"latitude":37.7801205,"county":"Lexington","zip code":"24450","longitude":-79.4384325,"id":"aaofs7dg0ql1","income":28737.0,"state":"Virginia"},"type":"Feature","geometry":{"type":"Point","coordinates":[-79.4384325,37.7801205]}},{"properties":{"latitude":39.085463,"county":"Loudoun","zip code":"20101","longitude":-77.645137,"id":"aaofs7baoemb","income":80903.0,"state":"Virginia"},"type":"Feature","geometry":{"type":"Point","coordinates":[-77.645137,39.085463]}},{"properties":{"latitude":37.9408,"county":"Louisa","zip code":"23024","longitude":-77.9969505,"id":"aaofs7h7dkif","income":39205.0,"state":"Virginia"},"type":"Feature","geometry":{"type":"Point","coordinates":[-77.9969505,37.9408]}},{"properties":{"latitude":36.948129,"county":"Lunenburg","zip code":"23938","longitude":-78.2483335,"id":"aaofs74bnmqg","income":27846.0,"state":"Virginia"},"type":"Feature","geometry":{"type":"Point","coordinates":[-78.2483335,36.948129]}},{"properties":{"latitude":37.400942,"county":"Lynchburg","zip code":"24501","longitude":-79.178506,"id":"aaofs7e8vycp","income":32243.0,"state":"Virginia"},"type":"Feature","geometry":{"type":"Point","coordinates":[-79.178506,37.400942]}},{"properties":{"latitude":38.428639,"county":"Madison","zip code":"22709","longitude":-78.2677875,"id":"aaofs7cl3tva","income":40518.0,"state":"Virginia"},"type":"Feature","geometry":{"type":"Point","coordinates":[-78.2677875,38.428639]}},{"properties":{"latitude":38.7435475,"county":"Manassas","zip code":"20108","longitude":-77.4869835,"id":"aaofs7h0orya","income":60609.0,"state":"Virginia"},"type":"Feature","geometry":{"type":"Point","coordinates":[-77.4869835,38.7435475]}},{"properties":{"latitude":38.7708955,"county":"Manassas Park","zip code":"20113","longitude":-77.4497965,"id":"aaofs76z00cg","income":60897.0,"state":"Virginia"},"type":"Feature","geometry":{"type":"Point","coordinates":[-77.4497965,38.7708955]}},{"properties":{"latitude":36.679571,"county":"Martinsville","zip code":"24112","longitude":-79.865168,"id":"aaofs74z0zfi","income":27604.0,"state":"Virginia"},"type":"Feature","geometry":{"type":"Point","coordinates":[-79.865168,36.679571]}},{"properties":{"latitude":37.4102905,"county":"Mathews","zip code":"23021","longitude":-76.2941025,"id":"aaofs7cvc914","income":42538.0,"state":"Virginia"},"type":"Feature","geometry":{"type":"Point","coordinates":[-76.2941025,37.4102905]}},{"properties":{"latitude":36.71608,"county":"Mecklenburg","zip code":"23915","longitude":-78.383843,"id":"aaofs7ftcb7a","income":31474.0,"state":"Virginia"},"type":"Feature","geometry":{"type":"Point","coordinates":[-78.383843,36.71608]}},{"properties":{"latitude":37.6443,"county":"Middlesex","zip code":"23031","longitude":-76.446014,"id":"aaofs73s4c59","income":37281.0,"state":"Virginia"},"type":"Feature","geometry":{"type":"Point","coordinates":[-76.446014,37.6443]}},{"properties":{"latitude":37.1741345,"county":"Montgomery","zip code":"24060","longitude":-80.3956985,"id":"aaofs77617lb","income":32472.0,"state":"Virginia"},"type":"Feature","geometry":{"type":"Point","coordinates":[-80.3956985,37.1741345]}},{"properties":{"latitude":37.7916035,"county":"Nelson","zip code":"22920","longitude":-78.906353,"id":"aaofs78yx3af","income":36701.0,"state":"Virginia"},"type":"Feature","geometry":{"type":"Point","coordinates":[-78.906353,37.7916035]}},{"properties":{"latitude":37.502273,"county":"New Kent","zip code":"23011","longitude":-76.9885215,"id":"aaofs7a56qvp","income":53553.0,"state":"Virginia"},"type":"Feature","geometry":{"type":"Point","coordinates":[-76.9885215,37.502273]}},{"properties":{"latitude":37.075668,"county":"Newport News","zip code":"23601","longitude":-76.5038515,"id":"aaofs7in6jmg","income":36503.0,"state":"Virginia"},"type":"Feature","geometry":{"type":"Point","coordinates":[-76.5038515,37.075668]}},{"properties":{"latitude":36.9308215,"county":"Norfolk","zip code":"23501","longitude":-76.2397205,"id":"aaofs74mbhfl","income":31566.0,"state":"Virginia"},"type":"Feature","geometry":{"type":"Point","coordinates":[-76.2397205,36.9308215]}},{"properties":{"latitude":37.2739865,"county":"Northampton","zip code":"23307","longitude":-75.869138,"id":"aaofs7bchhkl","income":28013.0,"state":"Virginia"},"type":"Feature","geometry":{"type":"Point","coordinates":[-75.869138,37.2739865]}},{"properties":{"latitude":37.852316,"county":"Northumberland","zip code":"22432","longitude":-76.405117,"id":"aaofs7cbl2wb","income":38567.0,"state":"Virginia"},"type":"Feature","geometry":{"type":"Point","coordinates":[-76.405117,37.852316]}},{"properties":{"latitude":36.930199,"county":"Norton","zip code":"24273","longitude":-82.625912,"id":"aaofs7d73r5d","income":23893.0,"state":"Virginia"},"type":"Feature","geometry":{"type":"Point","coordinates":[-82.625912,36.930199]}},{"properties":{"latitude":37.1394435,"county":"Nottoway","zip code":"23824","longitude":-78.01764,"id":"aaofs7cyhjvq","income":30251.0,"state":"Virginia"},"type":"Feature","geometry":{"type":"Point","coordinates":[-78.01764,37.1394435]}},{"properties":{"latitude":38.255237,"county":"Orange","zip code":"22433","longitude":-78.036493,"id":"aaofs75vss42","income":43305.0,"state":"Virginia"},"type":"Feature","geometry":{"type":"Point","coordinates":[-78.036493,38.255237]}},{"properties":{"latitude":38.625819,"county":"Page","zip code":"22650","longitude":-78.4881195,"id":"aaofs73ur70u","income":33435.0,"state":"Virginia"},"type":"Feature","geometry":{"type":"Point","coordinates":[-78.4881195,38.625819]}},{"properties":{"latitude":36.7073075,"county":"Patrick","zip code":"24053","longitude":-80.3336185,"id":"aaofs7hmqlh6","income":28939.0,"state":"Virginia"},"type":"Feature","geometry":{"type":"Point","coordinates":[-80.3336185,36.7073075]}},{"properties":{"latitude":37.2047825,"county":"Petersburg","zip code":"23803","longitude":-77.3927785,"id":"aaofs72eu5cs","income":28696.0,"state":"Virginia"},"type":"Feature","geometry":{"type":"Point","coordinates":[-77.3927785,37.2047825]}},{"properties":{"latitude":36.8391065,"county":"Pittsylvania","zip code":"24069","longitude":-79.4035595,"id":"aaofs766s51n","income":35282.0,"state":"Virginia"},"type":"Feature","geometry":{"type":"Point","coordinates":[-79.4035595,36.8391065]}},{"properties":{"latitude":37.147341,"county":"Poquoson","zip code":"23662","longitude":-76.2743055,"id":"aaofs760qt6s","income":60668.0,"state":"Virginia"},"type":"Feature","geometry":{"type":"Point","coordinates":[-76.2743055,37.147341]}},{"properties":{"latitude":36.8685605,"county":"Portsmouth","zip code":"23701","longitude":-76.355165,"id":"aaofs77q52f2","income":33712.0,"state":"Virginia"},"type":"Feature","geometry":{"type":"Point","coordinates":[-76.355165,36.8685605]}},{"properties":{"latitude":37.553261,"county":"Powhatan","zip code":"23101","longitude":-77.8930175,"id":"aaofs770cd0f","income":54844.0,"state":"Virginia"},"type":"Feature","geometry":{"type":"Point","coordinates":[-77.8930175,37.553261]}},{"properties":{"latitude":37.238095,"county":"Prince Edward","zip code":"23901","longitude":-78.4618915,"id":"aaofs7fq3zig","income":30857.0,"state":"Virginia"},"type":"Feature","geometry":{"type":"Point","coordinates":[-78.4618915,37.238095]}},{"properties":{"latitude":37.1570385,"county":"Prince George","zip code":"23801","longitude":-77.185821,"id":"aaofs78w8szg","income":49714.0,"state":"Virginia"},"type":"Feature","geometry":{"type":"Point","coordinates":[-77.185821,37.1570385]}},{"properties":{"latitude":38.721247,"county":"Prince William","zip code":"20109","longitude":-77.46729,"id":"aaofs74vf5eh","income":65754.0,"state":"Virginia"},"type":"Feature","geometry":{"type":"Point","coordinates":[-77.46729,38.721247]}},{"properties":{"latitude":37.061956,"county":"Pulaski","zip code":"24058","longitude":-80.722892,"id":"aaofs7h7h0np","income":34067.0,"state":"Virginia"},"type":"Feature","geometry":{"type":"Point","coordinates":[-80.722892,37.061956]}},{"properties":{"latitude":37.120331,"county":"Radford","zip code":"24141","longitude":-80.551682,"id":"aaofs78tf5ok","income":24346.0,"state":"Virginia"},"type":"Feature","geometry":{"type":"Point","coordinates":[-80.551682,37.120331]}},{"properties":{"latitude":38.6928505,"county":"Rappahannock","zip code":"22623","longitude":-78.136887,"id":"aaofs73vighz","income":45833.0,"state":"Virginia"},"type":"Feature","geometry":{"type":"Point","coordinates":[-78.136887,38.6928505]}},{"properties":{"latitude":37.951415,"county":"Richmond","zip code":"22460","longitude":-76.7229085,"id":"aaofs7cepa81","income":32489.0,"state":"Virginia"},"type":"Feature","geometry":{"type":"Point","coordinates":[-76.7229085,37.951415]}},{"properties":{"latitude":37.5244995,"county":"Richmond","zip code":"23173","longitude":-77.4931665,"id":"aaofs7a573dp","income":30934.0,"state":"Virginia"},"type":"Feature","geometry":{"type":"Point","coordinates":[-77.4931665,37.5244995]}},{"properties":{"latitude":37.2652305,"county":"Roanoke","zip code":"24018","longitude":-80.0508455,"id":"aaofs72wy3nl","income":47450.0,"state":"Virginia"},"type":"Feature","geometry":{"type":"Point","coordinates":[-80.0508455,37.2652305]}},{"properties":{"latitude":37.274322,"county":"Roanoke","zip code":"24001","longitude":-79.957837,"id":"aaofs7br7ts7","income":30681.0,"state":"Virginia"},"type":"Feature","geometry":{"type":"Point","coordinates":[-79.957837,37.274322]}},{"properties":{"latitude":37.809496,"county":"Rockbridge","zip code":"24415","longitude":-79.4160435,"id":"aaofs7ato772","income":36268.0,"state":"Virginia"},"type":"Feature","geometry":{"type":"Point","coordinates":[-79.4160435,37.809496]}},{"properties":{"latitude":38.5283615,"county":"Rockingham","zip code":"22811","longitude":-78.855172,"id":"aaofs742zfu4","income":40968.0,"state":"Virginia"},"type":"Feature","geometry":{"type":"Point","coordinates":[-78.855172,38.5283615]}},{"properties":{"latitude":36.9259275,"county":"Russell","zip code":"24224","longitude":-82.093586,"id":"aaofs7bb5hva","income":26927.0,"state":"Virginia"},"type":"Feature","geometry":{"type":"Point","coordinates":[-82.093586,36.9259275]}},{"properties":{"latitude":37.288464,"county":"Salem","zip code":"24153","longitude":-80.0669265,"id":"aaofs7ajqtbj","income":39464.0,"state":"Virginia"},"type":"Feature","geometry":{"type":"Point","coordinates":[-80.0669265,37.288464]}},{"properties":{"latitude":36.7395335,"county":"Scott","zip code":"24244","longitude":-82.639469,"id":"aaofs7dtb7k0","income":27239.0,"state":"Virginia"},"type":"Feature","geometry":{"type":"Point","coordinates":[-82.639469,36.7395335]}},{"properties":{"latitude":38.8537735,"county":"Shenandoah","zip code":"22626","longitude":-78.58491,"id":"aaofs79lyxai","income":39140.0,"state":"Virginia"},"type":"Feature","geometry":{"type":"Point","coordinates":[-78.58491,38.8537735]}},{"properties":{"latitude":36.826371,"county":"Smyth","zip code":"24311","longitude":-81.549231,"id":"aaofs776ml88","income":29771.0,"state":"Virginia"},"type":"Feature","geometry":{"type":"Point","coordinates":[-81.549231,36.826371]}},{"properties":{"latitude":36.77,"county":"Southampton","zip code":"23827","longitude":-77.158429,"id":"aaofs72qs6ec","income":34227.0,"state":"Virginia"},"type":"Feature","geometry":{"type":"Point","coordinates":[-77.158429,36.77]}},{"properties":{"latitude":38.1845175,"county":"Spotsylvania","zip code":"22407","longitude":-77.66256,"id":"aaofs79kr1mv","income":57216.0,"state":"Virginia"},"type":"Feature","geometry":{"type":"Point","coordinates":[-77.66256,38.1845175]}},{"properties":{"latitude":38.417362,"county":"Stafford","zip code":"22135","longitude":-77.4607335,"id":"aaofs7bzxwpd","income":67229.0,"state":"Virginia"},"type":"Feature","geometry":{"type":"Point","coordinates":[-77.4607335,38.417362]}},{"properties":{"latitude":38.16017,"county":"Staunton","zip code":"24401","longitude":-79.0624185,"id":"aaofs76pah5q","income":32949.0,"state":"Virginia"},"type":"Feature","geometry":{"type":"Point","coordinates":[-79.0624185,38.16017]}},{"properties":{"latitude":36.7461175,"county":"Suffolk","zip code":"23432","longitude":-76.6652515,"id":"aaofs7gzdvyj","income":40533.0,"state":"Virginia"},"type":"Feature","geometry":{"type":"Point","coordinates":[-76.6652515,36.7461175]}},{"properties":{"latitude":37.0964755,"county":"Surry","zip code":"23839","longitude":-76.8988355,"id":"aaofs7dv7uir","income":38149.0,"state":"Virginia"},"type":"Feature","geometry":{"type":"Point","coordinates":[-76.8988355,37.0964755]}},{"properties":{"latitude":36.909846,"county":"Sussex","zip code":"23882","longitude":-77.2862875,"id":"aaofs7iav31i","income":30807.0,"state":"Virginia"},"type":"Feature","geometry":{"type":"Point","coordinates":[-77.2862875,36.909846]}},{"properties":{"latitude":37.1355565,"county":"Tazewell","zip code":"24316","longitude":-81.5634465,"id":"aaofs72eaisf","income":27151.0,"state":"Virginia"},"type":"Feature","geometry":{"type":"Point","coordinates":[-81.5634465,37.1355565]}},{"properties":{"latitude":36.7956695,"county":"Virginia Beach","zip code":"23450","longitude":-76.0126285,"id":"aaofs74qex3n","income":48700.0,"state":"Virginia"},"type":"Feature","geometry":{"type":"Point","coordinates":[-76.0126285,36.7956695]}},{"properties":{"latitude":38.8966315,"county":"Warren","zip code":"22610","longitude":-78.1954245,"id":"aaofs76vvg4k","income":42487.0,"state":"Virginia"},"type":"Feature","geometry":{"type":"Point","coordinates":[-78.1954245,38.8966315]}},{"properties":{"latitude":36.7615965,"county":"Washington","zip code":"24202","longitude":-81.968712,"id":"aaofs7flbxb0","income":32767.0,"state":"Virginia"},"type":"Feature","geometry":{"type":"Point","coordinates":[-81.968712,36.7615965]}},{"properties":{"latitude":38.0657735,"county":"Waynesboro","zip code":"22980","longitude":-78.90355,"id":"aaofs7eaa3ct","income":33333.0,"state":"Virginia"},"type":"Feature","geometry":{"type":"Point","coordinates":[-78.90355,38.0657735]}},{"properties":{"latitude":38.1218025,"county":"Westmoreland","zip code":"22442","longitude":-76.79044,"id":"aaofs7g1fwiv","income":37074.0,"state":"Virginia"},"type":"Feature","geometry":{"type":"Point","coordinates":[-76.79044,38.1218025]}},{"properties":{"latitude":37.2786605,"county":"Williamsburg","zip code":"23186","longitude":-76.703422,"id":"aaofs7bgriqr","income":37859.0,"state":"Virginia"},"type":"Feature","geometry":{"type":"Point","coordinates":[-76.703422,37.2786605]}},{"properties":{"latitude":39.1678515,"county":"Winchester","zip code":"22601","longitude":-78.168842,"id":"aaofs7hx0jtu","income":34427.0,"state":"Virginia"},"type":"Feature","geometry":{"type":"Point","coordinates":[-78.168842,39.1678515]}},{"properties":{"latitude":37.00091,"county":"Wise","zip code":"24215","longitude":-82.588574,"id":"aaofs7hfv6yn","income":26373.0,"state":"Virginia"},"type":"Feature","geometry":{"type":"Point","coordinates":[-82.588574,37.00091]}},{"properties":{"latitude":36.915513,"county":"Wythe","zip code":"24312","longitude":-81.059955,"id":"aaofs766lsbf","income":31939.0,"state":"Virginia"},"type":"Feature","geometry":{"type":"Point","coordinates":[-81.059955,36.915513]}},{"properties":{"latitude":37.2360165,"county":"York","zip code":"23090","longitude":-76.4455155,"id":"aaofs7fkgudz","income":57911.0,"state":"Virginia"},"type":"Feature","geometry":{"type":"Point","coordinates":[-76.4455155,37.2360165]}}],"is_temporal":false,"author":{"url":"","metadata":null,"contact_name":null,"contact_address":null,"source":null,"contact_phone":null},"source":"","pagination":{"sort":null,"start":0,"total":133,"limit":1000000},"state":"complete","tags":"","published":"2014-08-16T18:23:02-04:00","id":304414}