{"type":"FeatureCollection","data_type":"Dataset","url_type":null,"permissions":[{"permissions":{"download":true,"view":true},"group_id":"everyone"}],"classification":null,"title":"Gap Schools","count":75,"stream_id":304723,"contributor":{"url":"http://geocommons.com/users/53425","name":"annanelsonNIFB"},"data_attributes":null,"calculation_params":null,"icon_link":null,"link":"http://geocommons.com/overlays/304723.json","extent":[-89.5724,41.1245,-87.8329,42.4961],"geometry_types":["point"],"unique_name":null,"name":"Gap Schools","feature_count":75,"description":"","next_feature":null,"is_raster":false,"short_classification":"Y","stats":{"co fip":{"max":201,"mean":85.2666666666667,"variance":2289.76576576577,"stdev":47.8514970065281,"min":7,"median":93}},"features":[{"properties":{"city":"Belvidere","co fip":7,"geo_score":0.902,"zip code":"61008","id":"aap86pdeuzx4","school":"Belvidere Central Middle School","address":"8787 Beloit Rd","geo_precision":"range"},"type":"Feature","geometry":{"type":"Point","coordinates":[-88.864626,42.28768]}},{"properties":{"city":"Belvidere","co fip":7,"geo_score":0.671,"zip code":"61008","id":"aap86pdefpuw","school":"Belvidere High School","address":"1500 East Ave","geo_precision":"street"},"type":"Feature","geometry":{"type":"Point","coordinates":[-88.831873,42.245208]}},{"properties":{"city":"Capron","co fip":7,"geo_score":0.902,"zip code":"61012","id":"aap86prcoozp","school":"Capron Elem School","address":"200 N Wooster St","geo_precision":"range"},"type":"Feature","geometry":{"type":"Point","coordinates":[-88.744959,42.404225]}},{"properties":{"city":"Poplar Grove","co fip":7,"geo_score":0.902,"zip code":"61065","id":"aap86pgygpte","school":"North Boone Upper Elem School","address":"6200 N Boone School Rd","geo_precision":"range"},"type":"Feature","geometry":{"type":"Point","coordinates":[-88.818145,42.407858]}},{"properties":{"city":"Poplar Grove","co fip":7,"geo_score":0.902,"zip code":"61065","id":"aap86phdppkc","school":"Poplar Grove Elem School","address":"208 N State St","geo_precision":"range"},"type":"Feature","geometry":{"type":"Point","coordinates":[-88.822177,42.371516]}},{"properties":{"city":"Kirkland","co fip":37,"geo_score":0.329,"zip code":"60146","id":"aap86ps6id4k","school":"Hiawatha Jr-Sr High School","address":"PO Box 428","geo_precision":"street"},"type":"Feature","geometry":{"type":"Point","coordinates":[-88.13541,41.972753]}},{"properties":{"city":"Kirkland","co fip":37,"geo_score":0.329,"zip code":"60146","id":"aap86pnkbwyy","school":"Hiawatha Elem School","address":"PO Box 428","geo_precision":"street"},"type":"Feature","geometry":{"type":"Point","coordinates":[-88.13541,41.972753]}},{"properties":{"city":"DeKalb","co fip":37,"geo_score":0.557,"zip code":"60115","id":"aap86pfy7c3z","school":"Gwendolyn Brooks Elem School","address":"3225 Sangamon Dr","geo_precision":"street"},"type":"Feature","geometry":{"type":"Point","coordinates":[-88.174931,41.955981]}},{"properties":{"city":"DeKalb","co fip":37,"geo_score":0.707,"zip code":"60115","id":"aap86pd86yo0","school":"Huntley Middle School","address":"1515 S 4th St","geo_precision":"range"},"type":"Feature","geometry":{"type":"Point","coordinates":[-88.753401,41.911903]}},{"properties":{"city":"DeKalb","co fip":37,"geo_score":0.902,"zip code":"60115","id":"aap86pnsjecj","school":"DeKalb High School","address":"501 W Dresser Rd","geo_precision":"range"},"type":"Feature","geometry":{"type":"Point","coordinates":[-88.755085,41.952338]}},{"properties":{"city":"Sandwich","co fip":37,"geo_score":0.844,"zip code":"60548","id":"aap86pdkz3ct","school":"Lynn G Haskin Elem School","address":"720 S Wells St","geo_precision":"range"},"type":"Feature","geometry":{"type":"Point","coordinates":[-88.620153,41.639407]}},{"properties":{"city":"Wood Dale","co fip":43,"geo_score":0.902,"zip code":"60191","id":"aap86psehtru","school":"Oakbrook Elem School","address":"170 S Wood Dale Rd","geo_precision":"range"},"type":"Feature","geometry":{"type":"Point","coordinates":[-87.978811,41.956793]}},{"properties":{"city":"Wood Dale","co fip":43,"geo_score":0.805,"zip code":"60191","id":"aap86pia19xy","school":"Wood Dale Jr High School","address":"655 N Wood Dale Rd","geo_precision":"range"},"type":"Feature","geometry":{"type":"Point","coordinates":[-87.979697,41.990372]}},{"properties":{"city":"Glendale Heights","co fip":43,"geo_score":0.902,"zip code":"60139","id":"aap86pk46bay","school":"Glen Hill Primary","address":"1324 Bloomingdale Rd","geo_precision":"range"},"type":"Feature","geometry":{"type":"Point","coordinates":[-88.081533,41.90715]}},{"properties":{"city":"Glendale Heights","co fip":43,"geo_score":0.902,"zip code":"60139","id":"aap86pg4yxzf","school":"Glenside Middle School","address":"1560 Bloomingdale Rd","geo_precision":"range"},"type":"Feature","geometry":{"type":"Point","coordinates":[-88.08147,41.917472]}},{"properties":{"city":"Lombard","co fip":43,"geo_score":0.902,"zip code":"60148","id":"aap86pkluy3o","school":"Madison Elem School","address":"150 W Madison St","geo_precision":"range"},"type":"Feature","geometry":{"type":"Point","coordinates":[-88.020791,41.874894]}},{"properties":{"city":"Wheaton","co fip":43,"geo_score":0.884,"zip code":"60187","id":"aap86pdbh4zf","school":"Visually Impaired Pgrms","address":"420 N County Farm Rd","geo_precision":"range"},"type":"Feature","geometry":{"type":"Point","coordinates":[-88.142614,41.859477]}},{"properties":{"city":"Woodridge","co fip":43,"geo_score":0.902,"zip code":"60517","id":"aap86pemnu22","school":"Meadowview Elem School","address":"2525 Mitchell Dr","geo_precision":"range"},"type":"Feature","geometry":{"type":"Point","coordinates":[-88.04837,41.767733]}},{"properties":{"city":"Woodridge","co fip":43,"geo_score":0.819,"zip code":"60517","id":"aap86powyem5","school":"John L Sipley Elem School","address":"2806 83rd St","geo_precision":"range"},"type":"Feature","geometry":{"type":"Point","coordinates":[-88.048132,41.735825]}},{"properties":{"city":"Woodridge","co fip":43,"geo_score":0.902,"zip code":"60517","id":"aap86prxsmjh","school":"Thomas Jefferson Jr High School","address":"7200 Janes Ave","geo_precision":"range"},"type":"Feature","geometry":{"type":"Point","coordinates":[-88.040803,41.752302]}},{"properties":{"city":"Addison","co fip":43,"geo_score":0.708,"zip code":"60101-1906","id":"aap86pkjx1fb","school":"Addison Trail High School","address":"213 N Lombard Rd","geo_precision":"street"},"type":"Feature","geometry":{"type":"Point","coordinates":[-88.022416,41.936966]}},{"properties":{"city":"Carol Stream","co fip":43,"geo_score":0.525,"zip code":"60188-1522","id":"aap86pmpvt08","school":"Carol Stream Elem School","address":"422 Sioux Ln","geo_precision":"street"},"type":"Feature","geometry":{"type":"Point","coordinates":[-88.137317,41.930222]}},{"properties":{"city":"Hanover Park","co fip":43,"geo_score":0.902,"zip code":"60133-6230","id":"aap86ph8izqx","school":"Elsie C Johnson Elem Sch","address":"1380 Nautilus Ln","geo_precision":"range"},"type":"Feature","geometry":{"type":"Point","coordinates":[-88.142332,41.943291]}},{"properties":{"city":"Wheaton","co fip":43,"geo_score":0.902,"zip code":"60187-3666","id":"aap86pjdde6l","school":"Hawthorne Elem School","address":"334 Wakeman Ave","geo_precision":"range"},"type":"Feature","geometry":{"type":"Point","coordinates":[-88.101603,41.878765]}},{"properties":{"city":"Westmont","co fip":43,"geo_score":0.902,"zip code":"60559-1700","id":"aap86pqcq0cp","school":"J T Manning Elem School","address":"200 N Linden Ave","geo_precision":"range"},"type":"Feature","geometry":{"type":"Point","coordinates":[-87.974189,41.802802]}},{"properties":{"city":"Westmont","co fip":43,"geo_score":0.902,"zip code":"60559-1038","id":"aap86pian6pn","school":"Westmont Jr High School","address":"944 Oakwood Dr","geo_precision":"range"},"type":"Feature","geometry":{"type":"Point","coordinates":[-87.965802,41.819925]}},{"properties":{"city":"Aurora","co fip":43,"geo_score":0.0,"zip code":"60502","id":"aap86pfrnprv","school":"Indian Plains Alt High School","address":"1322 North Eola Rd","geo_precision":"unmatched"},"type":"Feature","geometry":null},{"properties":{"city":"Naperville","co fip":43,"geo_score":0.514,"zip code":"60563-9081","id":"aap86pri3r4e","school":"Longwood Elem School","address":"30W240 Bruce Ln","geo_precision":"street"},"type":"Feature","geometry":{"type":"Point","coordinates":[-88.207732,41.791655]}},{"properties":{"city":"Morris","co fip":63,"geo_score":0.61,"zip code":"60450-1218","id":"aap86piif4an","school":"Shabbona Middle School","address":"725 School St","geo_precision":"range"},"type":"Feature","geometry":{"type":"Point","coordinates":[-88.427994,41.12446]}},{"properties":{"city":"Morris","co fip":63,"geo_score":0.708,"zip code":"60450-3605","id":"aap86psn14rh","school":"White Oaks Elem School","address":"2001 DuPont Ave","geo_precision":"street"},"type":"Feature","geometry":{"type":"Point","coordinates":[-88.447396,41.366873]}},{"properties":{"city":"South Elgin","co fip":89,"geo_score":0.902,"zip code":"60177-1536","id":"aap86ppnlqi6","school":"Willard Elem School","address":"370 W Spring St","geo_precision":"range"},"type":"Feature","geometry":{"type":"Point","coordinates":[-88.29949,41.995036]}},{"properties":{"city":"Elgin","co fip":89,"geo_score":0.0,"zip code":"60124","id":"aap86pqb364g","school":"Otter Creek Elementary School","address":"2701 Hopps Road","geo_precision":"unmatched"},"type":"Feature","geometry":null},{"properties":{"city":"North Aurora","co fip":89,"geo_score":0.902,"zip code":"60542-1240","id":"aap86po684us","school":"Schneider Elem School","address":"304 Banbury Rd","geo_precision":"range"},"type":"Feature","geometry":{"type":"Point","coordinates":[-88.312466,41.815]}},{"properties":{"city":"North Aurora","co fip":89,"geo_score":0.902,"zip code":"60542-1788","id":"aap86ps5qnpc","school":"Jewel Middle School","address":"1501 Waterford Rd","geo_precision":"range"},"type":"Feature","geometry":{"type":"Point","coordinates":[-88.361989,41.809368]}},{"properties":{"city":"Bourbonnais","co fip":91,"geo_score":0.902,"zip code":"60914-2015","id":"aap86pgayt50","school":"Shabbona Elem School","address":"321 N Convent St","geo_precision":"range"},"type":"Feature","geometry":{"type":"Point","coordinates":[-87.875378,41.160994]}},{"properties":{"city":"Bourbonnais","co fip":91,"geo_score":0.707,"zip code":"60914-4970","id":"aap86pcvdxzi","school":"Liberty Intermediate School","address":"1690 Career Center Rd","geo_precision":"street"},"type":"Feature","geometry":{"type":"Point","coordinates":[-87.894965,41.173542]}},{"properties":{"city":"Bourbonnais","co fip":91,"geo_score":0.902,"zip code":"60914-2015","id":"aap86ph4fupn","school":"Alan B Shepard Elem School","address":"325 N Convent St","geo_precision":"range"},"type":"Feature","geometry":{"type":"Point","coordinates":[-87.875303,41.160979]}},{"properties":{"city":"Plano","co fip":93,"geo_score":0.488,"zip code":"60545-9001","id":"aap86pnt5hyb","school":"Emily G Johns School","address":"430 Mitchell Ct","geo_precision":"zip"},"type":"Feature","geometry":{"type":"Point","coordinates":[-88.552297,41.622808]}},{"properties":{"city":"Montgomery","co fip":93,"geo_score":0.805,"zip code":"60538-2305","id":"aap86plvrnr2","school":"Boulder Hill Elem School","address":"163 Boulder Hill Pass","geo_precision":"street"},"type":"Feature","geometry":{"type":"Point","coordinates":[-88.33877,41.70981]}},{"properties":{"city":"Montgomery","co fip":93,"geo_score":0.857,"zip code":"60538-2437","id":"aap86pq5yqdy","school":"Long Beach Elem School","address":"67 Longbeach Rd","geo_precision":"range"},"type":"Feature","geometry":{"type":"Point","coordinates":[-88.326965,41.711897]}},{"properties":{"city":"Beach Park","co fip":97,"geo_score":0.902,"zip code":"60099-3308","id":"aap86pqvuun7","school":"Oak Crest School","address":"38550 N Lewis Ave","geo_precision":"range"},"type":"Feature","geometry":{"type":"Point","coordinates":[-87.855076,42.421678]}},{"properties":{"city":"Beach Park","co fip":97,"geo_score":0.902,"zip code":"60099","id":"aap86pmrwodt","school":"Kenneth Murphy School","address":"11315 W Wadsworth Rd","geo_precision":"range"},"type":"Feature","geometry":{"type":"Point","coordinates":[-87.849068,42.429489]}},{"properties":{"city":"Beach Park","co fip":97,"geo_score":0.78,"zip code":"60099-9550","id":"aap86pq3lby1","school":"Beach Park Middle School","address":"40667 N Green Bay Rd","geo_precision":"range"},"type":"Feature","geometry":{"type":"Point","coordinates":[-87.876289,42.444269]}},{"properties":{"city":"Vernon Hills","co fip":97,"geo_score":0.902,"zip code":"60061-1427","id":"aap86pd5925w","school":"Hawthorn Sch Of Dual Language","address":"810 Aspen Dr","geo_precision":"range"},"type":"Feature","geometry":{"type":"Point","coordinates":[-87.970163,42.238001]}},{"properties":{"city":"Vernon Hills","co fip":97,"geo_score":0.902,"zip code":"60061-1461","id":"aap86prltbdm","school":"Hawthorn Elem School-North","address":"301 W Hawthorn Pkwy","geo_precision":"range"},"type":"Feature","geometry":{"type":"Point","coordinates":[-87.973106,42.242914]}},{"properties":{"city":"Fox Lake","co fip":97,"geo_score":0.902,"zip code":"60020-1883","id":"aap86pm22wzk","school":"Stanton School","address":"101 Hawthorne Ln","geo_precision":"range"},"type":"Feature","geometry":{"type":"Point","coordinates":[-88.162914,42.392219]}},{"properties":{"city":"Wauconda","co fip":97,"geo_score":0.902,"zip code":"60084-1746","id":"aap86pimywjc","school":"Wauconda Elem School","address":"225 Osage St","geo_precision":"range"},"type":"Feature","geometry":{"type":"Point","coordinates":[-88.145896,42.259015]}},{"properties":{"city":"Zion","co fip":97,"geo_score":0.819,"zip code":"60099-2345","id":"aap86pg2mb9v","school":"New Tech High- Zion Benton East","address":"1634 23rd St","geo_precision":"range"},"type":"Feature","geometry":{"type":"Point","coordinates":[-87.832879,42.454111]}},{"properties":{"city":"Lake Forest","co fip":97,"geo_score":0.902,"zip code":"60045-2643","id":"aap86ph88ej6","school":"Sally Potter School/Lake Forest","address":"300 S Waukegan Rd","geo_precision":"range"},"type":"Feature","geometry":{"type":"Point","coordinates":[-87.873441,42.234759]}},{"properties":{"city":"McHenry","co fip":111,"geo_score":0.902,"zip code":"60051-3639","id":"aap86pmiekts","school":"Hilltop Elem School","address":"2615 W Lincoln Rd","geo_precision":"range"},"type":"Feature","geometry":{"type":"Point","coordinates":[-88.248979,42.350281]}},{"properties":{"city":"McHenry","co fip":111,"geo_score":0.902,"zip code":"60050-5456","id":"aap86pielucw","school":"Riverwood Elem School","address":"300 S Driftwood Trl","geo_precision":"range"},"type":"Feature","geometry":{"type":"Point","coordinates":[-88.295791,42.325188]}},{"properties":{"city":"Hebron","co fip":111,"geo_score":0.902,"zip code":"60034-9618","id":"aap86pjswv6f","school":"Alden-Hebron Middle School","address":"9604 Illinois St","geo_precision":"range"},"type":"Feature","geometry":{"type":"Point","coordinates":[-88.431509,42.466215]}},{"properties":{"city":"Cary","co fip":111,"geo_score":0.526,"zip code":"60013-6100","id":"aap86phisnzy","school":"Three Oaks School","address":"1514 3 Oaks Rd","geo_precision":"street"},"type":"Feature","geometry":{"type":"Point","coordinates":[-88.137082,42.255173]}},{"properties":{"city":"Wonder Lake","co fip":111,"geo_score":0.482,"zip code":"60097-9546","id":"aap86ps8dff6","school":"Harrison Elem School","address":"6809 McCullom Lake Rd","geo_precision":"street"},"type":"Feature","geometry":{"type":"Point","coordinates":[-88.07656,42.223364]}},{"properties":{"city":"Crystal Lake","co fip":111,"geo_score":0.902,"zip code":"60014-7883","id":"aap86psxwiuq","school":"Coventry Elem School","address":"820 Darlington Ln","geo_precision":"range"},"type":"Feature","geometry":{"type":"Point","coordinates":[-88.327314,42.219428]}},{"properties":{"city":"Crystal Lake","co fip":111,"geo_score":0.902,"zip code":"60014-7871","id":"aap86pevl5ue","school":"Canterbury Elem School","address":"875 Canterbury Dr","geo_precision":"range"},"type":"Feature","geometry":{"type":"Point","coordinates":[-88.321065,42.216581]}},{"properties":{"city":"Marengo","co fip":111,"geo_score":0.902,"zip code":"60152-3400","id":"aap86psjs2tl","school":"Marengo Comm Middle School","address":"816 E Grant Hwy","geo_precision":"range"},"type":"Feature","geometry":{"type":"Point","coordinates":[-88.596036,42.24385]}},{"properties":{"city":"Woodstock","co fip":111,"geo_score":0.902,"zip code":"60098-3324","id":"aap86pez6gpa","school":"Clay Academy","address":"112 Grove St","geo_precision":"range"},"type":"Feature","geometry":{"type":"Point","coordinates":[-88.444957,42.321437]}},{"properties":{"city":"Woodstock","co fip":111,"geo_score":0.707,"zip code":"60098-6700","id":"aap86pr77nuk","school":"Prairiewood Elementary Sch","address":"3215 Hercules Rd","geo_precision":"street"},"type":"Feature","geometry":{"type":"Point","coordinates":[-88.429639,42.280266]}},{"properties":{"city":"Woodstock","co fip":111,"geo_score":0.765,"zip code":"60098-8954","id":"aap86ps56aa9","school":"Westwood Elem School","address":"14124 W South Street Rd","geo_precision":"range"},"type":"Feature","geometry":{"type":"Point","coordinates":[-88.472887,42.303623]}},{"properties":{"city":"Woodstock","co fip":111,"geo_score":0.902,"zip code":"60098-3137","id":"aap86penq11v","school":"Olson Elementary School","address":"720 W Judd St","geo_precision":"range"},"type":"Feature","geometry":{"type":"Point","coordinates":[-88.458427,42.315595]}},{"properties":{"city":"Woodstock","co fip":111,"geo_score":0.708,"zip code":"60098-2641","id":"aap86pnhmlal","school":"Mary Endres Elem School","address":"2181 N Seminary Ave","geo_precision":"street"},"type":"Feature","geometry":{"type":"Point","coordinates":[-88.443163,42.33463]}},{"properties":{"city":"Woodstock","co fip":111,"geo_score":0.708,"zip code":"60098-2643","id":"aap86prn86rd","school":"Verda Dierzen Early Learning Center","address":"2045 N Seminary Ave","geo_precision":"street"},"type":"Feature","geometry":{"type":"Point","coordinates":[-88.443163,42.33463]}},{"properties":{"city":"Woodstock","co fip":111,"geo_score":0.707,"zip code":"60098-6700","id":"aap86pp1f8iz","school":"Creekside Middle School","address":"3201 Hercules Rd","geo_precision":"street"},"type":"Feature","geometry":{"type":"Point","coordinates":[-88.429639,42.280266]}},{"properties":{"city":"Creston","co fip":141,"geo_score":0.688,"zip code":"60113-0037","id":"aap86ps1fr39","school":"Creston Elem School","address":"202 W South St","geo_precision":"range"},"type":"Feature","geometry":{"type":"Point","coordinates":[-88.964739,41.928846]}},{"properties":{"city":"Oregon","co fip":141,"geo_score":0.902,"zip code":"61061-1531","id":"aap86peda4na","school":"Oregon Elem Sch","address":"1200 Jefferson St","geo_precision":"range"},"type":"Feature","geometry":{"type":"Point","coordinates":[-89.344658,42.013396]}},{"properties":{"city":"Forreston","co fip":141,"geo_score":0.414,"zip code":"61030-0665","id":"aap86pnoi87v","school":"Forreston Grade School","address":"PO Box 665","geo_precision":"street"},"type":"Feature","geometry":{"type":"Point","coordinates":[-89.004137,42.496051]}},{"properties":{"city":"Polo","co fip":141,"geo_score":0.902,"zip code":"61064-1940","id":"aap86po0d4bt","school":"Centennial Elem School","address":"308 S Pleasant Ave","geo_precision":"range"},"type":"Feature","geometry":{"type":"Point","coordinates":[-89.572413,41.983943]}},{"properties":{"city":"Rochelle","co fip":141,"geo_score":0.488,"zip code":"61068-9130","id":"aap86pj98ctx","school":"Rochelle Middle School","address":"111 School Ave","geo_precision":"zip"},"type":"Feature","geometry":{"type":"Point","coordinates":[-89.100359,42.007405]}},{"properties":{"city":"Byron","co fip":141,"geo_score":0.414,"zip code":"61010-0582","id":"aap86prl2mhz","school":"Ogle Co Education Cooperative","address":"PO Box 582","geo_precision":"street"},"type":"Feature","geometry":{"type":"Point","coordinates":[-89.004137,42.496051]}},{"properties":{"city":"Lockport","co fip":197,"geo_score":0.829,"zip code":"60441-3823","id":"aap86ph4kmfh","school":"Lockport Area Spec Ed Coop","address":"1343 E 7th St","geo_precision":"range"},"type":"Feature","geometry":{"type":"Point","coordinates":[-88.027292,41.590437]}},{"properties":{"city":"Crest Hill","co fip":197,"geo_score":0.0,"zip code":"60403","id":"aap86pgk8suo","school":"Richland Elementary School","address":"1919 Caton Farm Road","geo_precision":"unmatched"},"type":"Feature","geometry":null},{"properties":{"city":"Custer Park","co fip":197,"geo_score":0.701,"zip code":"60481-9115","id":"aap86pkehh1t","school":"Reed-Custer Primary School","address":"35445 Washington St","geo_precision":"range"},"type":"Feature","geometry":{"type":"Point","coordinates":[-88.245185,41.238158]}},{"properties":{"city":"Braidwood","co fip":197,"geo_score":0.619,"zip code":"60408-1948","id":"aap86pj0wbey","school":"Reed-Custer Intermediate School","address":"162 S School St","geo_precision":"range"},"type":"Feature","geometry":{"type":"Point","coordinates":[-88.413464,41.124917]}},{"properties":{"city":"Rockford","co fip":201,"geo_score":0.902,"zip code":"61107-2459","id":"aap86pgbydtg","school":"Brookview Elem School","address":"1750 Madron Rd","geo_precision":"range"},"type":"Feature","geometry":{"type":"Point","coordinates":[-89.014304,42.287685]}}],"is_temporal":false,"author":{"url":"","metadata":"","contact_name":"","contact_address":"","source":"","contact_phone":""},"source":"","pagination":{"sort":null,"start":0,"total":75,"limit":1000000},"state":"complete","tags":"","published":"2014-08-16T18:41:50-04:00","id":304723}