{"type":"FeatureCollection","data_type":"Dataset","url_type":null,"permissions":[{"permissions":{"download":true,"view":true},"group_id":"everyone"}],"classification":null,"title":"Artis REIT Property Listing - Aggregate Count by City","count":33,"stream_id":305756,"contributor":{"url":"http://geocommons.com/users/55891","name":"tendim"},"data_attributes":null,"calculation_params":null,"icon_link":null,"link":"http://geocommons.com/overlays/305756.json","extent":[-123.94,27.9506,-75.2877,56.7264],"geometry_types":["point"],"unique_name":null,"name":"Artis REIT Property Listing - Aggregate Count by City","feature_count":33,"description":"List of properties in the Artis REIT, grouped by city/province/country.","next_feature":null,"is_raster":false,"short_classification":"Y","stats":{"latitude":{"max":56.72638,"mean":48.8085606060606,"variance":34.1262934838996,"stdev":5.84177143372621,"median":49.75023,"min":27.95058},"num":{"max":24,"mean":3.66666666666667,"variance":22.6666666666667,"stdev":4.76095228569523,"median":2,"min":1},"longitude":{"max":-75.28767,"mean":-106.847910606061,"variance":231.094303259568,"stdev":15.2017861864838,"median":-113.49093,"min":-123.94006}},"features":[{"properties":{"city":"Acheson","reit":"Artis REIT","latitude":53.5487,"country":"CAN","num":2,"longitude":-113.76261,"id":"aasn1n6j1nra","province":"AB"},"type":"Feature","geometry":{"type":"Point","coordinates":[-113.76261,53.5487]}},{"properties":{"city":"Airdrie","reit":"Artis REIT","latitude":51.2917,"country":"CAN","num":1,"longitude":-114.01436,"id":"aasn1muhux2f","province":"AB"},"type":"Feature","geometry":{"type":"Point","coordinates":[-114.01436,51.2917]}},{"properties":{"city":"Burnaby","reit":"Artis REIT","latitude":49.22949,"country":"CAN","num":3,"longitude":-123.00258,"id":"aasn1mxo1q6z","province":"BC"},"type":"Feature","geometry":{"type":"Point","coordinates":[-123.00258,49.22949]}},{"properties":{"city":"Calgary","reit":"Artis REIT","latitude":51.04532,"country":"CAN","num":24,"longitude":-114.0581,"id":"aasn1mwa21he","province":"AB"},"type":"Feature","geometry":{"type":"Point","coordinates":[-114.0581,51.04532]}},{"properties":{"city":"Coquitlam","reit":"Artis REIT","latitude":49.28386,"country":"CAN","num":1,"longitude":-122.79186,"id":"aasn1n1z9up0","province":"BC"},"type":"Feature","geometry":{"type":"Point","coordinates":[-122.79186,49.28386]}},{"properties":{"city":"Cranbrook","reit":"Artis REIT","latitude":49.51297,"country":"CAN","num":1,"longitude":-115.7694,"id":"aasn1n45v03p","province":"BC"},"type":"Feature","geometry":{"type":"Point","coordinates":[-115.7694,49.51297]}},{"properties":{"city":"Delta","reit":"Artis REIT","latitude":49.12536,"country":"CAN","num":2,"longitude":-123.02056,"id":"aasn1muroltk","province":"BC"},"type":"Feature","geometry":{"type":"Point","coordinates":[-123.02056,49.12536]}},{"properties":{"city":"Edmonton","reit":"Artis REIT","latitude":53.54439,"country":"CAN","num":9,"longitude":-113.49093,"id":"aasn1n4cwg6p","province":"AB"},"type":"Feature","geometry":{"type":"Point","coordinates":[-113.49093,53.54439]}},{"properties":{"city":"Edson","reit":"Artis REIT","latitude":53.5835,"country":"CAN","num":1,"longitude":-116.4345,"id":"aasn1n444ijj","province":"AB"},"type":"Feature","geometry":{"type":"Point","coordinates":[-116.4345,53.5835]}},{"properties":{"city":"Estevan","reit":"Artis REIT","latitude":49.13908,"country":"CAN","num":1,"longitude":-102.99148,"id":"aasn1n2h22ki","province":"SK"},"type":"Feature","geometry":{"type":"Point","coordinates":[-102.99148,49.13908]}},{"properties":{"city":"Fort McMurray","reit":"Artis REIT","latitude":56.72638,"country":"CAN","num":8,"longitude":-111.38034,"id":"aasn1msihlfi","province":"AB"},"type":"Feature","geometry":{"type":"Point","coordinates":[-111.38034,56.72638]}},{"properties":{"city":"Grande Prairie","reit":"Artis REIT","latitude":55.16994,"country":"CAN","num":4,"longitude":-118.79862,"id":"aasn1n2b8d29","province":"AB"},"type":"Feature","geometry":{"type":"Point","coordinates":[-118.79862,55.16994]}},{"properties":{"city":"Lethbridge","reit":"Artis REIT","latitude":49.69349,"country":"CAN","num":1,"longitude":-112.84184,"id":"aasn1n2upctg","province":"AB"},"type":"Feature","geometry":{"type":"Point","coordinates":[-112.84184,49.69349]}},{"properties":{"city":"Medicine Hat","reit":"Artis REIT","latitude":50.04055,"country":"CAN","num":1,"longitude":-110.67643,"id":"aasn1mvfrlty","province":"AB"},"type":"Feature","geometry":{"type":"Point","coordinates":[-110.67643,50.04055]}},{"properties":{"city":"Minneapolis","reit":"Artis REIT","latitude":44.98333,"country":"US","num":8,"longitude":-93.26667,"id":"aasn1n6r17ry","province":"MN"},"type":"Feature","geometry":{"type":"Point","coordinates":[-93.26667,44.98333]}},{"properties":{"city":"Mississauga","reit":"Artis REIT","latitude":43.52843,"country":"CAN","num":3,"longitude":-79.63897,"id":"aasn1n0h1xbx","province":"ON"},"type":"Feature","geometry":{"type":"Point","coordinates":[-79.63897,43.52843]}},{"properties":{"city":"Moose Jaw","reit":"Artis REIT","latitude":50.39158,"country":"CAN","num":1,"longitude":-105.53486,"id":"aasn1mw7q8fe","province":"AB"},"type":"Feature","geometry":{"type":"Point","coordinates":[-105.53486,50.39158]}},{"properties":{"city":"Nanaimo","reit":"Artis REIT","latitude":49.16588,"country":"CAN","num":4,"longitude":-123.94006,"id":"aasn1mt0lvdr","province":"BC"},"type":"Feature","geometry":{"type":"Point","coordinates":[-123.94006,49.16588]}},{"properties":{"city":"New Hartford","reit":"Artis REIT","latitude":43.0734,"country":"US","num":1,"longitude":-75.28767,"id":"aasn1mvh505p","province":"NY"},"type":"Feature","geometry":{"type":"Point","coordinates":[-75.28767,43.0734]}},{"properties":{"city":"Nisku","reit":"Artis REIT","latitude":53.33785,"country":"CAN","num":1,"longitude":-113.5313,"id":"aasn1mx7yih1","province":"AB"},"type":"Feature","geometry":{"type":"Point","coordinates":[-113.5313,53.33785]}},{"properties":{"city":"Ottawa","reit":"Artis REIT","latitude":45.42153,"country":"CAN","num":1,"longitude":-75.69719,"id":"aasn1n61b4ef","province":"ON"},"type":"Feature","geometry":{"type":"Point","coordinates":[-75.69719,45.42153]}},{"properties":{"city":"Phoenix","reit":"Artis REIT","latitude":33.44838,"country":"US","num":3,"longitude":-112.07404,"id":"aasn1n4q7ur6","province":"AZ"},"type":"Feature","geometry":{"type":"Point","coordinates":[-112.07404,33.44838]}},{"properties":{"city":"Red Deer","reit":"Artis REIT","latitude":52.26811,"country":"CAN","num":2,"longitude":-113.81124,"id":"aasn1n5j8ek7","province":"AB"},"type":"Feature","geometry":{"type":"Point","coordinates":[-113.81124,52.26811]}},{"properties":{"city":"Regina","reit":"Artis REIT","latitude":50.45472,"country":"CAN","num":8,"longitude":-104.60667,"id":"aasn1n6puvw3","province":"SK"},"type":"Feature","geometry":{"type":"Point","coordinates":[-104.60667,50.45472]}},{"properties":{"city":"Saskatoon","reit":"Artis REIT","latitude":52.13437,"country":"CAN","num":3,"longitude":-106.64766,"id":"aasn1mvco8k1","province":"SK"},"type":"Feature","geometry":{"type":"Point","coordinates":[-106.64766,52.13437]}},{"properties":{"city":"Spruce Grove","reit":"Artis REIT","latitude":53.54278,"country":"CAN","num":1,"longitude":-113.90337,"id":"aasn1n5mxxoi","province":"AB"},"type":"Feature","geometry":{"type":"Point","coordinates":[-113.90337,53.54278]}},{"properties":{"city":"St. Albert","reit":"Artis REIT","latitude":53.63048,"country":"CAN","num":1,"longitude":-113.62564,"id":"aasn1ms2p01k","province":"AB"},"type":"Feature","geometry":{"type":"Point","coordinates":[-113.62564,53.63048]}},{"properties":{"city":"Tampa","reit":"Artis REIT","latitude":27.95058,"country":"US","num":1,"longitude":-82.45718,"id":"aasn1n3ubgbu","province":"FL"},"type":"Feature","geometry":{"type":"Point","coordinates":[-82.45718,27.95058]}},{"properties":{"city":"Toronto","reit":"Artis REIT","latitude":43.65323,"country":"CAN","num":4,"longitude":-79.38318,"id":"aasn1mqy96bq","province":"ON"},"type":"Feature","geometry":{"type":"Point","coordinates":[-79.38318,43.65323]}},{"properties":{"city":"Vancouver","reit":"Artis REIT","latitude":49.32195,"country":"CAN","num":3,"longitude":-123.0716,"id":"aasn1ms6taaj","province":"BC"},"type":"Feature","geometry":{"type":"Point","coordinates":[-123.0716,49.32195]}},{"properties":{"city":"Vaughan","reit":"Artis REIT","latitude":43.78333,"country":"CAN","num":1,"longitude":-79.6,"id":"aasn1n5z79az","province":"ON"},"type":"Feature","geometry":{"type":"Point","coordinates":[-79.6,43.78333]}},{"properties":{"city":"Westbank/West Kelowna","reit":"Artis REIT","latitude":49.75023,"country":"CAN","num":2,"longitude":-119.75887,"id":"aasn1mvs79jr","province":"BC"},"type":"Feature","geometry":{"type":"Point","coordinates":[-119.75887,49.75023]}},{"properties":{"city":"Winnipeg","reit":"Artis REIT","latitude":49.90761,"country":"CAN","num":14,"longitude":-97.11127,"id":"aasn1mxgeinb","province":"MB"},"type":"Feature","geometry":{"type":"Point","coordinates":[-97.11127,49.90761]}}],"is_temporal":false,"author":{"url":"","metadata":"","contact_name":"","contact_address":"","source":"","contact_phone":""},"source":"","pagination":{"sort":null,"start":0,"total":33,"limit":1000000},"state":"complete","tags":"artis,investing,reit","published":"2014-08-16T20:23:47-04:00","id":305756}