{"type":"FeatureCollection","data_type":"Dataset","url_type":null,"permissions":[{"permissions":{"download":true,"view":true},"group_id":"everyone"}],"classification":null,"title":"Huntingdon REIT Property Listing - Aggregate Count by CIty","count":23,"stream_id":305764,"contributor":{"url":"http://geocommons.com/users/55891","name":"tendim"},"data_attributes":null,"calculation_params":null,"icon_link":null,"link":"http://geocommons.com/overlays/305764.json","extent":[-123.134,42.4048,-78.3216,62.454],"geometry_types":["point"],"unique_name":null,"name":"Huntingdon REIT Property Listing - Aggregate Count by CIty","feature_count":23,"description":"List of all properties in the Huntingdon REIT, grouped by city/province/country.","next_feature":null,"is_raster":false,"short_classification":"Y","stats":{"latitude":{"max":62.45397,"mean":49.4983726086956,"variance":28.1440782759838,"stdev":5.3050992710772,"median":50.45472,"min":42.4048},"num":{"max":36,"mean":3.26086956521739,"variance":55.2924901185771,"stdev":7.43589201902348,"median":1,"min":1},"longitude":{"max":-78.3216,"mean":-98.9994452173913,"variance":238.816592911781,"stdev":15.453691886141,"median":-101.87621,"min":-123.13357}},"features":[{"properties":{"city":"Brooks","reit":"Huntingdon Capital","latitude":50.56598,"country":"CAN","num":1,"longitude":-111.89917,"id":"aasn6pnob9cu","province":"AB"},"type":"Feature","geometry":{"type":"Point","coordinates":[-111.89917,50.56598]}},{"properties":{"city":"Calgary","reit":"Huntingdon Capital","latitude":51.04532,"country":"CAN","num":3,"longitude":-114.0581,"id":"aasn6py5plhi","province":"AB"},"type":"Feature","geometry":{"type":"Point","coordinates":[-114.0581,51.04532]}},{"properties":{"city":"Chatham","reit":"Huntingdon Capital","latitude":42.4048,"country":"CAN","num":1,"longitude":-82.19104,"id":"aasn6pqpikun","province":"ON"},"type":"Feature","geometry":{"type":"Point","coordinates":[-82.19104,42.4048]}},{"properties":{"city":"Cochrane","reit":"Huntingdon Capital","latitude":51.19099,"country":"CAN","num":1,"longitude":-114.46786,"id":"aasn6ppf6ak0","province":"AB"},"type":"Feature","geometry":{"type":"Point","coordinates":[-114.46786,51.19099]}},{"properties":{"city":"Edmonton","reit":"Huntingdon Capital","latitude":53.54439,"country":"CAN","num":2,"longitude":-113.49093,"id":"aasn6pu6zes6","province":"AB"},"type":"Feature","geometry":{"type":"Point","coordinates":[-113.49093,53.54439]}},{"properties":{"city":"Flin Flon","reit":"Huntingdon Capital","latitude":54.76577,"country":"CAN","num":2,"longitude":-101.87621,"id":"aasn6psvolzn","province":"MB"},"type":"Feature","geometry":{"type":"Point","coordinates":[-101.87621,54.76577]}},{"properties":{"city":"Goderich","reit":"Huntingdon Capital","latitude":43.74283,"country":"CAN","num":1,"longitude":-81.71389,"id":"aasn6q0aymaw","province":"ON"},"type":"Feature","geometry":{"type":"Point","coordinates":[-81.71389,43.74283]}},{"properties":{"city":"Grande Prairie","reit":"Huntingdon Capital","latitude":55.16994,"country":"CAN","num":1,"longitude":-118.79862,"id":"aasn6plymjpm","province":"AB"},"type":"Feature","geometry":{"type":"Point","coordinates":[-118.79862,55.16994]}},{"properties":{"city":"Guelph","reit":"Huntingdon Capital","latitude":43.5448,"country":"CAN","num":1,"longitude":-80.24817,"id":"aasn6pooap9l","province":"ON"},"type":"Feature","geometry":{"type":"Point","coordinates":[-80.24817,43.5448]}},{"properties":{"city":"Humboldt","reit":"Huntingdon Capital","latitude":52.20198,"country":"CAN","num":1,"longitude":-105.12287,"id":"aasn6pp39bpy","province":"SK"},"type":"Feature","geometry":{"type":"Point","coordinates":[-105.12287,52.20198]}},{"properties":{"city":"London","reit":"Huntingdon Capital","latitude":42.98695,"country":"CAN","num":1,"longitude":-81.24318,"id":"aasn6pn92td2","province":"ON"},"type":"Feature","geometry":{"type":"Point","coordinates":[-81.24318,42.98695]}},{"properties":{"city":"Milton","reit":"Huntingdon Capital","latitude":43.5183,"country":"CAN","num":1,"longitude":-79.8774,"id":"aasn6prz0ruq","province":"ON"},"type":"Feature","geometry":{"type":"Point","coordinates":[-79.8774,43.5183]}},{"properties":{"city":"Oshawa","reit":"Huntingdon Capital","latitude":43.89709,"country":"CAN","num":1,"longitude":-78.86579,"id":"aasn6pw0v4ti","province":"ON"},"type":"Feature","geometry":{"type":"Point","coordinates":[-78.86579,43.89709]}},{"properties":{"city":"Peterborough","reit":"Huntingdon Capital","latitude":44.30619,"country":"CAN","num":2,"longitude":-78.3216,"id":"aasn6pozd5zq","province":"ON"},"type":"Feature","geometry":{"type":"Point","coordinates":[-78.3216,44.30619]}},{"properties":{"city":"Regina","reit":"Huntingdon Capital","latitude":50.45472,"country":"CAN","num":2,"longitude":-104.60667,"id":"aasn6pogem5m","province":"SK"},"type":"Feature","geometry":{"type":"Point","coordinates":[-104.60667,50.45472]}},{"properties":{"city":"Richmond","reit":"Huntingdon Capital","latitude":49.16659,"country":"CAN","num":11,"longitude":-123.13357,"id":"aasn6pp93e66","province":"BC"},"type":"Feature","geometry":{"type":"Point","coordinates":[-123.13357,49.16659]}},{"properties":{"city":"Saskatoon","reit":"Huntingdon Capital","latitude":52.13437,"country":"CAN","num":1,"longitude":-106.64766,"id":"aasn6pnhp8xh","province":"SK"},"type":"Feature","geometry":{"type":"Point","coordinates":[-106.64766,52.13437]}},{"properties":{"city":"Spruce Grove","reit":"Huntingdon Capital","latitude":53.54278,"country":"CAN","num":1,"longitude":-113.90337,"id":"aasn6prykng2","province":"AB"},"type":"Feature","geometry":{"type":"Point","coordinates":[-113.90337,53.54278]}},{"properties":{"city":"Thompson","reit":"Huntingdon Capital","latitude":55.74493,"country":"CAN","num":1,"longitude":-97.85087,"id":"aasn6pohr4r4","province":"MB"},"type":"Feature","geometry":{"type":"Point","coordinates":[-97.85087,55.74493]}},{"properties":{"city":"Welland","reit":"Huntingdon Capital","latitude":42.99216,"country":"CAN","num":1,"longitude":-79.24826,"id":"aasn6poyu273","province":"ON"},"type":"Feature","geometry":{"type":"Point","coordinates":[-79.24826,42.99216]}},{"properties":{"city":"Winkler","reit":"Huntingdon Capital","latitude":49.18011,"country":"CAN","num":1,"longitude":-97.93895,"id":"aasn6pnuqzn4","province":"MB"},"type":"Feature","geometry":{"type":"Point","coordinates":[-97.93895,49.18011]}},{"properties":{"city":"Winnipeg","reit":"Huntingdon Capital","latitude":49.90761,"country":"CAN","num":36,"longitude":-97.11127,"id":"aasn6pmimgki","province":"MB"},"type":"Feature","geometry":{"type":"Point","coordinates":[-97.11127,49.90761]}},{"properties":{"city":"Yellowknife","reit":"Huntingdon Capital","latitude":62.45397,"country":"CAN","num":2,"longitude":-114.37179,"id":"aasn6pmwju46","province":"NWT"},"type":"Feature","geometry":{"type":"Point","coordinates":[-114.37179,62.45397]}}],"is_temporal":false,"author":{"url":"","metadata":"","contact_name":"","contact_address":"","source":"","contact_phone":""},"source":"","pagination":{"sort":null,"start":0,"total":23,"limit":1000000},"state":"complete","tags":"investing,reit","published":"2014-08-16T20:24:03-04:00","id":305764}