{"type":"FeatureCollection","data_type":"Dataset","url_type":null,"permissions":[{"permissions":{"download":true,"view":true},"group_id":"everyone"}],"classification":null,"title":"OPDC_Owned_and_Managed","count":22,"stream_id":306425,"contributor":{"url":"http://geocommons.com/users/42452","name":"OPDC"},"data_attributes":null,"calculation_params":null,"icon_link":null,"link":"http://geocommons.com/overlays/306425.json","extent":[-79.9664,40.43,-79.9525,40.4434],"geometry_types":["point"],"unique_name":null,"name":"OPDC_Owned_and_Managed","feature_count":22,"description":"","next_feature":null,"is_raster":false,"short_classification":"Y","stats":{},"features":[{"properties":{"project name":"141 Robinson Street","city":"Pittsburgh","category":"Still Own and Manage","selling date":"9-Jun","geo_score":1.0,"zip code":"15213","column_9":null,"description":"30 units, rental","id":"aaua9zvtjocl","address":"141 Robinson Street","geo_precision":"range","state":"Pennsylvania"},"type":"Feature","geometry":{"type":"Point","coordinates":[-79.96557,40.439526]}},{"properties":{"project name":"233 Atwood St","city":"Pittsburgh","category":"Still Own and Manage","selling date":null,"geo_score":1.0,"zip code":"15213","column_9":null,"description":null,"id":"aauaa01izspk","address":"233 Atwood St","geo_precision":"range","state":"Pennsylvania"},"type":"Feature","geometry":{"type":"Point","coordinates":[-79.955926,40.439855]}},{"properties":{"project name":"235 Atwood Street","city":"Pittsburgh","category":"Still Own and Manage","selling date":"Feb-00","geo_score":1.0,"zip code":"15213","column_9":null,"description":"Commercial office leases, OPDC, OTMA and OBID offices","id":"aauaa03tm8o5","address":"235 Atwood Street","geo_precision":"range","state":"Pennsylvania"},"type":"Feature","geometry":{"type":"Point","coordinates":[-79.956023,40.439907]}},{"properties":{"project name":"3250 Parkview Manor","city":"Pittsburgh","category":"Still Own and Manage","selling date":"1984","geo_score":0.916,"zip code":"15213","column_9":null,"description":"Fifteen rental units for the elderly","id":"aaua9zx7imol","address":"3250 Parkview Manor","geo_precision":"range","state":"Pennsylvania"},"type":"Feature","geometry":{"type":"Point","coordinates":[-79.952777,40.431453]}},{"properties":{"project name":"Allequippa Place","city":"Pittsburgh","category":"Still Own and Manage","selling date":"1990","geo_score":1.0,"zip code":"15213","column_9":null,"description":"Twenty-four rental units for low-income residents","id":"aaua9zw8tvyg","address":"301 Robinson St","geo_precision":"range","state":"Pennsylvania"},"type":"Feature","geometry":{"type":"Point","coordinates":[-79.966062,40.443377]}},{"properties":{"project name":"Allequippa Place","city":"Pittsburgh","category":"Still Own and Manage","selling date":"1990","geo_score":1.0,"zip code":"15213","column_9":null,"description":null,"id":"aaua9zxrf7nx","address":"303 Robinson St","geo_precision":"range","state":"Pennsylvania"},"type":"Feature","geometry":{"type":"Point","coordinates":[-79.966105,40.443295]}},{"properties":{"project name":"Allequippa Place","city":"Pittsburgh","category":"Still Own and Manage","selling date":"1990","geo_score":1.0,"zip code":"15213","column_9":null,"description":null,"id":"aaua9zy9vz6p","address":"305 Robinson St","geo_precision":"range","state":"Pennsylvania"},"type":"Feature","geometry":{"type":"Point","coordinates":[-79.966081,40.443245]}},{"properties":{"project name":"Allequippa Place","city":"Pittsburgh","category":"Still Own and Manage","selling date":"1990","geo_score":1.0,"zip code":"15213","column_9":null,"description":null,"id":"aauaa0ar3mmj","address":"307 Robinson St","geo_precision":"range","state":"Pennsylvania"},"type":"Feature","geometry":{"type":"Point","coordinates":[-79.966041,40.443196]}},{"properties":{"project name":"Allequippa Place","city":"Pittsburgh","category":"Still Own and Manage","selling date":"1990","geo_score":0.805,"zip code":"15213","column_9":null,"description":null,"id":"aaua9zx21ppi","address":"1719 Robinson Street","geo_precision":"street","state":"Pennsylvania"},"type":"Feature","geometry":{"type":"Point","coordinates":[-79.966062,40.443377]}},{"properties":{"project name":"Allequippa Place","city":"Pittsburgh","category":"Still Own and Manage","selling date":"1990","geo_score":0.927,"zip code":"15213","column_9":null,"description":null,"id":"aauaa027gfpf","address":"2558 Wadsworth","geo_precision":"range","state":"Pennsylvania"},"type":"Feature","geometry":{"type":"Point","coordinates":[-79.966062,40.443377]}},{"properties":{"project name":"Allequippa Place","city":"Pittsburgh","category":"Still Own and Manage","selling date":"1990","geo_score":0.927,"zip code":"15213","column_9":null,"description":null,"id":"aauaa07l320b","address":"2560 Wadsworth","geo_precision":"range","state":"Pennsylvania"},"type":"Feature","geometry":{"type":"Point","coordinates":[-79.966063,40.443293]}},{"properties":{"project name":"Allequippa Place","city":"Pittsburgh","category":"Still Own and Manage","selling date":"1990","geo_score":1.0,"zip code":"15213","column_9":null,"description":null,"id":"aauaa0azcxy7","address":"2562 Wadsworth Street","geo_precision":"range","state":"Pennsylvania"},"type":"Feature","geometry":{"type":"Point","coordinates":[-79.966117,40.443277]}},{"properties":{"project name":"Allequippa Place","city":"Pittsburgh","category":"Still Own and Manage","selling date":"1990","geo_score":1.0,"zip code":"15213","column_9":null,"description":null,"id":"aauaa06y68bo","address":"2564 Wadsworth Street","geo_precision":"range","state":"Pennsylvania"},"type":"Feature","geometry":{"type":"Point","coordinates":[-79.966152,40.443264]}},{"properties":{"project name":"Allequippa Place","city":"Pittsburgh","category":"Still Own and Manage","selling date":"1990","geo_score":1.0,"zip code":"15213","column_9":null,"description":null,"id":"aauaa0b82zzd","address":"2561 Allequippa Street","geo_precision":"range","state":"Pennsylvania"},"type":"Feature","geometry":{"type":"Point","coordinates":[-79.966392,40.44232]}},{"properties":{"project name":"Allequippa Place","city":"Pittsburgh","category":"Still Own and Manage","selling date":"1990","geo_score":1.0,"zip code":"15213","column_9":null,"description":null,"id":"aauaa08fp6l8","address":"2563 Allequippa Street","geo_precision":"range","state":"Pennsylvania"},"type":"Feature","geometry":{"type":"Point","coordinates":[-79.965757,40.442819]}},{"properties":{"project name":"Pacelli House","city":"Pittsburgh","category":"Still Own and Manage","selling date":"1990","geo_score":0.902,"zip code":"15213","column_9":null,"description":"Six rental units for low income residents","id":"aauaa08hmc0k","address":"3259 Dawson","geo_precision":"range","state":"Pennsylvania"},"type":"Feature","geometry":{"type":"Point","coordinates":[-79.953825,40.431543]}},{"properties":{"project name":"South Oakland scattered rental sites","city":"Pittsburgh","category":"Still Own and Manage","selling date":"5-Apr","geo_score":1.0,"zip code":"15213","column_9":null,"description":null,"id":"aauaa0bfdu7m","address":"29 Childs Street","geo_precision":"range","state":"Pennsylvania"},"type":"Feature","geometry":{"type":"Point","coordinates":[-79.952539,40.430163]}},{"properties":{"project name":"South Oakland scattered rental sites","city":"Pittsburgh","category":"Still Own and Manage","selling date":"5-Apr","geo_score":1.0,"zip code":"15213","column_9":null,"description":null,"id":"aauaa0a4fu74","address":"30 Childs Street","geo_precision":"range","state":"Pennsylvania"},"type":"Feature","geometry":{"type":"Point","coordinates":[-79.952684,40.430204]}},{"properties":{"project name":"South Oakland scattered rental sites","city":"Pittsburgh","category":"Still Own and Manage","selling date":"5-Apr","geo_score":1.0,"zip code":"15213","column_9":null,"description":null,"id":"aauaa067jqzd","address":"3230 Ward Street","geo_precision":"range","state":"Pennsylvania"},"type":"Feature","geometry":{"type":"Point","coordinates":[-79.955091,40.431985]}},{"properties":{"project name":"South Oakland scattered rental sites","city":"Pittsburgh","category":"Still Own and Manage","selling date":"5-Apr","geo_score":1.0,"zip code":"15213","column_9":null,"description":null,"id":"aauaa0670jml","address":"3238 Ward Street","geo_precision":"range","state":"Pennsylvania"},"type":"Feature","geometry":{"type":"Point","coordinates":[-79.955125,40.431803]}},{"properties":{"project name":"South Oakland scattered rental sites","city":"Pittsburgh","category":"Still Own and Manage","selling date":"5-Apr","geo_score":1.0,"zip code":"15213","column_9":null,"description":null,"id":"aauaa0aswrfk","address":"3240 Ward Street","geo_precision":"range","state":"Pennsylvania"},"type":"Feature","geometry":{"type":"Point","coordinates":[-79.955143,40.431759]}},{"properties":{"project name":"South Oakland scattered rental sites","city":"Pittsburgh","category":"Still Own and Manage","selling date":"5-Apr","geo_score":1.0,"zip code":"15213","column_9":null,"description":"Family rental","id":"aauaa0ge8n85","address":"3221 Parkview Avenue","geo_precision":"range","state":"Pennsylvania"},"type":"Feature","geometry":{"type":"Point","coordinates":[-79.953133,40.429988]}}],"is_temporal":false,"author":{"url":"","metadata":null,"contact_name":null,"contact_address":null,"source":null,"contact_phone":null},"source":"","pagination":{"sort":null,"start":0,"total":22,"limit":1000000},"state":"complete","tags":"","published":"2014-08-16T20:57:36-04:00","id":306425}