{"type":"FeatureCollection","data_type":"Dataset","url_type":null,"permissions":[{"permissions":{"download":true,"view":true},"group_id":"everyone"}],"classification":null,"title":"ProposedServiceCenters2012","count":5,"stream_id":306488,"contributor":{"url":"http://geocommons.com/users/57814","name":"jddaniel21"},"data_attributes":null,"calculation_params":null,"icon_link":null,"link":"http://geocommons.com/overlays/306488.json","extent":[-121.803,28.5452,-75.1179,47.4323],"geometry_types":["point"],"unique_name":null,"name":"ProposedServiceCenters2012","feature_count":5,"description":"","next_feature":null,"is_raster":false,"short_classification":"Y","stats":{},"features":[{"properties":{"city":"Seattle","zipcode":null,"country":"US","geo_score":0.714,"id":"aaufvyhtnamt","geo_precision":"city","state":"WA"},"type":"Feature","geometry":{"type":"Point","coordinates":[-121.803388,47.432251]}},{"properties":{"city":"Sacramento","zipcode":null,"country":"US","geo_score":0.714,"id":"aaufvyk3jnph","geo_precision":"city","state":"CA"},"type":"Feature","geometry":{"type":"Point","coordinates":[-121.555406,38.380456]}},{"properties":{"city":"Chicago","zipcode":null,"country":"US","geo_score":0.714,"id":"aaufvyo5oa4w","geo_precision":"city","state":"IL"},"type":"Feature","geometry":{"type":"Point","coordinates":[-87.68732,41.811929]}},{"properties":{"city":"Philadelphia","zipcode":null,"country":"US","geo_score":0.714,"id":"aaufvy9kkx83","geo_precision":"city","state":"PA"},"type":"Feature","geometry":{"type":"Point","coordinates":[-75.11787,40.001811]}},{"properties":{"city":"Orlando","zipcode":null,"country":"US","geo_score":0.714,"id":"aaufvykve37k","geo_precision":"city","state":"FL"},"type":"Feature","geometry":{"type":"Point","coordinates":[-81.373291,28.545179]}}],"is_temporal":false,"author":{"url":"","metadata":"","contact_name":"","contact_address":"","source":"","contact_phone":""},"source":"","pagination":{"sort":null,"start":0,"total":5,"limit":1000000},"state":"complete","tags":"","published":"2014-08-16T21:04:21-04:00","id":306488}