{"type":"FeatureCollection","data_type":"Dataset","url_type":null,"permissions":[{"permissions":{"download":true,"view":true},"group_id":"everyone"}],"classification":null,"title":"SDA_Companies","count":27,"stream_id":306437,"contributor":{"url":"http://geocommons.com/users/51090","name":"ICheccio"},"data_attributes":null,"calculation_params":null,"icon_link":null,"link":"http://geocommons.com/overlays/306437.json","extent":[-122.335,26.1883,-73.9184,47.5388],"geometry_types":["point"],"unique_name":null,"name":"SDA_Companies","feature_count":27,"description":"","next_feature":null,"is_raster":false,"short_classification":"Y","stats":{},"features":[{"properties":{"city":"Birmingham","zip":"35211","company name":"Gone for Good","geo_score":0.991,"street address":"101 Oslo Circle","id":"aauc2yiqig6z","geo_precision":"range","state":"AL"},"type":"Feature","geometry":{"type":"Point","coordinates":[-86.873579,33.432038]}},{"properties":{"city":"Dothan","zip":"36303","company name":"Assured Data Destruction","geo_score":0.81,"street address":"565 Burkett Road","id":"aauc2yneoa9f","geo_precision":"street","state":"AL"},"type":"Feature","geometry":{"type":"Point","coordinates":[-85.357275,31.230331]}},{"properties":{"city":"Birmingham","zip":"35211","company name":"Gone for Good","geo_score":0.991,"street address":"101 Oslo Circle","id":"aauc2yevbpmq","geo_precision":"range","state":"AL"},"type":"Feature","geometry":{"type":"Point","coordinates":[-86.873579,33.432038]}},{"properties":{"city":"Tempe","zip":"85283","company name":"Assured Security Document Destruction","geo_score":0.614,"street address":"225 W. Lodge Dr.","id":"aauc2yhtu3ij","geo_precision":"street","state":"AZ"},"type":"Feature","geometry":{"type":"Point","coordinates":[-111.946991,33.358668]}},{"properties":{"city":"Tucson","zip":"85705","company name":"Beacon Secure Document Destruction","geo_score":0.902,"street address":"308 West Glenn St.","id":"aauc2ykqgss9","geo_precision":"range","state":"AZ"},"type":"Feature","geometry":{"type":"Point","coordinates":[-110.977963,32.257638]}},{"properties":{"city":"Little Rock","zip":"72227","company name":"Gone for Good","geo_score":0.857,"street address":"9720 N. Rodney Paham Rd.","id":"aauc2ycae0uq","geo_precision":"zip","state":"AR"},"type":"Feature","geometry":{"type":"Point","coordinates":[-92.372386,34.775747]}},{"properties":{"city":"Pasadena","zip":"91106","company name":"Ability First","geo_score":0.333,"street address":"1300 E. Green St.","id":"aauc2ykux0qm","geo_precision":"street","state":"CA"},"type":"Feature","geometry":{"type":"Point","coordinates":[-118.093009,34.16608]}},{"properties":{"city":"San Jose","zip":"95112","company name":"GoodEX Services Inc Goodwill San Jose","geo_score":0.625,"street address":"1080 N. 7th St.","id":"aauc2y866t5x","geo_precision":"street","state":"CA"},"type":"Feature","geometry":{"type":"Point","coordinates":[-121.884191,37.339192]}},{"properties":{"city":"Los Angeles","zip":"90031","company name":"Goodwill Industries of Southern California","geo_score":0.597,"street address":"342 N. San Fernando Rd.","id":"aauc2y9f32ty","geo_precision":"street","state":"CA"},"type":"Feature","geometry":{"type":"Point","coordinates":[-118.221128,34.07422]}},{"properties":{"city":"Santa Ana","zip":"92704","company name":"Goodwill Orange County","geo_score":0.604,"street address":"3232 S. Fairview St,","id":"aauc2y88zsfu","geo_precision":"street","state":"CA"},"type":"Feature","geometry":{"type":"Point","coordinates":[-117.90529,33.744479]}},{"properties":{"city":"Sacramento","zip":"95834","company name":"Stay Safe Shred","geo_score":0.503,"street address":"4201 Sierra Point Dr. Ste. #101","id":"aauc2yci1niv","geo_precision":"street","state":"CA"},"type":"Feature","geometry":{"type":"Point","coordinates":[-121.531502,38.628409]}},{"properties":{"city":"Denver","zip":"80223","company name":"Bayaud Industries","geo_score":1.0,"street address":"333 West Bayaud Avenue","id":"aauc2ybpaur4","geo_precision":"range","state":"CO"},"type":"Feature","geometry":{"type":"Point","coordinates":[-104.992253,39.714881]}},{"properties":{"city":"Ft. Lauderdale","zip":"33309","company name":"Goodwill Industries of South Florida","geo_score":0.568,"street address":"2104 W. Commercial Blvd.","id":"aauc2yd03gnd","geo_precision":"street","state":"FL"},"type":"Feature","geometry":{"type":"Point","coordinates":[-80.149063,26.188301]}},{"properties":{"city":"Independence","zip":"64056","company name":"Secure Document Solutions","geo_score":0.604,"street address":"3701 W. Geospace Drive","id":"aauc2y6yq1j7","geo_precision":"street","state":"MO"},"type":"Feature","geometry":{"type":"Point","coordinates":[-94.37365,39.100024]}},{"properties":{"city":"St. Louis","zip":"63139","company name":"DeCycle It!","geo_score":0.965,"street address":"2828 Brannon Ave","id":"aauc2yjgam1k","geo_precision":"range","state":"MO"},"type":"Feature","geometry":{"type":"Point","coordinates":[-90.275228,38.609391]}},{"properties":{"city":"Alburquerque","zip":"87102","company name":"Adelante Document Destruction","geo_score":0.829,"street address":"1618 1st Street","id":"aauc2ybswxmo","geo_precision":"range","state":"NM"},"type":"Feature","geometry":{"type":"Point","coordinates":[-106.644859,35.100467]}},{"properties":{"city":"New York","zip":"10454","company name":"AHRC New York City","geo_score":0.585,"street address":"254 West 29th St.","id":"aauc2yl1bni3","geo_precision":"zip","state":"NY"},"type":"Feature","geometry":{"type":"Point","coordinates":[-73.918405,40.807129]}},{"properties":{"city":"Xenia","zip":"45384","company name":"Greene, Inc.","geo_score":0.784,"street address":"120 Fairgrounds Road","id":"aauc2yjg9all","geo_precision":"range","state":"OH"},"type":"Feature","geometry":{"type":"Point","coordinates":[-83.93914,39.697963]}},{"properties":{"city":"Akron","zip":"44320","company name":"Weaver SecurShred","geo_score":0.854,"street address":"2337 Romig Road Suite 2","id":"aauc2yf3iy8t","geo_precision":"range","state":"OH"},"type":"Feature","geometry":{"type":"Point","coordinates":[-81.580874,41.046713]}},{"properties":{"city":"Sioux Falls","zip":"57105","company name":"GoodShredd","geo_score":0.607,"street address":"3401 S. Duluth Avenue","id":"aauc2ycy1rtg","geo_precision":"street","state":"SD"},"type":"Feature","geometry":{"type":"Point","coordinates":[-96.733808,43.536691]}},{"properties":{"city":"Ft. Worth","zip":"76155","company name":"Expanco, Inc Document Destruction","geo_score":0.317,"street address":"5501 Thelin St. #119","id":"aauc2yl3mg45","geo_precision":"street","state":"TX"},"type":"Feature","geometry":{"type":"Point","coordinates":[-97.33182,32.669063]}},{"properties":{"city":"El Paso","zip":"79936","company name":"ReadyOne Shredding","geo_score":0.625,"street address":"1414 Allen Bradley","id":"aauc2ym5t0y3","geo_precision":"street","state":"TX"},"type":"Feature","geometry":{"type":"Point","coordinates":[-106.271157,31.802175]}},{"properties":{"city":"Salt Lake City","zip":"84115","company name":"Columbus Secure Shredding","geo_score":0.325,"street address":"3495 S. West Temple","id":"aauc2ycv9dq8","geo_precision":"street","state":"UT"},"type":"Feature","geometry":{"type":"Point","coordinates":[-111.904697,40.771544]}},{"properties":{"city":"Richmond","zip":"23225","company name":"Goodwill Industries of Central Virginia, INC.","geo_score":0.892,"street address":"6301 Midlothian","id":"aauc2yip2l9r","geo_precision":"range","state":"VA"},"type":"Feature","geometry":{"type":"Point","coordinates":[-77.510882,37.504097]}},{"properties":{"city":"Seattle","zip":"98108","company name":"American Data Guard (Northwest Center)","geo_score":0.584,"street address":"7272 W. Marginal Way S.","id":"aauc2yebtmdt","geo_precision":"street","state":"WA"},"type":"Feature","geometry":{"type":"Point","coordinates":[-122.335003,47.538812]}},{"properties":{"city":"Morgantown","zip":"26501","company name":"PACE Enterprises","geo_score":0.543,"street address":"889 Mylan Park Lane","id":"aauc2ylabqol","geo_precision":"street","state":"WC"},"type":"Feature","geometry":{"type":"Point","coordinates":[-79.9706,39.637702]}},{"properties":{"city":"Milwaukee","zip":"53207","company name":"Goodwill DataShield","geo_score":0.61,"street address":"200 W. Vogel Avenue","id":"aauc2ymrga75","geo_precision":"street","state":"WI"},"type":"Feature","geometry":{"type":"Point","coordinates":[-87.913742,42.953222]}}],"is_temporal":false,"author":{"url":"","metadata":null,"contact_name":null,"contact_address":null,"source":null,"contact_phone":null},"source":"","pagination":{"sort":null,"start":0,"total":27,"limit":1000000},"state":"complete","tags":"","published":"2014-08-16T20:57:54-04:00","id":306437}