{"type":"FeatureCollection","data_type":"Dataset","url_type":null,"permissions":[{"permissions":{"download":true,"edit":true,"view":true},"group_id":"everyone"}],"classification":null,"title":"79403","count":10,"stream_id":306581,"contributor":{"url":"http://geocommons.com/users/58199","name":"skimi"},"data_attributes":null,"calculation_params":null,"icon_link":null,"link":"http://geocommons.com/overlays/306581.json","extent":[113.299,23.098,125.307,43.8837],"geometry_types":["point"],"unique_name":null,"name":"79403","feature_count":10,"description":"","next_feature":null,"is_raster":false,"short_classification":"Y","stats":{"latitude":{"max":43.88369692,"mean":34.213206358,"variance":41.0548620179622,"stdev":6.4074068091516,"median":32.05564493,"min":23.09796986},"rankshowing":{"max":10,"mean":5.5,"variance":9.16666666666667,"stdev":3.02765035409749,"median":6,"min":1},"rank":{"max":10,"mean":5.5,"variance":9.16666666666667,"stdev":3.02765035409749,"median":6,"min":1},"januaryaveragetemperaturecelsius":{"max":18,"mean":-0.8,"variance":89.0666666666667,"stdev":9.43751379689941,"median":2,"min":-18},"julyaveragetemperaturecelsius":{"max":30,"mean":26.8,"variance":38.4,"stdev":6.19677335393187,"median":30,"min":10},"longitude":{"max":125.307312,"mean":118.37627051,"variance":13.904709815104,"stdev":3.72890195836576,"median":118.7802741,"min":113.299255}},"features":[{"properties":{"city":"Beijing","name":"city:","latitude":39.99185096,"rankshowing":10,"university":"Peking University","country":"China","rank":1,"januaryaveragetemperaturecelsius":-6,"longitude":116.3099599,"julyaveragetemperaturecelsius":26,"id":"aauwz08zs4dk","province":"Beijing","address":"No.5 Yiheyuan Road Haidian District,Beijing"},"type":"Feature","geometry":{"type":"Point","coordinates":[116.3099599,39.99185096]}},{"properties":{"city":"Beijing","name":"city:","latitude":40.00108599,"rankshowing":9,"university":"Tsing Hua University","country":"China","rank":2,"januaryaveragetemperaturecelsius":-6,"longitude":116.3242188,"julyaveragetemperaturecelsius":26,"id":"aauwz0b3qsoe","province":"Beijing","address":"Tshing Hua University, Haidian District,Beijing"},"type":"Feature","geometry":{"type":"Point","coordinates":[116.3242188,40.00108599]}},{"properties":{"city":"Beijing","name":"city:","latitude":39.97093698,"rankshowing":3,"university":"Renmin University of China","country":"China","rank":8,"januaryaveragetemperaturecelsius":-6,"longitude":116.3140801,"julyaveragetemperaturecelsius":26,"id":"aauwz048jaob","province":"Beijing","address":"59 Zhong Guan Cun Avenue,Haidian District,Beijing"},"type":"Feature","geometry":{"type":"Point","coordinates":[116.3140801,39.97093698]}},{"properties":{"city":"Guangzhou","name":"city:","latitude":23.09796986,"rankshowing":1,"university":"Sun Yat-Sen University","country":"China","rank":10,"januaryaveragetemperaturecelsius":18,"longitude":113.299255,"julyaveragetemperaturecelsius":30,"id":"aauwz08yecks","province":"Guangdong","address":"No. 135, Xingang Xi Road, Guangzhou"},"type":"Feature","geometry":{"type":"Point","coordinates":[113.299255,23.09796986]}},{"properties":{"city":"Wuhan","name":"city:","latitude":30.53919899,"rankshowing":4,"university":"Wuhan University","country":"China","rank":7,"januaryaveragetemperaturecelsius":-2,"longitude":114.354544,"julyaveragetemperaturecelsius":30,"id":"aauwz0iq8w6s","province":"Hubei","address":"Luojia Hill,Wuhan, Hubei"},"type":"Feature","geometry":{"type":"Point","coordinates":[114.354544,30.53919899]}},{"properties":{"city":"Nanjing","name":"city:","latitude":32.05564493,"rankshowing":5,"university":"Nanjing University","country":"China","rank":6,"januaryaveragetemperaturecelsius":2,"longitude":118.7802741,"julyaveragetemperaturecelsius":30,"id":"aauwz0838c03","province":"Jiangsu","address":"22 Hankou Road, Nanjing, Jiangsu"},"type":"Feature","geometry":{"type":"Point","coordinates":[118.7802741,32.05564493]}},{"properties":{"city":"Changchun","name":"city:","latitude":43.88369692,"rankshowing":2,"university":"Jilin University","country":"China","rank":9,"januaryaveragetemperaturecelsius":-18,"longitude":125.307312,"julyaveragetemperaturecelsius":10,"id":"aauwz0c311fr","province":"Jilin","address":"2699 Qianjin Avenue,Changchun, Jilin"},"type":"Feature","geometry":{"type":"Point","coordinates":[125.307312,43.88369692]}},{"properties":{"city":"Shanghai","name":"city:","latitude":31.2984281,"rankshowing":8,"university":"Fudan University","country":"China","rank":3,"januaryaveragetemperaturecelsius":2,"longitude":121.5015582,"julyaveragetemperaturecelsius":30,"id":"aauwz0j97dsm","province":"Shanghai","address":"No.220, Handan Road, Shanghai"},"type":"Feature","geometry":{"type":"Point","coordinates":[121.5015582,31.2984281]}},{"properties":{"city":"Shanghai","name":"city:","latitude":31.02925397,"rankshowing":6,"university":"Shanghai Jiaotong University","country":"China","rank":5,"januaryaveragetemperaturecelsius":2,"longitude":121.4481929,"julyaveragetemperaturecelsius":30,"id":"aauwz0gw3j9d","province":"Shanghai","address":"800 Dongchuan Road, Min Hang, Shanghai"},"type":"Feature","geometry":{"type":"Point","coordinates":[121.4481929,31.02925397]}},{"properties":{"city":"Hangzhou","name":"city:","latitude":30.26399688,"rankshowing":7,"university":"Zhejiang University","country":"China","rank":4,"januaryaveragetemperaturecelsius":6,"longitude":120.1233101,"julyaveragetemperaturecelsius":30,"id":"aauwz0621p29","province":"Zhejiang","address":"388 Yuhangtang Road , Hangzhou , Zhejiang"},"type":"Feature","geometry":{"type":"Point","coordinates":[120.1233101,30.26399688]}}],"is_temporal":false,"author":{"url":"","metadata":"","contact_name":"Qianyu Zhao","contact_address":"","source":"Qianyu Zhao","contact_phone":""},"source":"","pagination":{"sort":null,"start":0,"total":10,"limit":1000000},"state":"complete","tags":"","published":"2014-08-16T21:11:47-04:00","id":306581}