{"type":"FeatureCollection","data_type":"Dataset","url_type":null,"permissions":[{"permissions":{"download":true,"edit":true,"view":true},"group_id":"everyone"}],"classification":null,"title":"Fraudes","count":293,"stream_id":306690,"contributor":{"url":"http://geocommons.com/users/58237","name":"Marcoz"},"data_attributes":null,"calculation_params":null,"icon_link":null,"link":"http://geocommons.com/overlays/306690.json","extent":[-72.3,-54.7917,-54.5667,-22.5333],"geometry_types":["point"],"unique_name":null,"name":"Fraudes","feature_count":293,"description":"Fraudes no presenciales en el país","next_feature":null,"is_raster":false,"short_classification":"Y","stats":{"latitude":{"max":-22.53333,"mean":-34.1062203071672,"variance":26.2305308325105,"stdev":5.12157503435325,"min":-54.79167,"median":-34.4833},"id":{"max":573496,"mean":569320.675767918,"variance":6987994.74040394,"stdev":2643.48155666045,"min":564763,"median":569568},"users":{"max":1789237,"mean":15901.5699658703,"variance":11734693281.0336,"stdev":108326.789304556,"min":1001,"median":2562},"longitude":{"max":-54.5667,"mean":-61.7320416382253,"variance":16.6188409490857,"stdev":4.07662126632898,"min":-72.3,"median":-60.47388}},"features":[{"properties":{"city":"Quitilipi","latitude":-26.8667,"id":"a6216uudcek4","users":1001,"longitude":-60.2167},"type":"Feature","geometry":{"type":"Point","coordinates":[-60.2167,-26.8667]}},{"properties":{"city":"Santa Teresita","latitude":-36.5333,"id":"a6216urlxmyn","users":1010,"longitude":-56.6833},"type":"Feature","geometry":{"type":"Point","coordinates":[-56.6833,-36.5333]}},{"properties":{"city":"Jardín América","latitude":-27.05,"id":"a6216usrpynd","users":1017,"longitude":-55.2333},"type":"Feature","geometry":{"type":"Point","coordinates":[-55.2333,-27.05]}},{"properties":{"city":"Brandsen","latitude":-35.1717,"id":"a6216uz9dme8","users":1020,"longitude":-58.23},"type":"Feature","geometry":{"type":"Point","coordinates":[-58.23,-35.1717]}},{"properties":{"city":"Esquina","latitude":-30.01666,"id":"a6216ura0qw4","users":1026,"longitude":-59.53333},"type":"Feature","geometry":{"type":"Point","coordinates":[-59.53333,-30.01666]}},{"properties":{"city":"Florida","latitude":-34.51666,"id":"a6216uns6ufi","users":1028,"longitude":-58.5},"type":"Feature","geometry":{"type":"Point","coordinates":[-58.5,-34.51666]}},{"properties":{"city":"Basavilbaso","latitude":-32.36666,"id":"a6216v2rr81l","users":1033,"longitude":-58.88333},"type":"Feature","geometry":{"type":"Point","coordinates":[-58.88333,-32.36666]}},{"properties":{"city":"Coronda","latitude":-31.9667,"id":"a6216upz82kz","users":1040,"longitude":-60.9167},"type":"Feature","geometry":{"type":"Point","coordinates":[-60.9167,-31.9667]}},{"properties":{"city":"Libertador General San Martín","latitude":-23.8,"id":"a6216v3obeep","users":1042,"longitude":-64.8},"type":"Feature","geometry":{"type":"Point","coordinates":[-64.8,-23.8]}},{"properties":{"city":"San Antonio de Padua","latitude":-34.66666,"id":"a6216uzrinx3","users":1046,"longitude":-58.7},"type":"Feature","geometry":{"type":"Point","coordinates":[-58.7,-34.66666]}},{"properties":{"city":"Malargüe","latitude":-35.4667,"id":"a6216uvedqmx","users":1055,"longitude":-69.5833},"type":"Feature","geometry":{"type":"Point","coordinates":[-69.5833,-35.4667]}},{"properties":{"city":"Llavallol","latitude":-34.7833,"id":"a6216v2nu485","users":1074,"longitude":-58.4333},"type":"Feature","geometry":{"type":"Point","coordinates":[-58.4333,-34.7833]}},{"properties":{"city":"Plaza Huincul","latitude":-38.91666,"id":"a6216ur68xvd","users":1082,"longitude":-69.15},"type":"Feature","geometry":{"type":"Point","coordinates":[-69.15,-38.91666]}},{"properties":{"city":"San Justo","latitude":-30.78333,"id":"a6216uutcscr","users":1082,"longitude":-60.58333},"type":"Feature","geometry":{"type":"Point","coordinates":[-60.58333,-30.78333]}},{"properties":{"city":"Granadero Baigorria","latitude":-32.8667,"id":"a6216uyspqu9","users":1087,"longitude":-60.7},"type":"Feature","geometry":{"type":"Point","coordinates":[-60.7,-32.8667]}},{"properties":{"city":"Benavídez","latitude":-34.4094,"id":"a6216uyhkfc2","users":1093,"longitude":-58.7094},"type":"Feature","geometry":{"type":"Point","coordinates":[-58.7094,-34.4094]}},{"properties":{"city":"Monteros","latitude":-27.16666,"id":"a6216upcpgva","users":1098,"longitude":-65.5},"type":"Feature","geometry":{"type":"Point","coordinates":[-65.5,-27.16666]}},{"properties":{"city":"Las Varillas","latitude":-31.86666,"id":"a6216uqm9ciy","users":1110,"longitude":-62.71666},"type":"Feature","geometry":{"type":"Point","coordinates":[-62.71666,-31.86666]}},{"properties":{"city":"Montecarlo","latitude":-26.5667,"id":"a6216v41m7ll","users":1111,"longitude":-54.7833},"type":"Feature","geometry":{"type":"Point","coordinates":[-54.7833,-26.5667]}},{"properties":{"city":"General Villegas","latitude":-35.03333,"id":"a6216uvmbs0u","users":1136,"longitude":-63.01666},"type":"Feature","geometry":{"type":"Point","coordinates":[-63.01666,-35.03333]}},{"properties":{"city":"Arroyo Seco","latitude":-33.15,"id":"a6216ut301kj","users":1140,"longitude":-60.5167},"type":"Feature","geometry":{"type":"Point","coordinates":[-60.5167,-33.15]}},{"properties":{"city":"Las Flores","latitude":-36.05,"id":"a6216v2fg1v0","users":1141,"longitude":-59.1167},"type":"Feature","geometry":{"type":"Point","coordinates":[-59.1167,-36.05]}},{"properties":{"city":"Beccar","latitude":-34.46666,"id":"a6216utmisx0","users":1155,"longitude":-58.53333},"type":"Feature","geometry":{"type":"Point","coordinates":[-58.53333,-34.46666]}},{"properties":{"city":"Capitán Sarmiento","latitude":-34.1667,"id":"a6216utmgqao","users":1155,"longitude":-59.8},"type":"Feature","geometry":{"type":"Point","coordinates":[-59.8,-34.1667]}},{"properties":{"city":"Laboulaye","latitude":-34.11666,"id":"a6216uo9ldeg","users":1167,"longitude":-63.4},"type":"Feature","geometry":{"type":"Point","coordinates":[-63.4,-34.11666]}},{"properties":{"city":"Junín de los Andes","latitude":-39.9333,"id":"a6216v3hwe4y","users":1186,"longitude":-71.0833},"type":"Feature","geometry":{"type":"Point","coordinates":[-71.0833,-39.9333]}},{"properties":{"city":"Avellaneda","latitude":-29.1167,"id":"a6216utwddjh","users":1193,"longitude":-59.6667},"type":"Feature","geometry":{"type":"Point","coordinates":[-59.6667,-29.1167]}},{"properties":{"city":"Villa Dolores","latitude":-31.9333,"id":"a6216upj9olm","users":1205,"longitude":-65.2},"type":"Feature","geometry":{"type":"Point","coordinates":[-65.2,-31.9333]}},{"properties":{"city":"Funes","latitude":-32.91666,"id":"a6216v1rkzos","users":1215,"longitude":-60.81666},"type":"Feature","geometry":{"type":"Point","coordinates":[-60.81666,-32.91666]}},{"properties":{"city":"San Julián","latitude":-49.3,"id":"a6216ux4nl18","users":1219,"longitude":-67.7167},"type":"Feature","geometry":{"type":"Point","coordinates":[-67.7167,-49.3]}},{"properties":{"city":"Doce de Agosto","latitude":-33.7833,"id":"a6216uu5jog3","users":1246,"longitude":-60.6},"type":"Feature","geometry":{"type":"Point","coordinates":[-60.6,-33.7833]}},{"properties":{"city":"San Jorge","latitude":-31.9,"id":"a6216v314pq1","users":1249,"longitude":-61.86666},"type":"Feature","geometry":{"type":"Point","coordinates":[-61.86666,-31.9]}},{"properties":{"city":"Villa La Angostura","latitude":-40.78333,"id":"a6216uwdlsy8","users":1274,"longitude":-71.66666},"type":"Feature","geometry":{"type":"Point","coordinates":[-71.66666,-40.78333]}},{"properties":{"city":"Leandro N. Alem","latitude":-27.6,"id":"a6216up8dj7b","users":1279,"longitude":-55.31666},"type":"Feature","geometry":{"type":"Point","coordinates":[-55.31666,-27.6]}},{"properties":{"city":"Veinte de Febrero","latitude":-25.4167,"id":"a6216uucc2yh","users":1281,"longitude":-65.5333},"type":"Feature","geometry":{"type":"Point","coordinates":[-65.5333,-25.4167]}},{"properties":{"city":"Ciudad Evita","latitude":-34.7167,"id":"a6216uybyiy8","users":1285,"longitude":-58.5333},"type":"Feature","geometry":{"type":"Point","coordinates":[-58.5333,-34.7167]}},{"properties":{"city":"Tunuyán","latitude":-33.5667,"id":"a6216v22dmjv","users":1289,"longitude":-69.0167},"type":"Feature","geometry":{"type":"Point","coordinates":[-69.0167,-33.5667]}},{"properties":{"city":"Ituzaingó","latitude":-27.6,"id":"a6216ups5loo","users":1290,"longitude":-56.6833},"type":"Feature","geometry":{"type":"Point","coordinates":[-56.6833,-27.6]}},{"properties":{"city":"Lomas del Mirador","latitude":-34.65,"id":"a6216uxbmikd","users":1292,"longitude":-58.53333},"type":"Feature","geometry":{"type":"Point","coordinates":[-58.53333,-34.65]}},{"properties":{"city":"Aguilares","latitude":-27.43333,"id":"a6216uoq4b5k","users":1312,"longitude":-65.61666},"type":"Feature","geometry":{"type":"Point","coordinates":[-65.61666,-27.43333]}},{"properties":{"city":"Guernica","latitude":-34.91722,"id":"a6216uxkg4ol","users":1326,"longitude":-58.38694},"type":"Feature","geometry":{"type":"Point","coordinates":[-58.38694,-34.91722]}},{"properties":{"city":"Las Heras","latitude":-46.55,"id":"a6216uztcxix","users":1332,"longitude":-68.95},"type":"Feature","geometry":{"type":"Point","coordinates":[-68.95,-46.55]}},{"properties":{"city":"Carlos Casares","latitude":-35.6264,"id":"a6216uzp1ako","users":1343,"longitude":-61.3603},"type":"Feature","geometry":{"type":"Point","coordinates":[-61.3603,-35.6264]}},{"properties":{"city":"Perico","latitude":-24.38333,"id":"a6216v4082v5","users":1369,"longitude":-65.1},"type":"Feature","geometry":{"type":"Point","coordinates":[-65.1,-24.38333]}},{"properties":{"city":"Metán","latitude":-25.4833,"id":"a6216uqblfwo","users":1373,"longitude":-64.95},"type":"Feature","geometry":{"type":"Point","coordinates":[-64.95,-25.4833]}},{"properties":{"city":"Merlo","latitude":-32.35,"id":"a6216v1q4crk","users":1387,"longitude":-65.03333},"type":"Feature","geometry":{"type":"Point","coordinates":[-65.03333,-32.35]}},{"properties":{"city":"Glew","latitude":-34.88805,"id":"a6216v3t5g8s","users":1393,"longitude":-58.38416},"type":"Feature","geometry":{"type":"Point","coordinates":[-58.38416,-34.88805]}},{"properties":{"city":"Frías","latitude":-28.65,"id":"a6216uzvh3fx","users":1399,"longitude":-65.15},"type":"Feature","geometry":{"type":"Point","coordinates":[-65.15,-28.65]}},{"properties":{"city":"Sarmiento","latitude":-45.6,"id":"a6216utw202h","users":1405,"longitude":-69.0833},"type":"Feature","geometry":{"type":"Point","coordinates":[-69.0833,-45.6]}},{"properties":{"city":"Gálvez","latitude":-32.0283,"id":"a6216uyaexfv","users":1407,"longitude":-61.2222},"type":"Feature","geometry":{"type":"Point","coordinates":[-61.2222,-32.0283]}},{"properties":{"city":"Ramallo","latitude":-33.47861,"id":"a6216ux0y0uw","users":1417,"longitude":-60.02083},"type":"Feature","geometry":{"type":"Point","coordinates":[-60.02083,-33.47861]}},{"properties":{"city":"Pigüé","latitude":-37.6167,"id":"a6216uv5y5lp","users":1423,"longitude":-62.4167},"type":"Feature","geometry":{"type":"Point","coordinates":[-62.4167,-37.6167]}},{"properties":{"city":"Arroyito","latitude":-31.41666,"id":"a6216uubr58b","users":1424,"longitude":-63.05},"type":"Feature","geometry":{"type":"Point","coordinates":[-63.05,-31.41666]}},{"properties":{"city":"Termas de Río Hondo","latitude":-27.4833,"id":"a6216unrwh9l","users":1424,"longitude":-64.8667},"type":"Feature","geometry":{"type":"Point","coordinates":[-64.8667,-27.4833]}},{"properties":{"city":"Tala","latitude":-32.2981,"id":"a6216uoih29s","users":1430,"longitude":-59.1394},"type":"Feature","geometry":{"type":"Point","coordinates":[-59.1394,-32.2981]}},{"properties":{"city":"Yacimiento Río Turbio","latitude":-51.5333,"id":"a6216v07qe1z","users":1447,"longitude":-72.3},"type":"Feature","geometry":{"type":"Point","coordinates":[-72.3,-51.5333]}},{"properties":{"city":"Coronel Pringles","latitude":-37.9667,"id":"a6216uo76jpv","users":1457,"longitude":-61.3667},"type":"Feature","geometry":{"type":"Point","coordinates":[-61.3667,-37.9667]}},{"properties":{"city":"Mar de Ajó","latitude":-36.7167,"id":"a6216ut8rzzr","users":1458,"longitude":-56.6667},"type":"Feature","geometry":{"type":"Point","coordinates":[-56.6667,-36.7167]}},{"properties":{"city":"Federación","latitude":-31.0,"id":"a6216uwlbpu2","users":1501,"longitude":-57.9},"type":"Feature","geometry":{"type":"Point","coordinates":[-57.9,-31.0]}},{"properties":{"city":"Garín","latitude":-34.4233,"id":"a6216uvy7c6n","users":1510,"longitude":-58.7619},"type":"Feature","geometry":{"type":"Point","coordinates":[-58.7619,-34.4233]}},{"properties":{"city":"Santo Tomé","latitude":-28.55162,"id":"a6216v2huhti","users":1512,"longitude":-56.04563},"type":"Feature","geometry":{"type":"Point","coordinates":[-56.04563,-28.55162]}},{"properties":{"city":"Rojas","latitude":-34.19527,"id":"a6216upk3lim","users":1514,"longitude":-60.735},"type":"Feature","geometry":{"type":"Point","coordinates":[-60.735,-34.19527]}},{"properties":{"city":"Carmen de Patagones","latitude":-40.8,"id":"a6216v0frnji","users":1518,"longitude":-62.9833},"type":"Feature","geometry":{"type":"Point","coordinates":[-62.9833,-40.8]}},{"properties":{"city":"Firmat","latitude":-33.45,"id":"a6216utpyjpv","users":1552,"longitude":-61.48333},"type":"Feature","geometry":{"type":"Point","coordinates":[-61.48333,-33.45]}},{"properties":{"city":"Flores","latitude":-34.63748,"id":"a6216v25fggl","users":1556,"longitude":-58.46014},"type":"Feature","geometry":{"type":"Point","coordinates":[-58.46014,-34.63748]}},{"properties":{"city":"Boulogne","latitude":-34.5,"id":"a6216up755sa","users":1562,"longitude":-58.56666},"type":"Feature","geometry":{"type":"Point","coordinates":[-58.56666,-34.5]}},{"properties":{"city":"Ciudadela","latitude":-34.63333,"id":"a6216uunipmw","users":1605,"longitude":-58.53333},"type":"Feature","geometry":{"type":"Point","coordinates":[-58.53333,-34.63333]}},{"properties":{"city":"Río Colorado","latitude":-38.99346,"id":"a6216ux36hcl","users":1632,"longitude":-64.09472},"type":"Feature","geometry":{"type":"Point","coordinates":[-64.09472,-38.99346]}},{"properties":{"city":"Tafí Viejo","latitude":-26.7333,"id":"a6216uzo24ur","users":1633,"longitude":-65.2667},"type":"Feature","geometry":{"type":"Point","coordinates":[-65.2667,-26.7333]}},{"properties":{"city":"Arrecifes","latitude":-34.06387,"id":"a6216ur3ry20","users":1644,"longitude":-60.10348},"type":"Feature","geometry":{"type":"Point","coordinates":[-60.10348,-34.06387]}},{"properties":{"city":"Baradero","latitude":-33.79666,"id":"a6216uwk91eu","users":1671,"longitude":-59.52083},"type":"Feature","geometry":{"type":"Point","coordinates":[-59.52083,-33.79666]}},{"properties":{"city":"Lobos","latitude":-35.18527,"id":"a6216uutsem0","users":1674,"longitude":-59.09472},"type":"Feature","geometry":{"type":"Point","coordinates":[-59.09472,-35.18527]}},{"properties":{"city":"Barrio Norte","latitude":-34.58333,"id":"a6216v0ko4x9","users":1681,"longitude":-58.4},"type":"Feature","geometry":{"type":"Point","coordinates":[-58.4,-34.58333]}},{"properties":{"city":"Cañuelas","latitude":-35.0469,"id":"a6216uob3564","users":1684,"longitude":-58.7497},"type":"Feature","geometry":{"type":"Point","coordinates":[-58.7497,-35.0469]}},{"properties":{"city":"General Levalle","latitude":-34.01666,"id":"a6216uwaqhgg","users":1686,"longitude":-63.93333},"type":"Feature","geometry":{"type":"Point","coordinates":[-63.93333,-34.01666]}},{"properties":{"city":"Diamante","latitude":-32.06444,"id":"a6216ux8qipr","users":1693,"longitude":-60.6425},"type":"Feature","geometry":{"type":"Point","coordinates":[-60.6425,-32.06444]}},{"properties":{"city":"Rivadavia","latitude":-31.55388,"id":"a6216v1xral8","users":1693,"longitude":-68.6525},"type":"Feature","geometry":{"type":"Point","coordinates":[-68.6525,-31.55388]}},{"properties":{"city":"Nogoyá","latitude":-32.3997,"id":"a6216uyobgje","users":1713,"longitude":-59.7994},"type":"Feature","geometry":{"type":"Point","coordinates":[-59.7994,-32.3997]}},{"properties":{"city":"Rada Tilly","latitude":-45.9333,"id":"a6216urcx0gp","users":1718,"longitude":-67.5333},"type":"Feature","geometry":{"type":"Point","coordinates":[-67.5333,-45.9333]}},{"properties":{"city":"Santa Rosa","latitude":-36.6167,"id":"a6216urxgcpf","users":1719,"longitude":-64.2833},"type":"Feature","geometry":{"type":"Point","coordinates":[-64.2833,-36.6167]}},{"properties":{"city":"Marcos Juárez","latitude":-32.6936,"id":"a6216urs8n8j","users":1733,"longitude":-62.10267},"type":"Feature","geometry":{"type":"Point","coordinates":[-62.10267,-32.6936]}},{"properties":{"city":"Monte Caseros","latitude":-30.25,"id":"a6216v1cbwcp","users":1734,"longitude":-57.65},"type":"Feature","geometry":{"type":"Point","coordinates":[-57.65,-30.25]}},{"properties":{"city":"La Paz","latitude":-30.75,"id":"a6216v06cvep","users":1756,"longitude":-59.65},"type":"Feature","geometry":{"type":"Point","coordinates":[-59.65,-30.75]}},{"properties":{"city":"Palpalá","latitude":-24.25,"id":"a6216uq4weye","users":1758,"longitude":-65.2},"type":"Feature","geometry":{"type":"Point","coordinates":[-65.2,-24.25]}},{"properties":{"city":"Longchamps","latitude":-34.85166,"id":"a6216uwji2ht","users":1765,"longitude":-58.39638},"type":"Feature","geometry":{"type":"Point","coordinates":[-58.39638,-34.85166]}},{"properties":{"city":"Mercedes","latitude":-29.2,"id":"a6216utlowed","users":1779,"longitude":-58.08333},"type":"Feature","geometry":{"type":"Point","coordinates":[-58.08333,-29.2]}},{"properties":{"city":"Rufino","latitude":-34.26666,"id":"a6216v2c4gks","users":1781,"longitude":-62.7},"type":"Feature","geometry":{"type":"Point","coordinates":[-62.7,-34.26666]}},{"properties":{"city":"Colón","latitude":-33.8914,"id":"a6216v1skw1x","users":1792,"longitude":-61.1097},"type":"Feature","geometry":{"type":"Point","coordinates":[-61.1097,-33.8914]}},{"properties":{"city":"Chilecito","latitude":-29.16666,"id":"a6216urxku4o","users":1804,"longitude":-67.5},"type":"Feature","geometry":{"type":"Point","coordinates":[-67.5,-29.16666]}},{"properties":{"city":"El Bolsón","latitude":-41.9667,"id":"a6216us8mxjj","users":1825,"longitude":-71.5167},"type":"Feature","geometry":{"type":"Point","coordinates":[-71.5167,-41.9667]}},{"properties":{"city":"González Catán","latitude":-34.76272,"id":"a6216upruf30","users":1828,"longitude":-58.63008},"type":"Feature","geometry":{"type":"Point","coordinates":[-58.63008,-34.76272]}},{"properties":{"city":"Del Viso","latitude":-34.45,"id":"a6216v3jb5fq","users":1830,"longitude":-58.8},"type":"Feature","geometry":{"type":"Point","coordinates":[-58.8,-34.45]}},{"properties":{"city":"Bella Vista","latitude":-28.5,"id":"a6216v404bd9","users":1831,"longitude":-59.05},"type":"Feature","geometry":{"type":"Point","coordinates":[-59.05,-28.5]}},{"properties":{"city":"Capitán Bermúdez","latitude":-32.8167,"id":"a6216uqtxfuf","users":1837,"longitude":-60.7167},"type":"Feature","geometry":{"type":"Point","coordinates":[-60.7167,-32.8167]}},{"properties":{"city":"Buena Vista","latitude":-34.55,"id":"a6216urrtb3q","users":1846,"longitude":-58.6833},"type":"Feature","geometry":{"type":"Point","coordinates":[-58.6833,-34.55]}},{"properties":{"city":"Almagro","latitude":-34.6,"id":"a6216uyuuf44","users":1847,"longitude":-58.41666},"type":"Feature","geometry":{"type":"Point","coordinates":[-58.41666,-34.6]}},{"properties":{"city":"Luján de Cuyo","latitude":-33.05,"id":"a6216uywomik","users":1857,"longitude":-68.8667},"type":"Feature","geometry":{"type":"Point","coordinates":[-68.8667,-33.05]}},{"properties":{"city":"Crespo","latitude":-32.03333,"id":"a6216v2x8dvt","users":1865,"longitude":-60.31666},"type":"Feature","geometry":{"type":"Point","coordinates":[-60.31666,-32.03333]}},{"properties":{"city":"Sunchales","latitude":-30.93333,"id":"a6216ush2gea","users":1888,"longitude":-61.56666},"type":"Feature","geometry":{"type":"Point","coordinates":[-61.56666,-30.93333]}},{"properties":{"city":"Martínez","latitude":-34.4833,"id":"a6216uwptgew","users":1897,"longitude":-58.5},"type":"Feature","geometry":{"type":"Point","coordinates":[-58.5,-34.4833]}},{"properties":{"city":"San Miguel","latitude":-29.1833,"id":"a6216uyi70d5","users":1908,"longitude":-67.4667},"type":"Feature","geometry":{"type":"Point","coordinates":[-67.4667,-29.1833]}},{"properties":{"city":"A. Brown","latitude":-34.78805,"id":"a6216uzkzdrp","users":1920,"longitude":-58.40388},"type":"Feature","geometry":{"type":"Point","coordinates":[-58.40388,-34.78805]}},{"properties":{"city":"Ensenada","latitude":-34.87583,"id":"a6216v3ddy0u","users":1927,"longitude":-57.88222},"type":"Feature","geometry":{"type":"Point","coordinates":[-57.88222,-34.87583]}},{"properties":{"city":"Curuzú Cuatiá","latitude":-29.7833,"id":"a6216v23q7nw","users":1939,"longitude":-58.05},"type":"Feature","geometry":{"type":"Point","coordinates":[-58.05,-29.7833]}},{"properties":{"city":"Choele Choel","latitude":-39.28799,"id":"a6216uunhq8x","users":1950,"longitude":-65.66539},"type":"Feature","geometry":{"type":"Point","coordinates":[-65.66539,-39.28799]}},{"properties":{"city":"General Rodríguez","latitude":-34.6181,"id":"a6216uqeof2n","users":1956,"longitude":-58.9564},"type":"Feature","geometry":{"type":"Point","coordinates":[-58.9564,-34.6181]}},{"properties":{"city":"Charata","latitude":-27.2167,"id":"a6216uu1mqdr","users":1965,"longitude":-61.2},"type":"Feature","geometry":{"type":"Point","coordinates":[-61.2,-27.2167]}},{"properties":{"city":"Jesús María","latitude":-30.9833,"id":"a6216upcswqr","users":1993,"longitude":-64.1},"type":"Feature","geometry":{"type":"Point","coordinates":[-64.1,-30.9833]}},{"properties":{"city":"Isidro Casanova","latitude":-34.7,"id":"a6216ups3uoz","users":2009,"longitude":-58.58333},"type":"Feature","geometry":{"type":"Point","coordinates":[-58.58333,-34.7]}},{"properties":{"city":"Bernal","latitude":-34.71666,"id":"a6216v03ldqs","users":2021,"longitude":-58.3},"type":"Feature","geometry":{"type":"Point","coordinates":[-58.3,-34.71666]}},{"properties":{"city":"Puerto Deseado","latitude":-47.75,"id":"a6216uxlo4c7","users":2035,"longitude":-65.9},"type":"Feature","geometry":{"type":"Point","coordinates":[-65.9,-47.75]}},{"properties":{"city":"Plottier","latitude":-38.96666,"id":"a6216upkfr2v","users":2040,"longitude":-68.23333},"type":"Feature","geometry":{"type":"Point","coordinates":[-68.23333,-38.96666]}},{"properties":{"city":"Marcos Paz","latitude":-34.78166,"id":"a6216uvu78l4","users":2046,"longitude":-58.84583},"type":"Feature","geometry":{"type":"Point","coordinates":[-58.84583,-34.78166]}},{"properties":{"city":"La Esperanza","latitude":-29.6333,"id":"a6216usn7521","users":2071,"longitude":-63.3},"type":"Feature","geometry":{"type":"Point","coordinates":[-63.3,-29.6333]}},{"properties":{"city":"Saladillo","latitude":-35.63916,"id":"a6216usc7qqq","users":2093,"longitude":-59.77888},"type":"Feature","geometry":{"type":"Point","coordinates":[-59.77888,-35.63916]}},{"properties":{"city":"Coronel Suárez","latitude":-37.4667,"id":"a6216urr4nq2","users":2095,"longitude":-61.9167},"type":"Feature","geometry":{"type":"Point","coordinates":[-61.9167,-37.4667]}},{"properties":{"city":"Alta Gracia","latitude":-31.66666,"id":"a6216uq3yxxd","users":2102,"longitude":-64.43333},"type":"Feature","geometry":{"type":"Point","coordinates":[-64.43333,-31.66666]}},{"properties":{"city":"Belgrano","latitude":-34.56666,"id":"a6216v160j0i","users":2105,"longitude":-58.46666},"type":"Feature","geometry":{"type":"Point","coordinates":[-58.46666,-34.56666]}},{"properties":{"city":"General Alvear","latitude":-34.9667,"id":"a6216v3huosn","users":2108,"longitude":-67.7},"type":"Feature","geometry":{"type":"Point","coordinates":[-67.7,-34.9667]}},{"properties":{"city":"Los Polvorines","latitude":-34.5,"id":"a6216uozswt3","users":2144,"longitude":-58.6833},"type":"Feature","geometry":{"type":"Point","coordinates":[-58.6833,-34.5]}},{"properties":{"city":"Santo Tomé","latitude":-31.6667,"id":"a6216v0toqc3","users":2152,"longitude":-60.7667},"type":"Feature","geometry":{"type":"Point","coordinates":[-60.7667,-31.6667]}},{"properties":{"city":"Don Torcuato","latitude":-34.5,"id":"a6216upweles","users":2181,"longitude":-58.63333},"type":"Feature","geometry":{"type":"Point","coordinates":[-58.63333,-34.5]}},{"properties":{"city":"Maipú","latitude":-32.9667,"id":"a6216usfj6ke","users":2196,"longitude":-68.7833},"type":"Feature","geometry":{"type":"Point","coordinates":[-68.7833,-32.9667]}},{"properties":{"city":"Veinticinco de Mayo","latitude":-35.4281,"id":"a6216us0vu1j","users":2211,"longitude":-60.1742},"type":"Feature","geometry":{"type":"Point","coordinates":[-60.1742,-35.4281]}},{"properties":{"city":"Tortuguitas","latitude":-34.46666,"id":"a6216updlcde","users":2223,"longitude":-58.76666},"type":"Feature","geometry":{"type":"Point","coordinates":[-58.76666,-34.46666]}},{"properties":{"city":"Clorinda","latitude":-25.28333,"id":"a6216v12gbct","users":2230,"longitude":-57.71666},"type":"Feature","geometry":{"type":"Point","coordinates":[-57.71666,-25.28333]}},{"properties":{"city":"Ciudad Evita","latitude":-32.8169,"id":"a6216uoni647","users":2254,"longitude":-61.4008},"type":"Feature","geometry":{"type":"Point","coordinates":[-61.4008,-32.8169]}},{"properties":{"city":"Gobernador Gálvez","latitude":-33.0333,"id":"a6216uwri6kp","users":2256,"longitude":-60.6333},"type":"Feature","geometry":{"type":"Point","coordinates":[-60.6333,-33.0333]}},{"properties":{"city":"Claypole","latitude":-34.8,"id":"a6216uovlhyj","users":2276,"longitude":-58.33333},"type":"Feature","geometry":{"type":"Point","coordinates":[-58.33333,-34.8]}},{"properties":{"city":"Miramar","latitude":-38.2667,"id":"a6216unufsza","users":2289,"longitude":-57.85},"type":"Feature","geometry":{"type":"Point","coordinates":[-57.85,-38.2667]}},{"properties":{"city":"Salto","latitude":-34.2989,"id":"a6216v105pdv","users":2292,"longitude":-60.2419},"type":"Feature","geometry":{"type":"Point","coordinates":[-60.2419,-34.2989]}},{"properties":{"city":"Pico Truncado","latitude":-46.8,"id":"a6216v42tfei","users":2295,"longitude":-67.9667},"type":"Feature","geometry":{"type":"Point","coordinates":[-67.9667,-46.8]}},{"properties":{"city":"Yerba Buena","latitude":-26.81666,"id":"a6216utnxlzf","users":2300,"longitude":-65.31666},"type":"Feature","geometry":{"type":"Point","coordinates":[-65.31666,-26.81666]}},{"properties":{"city":"Bolívar","latitude":-36.25,"id":"a6216v1se0da","users":2362,"longitude":-61.1},"type":"Feature","geometry":{"type":"Point","coordinates":[-61.1,-36.25]}},{"properties":{"city":"San Antonio Oeste","latitude":-40.7333,"id":"a6216uz0l7ms","users":2368,"longitude":-64.9333},"type":"Feature","geometry":{"type":"Point","coordinates":[-64.9333,-40.7333]}},{"properties":{"city":"Cinco Saltos","latitude":-38.81666,"id":"a6216ur4a6ed","users":2389,"longitude":-68.06666},"type":"Feature","geometry":{"type":"Point","coordinates":[-68.06666,-38.81666]}},{"properties":{"city":"Bell Ville","latitude":-32.61666,"id":"a6216usfgupr","users":2402,"longitude":-62.7},"type":"Feature","geometry":{"type":"Point","coordinates":[-62.7,-32.61666]}},{"properties":{"city":"Villa Ángela","latitude":-27.5833,"id":"a6216up731fb","users":2413,"longitude":-60.7167},"type":"Feature","geometry":{"type":"Point","coordinates":[-60.7167,-27.5833]}},{"properties":{"city":"Dolores","latitude":-36.33333,"id":"a6216v2pbkr5","users":2419,"longitude":-57.66666},"type":"Feature","geometry":{"type":"Point","coordinates":[-57.66666,-36.33333]}},{"properties":{"city":"Apóstoles","latitude":-27.9167,"id":"a6216utinltv","users":2446,"longitude":-55.7667},"type":"Feature","geometry":{"type":"Point","coordinates":[-55.7667,-27.9167]}},{"properties":{"city":"Olivos","latitude":-34.51055,"id":"a6216upxld2g","users":2477,"longitude":-58.49638},"type":"Feature","geometry":{"type":"Point","coordinates":[-58.49638,-34.51055]}},{"properties":{"city":"Pehuajó","latitude":-35.8147,"id":"a6216uzvqc13","users":2492,"longitude":-61.9053},"type":"Feature","geometry":{"type":"Point","coordinates":[-61.9053,-35.8147]}},{"properties":{"city":"Burzaco","latitude":-34.81666,"id":"a6216uy6nt0t","users":2509,"longitude":-58.4},"type":"Feature","geometry":{"type":"Point","coordinates":[-58.4,-34.81666]}},{"properties":{"city":"Catriel","latitude":-37.86666,"id":"a6216v2v4ry5","users":2536,"longitude":-67.83333},"type":"Feature","geometry":{"type":"Point","coordinates":[-67.83333,-37.86666]}},{"properties":{"city":"Daireaux","latitude":-36.60094,"id":"a6216uyk03wf","users":2541,"longitude":-61.74866},"type":"Feature","geometry":{"type":"Point","coordinates":[-61.74866,-36.60094]}},{"properties":{"city":"Wilde","latitude":-34.70407,"id":"a6216v31e1jx","users":2557,"longitude":-58.32059},"type":"Feature","geometry":{"type":"Point","coordinates":[-58.32059,-34.70407]}},{"properties":{"city":"Chascomús","latitude":-35.5667,"id":"a6216v0p149y","users":2562,"longitude":-58.0167},"type":"Feature","geometry":{"type":"Point","coordinates":[-58.0167,-35.5667]}},{"properties":{"city":"San Pedro","latitude":-28.7333,"id":"a6216uy8zjhd","users":2580,"longitude":-66.1167},"type":"Feature","geometry":{"type":"Point","coordinates":[-66.1167,-28.7333]}},{"properties":{"city":"Haedo","latitude":-34.63333,"id":"a6216unp81rz","users":2603,"longitude":-58.6},"type":"Feature","geometry":{"type":"Point","coordinates":[-58.6,-34.63333]}},{"properties":{"city":"Casilda","latitude":-33.04416,"id":"a6216uzfsvv0","users":2604,"longitude":-61.16805},"type":"Feature","geometry":{"type":"Point","coordinates":[-61.16805,-33.04416]}},{"properties":{"city":"Allen","latitude":-38.96666,"id":"a6216v0eyze6","users":2631,"longitude":-67.83333},"type":"Feature","geometry":{"type":"Point","coordinates":[-67.83333,-38.96666]}},{"properties":{"city":"Villa Leloir","latitude":-34.61666,"id":"a6216ut227fo","users":2675,"longitude":-58.68333},"type":"Feature","geometry":{"type":"Point","coordinates":[-58.68333,-34.61666]}},{"properties":{"city":"Concepción","latitude":-28.6833,"id":"a6216v0bzvrj","users":2710,"longitude":-65.4},"type":"Feature","geometry":{"type":"Point","coordinates":[-65.4,-28.6833]}},{"properties":{"city":"Sáenz Peña","latitude":-34.5996,"id":"a6216uqehe5z","users":2720,"longitude":-58.53298},"type":"Feature","geometry":{"type":"Point","coordinates":[-58.53298,-34.5996]}},{"properties":{"city":"Victoria","latitude":-32.60916,"id":"a6216utwezze","users":2765,"longitude":-60.16888},"type":"Feature","geometry":{"type":"Point","coordinates":[-60.16888,-32.60916]}},{"properties":{"city":"Grand Bourg","latitude":-34.48333,"id":"a6216usqapul","users":2834,"longitude":-58.71666},"type":"Feature","geometry":{"type":"Point","coordinates":[-58.71666,-34.48333]}},{"properties":{"city":"Roque Sáenz Peña","latitude":-26.7833,"id":"a6216utsul0d","users":2854,"longitude":-60.45},"type":"Feature","geometry":{"type":"Point","coordinates":[-60.45,-26.7833]}},{"properties":{"city":"Las Heras","latitude":-32.85,"id":"a6216uqosv7e","users":2855,"longitude":-68.81666},"type":"Feature","geometry":{"type":"Point","coordinates":[-68.81666,-32.85]}},{"properties":{"city":"Cutral-Có","latitude":-38.93333,"id":"a6216utbfoq6","users":2869,"longitude":-69.23333},"type":"Feature","geometry":{"type":"Point","coordinates":[-69.23333,-38.93333]}},{"properties":{"city":"Lincoln","latitude":-34.865,"id":"a6216uonf8cu","users":2871,"longitude":-61.53194},"type":"Feature","geometry":{"type":"Point","coordinates":[-61.53194,-34.865]}},{"properties":{"city":"San Martín","latitude":-33.0667,"id":"a6216uo3fuqv","users":2871,"longitude":-68.4667},"type":"Feature","geometry":{"type":"Point","coordinates":[-68.4667,-33.0667]}},{"properties":{"city":"Caballito","latitude":-34.62092,"id":"a6216utmha4e","users":2877,"longitude":-58.44587},"type":"Feature","geometry":{"type":"Point","coordinates":[-58.44587,-34.62092]}},{"properties":{"city":"Centenario","latitude":-38.8,"id":"a6216uyvgxhq","users":2892,"longitude":-68.1333},"type":"Feature","geometry":{"type":"Point","coordinates":[-68.1333,-38.8]}},{"properties":{"city":"José C. Paz","latitude":-34.5,"id":"a6216v0529eh","users":2961,"longitude":-58.75},"type":"Feature","geometry":{"type":"Point","coordinates":[-58.75,-34.5]}},{"properties":{"city":"Laferrere","latitude":-34.75,"id":"a6216uwsrrjp","users":3019,"longitude":-58.58333},"type":"Feature","geometry":{"type":"Point","coordinates":[-58.58333,-34.75]}},{"properties":{"city":"Chacabuco","latitude":-34.64166,"id":"a6216ut4noe8","users":3045,"longitude":-60.47388},"type":"Feature","geometry":{"type":"Point","coordinates":[-60.47388,-34.64166]}},{"properties":{"city":"El Calafate","latitude":-50.3333,"id":"a6216uqtpnmv","users":3129,"longitude":-72.3},"type":"Feature","geometry":{"type":"Point","coordinates":[-72.3,-50.3333]}},{"properties":{"city":"San Pedro","latitude":-33.67055,"id":"a6216ur2wekn","users":3130,"longitude":-59.68277},"type":"Feature","geometry":{"type":"Point","coordinates":[-59.68277,-33.67055]}},{"properties":{"city":"Buenos Aires Chico","latitude":-42.0833,"id":"a6216upvq29k","users":3144,"longitude":-71.2333},"type":"Feature","geometry":{"type":"Point","coordinates":[-71.2333,-42.0833]}},{"properties":{"city":"Villaguay","latitude":-31.85,"id":"a6216uuiisz6","users":3149,"longitude":-59.01666},"type":"Feature","geometry":{"type":"Point","coordinates":[-59.01666,-31.85]}},{"properties":{"city":"Vicente López","latitude":-34.5333,"id":"a6216v1te45k","users":3175,"longitude":-58.4667},"type":"Feature","geometry":{"type":"Point","coordinates":[-58.4667,-34.5333]}},{"properties":{"city":"San Fernando","latitude":-34.44416,"id":"a6216ut3h1hj","users":3192,"longitude":-58.5775},"type":"Feature","geometry":{"type":"Point","coordinates":[-58.5775,-34.44416]}},{"properties":{"city":"Balcarce","latitude":-37.83333,"id":"a6216uuz04jb","users":3211,"longitude":-58.25},"type":"Feature","geometry":{"type":"Point","coordinates":[-58.25,-37.83333]}},{"properties":{"city":"Barranqueras","latitude":-27.4833,"id":"a6216v37emdb","users":3284,"longitude":-58.9333},"type":"Feature","geometry":{"type":"Point","coordinates":[-58.9333,-27.4833]}},{"properties":{"city":"Pinamar","latitude":-37.1167,"id":"a6216uz59joi","users":3319,"longitude":-56.8333},"type":"Feature","geometry":{"type":"Point","coordinates":[-56.8333,-37.1167]}},{"properties":{"city":"Tartagal","latitude":-22.53333,"id":"a6216ur9ghxm","users":3322,"longitude":-63.81666},"type":"Feature","geometry":{"type":"Point","coordinates":[-63.81666,-22.53333]}},{"properties":{"city":"Villa Ballester","latitude":-34.54923,"id":"a6216uxgcfy7","users":3403,"longitude":-58.55882},"type":"Feature","geometry":{"type":"Point","coordinates":[-58.55882,-34.54923]}},{"properties":{"city":"Palermo","latitude":-34.57449,"id":"a6216uy9207d","users":3411,"longitude":-58.42304},"type":"Feature","geometry":{"type":"Point","coordinates":[-58.42304,-34.57449]}},{"properties":{"city":"La Banda","latitude":-27.73333,"id":"a6216v3kfagx","users":3420,"longitude":-64.25},"type":"Feature","geometry":{"type":"Point","coordinates":[-64.25,-27.73333]}},{"properties":{"city":"San Ramón de la Nueva Orán","latitude":-23.1333,"id":"a6216uwh9dk1","users":3430,"longitude":-64.3333},"type":"Feature","geometry":{"type":"Point","coordinates":[-64.3333,-23.1333]}},{"properties":{"city":"Villa Gesell","latitude":-37.25,"id":"a6216ur3ua6y","users":3566,"longitude":-56.91666},"type":"Feature","geometry":{"type":"Point","coordinates":[-56.91666,-37.25]}},{"properties":{"city":"Zapala","latitude":-38.90236,"id":"a6216uog07t4","users":3604,"longitude":-70.06534},"type":"Feature","geometry":{"type":"Point","coordinates":[-70.06534,-38.90236]}},{"properties":{"city":"9 de Julio","latitude":-35.4542,"id":"a6216usqpi3u","users":3610,"longitude":-60.8914},"type":"Feature","geometry":{"type":"Point","coordinates":[-60.8914,-35.4542]}},{"properties":{"city":"Bragado","latitude":-35.11916,"id":"a6216uxv53a0","users":3685,"longitude":-60.50472},"type":"Feature","geometry":{"type":"Point","coordinates":[-60.50472,-35.11916]}},{"properties":{"city":"Villa Constitución","latitude":-33.2333,"id":"a6216uucf34s","users":3698,"longitude":-60.3333},"type":"Feature","geometry":{"type":"Point","coordinates":[-60.3333,-33.2333]}},{"properties":{"city":"Río Tercero","latitude":-32.1833,"id":"a6216uxdw8u1","users":3712,"longitude":-64.1},"type":"Feature","geometry":{"type":"Point","coordinates":[-64.1,-32.1833]}},{"properties":{"city":"Trenque Lauquen","latitude":-35.96666,"id":"a6216uswx300","users":3722,"longitude":-62.7},"type":"Feature","geometry":{"type":"Point","coordinates":[-62.7,-35.96666]}},{"properties":{"city":"Tucumanao","latitude":-28.0667,"id":"a6216updga50","users":3748,"longitude":-66.6167},"type":"Feature","geometry":{"type":"Point","coordinates":[-66.6167,-28.0667]}},{"properties":{"city":"Chajarí","latitude":-30.7667,"id":"a6216uvips21","users":3766,"longitude":-57.9833},"type":"Feature","geometry":{"type":"Point","coordinates":[-57.9833,-30.7667]}},{"properties":{"city":"San Lorenzo","latitude":-32.7414,"id":"a6216v177bv0","users":3850,"longitude":-60.745},"type":"Feature","geometry":{"type":"Point","coordinates":[-60.745,-32.7414]}},{"properties":{"city":"Gualeguay","latitude":-33.14444,"id":"a6216v1aorof","users":3871,"longitude":-59.32916},"type":"Feature","geometry":{"type":"Point","coordinates":[-59.32916,-33.14444]}},{"properties":{"city":"Esquel","latitude":-42.9,"id":"a6216uy6ok1w","users":3891,"longitude":-71.31666},"type":"Feature","geometry":{"type":"Point","coordinates":[-71.31666,-42.9]}},{"properties":{"city":"Temperley","latitude":-34.78333,"id":"a6216uwdkifk","users":3918,"longitude":-58.4},"type":"Feature","geometry":{"type":"Point","coordinates":[-58.4,-34.78333]}},{"properties":{"city":"Villa Carlos Paz","latitude":-31.4,"id":"a6216us0aawp","users":3922,"longitude":-64.51666},"type":"Feature","geometry":{"type":"Point","coordinates":[-64.51666,-31.4]}},{"properties":{"city":"Berisso","latitude":-34.86666,"id":"a6216upltuhh","users":3973,"longitude":-57.88333},"type":"Feature","geometry":{"type":"Point","coordinates":[-57.88333,-34.86666]}},{"properties":{"city":"San Justo","latitude":-34.6874,"id":"a6216uxsvm82","users":3976,"longitude":-58.56326},"type":"Feature","geometry":{"type":"Point","coordinates":[-58.56326,-34.6874]}},{"properties":{"city":"Paso de los Libres","latitude":-29.71666,"id":"a6216uqldxkt","users":4020,"longitude":-57.08333},"type":"Feature","geometry":{"type":"Point","coordinates":[-57.08333,-29.71666]}},{"properties":{"city":"Mercedes","latitude":-34.65444,"id":"a6216v43q2dv","users":4122,"longitude":-59.43444},"type":"Feature","geometry":{"type":"Point","coordinates":[-59.43444,-34.65444]}},{"properties":{"city":"San Francisco","latitude":-31.43333,"id":"a6216v211upa","users":4223,"longitude":-62.08333},"type":"Feature","geometry":{"type":"Point","coordinates":[-62.08333,-31.43333]}},{"properties":{"city":"Villa Nueva","latitude":-32.9,"id":"a6216uuwvyyw","users":4242,"longitude":-68.7833},"type":"Feature","geometry":{"type":"Point","coordinates":[-68.7833,-32.9]}},{"properties":{"city":"Villa Regina","latitude":-39.10034,"id":"a6216ur6ql19","users":4249,"longitude":-67.08779},"type":"Feature","geometry":{"type":"Point","coordinates":[-67.08779,-39.10034]}},{"properties":{"city":"Belén","latitude":-34.3467,"id":"a6216v0m9rdg","users":4289,"longitude":-58.8186},"type":"Feature","geometry":{"type":"Point","coordinates":[-58.8186,-34.3467]}},{"properties":{"city":"Puerto Iguazú","latitude":-25.5667,"id":"a6216uxywlzu","users":4302,"longitude":-54.5667},"type":"Feature","geometry":{"type":"Point","coordinates":[-54.5667,-25.5667]}},{"properties":{"city":"Ezeiza","latitude":-34.8381,"id":"a6216v39ap35","users":4347,"longitude":-58.5172},"type":"Feature","geometry":{"type":"Point","coordinates":[-58.5172,-34.8381]}},{"properties":{"city":"Colón","latitude":-32.22493,"id":"a6216v345fjy","users":4351,"longitude":-58.14471},"type":"Feature","geometry":{"type":"Point","coordinates":[-58.14471,-32.22493]}},{"properties":{"city":"Federal","latitude":-30.95,"id":"a6216ux1kvv2","users":4362,"longitude":-58.8},"type":"Feature","geometry":{"type":"Point","coordinates":[-58.8,-30.95]}},{"properties":{"city":"San Martín de los Andes","latitude":-40.1667,"id":"a6216v0mg0co","users":4382,"longitude":-71.35},"type":"Feature","geometry":{"type":"Point","coordinates":[-71.35,-40.1667]}},{"properties":{"city":"San Isidro","latitude":-34.47082,"id":"a6216ut0m8ws","users":4457,"longitude":-58.52861},"type":"Feature","geometry":{"type":"Point","coordinates":[-58.52861,-34.47082]}},{"properties":{"city":"Eldorado","latitude":-26.3833,"id":"a6216v3gdasu","users":4565,"longitude":-54.6667},"type":"Feature","geometry":{"type":"Point","coordinates":[-54.6667,-26.3833]}},{"properties":{"city":"Banfield","latitude":-34.74461,"id":"a6216v25jqyo","users":4680,"longitude":-58.39173},"type":"Feature","geometry":{"type":"Point","coordinates":[-58.39173,-34.74461]}},{"properties":{"city":"San Martín","latitude":-34.5722,"id":"a6216v29lpao","users":4887,"longitude":-58.5472},"type":"Feature","geometry":{"type":"Point","coordinates":[-58.5472,-34.5722]}},{"properties":{"city":"Goya","latitude":-29.14422,"id":"a6216v2yjlda","users":4931,"longitude":-59.26432},"type":"Feature","geometry":{"type":"Point","coordinates":[-59.26432,-29.14422]}},{"properties":{"city":"Santa Cruz","latitude":-50.0167,"id":"a6216uxjys53","users":4985,"longitude":-68.5167},"type":"Feature","geometry":{"type":"Point","coordinates":[-68.5167,-50.0167]}},{"properties":{"city":"Reconquista","latitude":-29.2333,"id":"a6216urse0oa","users":5067,"longitude":-59.6},"type":"Feature","geometry":{"type":"Point","coordinates":[-59.6,-29.2333]}},{"properties":{"city":"Rawson","latitude":-43.3,"id":"a6216v3k6i4m","users":5103,"longitude":-65.1},"type":"Feature","geometry":{"type":"Point","coordinates":[-65.1,-43.3]}},{"properties":{"city":"Chivilcoy","latitude":-34.90833,"id":"a6216v40nq6y","users":5106,"longitude":-60.03055},"type":"Feature","geometry":{"type":"Point","coordinates":[-60.03055,-34.90833]}},{"properties":{"city":"Tigre","latitude":-34.42508,"id":"a6216v1nbvoz","users":5572,"longitude":-58.57965},"type":"Feature","geometry":{"type":"Point","coordinates":[-58.57965,-34.42508]}},{"properties":{"city":"Tres Arroyos","latitude":-38.38333,"id":"a6216utuu1gl","users":5582,"longitude":-60.28333},"type":"Feature","geometry":{"type":"Point","coordinates":[-60.28333,-38.38333]}},{"properties":{"city":"Azul","latitude":-36.78333,"id":"a6216uzhh1wn","users":5648,"longitude":-59.85},"type":"Feature","geometry":{"type":"Point","coordinates":[-59.85,-36.78333]}},{"properties":{"city":"Ramos Mejía","latitude":-34.6333,"id":"a6216upwjl2w","users":5675,"longitude":-58.5667},"type":"Feature","geometry":{"type":"Point","coordinates":[-58.5667,-34.6333]}},{"properties":{"city":"Hurlingham","latitude":-34.59869,"id":"a6216uovrbg8","users":5735,"longitude":-58.63402},"type":"Feature","geometry":{"type":"Point","coordinates":[-58.63402,-34.59869]}},{"properties":{"city":"Monte Grande","latitude":-34.82717,"id":"a6216uyeycel","users":6147,"longitude":-58.46201},"type":"Feature","geometry":{"type":"Point","coordinates":[-58.46201,-34.82717]}},{"properties":{"city":"Godoy Cruz","latitude":-32.91778,"id":"a6216uteh8mt","users":6186,"longitude":-68.83209},"type":"Feature","geometry":{"type":"Point","coordinates":[-68.83209,-32.91778]}},{"properties":{"city":"Oberá","latitude":-27.4833,"id":"a6216uw80g1o","users":6288,"longitude":-55.1333},"type":"Feature","geometry":{"type":"Point","coordinates":[-55.1333,-27.4833]}},{"properties":{"city":"General Pico","latitude":-35.6667,"id":"a6216uv933cl","users":6499,"longitude":-63.7333},"type":"Feature","geometry":{"type":"Point","coordinates":[-63.7333,-35.6667]}},{"properties":{"city":"Florencio Varela","latitude":-34.82722,"id":"a6216uw94bn4","users":6582,"longitude":-58.39555},"type":"Feature","geometry":{"type":"Point","coordinates":[-58.39555,-34.82722]}},{"properties":{"city":"Caleta Olivia","latitude":-46.43333,"id":"a6216uvddfck","users":6753,"longitude":-67.53333},"type":"Feature","geometry":{"type":"Point","coordinates":[-67.53333,-46.43333]}},{"properties":{"city":"Luján","latitude":-34.56573,"id":"a6216upvxxva","users":6769,"longitude":-59.11743},"type":"Feature","geometry":{"type":"Point","coordinates":[-59.11743,-34.56573]}},{"properties":{"city":"La Pampa","latitude":-30.93333,"id":"a6216uxkjnr7","users":6992,"longitude":-64.28333},"type":"Feature","geometry":{"type":"Point","coordinates":[-64.28333,-30.93333]}},{"properties":{"city":"Punta Alta","latitude":-38.87606,"id":"a6216uzuivdc","users":7258,"longitude":-62.07408},"type":"Feature","geometry":{"type":"Point","coordinates":[-62.07408,-38.87606]}},{"properties":{"city":"Villa María","latitude":-32.4167,"id":"a6216uunk29g","users":7347,"longitude":-63.25},"type":"Feature","geometry":{"type":"Point","coordinates":[-63.25,-32.4167]}},{"properties":{"city":"Pilar","latitude":-34.48361,"id":"a6216uvuee8b","users":7375,"longitude":-58.93194},"type":"Feature","geometry":{"type":"Point","coordinates":[-58.93194,-34.48361]}},{"properties":{"city":"Libertador General San Martín","latitude":-26.8,"id":"a6216v1ny3ge","users":7716,"longitude":-55.0333},"type":"Feature","geometry":{"type":"Point","coordinates":[-55.0333,-26.8]}},{"properties":{"city":"Morón","latitude":-34.6425,"id":"a6216v40hlg2","users":7913,"longitude":-58.6181},"type":"Feature","geometry":{"type":"Point","coordinates":[-58.6181,-34.6425]}},{"properties":{"city":"Moreno","latitude":-34.63401,"id":"a6216v43lfec","users":7996,"longitude":-58.79138},"type":"Feature","geometry":{"type":"Point","coordinates":[-58.79138,-34.63401]}},{"properties":{"city":"Campana","latitude":-34.16748,"id":"a6216utdu6de","users":8021,"longitude":-58.95264},"type":"Feature","geometry":{"type":"Point","coordinates":[-58.95264,-34.16748]}},{"properties":{"city":"Venado Tuerto","latitude":-33.74972,"id":"a6216uuvxxf5","users":8056,"longitude":-61.96694},"type":"Feature","geometry":{"type":"Point","coordinates":[-61.96694,-33.74972]}},{"properties":{"city":"Necochea","latitude":-38.55,"id":"a6216uvvjdic","users":8211,"longitude":-58.75},"type":"Feature","geometry":{"type":"Point","coordinates":[-58.75,-38.55]}},{"properties":{"city":"San Miguel","latitude":-34.55847,"id":"a6216uofl06p","users":8536,"longitude":-58.7354},"type":"Feature","geometry":{"type":"Point","coordinates":[-58.7354,-34.55847]}},{"properties":{"city":"Lomas de Zamora","latitude":-34.76118,"id":"a6216v3cr98q","users":8854,"longitude":-58.43024},"type":"Feature","geometry":{"type":"Point","coordinates":[-58.43024,-34.76118]}},{"properties":{"city":"Viedma","latitude":-40.8,"id":"a6216uzxhhaz","users":9079,"longitude":-63.0},"type":"Feature","geometry":{"type":"Point","coordinates":[-63.0,-40.8]}},{"properties":{"city":"Merlo","latitude":-34.6685,"id":"a6216uy2znk3","users":9302,"longitude":-58.72824},"type":"Feature","geometry":{"type":"Point","coordinates":[-58.72824,-34.6685]}},{"properties":{"city":"Rafaela","latitude":-31.25259,"id":"a6216us6wysd","users":9302,"longitude":-61.49164},"type":"Feature","geometry":{"type":"Point","coordinates":[-61.49164,-31.25259]}},{"properties":{"city":"Ituzaingó","latitude":-34.6667,"id":"a6216v3tarx4","users":9382,"longitude":-58.6667},"type":"Feature","geometry":{"type":"Point","coordinates":[-58.6667,-34.6667]}},{"properties":{"city":"Berazategui","latitude":-34.73333,"id":"a6216uvpzt9a","users":9429,"longitude":-58.25527},"type":"Feature","geometry":{"type":"Point","coordinates":[-58.25527,-34.73333]}},{"properties":{"city":"Avellaneda","latitude":-34.65055,"id":"a6216v3uj0ry","users":9515,"longitude":-58.38222},"type":"Feature","geometry":{"type":"Point","coordinates":[-58.38222,-34.65055]}},{"properties":{"city":"Junín","latitude":-34.585,"id":"a6216utt5fr6","users":10025,"longitude":-60.9589},"type":"Feature","geometry":{"type":"Point","coordinates":[-60.9589,-34.585]}},{"properties":{"city":"Olavarría","latitude":-36.89209,"id":"a6216uw4bq3n","users":10279,"longitude":-60.31494},"type":"Feature","geometry":{"type":"Point","coordinates":[-60.31494,-36.89209]}},{"properties":{"city":"Zárate","latitude":-34.0988,"id":"a6216uocxesp","users":10302,"longitude":-59.03229},"type":"Feature","geometry":{"type":"Point","coordinates":[-59.03229,-34.0988]}},{"properties":{"city":"San Rafael","latitude":-34.6,"id":"a6216usj9w17","users":10663,"longitude":-68.33333},"type":"Feature","geometry":{"type":"Point","coordinates":[-68.33333,-34.6]}},{"properties":{"city":"San Nicolás de los Arroyos","latitude":-33.33346,"id":"a6216uqdfb2l","users":10989,"longitude":-60.21102},"type":"Feature","geometry":{"type":"Point","coordinates":[-60.21102,-33.33346]}},{"properties":{"city":"Pergamino","latitude":-33.8925,"id":"a6216unl1xl3","users":11081,"longitude":-60.5725},"type":"Feature","geometry":{"type":"Point","coordinates":[-60.5725,-33.8925]}},{"properties":{"city":"Cipolletti","latitude":-38.9333,"id":"a6216uo1o3cy","users":11896,"longitude":-67.9833},"type":"Feature","geometry":{"type":"Point","coordinates":[-67.9833,-38.9333]}},{"properties":{"city":"Concepción del Uruguay","latitude":-32.48382,"id":"a6216v1eia9i","users":12159,"longitude":-58.23302},"type":"Feature","geometry":{"type":"Point","coordinates":[-58.23302,-32.48382]}},{"properties":{"city":"General Roca","latitude":-39.02675,"id":"a6216us4iu6x","users":12247,"longitude":-67.57517},"type":"Feature","geometry":{"type":"Point","coordinates":[-67.57517,-39.02675]}},{"properties":{"city":"Puerto Madryn","latitude":-42.75439,"id":"a6216utgl0mj","users":12361,"longitude":-65.0493},"type":"Feature","geometry":{"type":"Point","coordinates":[-65.0493,-42.75439]}},{"properties":{"city":"Villa Mercedes","latitude":-33.6667,"id":"a6216v0w2xjh","users":13113,"longitude":-65.4667},"type":"Feature","geometry":{"type":"Point","coordinates":[-65.4667,-33.6667]}},{"properties":{"city":"Tandil","latitude":-37.31666,"id":"a6216uqbuxlq","users":14229,"longitude":-59.15},"type":"Feature","geometry":{"type":"Point","coordinates":[-59.15,-37.31666]}},{"properties":{"city":"Santa Rosa","latitude":-26.5,"id":"a6216utg8t5g","users":14320,"longitude":-63.65},"type":"Feature","geometry":{"type":"Point","coordinates":[-63.65,-26.5]}},{"properties":{"city":"Gualeguaychú","latitude":-33.0103,"id":"a6216v1jwh4d","users":14379,"longitude":-58.5142},"type":"Feature","geometry":{"type":"Point","coordinates":[-58.5142,-33.0103]}},{"properties":{"city":"Ushuaia","latitude":-54.79167,"id":"a6216upurc2b","users":14706,"longitude":-68.22924},"type":"Feature","geometry":{"type":"Point","coordinates":[-68.22924,-54.79167]}},{"properties":{"city":"Río Cuarto","latitude":-33.1333,"id":"a6216v41gc5e","users":15142,"longitude":-64.35},"type":"Feature","geometry":{"type":"Point","coordinates":[-64.35,-33.1333]}},{"properties":{"city":"Río Grande","latitude":-53.7833,"id":"a6216uwknszg","users":15251,"longitude":-67.7},"type":"Feature","geometry":{"type":"Point","coordinates":[-67.7,-53.7833]}},{"properties":{"city":"Lanús","latitude":-34.70746,"id":"a6216uwe6v7k","users":16115,"longitude":-58.3831},"type":"Feature","geometry":{"type":"Point","coordinates":[-58.3831,-34.70746]}},{"properties":{"city":"San Carlos de Bariloche","latitude":-41.14928,"id":"a6216uv0ge4s","users":17116,"longitude":-71.30127},"type":"Feature","geometry":{"type":"Point","coordinates":[-71.30127,-41.14928]}},{"properties":{"city":"Trelew","latitude":-43.24913,"id":"a6216uut3rd4","users":17784,"longitude":-65.3074},"type":"Feature","geometry":{"type":"Point","coordinates":[-65.3074,-43.24913]}},{"properties":{"city":"Concordia","latitude":-31.4,"id":"a6216uph3rk4","users":18900,"longitude":-58.03333},"type":"Feature","geometry":{"type":"Point","coordinates":[-58.03333,-31.4]}},{"properties":{"city":"Quilmes","latitude":-34.72602,"id":"a6216ur1lw7i","users":20591,"longitude":-58.25435},"type":"Feature","geometry":{"type":"Point","coordinates":[-58.25435,-34.72602]}},{"properties":{"city":"Río Gallegos","latitude":-51.63299,"id":"a6216uxjbqzm","users":21612,"longitude":-69.2276},"type":"Feature","geometry":{"type":"Point","coordinates":[-69.2276,-51.63299]}},{"properties":{"city":"Catamarca","latitude":-28.4667,"id":"a6216uw2fek3","users":21767,"longitude":-65.7833},"type":"Feature","geometry":{"type":"Point","coordinates":[-65.7833,-28.4667]}},{"properties":{"city":"La Rioja","latitude":-29.43333,"id":"a6216v30p4cv","users":23175,"longitude":-66.85},"type":"Feature","geometry":{"type":"Point","coordinates":[-66.85,-29.43333]}},{"properties":{"city":"Formosa","latitude":-26.1852,"id":"a6216utxraum","users":28873,"longitude":-58.17537},"type":"Feature","geometry":{"type":"Point","coordinates":[-58.17537,-26.1852]}},{"properties":{"city":"Comodoro Rivadavia","latitude":-45.86666,"id":"a6216uyfuq4g","users":29197,"longitude":-67.5},"type":"Feature","geometry":{"type":"Point","coordinates":[-67.5,-45.86666]}},{"properties":{"city":"Santiago del Estero","latitude":-27.78333,"id":"a6216uxkch0k","users":33313,"longitude":-64.26666},"type":"Feature","geometry":{"type":"Point","coordinates":[-64.26666,-27.78333]}},{"properties":{"city":"San Salvador de Jujuy","latitude":-24.18578,"id":"a6216unqc0zb","users":38792,"longitude":-65.29947},"type":"Feature","geometry":{"type":"Point","coordinates":[-65.29947,-24.18578]}},{"properties":{"city":"Argentina","latitude":-29.55,"id":"a6216utfzx50","users":40518,"longitude":-62.2833},"type":"Feature","geometry":{"type":"Point","coordinates":[-62.2833,-29.55]}},{"properties":{"city":"Paraná","latitude":-31.7333,"id":"a6216v3hr4ru","users":41558,"longitude":-60.5333},"type":"Feature","geometry":{"type":"Point","coordinates":[-60.5333,-31.7333]}},{"properties":{"city":"San Luis","latitude":-33.3,"id":"a6216v3ls43x","users":42020,"longitude":-66.35},"type":"Feature","geometry":{"type":"Point","coordinates":[-66.35,-33.3]}},{"properties":{"city":"San Juan","latitude":-31.5375,"id":"a6216upkw8i0","users":42163,"longitude":-68.53638},"type":"Feature","geometry":{"type":"Point","coordinates":[-68.53638,-31.5375]}},{"properties":{"city":"Bahía Blanca","latitude":-38.71167,"id":"a6216uslmryc","users":43625,"longitude":-62.26807},"type":"Feature","geometry":{"type":"Point","coordinates":[-62.26807,-38.71167]}},{"properties":{"city":"Posadas","latitude":-27.36213,"id":"a6216upank97","users":45022,"longitude":-55.90087},"type":"Feature","geometry":{"type":"Point","coordinates":[-55.90087,-27.36213]}},{"properties":{"city":"Resistencia","latitude":-27.45165,"id":"a6216uumxete","users":45054,"longitude":-58.98625},"type":"Feature","geometry":{"type":"Point","coordinates":[-58.98625,-27.45165]}},{"properties":{"city":"Corrientes","latitude":-27.47122,"id":"a6216v2r4dak","users":61855,"longitude":-58.83958},"type":"Feature","geometry":{"type":"Point","coordinates":[-58.83958,-27.47122]}},{"properties":{"city":"Neuquén","latitude":-38.95,"id":"a6216unvz9j9","users":63090,"longitude":-68.0667},"type":"Feature","geometry":{"type":"Point","coordinates":[-68.0667,-38.95]}},{"properties":{"city":"Mar del Plata","latitude":-37.97985,"id":"a6216ux9ya76","users":77929,"longitude":-57.58979},"type":"Feature","geometry":{"type":"Point","coordinates":[-57.58979,-37.97985]}},{"properties":{"city":"Salta","latitude":-24.78333,"id":"a6216uu3x2jw","users":81880,"longitude":-65.41666},"type":"Feature","geometry":{"type":"Point","coordinates":[-65.41666,-24.78333]}},{"properties":{"city":"Tucumán","latitude":-26.8167,"id":"a6216v3patyz","users":91076,"longitude":-65.2167},"type":"Feature","geometry":{"type":"Point","coordinates":[-65.2167,-26.8167]}},{"properties":{"city":"La Plata","latitude":-34.9173,"id":"a6216up22p1t","users":91138,"longitude":-57.95013},"type":"Feature","geometry":{"type":"Point","coordinates":[-57.95013,-34.9173]}},{"properties":{"city":"Mendoza","latitude":-32.89018,"id":"a6216uqdy7hh","users":137196,"longitude":-68.84405},"type":"Feature","geometry":{"type":"Point","coordinates":[-68.84405,-32.89018]}},{"properties":{"city":"Santa Fe","latitude":-31.63238,"id":"a6216us46994","users":145848,"longitude":-60.69945},"type":"Feature","geometry":{"type":"Point","coordinates":[-60.69945,-31.63238]}},{"properties":{"city":"Rosario","latitude":-32.95074,"id":"a6216uvuuazz","users":208324,"longitude":-60.6665},"type":"Feature","geometry":{"type":"Point","coordinates":[-60.6665,-32.95074]}},{"properties":{"city":"Córdoba","latitude":-31.39893,"id":"a6216uojk5q9","users":390436,"longitude":-64.18212},"type":"Feature","geometry":{"type":"Point","coordinates":[-64.18212,-31.39893]}},{"properties":{"city":"Buenos Aires","latitude":-34.60841,"id":"a6216v291h7d","users":1789237,"longitude":-58.37316},"type":"Feature","geometry":{"type":"Point","coordinates":[-58.37316,-34.60841]}}],"is_temporal":false,"author":{"url":"","metadata":"","contact_name":"","contact_address":"","source":"","contact_phone":""},"source":"","pagination":{"sort":null,"start":0,"total":293,"limit":1000000},"state":"complete","tags":"fraudes","published":"2014-08-16T21:30:18-04:00","id":306690}