{"type":"FeatureCollection","data_type":"Dataset","url_type":null,"permissions":[{"permissions":{"download":true,"view":true},"group_id":"everyone"}],"classification":null,"title":"CALI_CITIES","count":12,"stream_id":306939,"contributor":{"url":"http://geocommons.com/users/58114","name":"ALLYM"},"data_attributes":null,"calculation_params":null,"icon_link":null,"link":"http://geocommons.com/overlays/306939.json","extent":[0.0,0.0,0.0,0.0],"geometry_types":null,"unique_name":null,"name":"CALI_CITIES","feature_count":12,"description":"","next_feature":null,"is_raster":false,"short_classification":"Y","features":[{"properties":{"clicks":"676","orders":"21","id":"aavxmgf007ry","state":"Los Angeles, CA"},"type":"Feature","geometry":null},{"properties":{"clicks":"271","orders":"10","id":"aavxmghadx29","state":"San Francisco, CA"},"type":"Feature","geometry":null},{"properties":{"clicks":"77","orders":"3","id":"aavxmg9ajcpq","state":"San Diego, CA"},"type":"Feature","geometry":null},{"properties":{"clicks":"87","orders":"2","id":"aavxmgb9phgp","state":"Sacramento, CA"},"type":"Feature","geometry":null},{"properties":{"clicks":"19","orders":"1","id":"aavxmg92sbpz","state":"Santa Barbara, CA"},"type":"Feature","geometry":null},{"properties":{"clicks":"13","orders":"1","id":"aavxmgh3i4ee","state":"Monterey, CA"},"type":"Feature","geometry":null},{"properties":{"clicks":"0","orders":"0","id":"aavxmgakgp1a","state":"El Centro, CA"},"type":"Feature","geometry":null},{"properties":{"clicks":"16","orders":"0","id":"aavxmg57grq0","state":"Chico, CA"},"type":"Feature","geometry":null},{"properties":{"clicks":"16","orders":"0","id":"aavxmg7gskjl","state":"Fresno, CA"},"type":"Feature","geometry":null},{"properties":{"clicks":"7","orders":"0","id":"aavxmg2ef545","state":"Bakersfield, CA"},"type":"Feature","geometry":null},{"properties":{"clicks":"2","orders":"0","id":"aavxmg9pmwp1","state":"Eureka, CA"},"type":"Feature","geometry":null},{"properties":{"clicks":"4","orders":"0","id":"aavxmgg989ba","state":"Palm Springs, CA"},"type":"Feature","geometry":null}],"is_temporal":false,"author":{"url":"","metadata":null,"contact_name":null,"contact_address":null,"source":null,"contact_phone":null},"source":"","pagination":{"sort":null,"start":0,"total":12,"limit":1000000},"state":"parsed","tags":"","published":"2014-08-16T21:58:50-04:00","id":306939}