{"type":"FeatureCollection","data_type":"Dataset","url_type":null,"permissions":[{"permissions":{"download":true,"edit":true,"view":true},"group_id":"everyone"}],"classification":null,"title":"WIND_only_Reports_Dec_25-6_1230_EST","count":75,"stream_id":307769,"contributor":{"url":"http://geocommons.com/users/38156","name":"althause"},"data_attributes":null,"calculation_params":null,"icon_link":null,"link":"http://geocommons.com/overlays/307769.json","extent":[-95.91,29.77,-85.44,33.69],"geometry_types":["point"],"unique_name":null,"name":"WIND_only_Reports_Dec_25-6_1230_EST","feature_count":75,"description":"","next_feature":null,"is_raster":false,"short_classification":"Y","stats":{"lon":{"max":-85.44,"mean":-90.2418666666667,"variance":7.98013430630631,"stdev":2.82491315022361,"min":-95.91,"median":-90.18},"time":{"max":2357,"mean":1553.89333333333,"variance":592236.556036036,"stdev":769.569071647267,"min":0,"median":1853},"column_9":{"max":2,"min":2,"median":2},"lat":{"max":33.69,"mean":31.6092,"variance":0.786918270270271,"stdev":0.887084139340948,"min":29.77,"median":31.56}},"features":[{"properties":{"lon":-95.91,"time":1500,"comments":"MULTIPLE REPORTS OF TREES DOWN. ROOFS LOST ON METAL AND WOOD BUILDINGS AT HWY 21. (HGX)","county":"MADISON","column_9":null,"speed":"UNK","column_1":"WIND","id":"ab193f86rp3l","lat":30.95,"location":"MADISONVILLE","state":"TX"},"type":"Feature","geometry":{"type":"Point","coordinates":[-95.91,30.95]}},{"properties":{"lon":-95.45,"time":1530,"comments":"LOVELADY FIRECHIEF REPORT WIND GUST OF 80 MPH (HGX)","county":"HOUSTON","column_9":null,"speed":"80","column_1":"WIND","id":"ab193f11cjjd","lat":31.13,"location":"LOVELADY","state":"TX"},"type":"Feature","geometry":{"type":"Point","coordinates":[-95.45,31.13]}},{"properties":{"lon":-94.73,"time":1612,"comments":"TREES DOWN ON OAKWOOD ROAD IN LUFKIN (SHV)","county":"ANGELINA","column_9":null,"speed":"UNK","column_1":"WIND","id":"ab193fcnld4a","lat":31.33,"location":"LUFKIN","state":"TX"},"type":"Feature","geometry":{"type":"Point","coordinates":[-94.73,31.33]}},{"properties":{"lon":-94.35,"time":1630,"comments":"TREE DOWN ON FM 95 (SHV)","county":"NACOGDOCHES","column_9":null,"speed":"UNK","column_1":"WIND","id":"ab193fblb8yb","lat":31.5,"location":"CHIRENO","state":"TX"},"type":"Feature","geometry":{"type":"Point","coordinates":[-94.35,31.5]}},{"properties":{"lon":-94.18,"time":1636,"comments":"TREES DOWN ON HWY 7 AND HWY 96 (SHV)","county":"SHELBY","column_9":null,"speed":"UNK","column_1":"WIND","id":"ab193fdkgoho","lat":31.79,"location":"CENTER","state":"TX"},"type":"Feature","geometry":{"type":"Point","coordinates":[-94.18,31.79]}},{"properties":{"lon":-94.98,"time":1647,"comments":"LARGE PINE TREE DOWN 8 MI SE OF CLEVELAND (HGX)","county":"LIBERTY","column_9":null,"speed":"UNK","column_1":"WIND","id":"ab193f1zlg32","lat":30.26,"location":"8 SE CLEVELAND","state":"TX"},"type":"Feature","geometry":{"type":"Point","coordinates":[-94.98,30.26]}},{"properties":{"lon":-94.11,"time":1648,"comments":"TREES AND POWERLINES DOWN ON BLAND LAKE RD (SHV)","county":"SAN AUGUSTINE","column_9":null,"speed":"UNK","column_1":"WIND","id":"ab193f4d4l1b","lat":31.53,"location":"SAN AUGUSTINE","state":"TX"},"type":"Feature","geometry":{"type":"Point","coordinates":[-94.11,31.53]}},{"properties":{"lon":-93.85,"time":1727,"comments":"TREE DOWN ACROSS FM 2343 NEAR YELLOWPINE (SHV)","county":"SABINE","column_9":null,"speed":"UNK","column_1":"WIND","id":"ab193f5jhrwo","lat":31.24,"location":"7 S HEMPHILL","state":"TX"},"type":"Feature","geometry":{"type":"Point","coordinates":[-93.85,31.24]}},{"properties":{"lon":-93.34,"time":1735,"comments":"TREE DOWN ON HWY 71 JUST SOUTH OF CROSSROADS (SHV)","county":"RED RIVER","column_9":null,"speed":"UNK","column_1":"WIND","id":"ab193f1l58iv","lat":32.02,"location":"COUSHATTA","state":"LA"},"type":"Feature","geometry":{"type":"Point","coordinates":[-93.34,32.02]}},{"properties":{"lon":-93.79,"time":1743,"comments":"TREES DOWNED ON POWERLINES NEAR SIX MILE (SHV)","county":"SABINE","column_9":null,"speed":"UNK","column_1":"WIND","id":"ab193ffrq1e9","lat":31.21,"location":"10 SSE HEMPHILL","state":"TX"},"type":"Feature","geometry":{"type":"Point","coordinates":[-93.79,31.21]}},{"properties":{"lon":-93.44,"time":1756,"comments":"DEQUINCY POLICE REPORT A TREE BLOWN OVER ONTO POWERLINES ALONG HWY 389 AND 204 RESULTING IN POWER OUTAGES ACROSS THE DEQUINCY AREA. (LCH)","county":"CALCASIEU","column_9":null,"speed":"UNK","column_1":"WIND","id":"ab193ffmzukz","lat":30.45,"location":"DE QUINCY","state":"LA"},"type":"Feature","geometry":{"type":"Point","coordinates":[-93.44,30.45]}},{"properties":{"lon":-92.85,"time":1812,"comments":"TREE DOWN ON HWY 501 NEAR MILL COMMUNITY (SHV)","county":"WINN","column_9":null,"speed":"UNK","column_1":"WIND","id":"ab193f8o9ue8","lat":32.15,"location":"12 WNW DODSON","state":"LA"},"type":"Feature","geometry":{"type":"Point","coordinates":[-92.85,32.15]}},{"properties":{"lon":-92.66,"time":1815,"comments":"TREES AND POWERLINES DOWN ALONG HWY 126 (SHV)","county":"WINN","column_9":null,"speed":"UNK","column_1":"WIND","id":"ab193f3dui08","lat":32.08,"location":"DODSON","state":"LA"},"type":"Feature","geometry":{"type":"Point","coordinates":[-92.66,32.08]}},{"properties":{"lon":-93.53,"time":1816,"comments":"BEAUREGARD PARISH EMERGENCY MANAGER REPORTS TREES AND POWERLINES DOWN IN MERRYVILLE. TIME ESTIMATED BY RADAR. (LCH)","county":"BEAUREGARD","column_9":null,"speed":"UNK","column_1":"WIND","id":"ab193faoexgx","lat":30.75,"location":"MERRYVILLE","state":"LA"},"type":"Feature","geometry":{"type":"Point","coordinates":[-93.53,30.75]}},{"properties":{"lon":-94.0,"time":1828,"comments":"VIDOR POLICE REPORT AN APARTMENT COMPLEX AT 475 S DENVER HAD ITS ROOF BLOWN OFF AND DEBRIS SCATTERED ON THE ROADWAY. PHOTOS POSTED TO KBMTS FACEBOOK INDICATE DAMAGE TO (LCH)","county":"ORANGE","column_9":null,"speed":"UNK","column_1":"WIND","id":"ab193f7vyxw9","lat":30.13,"location":"VIDOR","state":"TX"},"type":"Feature","geometry":{"type":"Point","coordinates":[-94.0,30.13]}},{"properties":{"lon":-92.94,"time":1834,"comments":"STATE POLICE REPORT DAMAGE TO A BARN AND TREES DOWN NEAR PITKIN AS THE RESULT OF A POSSIBLE TORNADO. TIME ESTIMATED BY RADAR. (LCH)","county":"VERNON","column_9":null,"speed":"UNK","column_1":"WIND","id":"ab193f88u90p","lat":30.94,"location":"PITKIN","state":"LA"},"type":"Feature","geometry":{"type":"Point","coordinates":[-92.94,30.94]}},{"properties":{"lon":-92.16,"time":1845,"comments":"TREE DOWN ON EVERGREEN STREET (SHV)","county":"OUACHITA","column_9":null,"speed":"UNK","column_1":"WIND","id":"ab193f1bkzxh","lat":32.48,"location":"BROWNSVILLE-BAWCOMVILLE","state":"LA"},"type":"Feature","geometry":{"type":"Point","coordinates":[-92.16,32.48]}},{"properties":{"lon":-92.42,"time":1850,"comments":"NWS EMPLOYEE REPORTS A 5TH WHEEL FLIPPED OVER AT 118 WOODCREEK LOOP. NUMEROUS PINE TREES AND POWERLINES ARE ALSO REPORTED TO BE DOWN. (LCH)","county":"RAPIDES","column_9":null,"speed":"UNK","column_1":"WIND","id":"ab193fcwlpo9","lat":31.33,"location":"PINEVILLE","state":"LA"},"type":"Feature","geometry":{"type":"Point","coordinates":[-92.42,31.33]}},{"properties":{"lon":-92.08,"time":1851,"comments":"TREE DOWN ACROSS HWY 165 (SHV)","county":"CALDWELL","column_9":null,"speed":"UNK","column_1":"WIND","id":"ab193f5bdtoh","lat":32.1,"location":"COLUMBIA","state":"LA"},"type":"Feature","geometry":{"type":"Point","coordinates":[-92.08,32.1]}},{"properties":{"lon":-92.46,"time":1853,"comments":"ALEXANDRIA ASOS REPORTED A 61 MPH WIND GUST. (LCH)","county":"RAPIDES","column_9":null,"speed":"61","column_1":"WIND","id":"ab193f8ydb8j","lat":31.29,"location":"ALEXANDRIA","state":"LA"},"type":"Feature","geometry":{"type":"Point","coordinates":[-92.46,31.29]}},{"properties":{"lon":-93.66,"time":1914,"comments":"NWS EMPLOYEE ESTIMATES WIND GUST OF 60 MPH. (LCH)","county":"CAMERON","column_9":null,"speed":"60","column_1":"WIND","id":"ab193f2lbxni","lat":29.77,"location":"JOHNSONS BAYOU","state":"LA"},"type":"Feature","geometry":{"type":"Point","coordinates":[-93.66,29.77]}},{"properties":{"lon":-91.87,"time":1920,"comments":"REPORTS OF DAMAGE TO A BUSINESS AND SIGNIFICANT DAMAGE TO TRAILERS AROUND GLADE ROAD AND HIGHWAY 124. POSSIBLE TORNADO. (JAN)","county":"CATAHOULA","column_9":null,"speed":"UNK","column_1":"WIND","id":"ab193fgi6033","lat":31.5,"location":"5 N MAYNA","state":"LA"},"type":"Feature","geometry":{"type":"Point","coordinates":[-91.87,31.5]}},{"properties":{"lon":-90.08,"time":1922,"comments":"MEASURED AT KJAN ASOS. FENCE BLOWN OVER AT NWS OFFICE. (JAN)","county":"RANKIN","column_9":null,"speed":"72","column_1":"WIND","id":"ab193ffnnpwe","lat":32.32,"location":"5 WNW BRANDON","state":"MS"},"type":"Feature","geometry":{"type":"Point","coordinates":[-90.08,32.32]}},{"properties":{"lon":-88.31,"time":1926,"comments":"A FEW TREES AND POWER LINES WERE BLOWN DOWN IN GEIGER ALONG HIGHWAY 17. A FEW MOBILE HOMES HAD THEIR UNDERPINNED REMOVED. WINDS WERE ESTIMATED AT 40 TO 50 MPH. (BMX)","county":"SUMTER","column_9":null,"speed":"UNK","column_1":"WIND","id":"ab193ffuhzht","lat":32.87,"location":"GEIGER","state":"AL"},"type":"Feature","geometry":{"type":"Point","coordinates":[-88.31,32.87]}},{"properties":{"lon":-92.43,"time":1930,"comments":"LOUISIANA GOHSEP REPORTS OF ONE OR TWO POSSIBLE TORNADO TOUCHDOWNS IN THE RIGOLETTE AREA. DAMAGE IS STILL BEING ASSESSED BUT AT THIS TIME APPROXIMATELY 43 STRUCTURES RE (LCH)","county":"RAPIDES","column_9":null,"speed":"UNK","column_1":"WIND","id":"ab193f8r5mn1","lat":31.38,"location":"TIOGA","state":"LA"},"type":"Feature","geometry":{"type":"Point","coordinates":[-92.43,31.38]}},{"properties":{"lon":-92.41,"time":1930,"comments":"RAPIDES PARISH SHERIFF REPORTS 25-30 HOMES DAMAGED WITH NUMEROUS INJURIES. EMERGENCY PERSONNEL ARE HAVING DIFFICULTY REACHING VICTIMS DUE TO THE DAMAGE. (LCH)","county":"RAPIDES","column_9":null,"speed":"UNK","column_1":"WIND","id":"ab193fh7ih2w","lat":31.42,"location":"BALL","state":"LA"},"type":"Feature","geometry":{"type":"Point","coordinates":[-92.41,31.42]}},{"properties":{"lon":-91.89,"time":1930,"comments":"TREES AND POWERLINES DOWN (JAN)","county":"CATAHOULA","column_9":null,"speed":"UNK","column_1":"WIND","id":"ab193fbnz93e","lat":31.57,"location":"5 SW JONESVILLE","state":"LA"},"type":"Feature","geometry":{"type":"Point","coordinates":[-91.89,31.57]}},{"properties":{"lon":-91.24,"time":1948,"comments":"TREES DOWN JUST SOUTH OF HEZ AIRPORT (JAN)","county":"ADAMS","column_9":null,"speed":"UNK","column_1":"WIND","id":"ab193f3k1yxf","lat":31.62,"location":"STANTON","state":"MS"},"type":"Feature","geometry":{"type":"Point","coordinates":[-91.24,31.62]}},{"properties":{"lon":-87.63,"time":1949,"comments":"SEVERAL TREES WERE BLOWN DOWN IN A SMALL AREA ALONG HIGHWAY 69 SOUTH OF MOUNDVILLE. WINDS WERE ESTIMATED 50 TO 55 MPH. (BMX)","county":"HALE","column_9":null,"speed":"UNK","column_1":"WIND","id":"ab193f2lrqm6","lat":32.97,"location":"2 S MOUNDVILLE","state":"AL"},"type":"Feature","geometry":{"type":"Point","coordinates":[-87.63,32.97]}},{"properties":{"lon":-90.6,"time":2017,"comments":"*** 2 INJ *** REPORTS THAT A LARGE TREE FELL AND DESTROYED A HOUSE IN EDWARDS. 2 INJURIES OCCURRED BUT WERE NON LIFE-THREATENING. (JAN)","county":"HINDS","column_9":2,"speed":"UNK","column_1":"WIND","id":"ab193f7gsd5z","lat":32.33,"location":"EDWARDS","state":"MS"},"type":"Feature","geometry":{"type":"Point","coordinates":[-90.6,32.33]}},{"properties":{"lon":-91.07,"time":2032,"comments":"POSSIBLE TORNADO DOWNED A MEDIUM SIZED TREE ON GORDON STREET. (LIX)","county":"WILKINSON","column_9":null,"speed":"UNK","column_1":"WIND","id":"ab193fcy97of","lat":31.09,"location":"CENTREVILLE","state":"MS"},"type":"Feature","geometry":{"type":"Point","coordinates":[-91.07,31.09]}},{"properties":{"lon":-90.4,"time":2040,"comments":"LARGE PORTION OF FENCE BLOWN DOWN BEHIND WALMART AND DAMAGE TO THE ROOF OF A CAR WASH ON HIGHWAY 90. TIME ESTIMATED BY RADAR. (LIX)","county":"ST. CHARLES","column_9":null,"speed":"UNK","column_1":"WIND","id":"ab193f2nzoeb","lat":29.9,"location":"BOUTTE","state":"LA"},"type":"Feature","geometry":{"type":"Point","coordinates":[-90.4,29.9]}},{"properties":{"lon":-92.08,"time":2041,"comments":"LAFAYETTE SKYWARN SPOTTER REPORTS A WIND GUST OF 58 MPH NEAR OPELOUSAS. (LCH)","county":"ST. LANDRY","column_9":null,"speed":"58","column_1":"WIND","id":"ab193f84zxqv","lat":30.52,"location":"OPELOUSAS","state":"LA"},"type":"Feature","geometry":{"type":"Point","coordinates":[-92.08,30.52]}},{"properties":{"lon":-90.12,"time":2042,"comments":"LARGE TREE DOWNED ALONG MADISON AVE NEAR US HIGHWAY 51. (JAN)","county":"MADISON","column_9":null,"speed":"UNK","column_1":"WIND","id":"ab193fgl9tz4","lat":32.46,"location":"1 NW MADISON","state":"MS"},"type":"Feature","geometry":{"type":"Point","coordinates":[-90.12,32.46]}},{"properties":{"lon":-90.36,"time":2043,"comments":"TREE BRANCHES AND POWER LINES DOWN IN LULING. TIME ESTIMATED BY RADAR. (LIX)","county":"ST. CHARLES","column_9":null,"speed":"UNK","column_1":"WIND","id":"ab193f7tai4a","lat":29.93,"location":"3 NE BOUTTE","state":"LA"},"type":"Feature","geometry":{"type":"Point","coordinates":[-90.36,29.93]}},{"properties":{"lon":-91.07,"time":2056,"comments":"POSSIBLE TORNADO DAMAGE WITH TRAILERS DAMAGED AND TREE ON HOUSE ON FORT STREET. (LIX)","county":"WILKINSON","column_9":null,"speed":"UNK","column_1":"WIND","id":"ab193f2ykk3f","lat":31.09,"location":"CENTREVILLE","state":"MS"},"type":"Feature","geometry":{"type":"Point","coordinates":[-91.07,31.09]}},{"properties":{"lon":-92.09,"time":2100,"comments":"LAFAYETTE SHERIFF REPORTS PARTIAL ROOF TORN OFF OF A PORCH NEAR NORTH OF I-10 OFF OF HWY 93. (LCH)","county":"LAFAYETTE","column_9":null,"speed":"UNK","column_1":"WIND","id":"ab193f1nattp","lat":30.24,"location":"SCOTT","state":"LA"},"type":"Feature","geometry":{"type":"Point","coordinates":[-92.09,30.24]}},{"properties":{"lon":-90.4,"time":2115,"comments":"REPORTS OF TREE ACROSS HIGHWAY 51 CLOSE TO DIXON ROAD. (JAN)","county":"COPIAH","column_9":null,"speed":"UNK","column_1":"WIND","id":"ab193fhap64c","lat":31.89,"location":"2 NNW HAZLEHURST","state":"MS"},"type":"Feature","geometry":{"type":"Point","coordinates":[-90.4,31.89]}},{"properties":{"lon":-87.82,"time":2120,"comments":"TREES WERE BLOWN DOWN ALONG MARENGO ROAD 8 BETWEEN SWEETWATER AND DIXONS MILL. SEVERAL ADDITIONAL TREES WERE BLOWN DOWN IN VANGALE COMMUNITY. (BMX)","county":"MARENGO","column_9":null,"speed":"UNK","column_1":"WIND","id":"ab193fd4ikx1","lat":32.06,"location":"2 W DIXONS MILL","state":"AL"},"type":"Feature","geometry":{"type":"Point","coordinates":[-87.82,32.06]}},{"properties":{"lon":-89.67,"time":2120,"comments":"REPORTS OF TREES DOWN ON HIGHWAY 43 NEAR THOMASTOWN. (JAN)","county":"LEAKE","column_9":null,"speed":"UNK","column_1":"WIND","id":"ab193f7ngspk","lat":32.86,"location":"THOMASTOWN","state":"MS"},"type":"Feature","geometry":{"type":"Point","coordinates":[-89.67,32.86]}},{"properties":{"lon":-91.44,"time":2123,"comments":"THUNDERSTORM WIND DAMAGE...BLEW DOWN TREES...POSSIBLE TORNADO. ON SIDNEY ROAD. (LIX)","county":"IBERVILLE","column_9":null,"speed":"UNK","column_1":"WIND","id":"ab193f5wzhtm","lat":30.41,"location":"GROSSE TETE","state":"LA"},"type":"Feature","geometry":{"type":"Point","coordinates":[-91.44,30.41]}},{"properties":{"lon":-89.97,"time":2125,"comments":"REPORTS OF A TREE AND POWERLINE DOWN IN BRAXTON. (JAN)","county":"SIMPSON","column_9":null,"speed":"UNK","column_1":"WIND","id":"ab193f2wwwpu","lat":32.02,"location":"BRAXTON","state":"MS"},"type":"Feature","geometry":{"type":"Point","coordinates":[-89.97,32.02]}},{"properties":{"lon":-91.38,"time":2130,"comments":"POSSIBLE TORNADO DAMAGE...SEVERAL TREES DOWN NEAR HWY 421 IN THE AREA OF AUSTIN RD AND AT WHITESTOWN RD AT DELEE ROAD. CREWS ARE WORKING ON WHITESDOWN RD. TREES DOWN ON (LIX)","county":"WEST FELICIANA","column_9":null,"speed":"UNK","column_1":"WIND","id":"ab193f9ri01a","lat":30.78,"location":"ST. FRANCISVILLE","state":"LA"},"type":"Feature","geometry":{"type":"Point","coordinates":[-91.38,30.78]}},{"properties":{"lon":-90.18,"time":2137,"comments":"TREES DOWNED ALONG JAMES COX RD. POSSIBLE TORNADO. (JAN)","county":"LAWRENCE","column_9":null,"speed":"UNK","column_1":"WIND","id":"ab193ff6mrla","lat":31.55,"location":"4 W MONTICELLO","state":"MS"},"type":"Feature","geometry":{"type":"Point","coordinates":[-90.18,31.55]}},{"properties":{"lon":-90.16,"time":2138,"comments":"TWO MOBILE HOMES DAMAGED ALONG HIGHWAY 184 WEST OF MONTICELLO. POSSIBLE TORNADO. (JAN)","county":"LAWRENCE","column_9":null,"speed":"UNK","column_1":"WIND","id":"ab193f14rap6","lat":31.56,"location":"3 W MONTICELLO","state":"MS"},"type":"Feature","geometry":{"type":"Point","coordinates":[-90.16,31.56]}},{"properties":{"lon":-89.96,"time":2145,"comments":"REPORTS OF A TREE DOWN IN PINOLA. (JAN)","county":"SIMPSON","column_9":null,"speed":"UNK","column_1":"WIND","id":"ab193f1shvxp","lat":31.88,"location":"PINOLA","state":"MS"},"type":"Feature","geometry":{"type":"Point","coordinates":[-89.96,31.88]}},{"properties":{"lon":-89.17,"time":2145,"comments":"TREES DOWN ON HIGHWAY 19...ONE NEAR MARTY STUART DRIVE...ANOTHER NEAR THE BETHSAIDA COMMUNITY. (JAN)","county":"NESHOBA","column_9":null,"speed":"UNK","column_1":"WIND","id":"ab193f4ryweq","lat":32.87,"location":"4 WNW BURNSIDE","state":"MS"},"type":"Feature","geometry":{"type":"Point","coordinates":[-89.17,32.87]}},{"properties":{"lon":-89.18,"time":2147,"comments":"TREES AND POWER LINES DOWNED BLOCKING MS HIGHWAY 395 NEAR THE WINSTON COUNTY LINE (JAN)","county":"NESHOBA","column_9":null,"speed":"UNK","column_1":"WIND","id":"ab193ffgrtrb","lat":32.93,"location":"5 W STALLO","state":"MS"},"type":"Feature","geometry":{"type":"Point","coordinates":[-89.18,32.93]}},{"properties":{"lon":-87.82,"time":2155,"comments":"TREES WERE BLOWN DOWN ALONG MARENGO ROAD 8 BETWEEN SWEETWATER AND DIXONS MILL. (BMX)","county":"MARENGO","column_9":null,"speed":"UNK","column_1":"WIND","id":"ab193ffw30ou","lat":32.06,"location":"2 W DIXONS MILL","state":"AL"},"type":"Feature","geometry":{"type":"Point","coordinates":[-87.82,32.06]}},{"properties":{"lon":-88.99,"time":2155,"comments":"TREE DOWNED ON A POWER LINE ON COUNTY ROAD 747 (JAN)","county":"NESHOBA","column_9":null,"speed":"UNK","column_1":"WIND","id":"ab193f46hp4x","lat":32.79,"location":"3 WNW FORESTDALE","state":"MS"},"type":"Feature","geometry":{"type":"Point","coordinates":[-88.99,32.79]}},{"properties":{"lon":-90.14,"time":2225,"comments":"TREE DOWN ON HIGHWAY 25 NORTH OF CLIFTON. (LIX)","county":"WASHINGTON","column_9":null,"speed":"UNK","column_1":"WIND","id":"ab193f3cm8yt","lat":30.96,"location":"8 N FRANKLINTON","state":"LA"},"type":"Feature","geometry":{"type":"Point","coordinates":[-90.14,30.96]}},{"properties":{"lon":-90.3,"time":2225,"comments":"TREES DOWN ON HIGHWAY 35. (LIX)","county":"WASHINGTON","column_9":null,"speed":"UNK","column_1":"WIND","id":"ab193fgde3wg","lat":30.96,"location":"MOUNT HERMAN","state":"LA"},"type":"Feature","geometry":{"type":"Point","coordinates":[-90.3,30.96]}},{"properties":{"lon":-88.7,"time":2236,"comments":"A TREE WAS BLOWN DOWN ONTO A HOUSE ALONG WESLEY CHAPEL ROAD (JAN)","county":"LAUDERDALE","column_9":null,"speed":"UNK","column_1":"WIND","id":"ab193fcd6ugk","lat":32.26,"location":"4 N SABLE","state":"MS"},"type":"Feature","geometry":{"type":"Point","coordinates":[-88.7,32.26]}},{"properties":{"lon":-86.45,"time":2300,"comments":"A FEW TREES WERE BLOWN DOWN AND A FEW LIGHT POLES WERE KNOCKED OVER IN AND AROUND PRATTVILLE.A VEHICLE HIT A TREE THAT WAS DOWN IN THE ROAD BUT THE OCCUPANTS WERE NOT I (BMX)","county":"AUTAUGA","column_9":null,"speed":"UNK","column_1":"WIND","id":"ab193fa2032n","lat":32.46,"location":"PRATTVILLE","state":"AL"},"type":"Feature","geometry":{"type":"Point","coordinates":[-86.45,32.46]}},{"properties":{"lon":-85.81,"time":2336,"comments":"MULTIPLE TREES DOWN ON CR 4425. ONE HOME DAMAGED ON CR 4427. POSSIBLE DAMAGE TO OTHER HOMES. (BMX)","county":"PIKE","column_9":null,"speed":"UNK","column_1":"WIND","id":"ab193fas8w23","lat":31.64,"location":"HAMILTON CROSSROADS","state":"AL"},"type":"Feature","geometry":{"type":"Point","coordinates":[-85.81,31.64]}},{"properties":{"lon":-87.54,"time":2351,"comments":"TREE DOWN NEAR US HWY 69 AND TIERCE PATTON ROAD (BMX)","county":"TUSCALOOSA","column_9":null,"speed":"UNK","column_1":"WIND","id":"ab193f4sgtgx","lat":33.38,"location":"4 E LAKE TUSCALOOSA BIN","state":"AL"},"type":"Feature","geometry":{"type":"Point","coordinates":[-87.54,33.38]}},{"properties":{"lon":-87.72,"time":2357,"comments":"TREES DOWN AND PROPERTY DAMAGE NEAR GALLION (BMX)","county":"HALE","column_9":null,"speed":"UNK","column_1":"WIND","id":"ab193f722a1t","lat":32.5,"location":"GALLION","state":"AL"},"type":"Feature","geometry":{"type":"Point","coordinates":[-87.72,32.5]}},{"properties":{"lon":-87.72,"time":0,"comments":"EXTENSIVE DAMAGE TO TWO MOBILE HOMES OFF HIGHWAY 80 BETWEEN DEMOPOLIS AND HIGHWAY 69 CROSS OVER. ROOF BLOWN OFF ONE MOBILE HOME. (BMX)","county":"HALE","column_9":null,"speed":"UNK","column_1":"WIND","id":"ab193f5yfifp","lat":32.5,"location":"5 SE ARCOLA","state":"AL"},"type":"Feature","geometry":{"type":"Point","coordinates":[-87.72,32.5]}},{"properties":{"lon":-90.11,"time":15,"comments":"GAS STATION SIGN BLOWN OVER AND MINOR DAMAGE TO A WENDYS DRIVE THROUGH AWNING NEAR BARATARIA AND LAPALCO IN MARRERO. (LIX)","county":"JEFFERSON","column_9":null,"speed":"UNK","column_1":"WIND","id":"ab193fgly5a7","lat":29.89,"location":"MARRERO","state":"LA"},"type":"Feature","geometry":{"type":"Point","coordinates":[-90.11,29.89]}},{"properties":{"lon":-85.98,"time":15,"comments":"REPORT OF TREES DOWN AROUND COUNTY RD 514 NW OF NEW BROCKTON (TAE)","county":"COFFEE","column_9":null,"speed":"UNK","column_1":"WIND","id":"ab193f3ebzsp","lat":31.39,"location":"3 W NEW BROCKTON","state":"AL"},"type":"Feature","geometry":{"type":"Point","coordinates":[-85.98,31.39]}},{"properties":{"lon":-88.42,"time":120,"comments":"TWO HOMES DAMAGED...ONE WITH SIGNIFICANT ROOF DAMAGE. THE OTHER EXPERIENCED MINOR DAMAGE. TREES ALSO DOWN. (MOB)","county":"GEORGE","column_9":null,"speed":"UNK","column_1":"WIND","id":"ab193f7gija9","lat":30.81,"location":"6 E AGRICOLA","state":"MS"},"type":"Feature","geometry":{"type":"Point","coordinates":[-88.42,30.81]}},{"properties":{"lon":-86.68,"time":123,"comments":"A FEW TREES WERE BLOWN DOWN IN AND AROUND PINSON. WINDS WERE ESTIMATED AT 40 TO 50 MPH. (BMX)","county":"JEFFERSON","column_9":null,"speed":"UNK","column_1":"WIND","id":"ab193fdh6s4d","lat":33.69,"location":"PINSON","state":"AL"},"type":"Feature","geometry":{"type":"Point","coordinates":[-86.68,33.69]}},{"properties":{"lon":-88.26,"time":140,"comments":"TREES DOWN (MOB)","county":"MOBILE","column_9":null,"speed":"UNK","column_1":"WIND","id":"ab193f3987rh","lat":30.78,"location":"SEMMES","state":"AL"},"type":"Feature","geometry":{"type":"Point","coordinates":[-88.26,30.78]}},{"properties":{"lon":-86.31,"time":209,"comments":"A FEW TREES WERE BLOWN DOWN IN NORTHERN COOSA COUNTY AROUND WEOGUFKA. (BMX)","county":"COOSA","column_9":null,"speed":"UNK","column_1":"WIND","id":"ab193f225w10","lat":33.02,"location":"WEOGUFKA","state":"AL"},"type":"Feature","geometry":{"type":"Point","coordinates":[-86.31,33.02]}},{"properties":{"lon":-87.49,"time":235,"comments":"18 WHEELER OVERTURNED NEAR ATMORE (MOB)","county":"ESCAMBIA","column_9":null,"speed":"UNK","column_1":"WIND","id":"ab193f5iqq3c","lat":31.02,"location":"ATMORE","state":"AL"},"type":"Feature","geometry":{"type":"Point","coordinates":[-87.49,31.02]}},{"properties":{"lon":-87.52,"time":235,"comments":"DAMAGE NEAR FAST LANE GAS STATION ON JACK SPRINGS ROAD 1/2 MILE SOUTH OF EXIT 54 AND I-65. 18 WHEELERS OVERTURNED. HOUSE BEHIND GAS STATION ON FIRE. (MOB)","county":"ESCAMBIA","column_9":null,"speed":"UNK","column_1":"WIND","id":"ab193fc21eey","lat":31.07,"location":"FREEMANVILLE","state":"AL"},"type":"Feature","geometry":{"type":"Point","coordinates":[-87.52,31.07]}},{"properties":{"lon":-86.58,"time":237,"comments":"MULTIPLE TREES DOWN ON HIGHWAY 97 BETWEEN LOWNDESBORO AND HAYNEVILLE. POSSIBLE TORNADO. (BMX)","county":"LOWNDES","column_9":null,"speed":"UNK","column_1":"WIND","id":"ab193f7wx8w3","lat":32.23,"location":"3 N HAYNEVILLE","state":"AL"},"type":"Feature","geometry":{"type":"Point","coordinates":[-86.58,32.23]}},{"properties":{"lon":-86.54,"time":242,"comments":"FARM DAMAGED ALONG FREDERICK DOUGLAS RD NEAR HIGHWAY 80. POSSIBLE TORNADO. (BMX)","county":"LOWNDES","column_9":null,"speed":"UNK","column_1":"WIND","id":"ab193f4hlgqb","lat":32.27,"location":"4 E LOWNDESBORO","state":"AL"},"type":"Feature","geometry":{"type":"Point","coordinates":[-86.54,32.27]}},{"properties":{"lon":-86.54,"time":245,"comments":"TREES DOWN ALONG LAKE BERRY ROAD. ROAD IMPASSABLE. POSSIBLE TORNADO. (BMX)","county":"LOWNDES","column_9":null,"speed":"UNK","column_1":"WIND","id":"ab193fgxgfb2","lat":32.32,"location":"5 W CANTELOUS","state":"AL"},"type":"Feature","geometry":{"type":"Point","coordinates":[-86.54,32.32]}},{"properties":{"lon":-86.46,"time":246,"comments":"TREES AND POWERLINES BLOWN DOWN ON HIGHWAY 80 WEST OF DANNELLY FIELD. HIGHWAY BLOCKED. (BMX)","county":"MONTGOMERY","column_9":null,"speed":"UNK","column_1":"WIND","id":"ab193f5we3ta","lat":32.28,"location":"3 S CANTELOUS","state":"AL"},"type":"Feature","geometry":{"type":"Point","coordinates":[-86.46,32.28]}},{"properties":{"lon":-86.45,"time":246,"comments":"A FEW TREES WERE BLOWN DOWN IN AND AROUND PRATTVILLE. A VEHICLE RAN INTO A DOWNED TREE ON HIGHWAY 31. (BMX)","county":"AUTAUGA","column_9":null,"speed":"UNK","column_1":"WIND","id":"ab193favc48v","lat":32.46,"location":"PRATTVILLE","state":"AL"},"type":"Feature","geometry":{"type":"Point","coordinates":[-86.45,32.46]}},{"properties":{"lon":-86.09,"time":428,"comments":"MULTIPLE MOBILE HOMES TURNED OVER. POSSIBLE TORNADO. (BMX)","county":"PIKE","column_9":null,"speed":"UNK","column_1":"WIND","id":"ab193f1gg8fv","lat":31.78,"location":"5 NNE GOSHEN","state":"AL"},"type":"Feature","geometry":{"type":"Point","coordinates":[-86.09,31.78]}},{"properties":{"lon":-86.0,"time":438,"comments":"MOBILE HOMES DAMAGED NEAR TROY AIRPORT. POSSIBLE ENTRAPMENT. POSSIBLE TORNADO. (BMX)","county":"PIKE","column_9":null,"speed":"UNK","column_1":"WIND","id":"ab193f96ehzd","lat":31.85,"location":"3 NNW TROY","state":"AL"},"type":"Feature","geometry":{"type":"Point","coordinates":[-86.0,31.85]}},{"properties":{"lon":-86.21,"time":535,"comments":"TREE DOWN AT THE INTERSECTION OF KINGS LAKE RD AND HIGHWAY 90. (TAE)","county":"WALTON","column_9":null,"speed":"UNK","column_1":"WIND","id":"ab193f73dst9","lat":30.74,"location":"5 WNW DE FUNIAK SPRINGS","state":"FL"},"type":"Feature","geometry":{"type":"Point","coordinates":[-86.21,30.74]}},{"properties":{"lon":-85.44,"time":640,"comments":"2 TREES AND A POWERLINE KNOCKED DOWN. (TAE)","county":"HOUSTON","column_9":null,"speed":"UNK","column_1":"WIND","id":"ab193fjox58x","lat":31.13,"location":"REHOBETH","state":"AL"},"type":"Feature","geometry":{"type":"Point","coordinates":[-85.44,31.13]}}],"is_temporal":false,"author":{"url":"","metadata":null,"contact_name":null,"contact_address":null,"source":null,"contact_phone":null},"source":"","pagination":{"sort":null,"start":0,"total":75,"limit":1000000},"state":"complete","tags":"","published":"2014-08-16T23:10:11-04:00","id":307769}