{"type":"FeatureCollection","data_type":"Dataset","url_type":null,"permissions":[{"permissions":{"download":true,"view":true},"group_id":"everyone"},{"permissions":{"download":true,"view":true},"group_id":45646},{"permissions":{"download":true,"view":true},"group_id":56815}],"classification":null,"title":"DR077 5233CAS 122812 - Copy-csv","count":538,"stream_id":308119,"contributor":{"url":"http://geocommons.com/users/37170","name":"lfuentes"},"data_attributes":null,"calculation_params":null,"icon_link":null,"link":"http://geocommons.com/overlays/308119.json","extent":[-88.4111,30.624,-86.2657,31.721],"geometry_types":["point"],"unique_name":null,"name":"DR077 5233CAS 122812 - Copy-csv","feature_count":538,"description":"","next_feature":null,"is_raster":false,"short_classification":"Y","stats":{},"features":[{"properties":{"city":"Wilmer","name":null,"county":"Mobile","unit":null,"geo_score":0.457,"dwelling":"SFD","notes":"Majority of roof missing, windows broken","street":"Albert Evens Rd. S.","da":"Major","id":"ab3srp4dc8cm","address":"510","geo_precision":"street","state":"AL"},"type":"Feature","geometry":{"type":"Point","coordinates":[-88.399105,30.79477]}},{"properties":{"city":"Wilmer","name":null,"county":"Mobile","unit":null,"geo_score":0.457,"dwelling":"SFD","notes":"Shingles missing","street":"Albert Evens Rd. S.","da":"Affected","id":"ab3srp1iwiai","address":"5151","geo_precision":"street","state":"AL"},"type":"Feature","geometry":{"type":"Point","coordinates":[-88.399105,30.79477]}},{"properties":{"city":"Mobile","name":null,"county":"Mobile","unit":null,"geo_score":0.821,"dwelling":"SFD","notes":"No damage","street":"Bienville St","da":"None","id":"ab3srp3b3eq6","address":"3","geo_precision":"street","state":"AL"},"type":"Feature","geometry":{"type":"Point","coordinates":[-88.195003,30.623965]}},{"properties":{"city":"Mobile","name":null,"county":"Mobile","unit":null,"geo_score":0.821,"dwelling":"SFD","notes":"Electricity not on. Debris","street":"Bienville St","da":"Affected","id":"ab3srp8gjbjh","address":"50","geo_precision":"street","state":"AL"},"type":"Feature","geometry":{"type":"Point","coordinates":[-88.195003,30.623965]}},{"properties":{"city":"Prichard","name":null,"county":"Mobile","unit":null,"geo_score":0.857,"dwelling":"SFD","notes":"No house number - no damage; intersection with Semler; next to 3 Borer Ave","street":"Borer Ave.","da":"None","id":"ab3srp75bjkj","address":"3","geo_precision":"street","state":"AL"},"type":"Feature","geometry":{"type":"Point","coordinates":[-88.067661,30.728983]}},{"properties":{"city":"Prichard","name":null,"county":"Mobile","unit":null,"geo_score":0.857,"dwelling":"SFD","notes":"Left soffet blown off","street":"Borer Ave.","da":"Minor","id":"ab3srp06stw1","address":"5","geo_precision":"street","state":"AL"},"type":"Feature","geometry":{"type":"Point","coordinates":[-88.067661,30.728983]}},{"properties":{"city":"Prichard","name":null,"county":"Mobile","unit":null,"geo_score":0.857,"dwelling":"SFD","notes":"No visible damage","street":"Borer Ave.","da":"None","id":"ab3srp0nj6sw","address":"13","geo_precision":"street","state":"AL"},"type":"Feature","geometry":{"type":"Point","coordinates":[-88.067661,30.728983]}},{"properties":{"city":"Prichard","name":"Flora Prince - 251-402-4354","county":"Mobile","unit":null,"geo_score":0.857,"dwelling":"SFD","notes":"Major hole in front roof; ceiling caved in","street":"Borer Ave.","da":"Major","id":"ab3srotntps3","address":"1900","geo_precision":"street","state":"AL"},"type":"Feature","geometry":{"type":"Point","coordinates":[-88.067661,30.728983]}},{"properties":{"city":"Prichard","name":null,"county":"Mobile","unit":null,"geo_score":0.857,"dwelling":"SFD","notes":"Roof off front of house; Old damage? House abandoned.","street":"Borer Ave.","da":"Major","id":"ab3srp1wh8i0","address":"1903","geo_precision":"street","state":"AL"},"type":"Feature","geometry":{"type":"Point","coordinates":[-88.067661,30.728983]}},{"properties":{"city":"Prichard","name":null,"county":"Mobile","unit":null,"geo_score":0.857,"dwelling":"SFD","notes":"House abandoned","street":"Borer Ave.","da":"Affected","id":"ab3srox63a1i","address":"1905","geo_precision":"street","state":"AL"},"type":"Feature","geometry":{"type":"Point","coordinates":[-88.067661,30.728983]}},{"properties":{"city":"Prichard","name":"Shanta Earrer 251-367-3959","county":"Mobile","unit":null,"geo_score":0.857,"dwelling":"SFD","notes":null,"street":"Borer Ave.","da":"Minor","id":"ab3sroucbxbm","address":"1906","geo_precision":"street","state":"AL"},"type":"Feature","geometry":{"type":"Point","coordinates":[-88.067661,30.728983]}},{"properties":{"city":"Prichard","name":"Angie Smith 251-623-0855","county":"Mobile","unit":null,"geo_score":0.857,"dwelling":"SFD","notes":"Front and two windows on left side blown out","street":"Borer Ave.","da":"Minor","id":"ab3srp6qt95u","address":"1907","geo_precision":"street","state":"AL"},"type":"Feature","geometry":{"type":"Point","coordinates":[-88.067661,30.728983]}},{"properties":{"city":"Prichard","name":null,"county":"Mobile","unit":null,"geo_score":0.857,"dwelling":"SFD","notes":"Vacant; Windows broken on left side.","street":"Borer Ave.","da":"Minor","id":"ab3srp1dileo","address":"1911","geo_precision":"street","state":"AL"},"type":"Feature","geometry":{"type":"Point","coordinates":[-88.067661,30.728983]}},{"properties":{"city":"Prichard","name":null,"county":"Mobile","unit":null,"geo_score":0.857,"dwelling":"SFD","notes":"No house number - no damage; intersection with Semler/next to 5 Borer Ave","street":"Borer Ave.","da":"None","id":"ab3sroydb6vi","address":"?","geo_precision":"street","state":"AL"},"type":"Feature","geometry":{"type":"Point","coordinates":[-88.067661,30.728983]}},{"properties":{"city":"Prichard","name":null,"county":"Mobile","unit":null,"geo_score":0.857,"dwelling":"SFD","notes":"Loose shutters","street":"Borer Ave.","da":"Affected","id":"ab3sroxi4ivb","address":"?","geo_precision":"street","state":"AL"},"type":"Feature","geometry":{"type":"Point","coordinates":[-88.067661,30.728983]}},{"properties":{"city":"Prichard","name":null,"county":"Mobile","unit":null,"geo_score":0.857,"dwelling":"SFD","notes":"Vacant; No apparent storm damage; next to 13 Borer Ave","street":"Borer Ave.","da":"None","id":"ab3srp2dlrrf","address":"?","geo_precision":"street","state":"AL"},"type":"Feature","geometry":{"type":"Point","coordinates":[-88.067661,30.728983]}},{"properties":{"city":"Wilmer","name":null,"county":"Mobile","unit":null,"geo_score":0.857,"dwelling":"SFD","notes":"Shingles missing and debris around home","street":"Butler Rd.","da":"Affected","id":"ab3srowkf6j1","address":"1530","geo_precision":"street","state":"AL"},"type":"Feature","geometry":{"type":"Point","coordinates":[-88.399101,30.797151]}},{"properties":{"city":"Wilmer","name":null,"county":"Mobile","unit":null,"geo_score":0.857,"dwelling":"SFD","notes":"Debris","street":"Butler Rd.","da":"Affected","id":"ab3srox6g2w9","address":"15055","geo_precision":"street","state":"AL"},"type":"Feature","geometry":{"type":"Point","coordinates":[-88.399101,30.797151]}},{"properties":{"city":"Wilmer","name":null,"county":"Mobile","unit":null,"geo_score":0.857,"dwelling":"SFD","notes":"Debris and shingles missing","street":"Butler Rd.","da":"Affected","id":"ab3srp0egg8r","address":"15075","geo_precision":"street","state":"AL"},"type":"Feature","geometry":{"type":"Point","coordinates":[-88.399101,30.797151]}},{"properties":{"city":"Wilmer","name":null,"county":"Mobile","unit":null,"geo_score":0.857,"dwelling":"SFD","notes":"Shingles missing and debris","street":"Butler Rd.","da":"Affected","id":"ab3srp4x26hw","address":"15150","geo_precision":"street","state":"AL"},"type":"Feature","geometry":{"type":"Point","coordinates":[-88.399101,30.797151]}},{"properties":{"city":"Wilmer","name":null,"county":"Mobile","unit":null,"geo_score":0.857,"dwelling":"MH","notes":"Mobile home on left","street":"Butler Rd.","da":"Affected","id":"ab3srp358qzu","address":"?","geo_precision":"street","state":"AL"},"type":"Feature","geometry":{"type":"Point","coordinates":[-88.399101,30.797151]}},{"properties":{"city":"Mobile","name":null,"county":"Mobile","unit":null,"geo_score":0.0,"dwelling":"Apt","notes":null,"street":"Camelia Ct","da":"Affected","id":"ab3srp1atm6o","address":"1","geo_precision":"unmatched","state":"Al"},"type":"Feature","geometry":null},{"properties":{"city":"Mobile","name":null,"county":"Mobile","unit":null,"geo_score":0.0,"dwelling":"Apt","notes":null,"street":"Camelia Ct","da":"Affected","id":"ab3sroul1czk","address":"2","geo_precision":"unmatched","state":"Al"},"type":"Feature","geometry":null},{"properties":{"city":"Mobile","name":null,"county":"Mobile","unit":null,"geo_score":0.0,"dwelling":"Apt","notes":null,"street":"Camelia Ct","da":"Affected","id":"ab3srp81m4vv","address":"6","geo_precision":"unmatched","state":"Al"},"type":"Feature","geometry":null},{"properties":{"city":"Mobile","name":null,"county":"Mobile","unit":null,"geo_score":0.0,"dwelling":"Apt","notes":null,"street":"Camelia Ct","da":"Affected","id":"ab3srp31dve7","address":"33","geo_precision":"unmatched","state":"Al"},"type":"Feature","geometry":null},{"properties":{"city":"Mobile","name":null,"county":"Mobile","unit":null,"geo_score":0.857,"dwelling":"SFD","notes":"Roof has debris and a few shingles missing - electricity is on","street":"Cedar Dr.","da":"Affected","id":"ab3srp1afw54","address":"250","geo_precision":"street","state":"AL"},"type":"Feature","geometry":{"type":"Point","coordinates":[-88.077169,30.706522]}},{"properties":{"city":"Mobile","name":"Ms. Lowe","county":"Mobile","unit":null,"geo_score":0.857,"dwelling":"SFD","notes":"Has tarp, needs food - limb thru roof","street":"Cedar Dr.","da":"Minor","id":"ab3sroxtwfa3","address":"300","geo_precision":"street","state":"AL"},"type":"Feature","geometry":{"type":"Point","coordinates":[-88.077169,30.706522]}},{"properties":{"city":"Mobile","name":null,"county":"Mobile","unit":null,"geo_score":0.857,"dwelling":"SFD","notes":null,"street":"Cherokee St.","da":"Affected","id":"ab3sroudxwk7","address":"514","geo_precision":"street","state":"AL"},"type":"Feature","geometry":{"type":"Point","coordinates":[-88.085262,30.676453]}},{"properties":{"city":"Mobile","name":null,"county":"Mobile","unit":null,"geo_score":0.857,"dwelling":"SFD","notes":null,"street":"Cherokee St.","da":"Affected","id":"ab3srou5oewb","address":"602","geo_precision":"street","state":"AL"},"type":"Feature","geometry":{"type":"Point","coordinates":[-88.085262,30.676453]}},{"properties":{"city":"Mobile","name":null,"county":"Mobile","unit":null,"geo_score":0.857,"dwelling":"SFD","notes":null,"street":"Cherokee St.","da":"Minor","id":"ab3srostk19c","address":"604","geo_precision":"street","state":"AL"},"type":"Feature","geometry":{"type":"Point","coordinates":[-88.085262,30.676453]}},{"properties":{"city":"Mobile","name":null,"county":"Mobile","unit":null,"geo_score":0.857,"dwelling":"SFD","notes":null,"street":"Cherokee St.","da":"Minor","id":"ab3srosgvh42","address":"606","geo_precision":"street","state":"AL"},"type":"Feature","geometry":{"type":"Point","coordinates":[-88.085262,30.676453]}},{"properties":{"city":"Mobile","name":null,"county":"Mobile","unit":null,"geo_score":0.857,"dwelling":"SFD","notes":null,"street":"Cherokee St.","da":"Minor","id":"ab3srou69zxi","address":"614","geo_precision":"street","state":"AL"},"type":"Feature","geometry":{"type":"Point","coordinates":[-88.085262,30.676453]}},{"properties":{"city":"Mobile","name":null,"county":"Mobile","unit":null,"geo_score":0.857,"dwelling":"SFD","notes":null,"street":"Cherokee St.","da":"Affected","id":"ab3srp0j4kwl","address":"650","geo_precision":"street","state":"AL"},"type":"Feature","geometry":{"type":"Point","coordinates":[-88.085262,30.676453]}},{"properties":{"city":"Mobile","name":null,"county":"Mobile","unit":null,"geo_score":0.857,"dwelling":"SFD","notes":null,"street":"Cherokee St.","da":"Affected","id":"ab3sroz6uthq","address":"652","geo_precision":"street","state":"AL"},"type":"Feature","geometry":{"type":"Point","coordinates":[-88.085262,30.676453]}},{"properties":{"city":"Mobile","name":null,"county":"Mobile","unit":null,"geo_score":0.857,"dwelling":"SFD","notes":null,"street":"Cherokee St.","da":"Affected","id":"ab3srp79v9rh","address":"654","geo_precision":"street","state":"AL"},"type":"Feature","geometry":{"type":"Point","coordinates":[-88.085262,30.676453]}},{"properties":{"city":"Mobile","name":null,"county":"Mobile","unit":null,"geo_score":0.857,"dwelling":"SFD","notes":null,"street":"Cherokee St.","da":"Affected","id":"ab3srp75eqyc","address":"656","geo_precision":"street","state":"AL"},"type":"Feature","geometry":{"type":"Point","coordinates":[-88.085262,30.676453]}},{"properties":{"city":"Mobile","name":null,"county":"Mobile","unit":null,"geo_score":0.857,"dwelling":"SFD","notes":null,"street":"Cherokee St.","da":"Affected","id":"ab3srp5ihl1f","address":"657","geo_precision":"street","state":"AL"},"type":"Feature","geometry":{"type":"Point","coordinates":[-88.085262,30.676453]}},{"properties":{"city":"Mobile","name":null,"county":"Mobile","unit":null,"geo_score":0.857,"dwelling":"SFD","notes":null,"street":"Cherokee St.","da":"Minor","id":"ab3sroyfqlxy","address":"658","geo_precision":"street","state":"AL"},"type":"Feature","geometry":{"type":"Point","coordinates":[-88.085262,30.676453]}},{"properties":{"city":"Mobile","name":null,"county":"Mobile","unit":null,"geo_score":0.857,"dwelling":"SFD","notes":null,"street":"Cherokee St.","da":"Affected","id":"ab3srp0tifdy","address":"659","geo_precision":"street","state":"AL"},"type":"Feature","geometry":{"type":"Point","coordinates":[-88.085262,30.676453]}},{"properties":{"city":"Mobile","name":null,"county":"Mobile","unit":null,"geo_score":0.857,"dwelling":"SFD","notes":null,"street":"Cherokee St.","da":"Affected","id":"ab3srp2ntxtm","address":"660","geo_precision":"street","state":"AL"},"type":"Feature","geometry":{"type":"Point","coordinates":[-88.085262,30.676453]}},{"properties":{"city":"Mobile","name":null,"county":"Mobile","unit":null,"geo_score":0.857,"dwelling":"SFD","notes":null,"street":"Cherokee St.","da":"Affected","id":"ab3srp2y3akw","address":"662","geo_precision":"street","state":"AL"},"type":"Feature","geometry":{"type":"Point","coordinates":[-88.085262,30.676453]}},{"properties":{"city":"Mobile","name":null,"county":"Mobile","unit":null,"geo_score":0.857,"dwelling":"SFD","notes":null,"street":"Cherokee St.","da":"Affected","id":"ab3srp4wbdgc","address":"664","geo_precision":"street","state":"AL"},"type":"Feature","geometry":{"type":"Point","coordinates":[-88.085262,30.676453]}},{"properties":{"city":"Mobile","name":null,"county":"Mobile","unit":null,"geo_score":0.857,"dwelling":"SFD","notes":null,"street":"Cherokee St.","da":"Affected","id":"ab3srozajlnq","address":"666","geo_precision":"street","state":"AL"},"type":"Feature","geometry":{"type":"Point","coordinates":[-88.085262,30.676453]}},{"properties":{"city":"Mobile","name":null,"county":"Mobile","unit":null,"geo_score":0.857,"dwelling":"SFD","notes":"Vacant","street":"Cherokee St.","da":"Major","id":"ab3srp28u3sf","address":"669","geo_precision":"street","state":"AL"},"type":"Feature","geometry":{"type":"Point","coordinates":[-88.085262,30.676453]}},{"properties":{"city":"Mobile","name":null,"county":"Mobile","unit":null,"geo_score":0.857,"dwelling":"SFD","notes":null,"street":"Cherokee St.","da":"Affected","id":"ab3sroz83ymt","address":"671","geo_precision":"street","state":"AL"},"type":"Feature","geometry":{"type":"Point","coordinates":[-88.085262,30.676453]}},{"properties":{"city":"Mobile","name":null,"county":"Mobile","unit":null,"geo_score":0.857,"dwelling":"SFD","notes":null,"street":"Cherokee St.","da":"Affected","id":"ab3srotshx7k","address":"672","geo_precision":"street","state":"AL"},"type":"Feature","geometry":{"type":"Point","coordinates":[-88.085262,30.676453]}},{"properties":{"city":"Mobile","name":null,"county":"Mobile","unit":null,"geo_score":0.857,"dwelling":"SFD","notes":null,"street":"Cherokee St.","da":"Affected","id":"ab3srp4c0pr6","address":"674","geo_precision":"street","state":"AL"},"type":"Feature","geometry":{"type":"Point","coordinates":[-88.085262,30.676453]}},{"properties":{"city":"Mobile","name":null,"county":"Mobile","unit":null,"geo_score":0.857,"dwelling":"SFD","notes":null,"street":"Cherokee St.","da":"Affected","id":"ab3srouef5al","address":"700","geo_precision":"street","state":"AL"},"type":"Feature","geometry":{"type":"Point","coordinates":[-88.085262,30.676453]}},{"properties":{"city":"Mobile","name":null,"county":"Mobile","unit":null,"geo_score":0.857,"dwelling":"SFD","notes":null,"street":"Cherokee St.","da":"Affected","id":"ab3srp7d9387","address":"701","geo_precision":"street","state":"AL"},"type":"Feature","geometry":{"type":"Point","coordinates":[-88.085262,30.676453]}},{"properties":{"city":"Mobile","name":null,"county":"Mobile","unit":null,"geo_score":0.857,"dwelling":"SFD","notes":null,"street":"Cherokee St.","da":"Affected","id":"ab3srozwfrw1","address":"702","geo_precision":"street","state":"AL"},"type":"Feature","geometry":{"type":"Point","coordinates":[-88.085262,30.676453]}},{"properties":{"city":"Mobile","name":null,"county":"Mobile","unit":null,"geo_score":0.857,"dwelling":"SFD","notes":null,"street":"Cherokee St.","da":"Affected","id":"ab3srp2v2q1b","address":"704","geo_precision":"street","state":"AL"},"type":"Feature","geometry":{"type":"Point","coordinates":[-88.085262,30.676453]}},{"properties":{"city":"Mobile","name":null,"county":"Mobile","unit":null,"geo_score":0.857,"dwelling":"SFD","notes":null,"street":"Cherokee St.","da":"Affected","id":"ab3srp8qa19d","address":"705","geo_precision":"street","state":"AL"},"type":"Feature","geometry":{"type":"Point","coordinates":[-88.085262,30.676453]}},{"properties":{"city":"Mobile","name":null,"county":"Mobile","unit":null,"geo_score":0.857,"dwelling":"SFD","notes":null,"street":"Cherokee St.","da":"Minor","id":"ab3sroyfltch","address":"707","geo_precision":"street","state":"AL"},"type":"Feature","geometry":{"type":"Point","coordinates":[-88.085262,30.676453]}},{"properties":{"city":"Prichard","name":"Fannie Meadry 251-452-8928","county":"Mobile","unit":null,"geo_score":0.804,"dwelling":"SFD","notes":"1 broken window on back; damage to side of house towards back from debris","street":"Chinn St.","da":"Minor","id":"ab3srp8iitax","address":"675","geo_precision":"street","state":"AL"},"type":"Feature","geometry":{"type":"Point","coordinates":[-88.053438,30.731011]}},{"properties":{"city":"Prichard","name":null,"county":"Mobile","unit":null,"geo_score":0.804,"dwelling":"SFD","notes":"Minor roof damage on back - small hole in right side","street":"Chinn St.","da":"Minor","id":"ab3srouitqvt","address":"705","geo_precision":"street","state":"AL"},"type":"Feature","geometry":{"type":"Point","coordinates":[-88.053438,30.731011]}},{"properties":{"city":"Prichard","name":"Marine Simmons 251-452-8941","county":"Mobile","unit":null,"geo_score":0.804,"dwelling":"SFD","notes":"2 windows out; owned","street":"Chinn St.","da":"Affected","id":"ab3srp361xf3","address":"706","geo_precision":"street","state":"AL"},"type":"Feature","geometry":{"type":"Point","coordinates":[-88.053438,30.731011]}},{"properties":{"city":"Prichard","name":null,"county":"Mobile","unit":null,"geo_score":0.804,"dwelling":"SFD","notes":"Right windows broken; board penetrated roof; power box blown off; back door blown in","street":"Chinn St.","da":"Minor","id":"ab3srp4oncw1","address":"709","geo_precision":"street","state":"AL"},"type":"Feature","geometry":{"type":"Point","coordinates":[-88.053438,30.731011]}},{"properties":{"city":"Prichard","name":"Rebecca Morrissitte 251-379-7392","county":"Mobile","unit":null,"geo_score":0.804,"dwelling":"SFD","notes":null,"street":"Chinn St.","da":"Destroyed","id":"ab3sroub4pgq","address":"713","geo_precision":"street","state":"AL"},"type":"Feature","geometry":{"type":"Point","coordinates":[-88.053438,30.731011]}},{"properties":{"city":"Prichard","name":"Alfred Lee Randolph Sr.","county":"Mobile","unit":null,"geo_score":0.804,"dwelling":"SFD","notes":"Roof on left side has back 1/4th off","street":"Chinn St.","da":"Major","id":"ab3srp3gkv37","address":"715","geo_precision":"street","state":"AL"},"type":"Feature","geometry":{"type":"Point","coordinates":[-88.053438,30.731011]}},{"properties":{"city":"Prichard","name":null,"county":"Mobile","unit":null,"geo_score":0.804,"dwelling":"SFD","notes":"Abandoned","street":"Chinn St.","da":"None","id":"ab3srp25bqs6","address":"716","geo_precision":"street","state":"AL"},"type":"Feature","geometry":{"type":"Point","coordinates":[-88.053438,30.731011]}},{"properties":{"city":"Prichard","name":"Earl and Magdalene Windom 251-219-7298","county":"Mobile","unit":null,"geo_score":0.804,"dwelling":"SFD","notes":"Front screens blown out; shingles off and hole in right of roof; two windows broken","street":"Chinn St.","da":"Minor","id":"ab3srosvl7h8","address":"718","geo_precision":"street","state":"AL"},"type":"Feature","geometry":{"type":"Point","coordinates":[-88.053438,30.731011]}},{"properties":{"city":"Prichard","name":null,"county":"Mobile","unit":null,"geo_score":0.804,"dwelling":"SFD","notes":"Back roof off, front piece removed","street":"Chinn St.","da":"Major","id":"ab3sroyhkyv1","address":"721","geo_precision":"street","state":"AL"},"type":"Feature","geometry":{"type":"Point","coordinates":[-88.053438,30.731011]}},{"properties":{"city":"Prichard","name":"Patricia Barren 251-422-3415","county":"Mobile","unit":null,"geo_score":0.804,"dwelling":"SFD","notes":"Roof damage covered by tarp; hole in roof; front porch posts gone","street":"Chinn St.","da":"Major","id":"ab3srp45c5z6","address":"724","geo_precision":"street","state":"AL"},"type":"Feature","geometry":{"type":"Point","coordinates":[-88.053438,30.731011]}},{"properties":{"city":"Prichard","name":"Angela Shinn","county":"Mobile","unit":null,"geo_score":0.804,"dwelling":"SFD","notes":"Shattered window; porch roof shifted causing leak into front door","street":"Chinn St.","da":"Minor","id":"ab3sroym569o","address":"753","geo_precision":"street","state":"AL"},"type":"Feature","geometry":{"type":"Point","coordinates":[-88.053438,30.731011]}},{"properties":{"city":"Prichard","name":null,"county":"Mobile","unit":null,"geo_score":0.804,"dwelling":"SFD","notes":"Shingles off; hole in front right of roof","street":"Chinn St.","da":"Minor","id":"ab3srp8qj6qw","address":"755","geo_precision":"street","state":"AL"},"type":"Feature","geometry":{"type":"Point","coordinates":[-88.053438,30.731011]}},{"properties":{"city":"Prichard","name":null,"county":"Mobile","unit":null,"geo_score":0.804,"dwelling":"SFD","notes":"Destroyed, abandoned house - corner of Chinn and Borer by fire hydrant","street":"Chinn St.","da":"Destroyed","id":"ab3srovyw7ga","address":"?","geo_precision":"street","state":"AL"},"type":"Feature","geometry":{"type":"Point","coordinates":[-88.053438,30.731011]}},{"properties":{"city":"Prichard","name":null,"county":"Mobile","unit":null,"geo_score":0.804,"dwelling":"SFD","notes":"house to left of 675; broken front window","street":"Chinn St.","da":"Affected","id":"ab3srp50l2fh","address":"?","geo_precision":"street","state":"AL"},"type":"Feature","geometry":{"type":"Point","coordinates":[-88.053438,30.731011]}},{"properties":{"city":"Mobile","name":null,"county":"Mobile","unit":null,"geo_score":0.857,"dwelling":"SFD","notes":null,"street":"Clark Ave.","da":"Affected","id":"ab3srou5bzwc","address":"556","geo_precision":"street","state":"AL"},"type":"Feature","geometry":{"type":"Point","coordinates":[-88.100282,30.727057]}},{"properties":{"city":"Mobile","name":null,"county":"Mobile","unit":null,"geo_score":0.857,"dwelling":"SFD","notes":null,"street":"Clark Ave.","da":"Affected","id":"ab3srp2777sa","address":"558","geo_precision":"street","state":"AL"},"type":"Feature","geometry":{"type":"Point","coordinates":[-88.100282,30.727057]}},{"properties":{"city":"Mobile","name":null,"county":"Mobile","unit":null,"geo_score":0.857,"dwelling":"SFD","notes":null,"street":"Clark Ave.","da":"Affected","id":"ab3srov0v6od","address":"560","geo_precision":"street","state":"AL"},"type":"Feature","geometry":{"type":"Point","coordinates":[-88.100282,30.727057]}},{"properties":{"city":"Mobile","name":null,"county":"Mobile","unit":null,"geo_score":0.857,"dwelling":"SFD","notes":null,"street":"Clark Ave.","da":"Affected","id":"ab3srp56lc8v","address":"562","geo_precision":"street","state":"AL"},"type":"Feature","geometry":{"type":"Point","coordinates":[-88.100282,30.727057]}},{"properties":{"city":"Mobile","name":null,"county":"Mobile","unit":null,"geo_score":0.857,"dwelling":"SFD","notes":null,"street":"Clark Ave.","da":"Affected","id":"ab3srp3lxgs8","address":"564","geo_precision":"street","state":"AL"},"type":"Feature","geometry":{"type":"Point","coordinates":[-88.100282,30.727057]}},{"properties":{"city":"Mobile","name":null,"county":"Mobile","unit":null,"geo_score":0.857,"dwelling":"SFD","notes":null,"street":"Clark Ave.","da":"Affected","id":"ab3srovwpqux","address":"568","geo_precision":"street","state":"AL"},"type":"Feature","geometry":{"type":"Point","coordinates":[-88.100282,30.727057]}},{"properties":{"city":"Mobile","name":null,"county":"Mobile","unit":null,"geo_score":0.857,"dwelling":"SFD","notes":null,"street":"Clark Ave.","da":"Affected","id":"ab3srp2i3bn9","address":"570","geo_precision":"street","state":"AL"},"type":"Feature","geometry":{"type":"Point","coordinates":[-88.100282,30.727057]}},{"properties":{"city":"Mobile","name":null,"county":"Mobile","unit":null,"geo_score":0.857,"dwelling":"SFD","notes":null,"street":"Clark Ave.","da":"Affected","id":"ab3sroznip49","address":"576","geo_precision":"street","state":"AL"},"type":"Feature","geometry":{"type":"Point","coordinates":[-88.100282,30.727057]}},{"properties":{"city":"Mobile","name":null,"county":"Mobile","unit":null,"geo_score":0.857,"dwelling":"SFD","notes":null,"street":"Clark Ave.","da":"Affected","id":"ab3srp23zgv6","address":"972","geo_precision":"street","state":"AL"},"type":"Feature","geometry":{"type":"Point","coordinates":[-88.100282,30.727057]}},{"properties":{"city":"Mobile","name":null,"county":"Mobile","unit":null,"geo_score":0.857,"dwelling":"SFD","notes":null,"street":"Clark Ave.","da":"Affected","id":"ab3srp2qge9a","address":"974","geo_precision":"street","state":"AL"},"type":"Feature","geometry":{"type":"Point","coordinates":[-88.100282,30.727057]}},{"properties":{"city":"Mobile","name":null,"county":"Mobile","unit":null,"geo_score":0.857,"dwelling":"SFD","notes":null,"street":"Clearmont St.","da":"Affected","id":"ab3srowb6blc","address":"1901","geo_precision":"street","state":"AL"},"type":"Feature","geometry":{"type":"Point","coordinates":[-88.081555,30.68057]}},{"properties":{"city":"Mobile","name":null,"county":"Mobile","unit":null,"geo_score":0.857,"dwelling":"SFD","notes":null,"street":"Clearmont St.","da":"Affected","id":"ab3srp82pyhb","address":"1905","geo_precision":"street","state":"AL"},"type":"Feature","geometry":{"type":"Point","coordinates":[-88.081555,30.68057]}},{"properties":{"city":"Mobile","name":null,"county":"Mobile","unit":null,"geo_score":0.857,"dwelling":"SFD","notes":null,"street":"Clearmont St.","da":"Affected","id":"ab3sroul88i1","address":"1907","geo_precision":"street","state":"AL"},"type":"Feature","geometry":{"type":"Point","coordinates":[-88.081555,30.68057]}},{"properties":{"city":"Mobile","name":null,"county":"Mobile","unit":null,"geo_score":0.857,"dwelling":"SFD","notes":null,"street":"Clearmont St.","da":"Affected","id":"ab3srp0wleld","address":"1909","geo_precision":"street","state":"AL"},"type":"Feature","geometry":{"type":"Point","coordinates":[-88.081555,30.68057]}},{"properties":{"city":"Mobile","name":null,"county":"Mobile","unit":null,"geo_score":0.857,"dwelling":"SFD","notes":null,"street":"Clearmont St.","da":"Minor","id":"ab3srov48qi8","address":"1911","geo_precision":"street","state":"AL"},"type":"Feature","geometry":{"type":"Point","coordinates":[-88.081555,30.68057]}},{"properties":{"city":"Mobile","name":null,"county":"Mobile","unit":null,"geo_score":0.857,"dwelling":"SFD","notes":null,"street":"Clearmont St.","da":"Minor","id":"ab3srosiwsq5","address":"1913","geo_precision":"street","state":"AL"},"type":"Feature","geometry":{"type":"Point","coordinates":[-88.081555,30.68057]}},{"properties":{"city":"Mobile","name":null,"county":"Mobile","unit":null,"geo_score":0.857,"dwelling":"SFD","notes":null,"street":"Clearmont St.","da":"Minor","id":"ab3srot2dilg","address":"1915","geo_precision":"street","state":"AL"},"type":"Feature","geometry":{"type":"Point","coordinates":[-88.081555,30.68057]}},{"properties":{"city":"Mobile","name":null,"county":"Mobile","unit":null,"geo_score":0.857,"dwelling":"SFD","notes":null,"street":"Clearmont St.","da":"Major","id":"ab3srosx5kw0","address":"1917","geo_precision":"street","state":"AL"},"type":"Feature","geometry":{"type":"Point","coordinates":[-88.081555,30.68057]}},{"properties":{"city":"Mobile","name":null,"county":"Mobile","unit":null,"geo_score":0.857,"dwelling":"SFD","notes":null,"street":"Clearmont St.","da":"Affected","id":"ab3srp5rf1mm","address":"1919","geo_precision":"street","state":"AL"},"type":"Feature","geometry":{"type":"Point","coordinates":[-88.081555,30.68057]}},{"properties":{"city":"Mobile","name":null,"county":"Mobile","unit":null,"geo_score":0.857,"dwelling":"SFD","notes":null,"street":"Clearmont St.","da":"Major","id":"ab3srotci64j","address":"1921","geo_precision":"street","state":"AL"},"type":"Feature","geometry":{"type":"Point","coordinates":[-88.081555,30.68057]}},{"properties":{"city":"Mobile","name":null,"county":"Mobile","unit":null,"geo_score":0.857,"dwelling":"SFD","notes":null,"street":"Clearmont St.","da":"Minor","id":"ab3srp0z1ort","address":"1923","geo_precision":"street","state":"AL"},"type":"Feature","geometry":{"type":"Point","coordinates":[-88.081555,30.68057]}},{"properties":{"city":"Mobile","name":null,"county":"Mobile","unit":null,"geo_score":0.857,"dwelling":"SFD","notes":null,"street":"Clearmont St.","da":"Affected","id":"ab3srp6c3pkf","address":"1950","geo_precision":"street","state":"AL"},"type":"Feature","geometry":{"type":"Point","coordinates":[-88.081555,30.68057]}},{"properties":{"city":"Mobile","name":null,"county":"Mobile","unit":null,"geo_score":0.857,"dwelling":"SFD","notes":null,"street":"Clearmont St.","da":"Affected","id":"ab3sroxabst4","address":"1953","geo_precision":"street","state":"AL"},"type":"Feature","geometry":{"type":"Point","coordinates":[-88.081555,30.68057]}},{"properties":{"city":"Mobile","name":null,"county":"Mobile","unit":null,"geo_score":0.0,"dwelling":"SFD","notes":"Corner of Conti and South Carlin","street":"Conti","da":"Affected","id":"ab3srp1s0hti","address":"101","geo_precision":"unmatched","state":"Al"},"type":"Feature","geometry":null},{"properties":{"city":"Mobile","name":null,"county":"Mobile","unit":null,"geo_score":0.857,"dwelling":"SFD","notes":null,"street":"Dauphin Island Pkwy","da":"Major","id":"ab3srowjccfs","address":"450","geo_precision":"street","state":"AL"},"type":"Feature","geometry":{"type":"Point","coordinates":[-88.087076,30.674766]}},{"properties":{"city":"Mobile","name":null,"county":"Mobile","unit":null,"geo_score":0.857,"dwelling":"SFD","notes":null,"street":"Dauphin Island Pkwy","da":"Minor","id":"ab3srp6rwvf7","address":"454","geo_precision":"street","state":"AL"},"type":"Feature","geometry":{"type":"Point","coordinates":[-88.087076,30.674766]}},{"properties":{"city":"Mobile","name":null,"county":"Mobile","unit":null,"geo_score":0.857,"dwelling":"SFD","notes":null,"street":"Dauphin Island Pkwy","da":"Minor","id":"ab3srp807s5l","address":"456","geo_precision":"street","state":"AL"},"type":"Feature","geometry":{"type":"Point","coordinates":[-88.087076,30.674766]}},{"properties":{"city":"Mobile","name":null,"county":"Mobile","unit":null,"geo_score":0.857,"dwelling":"SFD","notes":null,"street":"Dauphin Island Pkwy","da":"Affected","id":"ab3srowll4ll","address":"458","geo_precision":"street","state":"AL"},"type":"Feature","geometry":{"type":"Point","coordinates":[-88.087076,30.674766]}},{"properties":{"city":"Mobile","name":null,"county":"Mobile","unit":null,"geo_score":0.857,"dwelling":"SFD","notes":null,"street":"Dauphin Island Pkwy","da":"Minor","id":"ab3srp7o3904","address":"458","geo_precision":"street","state":"AL"},"type":"Feature","geometry":{"type":"Point","coordinates":[-88.087076,30.674766]}},{"properties":{"city":"Mobile","name":null,"county":"Mobile","unit":null,"geo_score":0.857,"dwelling":"SFD","notes":null,"street":"Dauphin Island Pkwy","da":"Minor","id":"ab3srp1ghfyh","address":"500","geo_precision":"street","state":"AL"},"type":"Feature","geometry":{"type":"Point","coordinates":[-88.087076,30.674766]}},{"properties":{"city":"Mobile","name":null,"county":"Mobile","unit":null,"geo_score":0.857,"dwelling":"SFD","notes":null,"street":"Dauphin Island Pkwy","da":"Minor","id":"ab3srp0z6ad6","address":"502","geo_precision":"street","state":"AL"},"type":"Feature","geometry":{"type":"Point","coordinates":[-88.087076,30.674766]}},{"properties":{"city":"Mobile","name":null,"county":"Mobile","unit":null,"geo_score":0.857,"dwelling":"SFD","notes":null,"street":"Dauphin Island Pkwy","da":"Minor","id":"ab3srp05z1r5","address":"504","geo_precision":"street","state":"AL"},"type":"Feature","geometry":{"type":"Point","coordinates":[-88.087076,30.674766]}},{"properties":{"city":"Mobile","name":null,"county":"Mobile","unit":null,"geo_score":0.857,"dwelling":"SFD","notes":null,"street":"Dauphin Island Pkwy","da":"Minor","id":"ab3sroxda4uj","address":"506","geo_precision":"street","state":"AL"},"type":"Feature","geometry":{"type":"Point","coordinates":[-88.087076,30.674766]}},{"properties":{"city":"Mobile","name":null,"county":"Mobile","unit":null,"geo_score":0.857,"dwelling":"SFD","notes":null,"street":"Dauphin Island Pkwy","da":"Minor","id":"ab3sroynijet","address":"508","geo_precision":"street","state":"AL"},"type":"Feature","geometry":{"type":"Point","coordinates":[-88.087076,30.674766]}},{"properties":{"city":"Mobile","name":null,"county":"Mobile","unit":null,"geo_score":0.857,"dwelling":"SFD","notes":null,"street":"Dauphin Island Pkwy","da":"Minor","id":"ab3srowxovos","address":"510","geo_precision":"street","state":"AL"},"type":"Feature","geometry":{"type":"Point","coordinates":[-88.087076,30.674766]}},{"properties":{"city":"Mobile","name":null,"county":"Mobile","unit":null,"geo_score":0.857,"dwelling":"SFD","notes":null,"street":"Dauphin Island Pkwy","da":"Affected","id":"ab3sroxf23z1","address":"512","geo_precision":"street","state":"AL"},"type":"Feature","geometry":{"type":"Point","coordinates":[-88.087076,30.674766]}},{"properties":{"city":"Mobile","name":null,"county":"Mobile","unit":null,"geo_score":0.857,"dwelling":"SFD","notes":null,"street":"Dauphin Island Pkwy","da":"Affected","id":"ab3srp2aij3a","address":"514","geo_precision":"street","state":"AL"},"type":"Feature","geometry":{"type":"Point","coordinates":[-88.087076,30.674766]}},{"properties":{"city":"Mobile","name":null,"county":"Mobile","unit":null,"geo_score":0.857,"dwelling":"SFD","notes":null,"street":"Dauphin Island Pkwy","da":"Major","id":"ab3srovfam5o","address":"517","geo_precision":"street","state":"AL"},"type":"Feature","geometry":{"type":"Point","coordinates":[-88.087076,30.674766]}},{"properties":{"city":"Mobile","name":null,"county":"Mobile","unit":null,"geo_score":0.857,"dwelling":"SFD","notes":null,"street":"Dauphin Island Pkwy","da":"Affected","id":"ab3srp0g62he","address":"530","geo_precision":"street","state":"AL"},"type":"Feature","geometry":{"type":"Point","coordinates":[-88.087076,30.674766]}},{"properties":{"city":"Mobile","name":null,"county":"Mobile","unit":null,"geo_score":0.857,"dwelling":"SFD","notes":null,"street":"Dauphin Island Pkwy","da":"Affected","id":"ab3srp6e9mvi","address":"554","geo_precision":"street","state":"AL"},"type":"Feature","geometry":{"type":"Point","coordinates":[-88.087076,30.674766]}},{"properties":{"city":"Mobile","name":null,"county":"Mobile","unit":null,"geo_score":0.857,"dwelling":"SFD","notes":null,"street":"Dauphin Island Pkwy","da":"Affected","id":"ab3srozzdmzu","address":"558","geo_precision":"street","state":"AL"},"type":"Feature","geometry":{"type":"Point","coordinates":[-88.087076,30.674766]}},{"properties":{"city":"Mobile","name":null,"county":"Mobile","unit":null,"geo_score":0.857,"dwelling":"SFD","notes":null,"street":"Dauphin Island Pkwy","da":"Affected","id":"ab3srovasbbp","address":"560","geo_precision":"street","state":"AL"},"type":"Feature","geometry":{"type":"Point","coordinates":[-88.087076,30.674766]}},{"properties":{"city":"Mobile","name":null,"county":"Mobile","unit":null,"geo_score":0.857,"dwelling":"SFD","notes":null,"street":"Dauphin Island Pkwy","da":"Affected","id":"ab3srotlyjet","address":"562","geo_precision":"street","state":"AL"},"type":"Feature","geometry":{"type":"Point","coordinates":[-88.087076,30.674766]}},{"properties":{"city":"Mobile","name":null,"county":"Mobile","unit":null,"geo_score":0.857,"dwelling":"SFD","notes":null,"street":"Dauphin Island Pkwy","da":"Affected","id":"ab3srp46njdd","address":"564","geo_precision":"street","state":"AL"},"type":"Feature","geometry":{"type":"Point","coordinates":[-88.087076,30.674766]}},{"properties":{"city":"Mobile","name":null,"county":"Mobile","unit":null,"geo_score":0.857,"dwelling":"SFD","notes":null,"street":"Dauphin Island Pkwy","da":"Affected","id":"ab3sroza34ni","address":"566","geo_precision":"street","state":"AL"},"type":"Feature","geometry":{"type":"Point","coordinates":[-88.087076,30.674766]}},{"properties":{"city":"Mobile","name":null,"county":"Mobile","unit":null,"geo_score":0.857,"dwelling":"MH","notes":null,"street":"Dauphin St.","da":"Affected","id":"ab3srp44ows2","address":"1808","geo_precision":"street","state":"AL"},"type":"Feature","geometry":{"type":"Point","coordinates":[-88.044789,30.690883]}},{"properties":{"city":"Mobile","name":null,"county":"Mobile","unit":null,"geo_score":0.857,"dwelling":"SFD","notes":null,"street":"Dauphin St.","da":"Affected","id":"ab3srp23howi","address":"1820","geo_precision":"street","state":"AL"},"type":"Feature","geometry":{"type":"Point","coordinates":[-88.044789,30.690883]}},{"properties":{"city":"Mobile","name":null,"county":"Mobile","unit":null,"geo_score":0.857,"dwelling":"SFD","notes":null,"street":"Dauphin St.","da":"Affected","id":"ab3sroyc2vzx","address":"1821","geo_precision":"street","state":"AL"},"type":"Feature","geometry":{"type":"Point","coordinates":[-88.044789,30.690883]}},{"properties":{"city":"Mobile","name":null,"county":"Mobile","unit":null,"geo_score":0.857,"dwelling":"SFD","notes":null,"street":"Dauphin St.","da":"Affected","id":"ab3srotw7ovt","address":"1822","geo_precision":"street","state":"AL"},"type":"Feature","geometry":{"type":"Point","coordinates":[-88.044789,30.690883]}},{"properties":{"city":"Mobile","name":null,"county":"Mobile","unit":null,"geo_score":0.857,"dwelling":"SFD","notes":null,"street":"Dauphin St.","da":"Minor","id":"ab3srp6lbm1h","address":"1826","geo_precision":"street","state":"AL"},"type":"Feature","geometry":{"type":"Point","coordinates":[-88.044789,30.690883]}},{"properties":{"city":"Mobile","name":null,"county":"Mobile","unit":null,"geo_score":0.857,"dwelling":"SFD","notes":null,"street":"Dauphin St.","da":"Minor","id":"ab3sroxwe71k","address":"1828","geo_precision":"street","state":"AL"},"type":"Feature","geometry":{"type":"Point","coordinates":[-88.044789,30.690883]}},{"properties":{"city":"Mobile","name":null,"county":"Mobile","unit":null,"geo_score":0.857,"dwelling":"SFD","notes":null,"street":"Dauphin St.","da":"Major","id":"ab3sroteotl8","address":"1831","geo_precision":"street","state":"AL"},"type":"Feature","geometry":{"type":"Point","coordinates":[-88.044789,30.690883]}},{"properties":{"city":"Mobile","name":null,"county":"Mobile","unit":null,"geo_score":0.857,"dwelling":"SFD","notes":null,"street":"Dauphin St.","da":"Major","id":"ab3srox40es3","address":"1832","geo_precision":"street","state":"AL"},"type":"Feature","geometry":{"type":"Point","coordinates":[-88.044789,30.690883]}},{"properties":{"city":"Mobile","name":null,"county":"Mobile","unit":null,"geo_score":0.857,"dwelling":"SFD","notes":null,"street":"Dauphin St.","da":"Minor","id":"ab3srp8c6ivh","address":"1833","geo_precision":"street","state":"AL"},"type":"Feature","geometry":{"type":"Point","coordinates":[-88.044789,30.690883]}},{"properties":{"city":"Mobile","name":null,"county":"Mobile","unit":null,"geo_score":0.857,"dwelling":"SFD","notes":null,"street":"Dauphin St.","da":"Major","id":"ab3srp42yllt","address":"1835","geo_precision":"street","state":"AL"},"type":"Feature","geometry":{"type":"Point","coordinates":[-88.044789,30.690883]}},{"properties":{"city":"Mobile","name":null,"county":"Mobile","unit":null,"geo_score":0.857,"dwelling":"SFD","notes":null,"street":"Dauphin St.","da":"Destroyed","id":"ab3srp8g2cz6","address":"1854","geo_precision":"street","state":"AL"},"type":"Feature","geometry":{"type":"Point","coordinates":[-88.044789,30.690883]}},{"properties":{"city":"Mobile","name":null,"county":"Mobile","unit":null,"geo_score":0.857,"dwelling":"SFD","notes":null,"street":"Dauphin St.","da":"Destroyed","id":"ab3srouqkijk","address":"1856","geo_precision":"street","state":"AL"},"type":"Feature","geometry":{"type":"Point","coordinates":[-88.044789,30.690883]}},{"properties":{"city":"Mobile","name":null,"county":"Mobile","unit":null,"geo_score":0.857,"dwelling":"SFD","notes":null,"street":"Dauphin St.","da":"Major","id":"ab3srp2d4ah9","address":"1858","geo_precision":"street","state":"AL"},"type":"Feature","geometry":{"type":"Point","coordinates":[-88.044789,30.690883]}},{"properties":{"city":"Mobile","name":null,"county":"Mobile","unit":null,"geo_score":0.857,"dwelling":"SFD","notes":null,"street":"Dauphin St.","da":"Major","id":"ab3srp7ajroj","address":"1860","geo_precision":"street","state":"AL"},"type":"Feature","geometry":{"type":"Point","coordinates":[-88.044789,30.690883]}},{"properties":{"city":"Mobile","name":null,"county":"Mobile","unit":null,"geo_score":0.857,"dwelling":"SFD","notes":null,"street":"Demouy Ave","da":"Affected","id":"ab3sroswro2d","address":"3","geo_precision":"street","state":"AL"},"type":"Feature","geometry":{"type":"Point","coordinates":[-88.083439,30.686436]}},{"properties":{"city":"Mobile","name":null,"county":"Mobile","unit":null,"geo_score":0.857,"dwelling":"SFD","notes":null,"street":"Demouy Ave","da":"Affected","id":"ab3srp06acdj","address":"18","geo_precision":"street","state":"AL"},"type":"Feature","geometry":{"type":"Point","coordinates":[-88.083439,30.686436]}},{"properties":{"city":"Mobile","name":null,"county":"Mobile","unit":null,"geo_score":0.857,"dwelling":"SFD","notes":null,"street":"Demouy Ave","da":"Affected","id":"ab3srozq07u2","address":"20","geo_precision":"street","state":"AL"},"type":"Feature","geometry":{"type":"Point","coordinates":[-88.083439,30.686436]}},{"properties":{"city":"Mobile","name":null,"county":"Mobile","unit":null,"geo_score":0.857,"dwelling":"SFD","notes":null,"street":"Demouy Ave","da":"Affected","id":"ab3srp88s03e","address":"22","geo_precision":"street","state":"AL"},"type":"Feature","geometry":{"type":"Point","coordinates":[-88.083439,30.686436]}},{"properties":{"city":"Mobile","name":null,"county":"Mobile","unit":null,"geo_score":0.857,"dwelling":"SFD","notes":null,"street":"Demouy Ave","da":"Affected","id":"ab3srouycy4e","address":"56","geo_precision":"street","state":"AL"},"type":"Feature","geometry":{"type":"Point","coordinates":[-88.083439,30.686436]}},{"properties":{"city":"Mobile","name":null,"county":"Mobile","unit":null,"geo_score":0.857,"dwelling":"SFD","notes":"Roof damage","street":"Demouy Ave","da":"Minor","id":"ab3srote52wj","address":"60","geo_precision":"street","state":"AL"},"type":"Feature","geometry":{"type":"Point","coordinates":[-88.083439,30.686436]}},{"properties":{"city":"Mobile","name":null,"county":"Mobile","unit":null,"geo_score":0.482,"dwelling":"SFD","notes":"4 broken windows and they are boarded up","street":"E. Riviera Dr.","da":"Minor","id":"ab3srp4q9grm","address":"?","geo_precision":"street","state":"AL"},"type":"Feature","geometry":{"type":"Point","coordinates":[-88.103234,30.625023]}},{"properties":{"city":"Marengo","name":null,"county":"Demopolis","unit":null,"geo_score":0.0,"dwelling":"SFD","notes":"window/roof/front porch/siding","street":"Eastern Circle","da":"Minor","id":"ab3srotbcyqj","address":"2009","geo_precision":"unmatched","state":"AL"},"type":"Feature","geometry":null},{"properties":{"city":"Marengo","name":null,"county":"Demopolis","unit":null,"geo_score":0.0,"dwelling":"SFD","notes":"window/roof/front porch/siding","street":"Eastern Circle","da":"Minor","id":"ab3srp3a812e","address":"2011","geo_precision":"unmatched","state":"AL"},"type":"Feature","geometry":null},{"properties":{"city":"Wilmer","name":null,"county":"Mobile","unit":null,"geo_score":0.857,"dwelling":"SFD","notes":"End of Findley Rd; slight dint to tin on roof","street":"Findley Rd","da":"Affected","id":"ab3sroxtbat0","address":"14961","geo_precision":"street","state":"AL"},"type":"Feature","geometry":{"type":"Point","coordinates":[-88.411064,30.793422]}},{"properties":{"city":"Wilmer","name":"Co Siddiqui 251-214-3586","county":"Mobile","unit":null,"geo_score":0.857,"dwelling":"MH","notes":null,"street":"Findley Rd","da":"Affected","id":"ab3srouyyyzp","address":"15010","geo_precision":"street","state":"AL"},"type":"Feature","geometry":{"type":"Point","coordinates":[-88.411064,30.793422]}},{"properties":{"city":"Wilmer","name":null,"county":"Mobile","unit":null,"geo_score":0.857,"dwelling":"MH","notes":null,"street":"Findley Rd","da":"Affected","id":"ab3srotihvc7","address":"15400","geo_precision":"street","state":"AL"},"type":"Feature","geometry":{"type":"Point","coordinates":[-88.411064,30.793422]}},{"properties":{"city":"Mobile","name":null,"county":"Mobile","unit":null,"geo_score":0.857,"dwelling":"SFD","notes":null,"street":"Glenwood St.","da":"Affected","id":"ab3srp2s1i2v","address":"411","geo_precision":"street","state":"AL"},"type":"Feature","geometry":{"type":"Point","coordinates":[-88.090492,30.685273]}},{"properties":{"city":"Mobile","name":null,"county":"Mobile","unit":null,"geo_score":0.857,"dwelling":"SFD","notes":null,"street":"Glenwood St.","da":"Affected","id":"ab3srotgr20e","address":"413","geo_precision":"street","state":"AL"},"type":"Feature","geometry":{"type":"Point","coordinates":[-88.090492,30.685273]}},{"properties":{"city":"Mobile","name":null,"county":"Mobile","unit":null,"geo_score":0.857,"dwelling":"APT","notes":null,"street":"Glenwood St.","da":"Affected","id":"ab3srowpdk1d","address":"415","geo_precision":"street","state":"AL"},"type":"Feature","geometry":{"type":"Point","coordinates":[-88.090492,30.685273]}},{"properties":{"city":"Mobile","name":null,"county":"Mobile","unit":null,"geo_score":0.857,"dwelling":"APT","notes":null,"street":"Glenwood St.","da":"Affected","id":"ab3sroytu9hl","address":"417","geo_precision":"street","state":"AL"},"type":"Feature","geometry":{"type":"Point","coordinates":[-88.090492,30.685273]}},{"properties":{"city":"Mobile","name":null,"county":"Mobile","unit":"A","geo_score":0.81,"dwelling":"APT","notes":"Unit # missing","street":"Gossen St.","da":"Minor","id":"ab3srp6obsk9","address":"2331","geo_precision":"street","state":"AL"},"type":"Feature","geometry":{"type":"Point","coordinates":[-88.087842,30.664177]}},{"properties":{"city":"Mobile","name":null,"county":"Mobile","unit":"B","geo_score":0.81,"dwelling":"APT","notes":"Unit # missing","street":"Gossen St.","da":"Minor","id":"ab3srotqvmbl","address":"2331","geo_precision":"street","state":"AL"},"type":"Feature","geometry":{"type":"Point","coordinates":[-88.087842,30.664177]}},{"properties":{"city":"Mobile","name":null,"county":"Mobile","unit":"C","geo_score":0.81,"dwelling":"APT","notes":"Unit # missing","street":"Gossen St.","da":"Minor","id":"ab3sroyrtjx9","address":"2331","geo_precision":"street","state":"AL"},"type":"Feature","geometry":{"type":"Point","coordinates":[-88.087842,30.664177]}},{"properties":{"city":"Mobile","name":null,"county":"Mobile","unit":"D","geo_score":0.81,"dwelling":"APT","notes":"Unit # missing","street":"Gossen St.","da":"Minor","id":"ab3srp3c90iq","address":"2331","geo_precision":"street","state":"AL"},"type":"Feature","geometry":{"type":"Point","coordinates":[-88.087842,30.664177]}},{"properties":{"city":"Mobile","name":null,"county":"Mobile","unit":"E","geo_score":0.81,"dwelling":"APT","notes":"Unit # missing","street":"Gossen St.","da":"Minor","id":"ab3srp85z7y6","address":"2331","geo_precision":"street","state":"AL"},"type":"Feature","geometry":{"type":"Point","coordinates":[-88.087842,30.664177]}},{"properties":{"city":"Mobile","name":null,"county":"Mobile","unit":"F","geo_score":0.81,"dwelling":"APT","notes":"Unit # missing","street":"Gossen St.","da":"Minor","id":"ab3srp6tyb0u","address":"2331","geo_precision":"street","state":"AL"},"type":"Feature","geometry":{"type":"Point","coordinates":[-88.087842,30.664177]}},{"properties":{"city":"Mobile","name":"Mark Richardson 251-510-0255","county":"Mobile","unit":"B","geo_score":0.857,"dwelling":"APT","notes":"Top unit - roof off half of building; 3 windows blown out; no insurance","street":"Granger St.","da":"Major","id":"ab3srp27gvkw","address":"206","geo_precision":"street","state":"AL"},"type":"Feature","geometry":{"type":"Point","coordinates":[-88.087066,30.673869]}},{"properties":{"city":"Mobile","name":"Mark Richardson 251-510-0255","county":"Mobile","unit":"A","geo_score":0.857,"dwelling":"SFD","notes":"Damage was to unit B","street":"Granger St.","da":"Minor","id":"ab3srp27ecb1","address":"206","geo_precision":"street","state":"AL"},"type":"Feature","geometry":{"type":"Point","coordinates":[-88.087066,30.673869]}},{"properties":{"city":"Mobile","name":null,"county":"Mobile","unit":null,"geo_score":0.857,"dwelling":"APT","notes":"multiple windows broken; board thru roof; chimney blown over; lenai destroyed; no insurance","street":"Granger St.","da":"Major","id":"ab3srozlxw6w","address":"208","geo_precision":"street","state":"AL"},"type":"Feature","geometry":{"type":"Point","coordinates":[-88.087066,30.673869]}},{"properties":{"city":"Mobile","name":null,"county":"Mobile","unit":null,"geo_score":0.857,"dwelling":"SFD","notes":null,"street":"Granger St.","da":"Affected","id":"ab3srp13reee","address":"2053","geo_precision":"street","state":"AL"},"type":"Feature","geometry":{"type":"Point","coordinates":[-88.087066,30.673869]}},{"properties":{"city":"Mobile","name":"Clarence Carrio 251-680-3174","county":"Mobile","unit":null,"geo_score":0.857,"dwelling":"SFD","notes":"front left roof gone; rafters gone; ceiling on right front lifted; front window broken","street":"Granger St.","da":"Major","id":"ab3srp4j2uba","address":"2055","geo_precision":"street","state":"AL"},"type":"Feature","geometry":{"type":"Point","coordinates":[-88.087066,30.673869]}},{"properties":{"city":"Prichard","name":null,"county":"Mobile","unit":null,"geo_score":0.714,"dwelling":"SFD","notes":"shingles off roof; blue tarp on part of roof","street":"Highland Ave.","da":"Minor","id":"ab3srp30z86m","address":"750","geo_precision":"city","state":"AL"},"type":"Feature","geometry":{"type":"Point","coordinates":[-88.078889,30.7388]}},{"properties":{"city":"Prichard","name":null,"county":"Mobile","unit":null,"geo_score":0.714,"dwelling":"SFD","notes":"shingles missing","street":"Highland Ave.","da":"Affected","id":"ab3srow4bh11","address":"752","geo_precision":"city","state":"AL"},"type":"Feature","geometry":{"type":"Point","coordinates":[-88.078889,30.7388]}},{"properties":{"city":"Prichard","name":null,"county":"Mobile","unit":null,"geo_score":0.714,"dwelling":"SFD","notes":"back roof lifted and covered by tarp; front right window busted","street":"Highland Ave.","da":"Minor","id":"ab3srozc0y3z","address":"756","geo_precision":"city","state":"AL"},"type":"Feature","geometry":{"type":"Point","coordinates":[-88.078889,30.7388]}},{"properties":{"city":"Prichard","name":null,"county":"Mobile","unit":null,"geo_score":0.714,"dwelling":"SFD","notes":"shingles all on left corner front missing","street":"Highland Ave.","da":"Affected","id":"ab3srp3a6ekj","address":"758","geo_precision":"city","state":"AL"},"type":"Feature","geometry":{"type":"Point","coordinates":[-88.078889,30.7388]}},{"properties":{"city":"Prichard","name":null,"county":"Mobile","unit":null,"geo_score":0.714,"dwelling":"SFD","notes":"shingles missing on left side","street":"Highland Ave.","da":"Affected","id":"ab3srp8iqzqh","address":"760","geo_precision":"city","state":"AL"},"type":"Feature","geometry":{"type":"Point","coordinates":[-88.078889,30.7388]}},{"properties":{"city":"Prichard","name":null,"county":"Mobile","unit":null,"geo_score":0.714,"dwelling":"SFD","notes":"shingles missing on left side of house","street":"Highland Ave.","da":"Affected","id":"ab3sroxx17od","address":"768","geo_precision":"city","state":"AL"},"type":"Feature","geometry":{"type":"Point","coordinates":[-88.078889,30.7388]}},{"properties":{"city":"Prichard","name":null,"county":"Mobile","unit":null,"geo_score":0.714,"dwelling":"SFD","notes":"Shingles missing; needs tarp","street":"Highland Ave.","da":"Minor","id":"ab3srp4005jo","address":"801","geo_precision":"city","state":"AL"},"type":"Feature","geometry":{"type":"Point","coordinates":[-88.078889,30.7388]}},{"properties":{"city":"Prichard","name":null,"county":"Mobile","unit":null,"geo_score":0.714,"dwelling":"SFD","notes":"Shingles all on right front side; blue tarps on right and left rear","street":"Highland Ave.","da":"Minor","id":"ab3srox9luwo","address":"818","geo_precision":"city","state":"AL"},"type":"Feature","geometry":{"type":"Point","coordinates":[-88.078889,30.7388]}},{"properties":{"city":"Mobile","name":null,"county":"Mobile","unit":null,"geo_score":0.857,"dwelling":"SFD","notes":null,"street":"Holcombe Ave.","da":"Affected","id":"ab3srp5klrm9","address":"563","geo_precision":"street","state":"AL"},"type":"Feature","geometry":{"type":"Point","coordinates":[-88.087601,30.675684]}},{"properties":{"city":"Mobile","name":null,"county":"Mobile","unit":null,"geo_score":0.857,"dwelling":"SFD","notes":null,"street":"Holcombe Ave.","da":"Affected","id":"ab3srp0tjfoq","address":"565","geo_precision":"street","state":"AL"},"type":"Feature","geometry":{"type":"Point","coordinates":[-88.087601,30.675684]}},{"properties":{"city":"Mobile","name":null,"county":"Mobile","unit":null,"geo_score":0.857,"dwelling":"SFD","notes":null,"street":"Holcombe Ave.","da":"Affected","id":"ab3srovo6mp8","address":"567","geo_precision":"street","state":"AL"},"type":"Feature","geometry":{"type":"Point","coordinates":[-88.087601,30.675684]}},{"properties":{"city":"Mobile","name":null,"county":"Mobile","unit":null,"geo_score":0.857,"dwelling":"SFD","notes":"roof damage from debris","street":"Holcombe Ave.","da":"Affected","id":"ab3srozobjdz","address":"612","geo_precision":"street","state":"AL"},"type":"Feature","geometry":{"type":"Point","coordinates":[-88.087601,30.675684]}},{"properties":{"city":"Mobile","name":null,"county":"Mobile","unit":null,"geo_score":0.857,"dwelling":"SFD","notes":null,"street":"Holcombe Ave.","da":"Minor","id":"ab3srp1xbtzy","address":"650","geo_precision":"street","state":"AL"},"type":"Feature","geometry":{"type":"Point","coordinates":[-88.087601,30.675684]}},{"properties":{"city":"Mobile","name":null,"county":"Mobile","unit":"A","geo_score":0.857,"dwelling":"APT","notes":"Roof damage","street":"Holcombe Ave.","da":"Major","id":"ab3srp0x73cm","address":"653","geo_precision":"street","state":"AL"},"type":"Feature","geometry":{"type":"Point","coordinates":[-88.087601,30.675684]}},{"properties":{"city":"Mobile","name":null,"county":"Mobile","unit":"B","geo_score":0.857,"dwelling":"APT","notes":"Roof damage","street":"Holcombe Ave.","da":"Major","id":"ab3srozqcv0j","address":"653","geo_precision":"street","state":"AL"},"type":"Feature","geometry":{"type":"Point","coordinates":[-88.087601,30.675684]}},{"properties":{"city":"Mobile","name":null,"county":"Mobile","unit":null,"geo_score":0.729,"dwelling":"SFD","notes":null,"street":"Hunter St.","da":"Affected","id":"ab3srotosuol","address":"1859","geo_precision":"street","state":"AL"},"type":"Feature","geometry":{"type":"Point","coordinates":[-88.077252,30.680289]}},{"properties":{"city":"Mobile","name":null,"county":"Mobile","unit":null,"geo_score":0.729,"dwelling":"SFD","notes":null,"street":"Hunter St.","da":"Affected","id":"ab3srp15f19d","address":"1861","geo_precision":"street","state":"AL"},"type":"Feature","geometry":{"type":"Point","coordinates":[-88.077252,30.680289]}},{"properties":{"city":"Mobile","name":null,"county":"Mobile","unit":null,"geo_score":0.729,"dwelling":"APT","notes":null,"street":"Hunter St.","da":"Affected","id":"ab3srp85fjlf","address":"1863","geo_precision":"street","state":"AL"},"type":"Feature","geometry":{"type":"Point","coordinates":[-88.077252,30.680289]}},{"properties":{"city":"Mobile","name":null,"county":"Mobile","unit":null,"geo_score":0.729,"dwelling":"APT","notes":null,"street":"Hunter St.","da":"Minor","id":"ab3srp396b5d","address":"1865","geo_precision":"street","state":"AL"},"type":"Feature","geometry":{"type":"Point","coordinates":[-88.077252,30.680289]}},{"properties":{"city":"Mobile","name":null,"county":"Mobile","unit":null,"geo_score":0.729,"dwelling":"SFD","notes":null,"street":"Hunter St.","da":"Major","id":"ab3srp2hi0sv","address":"1901","geo_precision":"street","state":"AL"},"type":"Feature","geometry":{"type":"Point","coordinates":[-88.077252,30.680289]}},{"properties":{"city":"Mobile","name":null,"county":"Mobile","unit":null,"geo_score":0.729,"dwelling":"SFD","notes":null,"street":"Hunter St.","da":"Major","id":"ab3srotqf4sb","address":"1903","geo_precision":"street","state":"AL"},"type":"Feature","geometry":{"type":"Point","coordinates":[-88.077252,30.680289]}},{"properties":{"city":"Mobile","name":null,"county":"Mobile","unit":null,"geo_score":0.729,"dwelling":"SFD","notes":null,"street":"Hunter St.","da":"Minor","id":"ab3srp6x6q8d","address":"1905","geo_precision":"street","state":"AL"},"type":"Feature","geometry":{"type":"Point","coordinates":[-88.077252,30.680289]}},{"properties":{"city":"Mobile","name":null,"county":"Mobile","unit":null,"geo_score":0.729,"dwelling":"SFD","notes":null,"street":"Hunter St.","da":"Minor","id":"ab3sroxinn0s","address":"1907","geo_precision":"street","state":"AL"},"type":"Feature","geometry":{"type":"Point","coordinates":[-88.077252,30.680289]}},{"properties":{"city":"Mobile","name":null,"county":"Mobile","unit":null,"geo_score":0.729,"dwelling":"SFD","notes":null,"street":"Hunter St.","da":"Affected","id":"ab3sroxebwsi","address":"1909","geo_precision":"street","state":"AL"},"type":"Feature","geometry":{"type":"Point","coordinates":[-88.077252,30.680289]}},{"properties":{"city":"Mobile","name":null,"county":"Mobile","unit":null,"geo_score":0.729,"dwelling":"SFD","notes":"Tenant left","street":"Hunter St.","da":"Major","id":"ab3sroxan3mu","address":"1910","geo_precision":"street","state":"AL"},"type":"Feature","geometry":{"type":"Point","coordinates":[-88.077252,30.680289]}},{"properties":{"city":"Mobile","name":null,"county":"Mobile","unit":null,"geo_score":0.729,"dwelling":"SFD","notes":null,"street":"Hunter St.","da":"Affected","id":"ab3sroz5auun","address":"1911","geo_precision":"street","state":"AL"},"type":"Feature","geometry":{"type":"Point","coordinates":[-88.077252,30.680289]}},{"properties":{"city":"Mobile","name":null,"county":"Mobile","unit":null,"geo_score":0.729,"dwelling":"SFD","notes":null,"street":"Hunter St.","da":"Affected","id":"ab3sroy2nxeo","address":"1912","geo_precision":"street","state":"AL"},"type":"Feature","geometry":{"type":"Point","coordinates":[-88.077252,30.680289]}},{"properties":{"city":"Mobile","name":null,"county":"Mobile","unit":null,"geo_score":0.729,"dwelling":"SFD","notes":null,"street":"Hunter St.","da":"Minor","id":"ab3sroup04zh","address":"1913","geo_precision":"street","state":"AL"},"type":"Feature","geometry":{"type":"Point","coordinates":[-88.077252,30.680289]}},{"properties":{"city":"Mobile","name":null,"county":"Mobile","unit":null,"geo_score":0.729,"dwelling":"SFD","notes":null,"street":"Hunter St.","da":"Major","id":"ab3srox8mk0r","address":"1914","geo_precision":"street","state":"AL"},"type":"Feature","geometry":{"type":"Point","coordinates":[-88.077252,30.680289]}},{"properties":{"city":"Mobile","name":null,"county":"Mobile","unit":null,"geo_score":0.729,"dwelling":"SFD","notes":null,"street":"Hunter St.","da":"Affected","id":"ab3srp2jakvi","address":"1914","geo_precision":"street","state":"AL"},"type":"Feature","geometry":{"type":"Point","coordinates":[-88.077252,30.680289]}},{"properties":{"city":"Mobile","name":null,"county":"Mobile","unit":null,"geo_score":0.729,"dwelling":"SFD","notes":null,"street":"Hunter St.","da":"Minor","id":"ab3srp07517a","address":"1915","geo_precision":"street","state":"AL"},"type":"Feature","geometry":{"type":"Point","coordinates":[-88.077252,30.680289]}},{"properties":{"city":"Mobile","name":null,"county":"Mobile","unit":null,"geo_score":0.729,"dwelling":"SFD","notes":null,"street":"Hunter St.","da":"Major","id":"ab3srp5yhy01","address":"1916","geo_precision":"street","state":"AL"},"type":"Feature","geometry":{"type":"Point","coordinates":[-88.077252,30.680289]}},{"properties":{"city":"Mobile","name":null,"county":"Mobile","unit":null,"geo_score":0.729,"dwelling":"SFD","notes":null,"street":"Hunter St.","da":"Major","id":"ab3srp0yfd4b","address":"1916","geo_precision":"street","state":"AL"},"type":"Feature","geometry":{"type":"Point","coordinates":[-88.077252,30.680289]}},{"properties":{"city":"Mobile","name":null,"county":"Mobile","unit":null,"geo_score":0.729,"dwelling":"SFD","notes":null,"street":"Hunter St.","da":"Affected","id":"ab3srp26cr33","address":"1917","geo_precision":"street","state":"AL"},"type":"Feature","geometry":{"type":"Point","coordinates":[-88.077252,30.680289]}},{"properties":{"city":"Mobile","name":null,"county":"Mobile","unit":null,"geo_score":0.729,"dwelling":"SFD","notes":null,"street":"Hunter St.","da":"Major","id":"ab3srow833fu","address":"1918","geo_precision":"street","state":"AL"},"type":"Feature","geometry":{"type":"Point","coordinates":[-88.077252,30.680289]}},{"properties":{"city":"Mobile","name":null,"county":"Mobile","unit":null,"geo_score":0.729,"dwelling":"SFD","notes":null,"street":"Hunter St.","da":"Affected","id":"ab3srp18j4p7","address":"1918","geo_precision":"street","state":"AL"},"type":"Feature","geometry":{"type":"Point","coordinates":[-88.077252,30.680289]}},{"properties":{"city":"Mobile","name":null,"county":"Mobile","unit":null,"geo_score":0.729,"dwelling":"SFD","notes":null,"street":"Hunter St.","da":"Minor","id":"ab3srp8kn4kp","address":"1920","geo_precision":"street","state":"AL"},"type":"Feature","geometry":{"type":"Point","coordinates":[-88.077252,30.680289]}},{"properties":{"city":"Mobile","name":null,"county":"Mobile","unit":null,"geo_score":0.729,"dwelling":"SFD","notes":null,"street":"Hunter St.","da":"Affected","id":"ab3srp007bf5","address":"1921","geo_precision":"street","state":"AL"},"type":"Feature","geometry":{"type":"Point","coordinates":[-88.077252,30.680289]}},{"properties":{"city":"Mobile","name":null,"county":"Mobile","unit":null,"geo_score":0.729,"dwelling":"SFD","notes":null,"street":"Hunter St.","da":"Affected","id":"ab3srovfnhc7","address":"1951","geo_precision":"street","state":"AL"},"type":"Feature","geometry":{"type":"Point","coordinates":[-88.077252,30.680289]}},{"properties":{"city":"Mobile","name":null,"county":"Mobile","unit":null,"geo_score":0.729,"dwelling":"SFD","notes":null,"street":"Hunter St.","da":"Affected","id":"ab3srp59rv4x","address":"1953","geo_precision":"street","state":"AL"},"type":"Feature","geometry":{"type":"Point","coordinates":[-88.077252,30.680289]}},{"properties":{"city":"Mobile","name":null,"county":"Mobile","unit":null,"geo_score":0.729,"dwelling":"SFD","notes":null,"street":"Hunter St.","da":"Affected","id":"ab3srot9ux40","address":"1955","geo_precision":"street","state":"AL"},"type":"Feature","geometry":{"type":"Point","coordinates":[-88.077252,30.680289]}},{"properties":{"city":"Mobile","name":null,"county":"Mobile","unit":null,"geo_score":0.729,"dwelling":"SFD","notes":null,"street":"Hunter St.","da":"Affected","id":"ab3sroxs9zfc","address":"1957","geo_precision":"street","state":"AL"},"type":"Feature","geometry":{"type":"Point","coordinates":[-88.077252,30.680289]}},{"properties":{"city":"Mobile","name":null,"county":"Mobile","unit":null,"geo_score":0.729,"dwelling":"SFD","notes":null,"street":"Hunter St.","da":"None","id":"ab3srp848l06","address":"1959","geo_precision":"street","state":"AL"},"type":"Feature","geometry":{"type":"Point","coordinates":[-88.077252,30.680289]}},{"properties":{"city":"Mobile","name":null,"county":"Mobile","unit":null,"geo_score":0.729,"dwelling":"SFD","notes":null,"street":"Hunter St.","da":"Affected","id":"ab3srosszcmn","address":"1961","geo_precision":"street","state":"AL"},"type":"Feature","geometry":{"type":"Point","coordinates":[-88.077252,30.680289]}},{"properties":{"city":"Mobile","name":null,"county":"Mobile","unit":null,"geo_score":0.729,"dwelling":"SFD","notes":null,"street":"Hunter St.","da":"Minor","id":"ab3srp3jaw9q","address":"1963","geo_precision":"street","state":"AL"},"type":"Feature","geometry":{"type":"Point","coordinates":[-88.077252,30.680289]}},{"properties":{"city":"Marengo","name":null,"county":"Demopolis","unit":"1","geo_score":0.0,"dwelling":"MH","notes":"Norris Hill Trailer Park - unknown home numbers","street":"Hwy 80 E","da":"Destroyed","id":"ab3srp1a0tf6","address":"3988 Lot 20","geo_precision":"unmatched","state":"AL"},"type":"Feature","geometry":null},{"properties":{"city":"Marengo","name":null,"county":"Demopolis","unit":"2","geo_score":0.0,"dwelling":"MH","notes":"Norris Hill Trailer Park - unknown home numbers","street":"Hwy 80 E","da":"Minor","id":"ab3sroudtppf","address":"3988 Lot 20","geo_precision":"unmatched","state":"AL"},"type":"Feature","geometry":null},{"properties":{"city":"Marengo","name":null,"county":"Demopolis","unit":"3","geo_score":0.0,"dwelling":"MH","notes":"Norris Hill Trailer Park - unknown home numbers","street":"Hwy 80 E","da":"Minor","id":"ab3srp84g6nq","address":"3988 Lot 20","geo_precision":"unmatched","state":"AL"},"type":"Feature","geometry":null},{"properties":{"city":"Marengo","name":null,"county":"Demopolis","unit":"4","geo_score":0.0,"dwelling":"MH","notes":"Norris Hill Trailer Park - unknown home numbers","street":"Hwy 80 E","da":"Affected","id":"ab3srp3wszlt","address":"3988 Lot 20","geo_precision":"unmatched","state":"AL"},"type":"Feature","geometry":null},{"properties":{"city":"Marengo","name":null,"county":"Demopolis","unit":"5","geo_score":0.0,"dwelling":"MH","notes":"Norris Hill Trailer Park - unknown home numbers","street":"Hwy 80 E","da":"Affected","id":"ab3srp7rr7qa","address":"3988 Lot 20","geo_precision":"unmatched","state":"AL"},"type":"Feature","geometry":null},{"properties":{"city":"Marengo","name":null,"county":"Demopolis","unit":"6","geo_score":0.0,"dwelling":"MH","notes":"Norris Hill Trailer Park - unknown home numbers","street":"Hwy 80 E","da":"Affected","id":"ab3srp2u49ay","address":"3988 Lot 20","geo_precision":"unmatched","state":"AL"},"type":"Feature","geometry":null},{"properties":{"city":"Marengo","name":null,"county":"Demopolis","unit":"7","geo_score":0.0,"dwelling":"MH","notes":"Norris Hill Trailer Park - unknown home numbers","street":"Hwy 80 E","da":"Affected","id":"ab3sroui4caq","address":"3988 Lot 20","geo_precision":"unmatched","state":"AL"},"type":"Feature","geometry":null},{"properties":{"city":"Luverne","name":null,"county":"Crenshaw","unit":null,"geo_score":0.725,"dwelling":"SFD","notes":"roof and porch damage","street":"Jeff Coat Ave.","da":"Affected","id":"ab3srp0ymk5w","address":"44","geo_precision":"street","state":"AL"},"type":"Feature","geometry":{"type":"Point","coordinates":[-86.265711,31.718521]}},{"properties":{"city":"Luverne","name":null,"county":"Crenshaw","unit":null,"geo_score":0.821,"dwelling":"SFD","notes":null,"street":"Jeff Coat Ct.","da":"Affected","id":"ab3srp2goec9","address":"46","geo_precision":"street","state":"AL"},"type":"Feature","geometry":{"type":"Point","coordinates":[-86.269421,31.721014]}},{"properties":{"city":"Luverne","name":null,"county":"Crenshaw","unit":null,"geo_score":0.821,"dwelling":"MH","notes":"AC turned over, blown out windows","street":"Jeff Coat Ct.","da":"Minor","id":"ab3srp2kwg9r","address":"52","geo_precision":"street","state":"AL"},"type":"Feature","geometry":{"type":"Point","coordinates":[-86.269421,31.721014]}},{"properties":{"city":"Luverne","name":null,"county":"Crenshaw","unit":null,"geo_score":0.821,"dwelling":"SFD","notes":"Roof has some damage","street":"Jeff Coat Ct.","da":"Affected","id":"ab3srp2rs6c3","address":"73","geo_precision":"street","state":"AL"},"type":"Feature","geometry":{"type":"Point","coordinates":[-86.269421,31.721014]}},{"properties":{"city":"Luverne","name":null,"county":"Crenshaw","unit":null,"geo_score":0.821,"dwelling":"SFD","notes":null,"street":"Jeff Coat St.","da":"Affected","id":"ab3sroyzdjhe","address":"290","geo_precision":"street","state":"AL"},"type":"Feature","geometry":{"type":"Point","coordinates":[-86.265711,31.718521]}},{"properties":{"city":"Luverne","name":null,"county":"Crenshaw","unit":null,"geo_score":0.821,"dwelling":"SFD","notes":null,"street":"Jeff Coat St.","da":"Minor","id":"ab3srp6xupzm","address":"326","geo_precision":"street","state":"AL"},"type":"Feature","geometry":{"type":"Point","coordinates":[-86.265711,31.718521]}},{"properties":{"city":"Luverne","name":null,"county":"Crenshaw","unit":null,"geo_score":0.821,"dwelling":"SFD","notes":null,"street":"Jeff Coat St.","da":"Affected","id":"ab3srp5ju0qh","address":"348","geo_precision":"street","state":"AL"},"type":"Feature","geometry":{"type":"Point","coordinates":[-86.265711,31.718521]}},{"properties":{"city":"Luverne","name":null,"county":"Crenshaw","unit":null,"geo_score":0.821,"dwelling":"SFD","notes":null,"street":"Jeff Coat St.","da":"Major","id":"ab3sroxn9bkv","address":"364","geo_precision":"street","state":"AL"},"type":"Feature","geometry":{"type":"Point","coordinates":[-86.265711,31.718521]}},{"properties":{"city":"Luverne","name":null,"county":"Crenshaw","unit":null,"geo_score":0.821,"dwelling":"SFD","notes":null,"street":"Jeff Coat St.","da":"Minor","id":"ab3sroz2ywxs","address":"369","geo_precision":"street","state":"AL"},"type":"Feature","geometry":{"type":"Point","coordinates":[-86.265711,31.718521]}},{"properties":{"city":"Luverne","name":null,"county":"Crenshaw","unit":null,"geo_score":0.821,"dwelling":"SFD","notes":null,"street":"Jeff Coat St.","da":"Affected","id":"ab3srp7p1opt","address":"388","geo_precision":"street","state":"AL"},"type":"Feature","geometry":{"type":"Point","coordinates":[-86.265711,31.718521]}},{"properties":{"city":"Luverne","name":null,"county":"Crenshaw","unit":null,"geo_score":0.821,"dwelling":"SFD","notes":null,"street":"Jeff Coat St.","da":"Affected","id":"ab3srozi9rxq","address":"405","geo_precision":"street","state":"AL"},"type":"Feature","geometry":{"type":"Point","coordinates":[-86.265711,31.718521]}},{"properties":{"city":"Luverne","name":null,"county":"Crenshaw","unit":null,"geo_score":0.821,"dwelling":"SFD","notes":null,"street":"Jeff Coat St.","da":"Affected","id":"ab3sroxu74om","address":"447","geo_precision":"street","state":"AL"},"type":"Feature","geometry":{"type":"Point","coordinates":[-86.265711,31.718521]}},{"properties":{"city":"Mobile","name":null,"county":"Mobile","unit":null,"geo_score":0.857,"dwelling":"SFD","notes":"Roof damage - no power","street":"Johnston Ave.","da":"Minor","id":"ab3srp3jgipy","address":"654","geo_precision":"street","state":"AL"},"type":"Feature","geometry":{"type":"Point","coordinates":[-88.088264,30.667185]}},{"properties":{"city":"Mobile","name":null,"county":"Mobile","unit":null,"geo_score":0.857,"dwelling":"APT","notes":null,"street":"Johnston Ave.","da":"Minor","id":"ab3srox3otay","address":"718","geo_precision":"street","state":"AL"},"type":"Feature","geometry":{"type":"Point","coordinates":[-88.088264,30.667185]}},{"properties":{"city":"Mobile","name":null,"county":"Mobile","unit":null,"geo_score":0.857,"dwelling":"APT","notes":null,"street":"Johnston Ave.","da":"Minor","id":"ab3srosli9bz","address":"720","geo_precision":"street","state":"AL"},"type":"Feature","geometry":{"type":"Point","coordinates":[-88.088264,30.667185]}},{"properties":{"city":"Mobile","name":null,"county":"Mobile","unit":null,"geo_score":0.857,"dwelling":"SFD","notes":"Affected window damaged","street":"Laurel Dr","da":"Affected","id":"ab3srp5pnmfq","address":"282","geo_precision":"street","state":"AL"},"type":"Feature","geometry":{"type":"Point","coordinates":[-88.079663,30.706034]}},{"properties":{"city":"Mobile","name":null,"county":"Mobile","unit":null,"geo_score":0.857,"dwelling":"SFD","notes":"Roof and Porch affected","street":"Laurel Dr","da":"Affected","id":"ab3srp4d5dew","address":"300","geo_precision":"street","state":"AL"},"type":"Feature","geometry":{"type":"Point","coordinates":[-88.079663,30.706034]}},{"properties":{"city":"Mobile","name":null,"county":"Mobile","unit":null,"geo_score":0.756,"dwelling":"SFD","notes":null,"street":"Little Flower","da":"Affected","id":"ab3sroyp6n94","address":"418","geo_precision":"street","state":"AL"},"type":"Feature","geometry":{"type":"Point","coordinates":[-88.089857,30.675105]}},{"properties":{"city":"Mobile","name":null,"county":"Mobile","unit":null,"geo_score":0.756,"dwelling":"SFD","notes":null,"street":"Little Flower","da":"Affected","id":"ab3sroxc2ei8","address":"420","geo_precision":"street","state":"AL"},"type":"Feature","geometry":{"type":"Point","coordinates":[-88.089857,30.675105]}},{"properties":{"city":"Mobile","name":null,"county":"Mobile","unit":null,"geo_score":0.756,"dwelling":"SFD","notes":null,"street":"Little Flower","da":"Affected","id":"ab3sroz7jjtm","address":"422","geo_precision":"street","state":"AL"},"type":"Feature","geometry":{"type":"Point","coordinates":[-88.089857,30.675105]}},{"properties":{"city":"Mobile","name":null,"county":"Mobile","unit":null,"geo_score":0.857,"dwelling":"SFD","notes":null,"street":"Margaret St","da":"Affected","id":"ab3srovewl2g","address":"103","geo_precision":"street","state":"AL"},"type":"Feature","geometry":{"type":"Point","coordinates":[-88.085757,30.691637]}},{"properties":{"city":"Mobile","name":null,"county":"Mobile","unit":null,"geo_score":0.857,"dwelling":"SFD","notes":null,"street":"Margaret St","da":"Affected","id":"ab3srp0y51fh","address":"105","geo_precision":"street","state":"AL"},"type":"Feature","geometry":{"type":"Point","coordinates":[-88.085757,30.691637]}},{"properties":{"city":"Mobile","name":null,"county":"Mobile","unit":null,"geo_score":0.857,"dwelling":"SFD","notes":null,"street":"Margaret St","da":"Major","id":"ab3sroxjhb6o","address":"106","geo_precision":"street","state":"AL"},"type":"Feature","geometry":{"type":"Point","coordinates":[-88.085757,30.691637]}},{"properties":{"city":"Mobile","name":null,"county":"Mobile","unit":null,"geo_score":0.857,"dwelling":"SFD","notes":null,"street":"Margaret St","da":"Major","id":"ab3srp6ggecd","address":"108","geo_precision":"street","state":"AL"},"type":"Feature","geometry":{"type":"Point","coordinates":[-88.085757,30.691637]}},{"properties":{"city":"Mobile","name":null,"county":"Mobile","unit":null,"geo_score":0.857,"dwelling":"SFD","notes":null,"street":"Margaret St","da":"Affected","id":"ab3sroskm6up","address":"109","geo_precision":"street","state":"AL"},"type":"Feature","geometry":{"type":"Point","coordinates":[-88.085757,30.691637]}},{"properties":{"city":"Mobile","name":null,"county":"Mobile","unit":null,"geo_score":0.857,"dwelling":"SFD","notes":null,"street":"Margaret St","da":"Major","id":"ab3srp5lt7lo","address":"110","geo_precision":"street","state":"AL"},"type":"Feature","geometry":{"type":"Point","coordinates":[-88.085757,30.691637]}},{"properties":{"city":"Mobile","name":null,"county":"Mobile","unit":null,"geo_score":0.857,"dwelling":"SFD","notes":null,"street":"Margaret St","da":"Affected","id":"ab3srp2pcrqp","address":"111","geo_precision":"street","state":"AL"},"type":"Feature","geometry":{"type":"Point","coordinates":[-88.085757,30.691637]}},{"properties":{"city":"Mobile","name":null,"county":"Mobile","unit":null,"geo_score":0.857,"dwelling":"SFD","notes":null,"street":"Margaret St","da":"Major","id":"ab3sroug6r6y","address":"112","geo_precision":"street","state":"AL"},"type":"Feature","geometry":{"type":"Point","coordinates":[-88.085757,30.691637]}},{"properties":{"city":"Mobile","name":null,"county":"Mobile","unit":null,"geo_score":0.857,"dwelling":"SFD","notes":null,"street":"Margaret St","da":"Affected","id":"ab3sroske31a","address":"113","geo_precision":"street","state":"AL"},"type":"Feature","geometry":{"type":"Point","coordinates":[-88.085757,30.691637]}},{"properties":{"city":"Mobile","name":null,"county":"Mobile","unit":null,"geo_score":0.857,"dwelling":"SFD","notes":null,"street":"Margaret St","da":"Minor","id":"ab3srp2q61n8","address":"114","geo_precision":"street","state":"AL"},"type":"Feature","geometry":{"type":"Point","coordinates":[-88.085757,30.691637]}},{"properties":{"city":"Mobile","name":null,"county":"Mobile","unit":null,"geo_score":0.857,"dwelling":"SFD","notes":null,"street":"Margaret St","da":"Affected","id":"ab3srp57uel8","address":"115","geo_precision":"street","state":"AL"},"type":"Feature","geometry":{"type":"Point","coordinates":[-88.085757,30.691637]}},{"properties":{"city":"Mobile","name":null,"county":"Mobile","unit":null,"geo_score":0.857,"dwelling":"SFD","notes":null,"street":"Margaret St","da":"Minor","id":"ab3srp0fydz9","address":"116","geo_precision":"street","state":"AL"},"type":"Feature","geometry":{"type":"Point","coordinates":[-88.085757,30.691637]}},{"properties":{"city":"Mobile","name":null,"county":"Mobile","unit":null,"geo_score":0.857,"dwelling":"SFD","notes":null,"street":"Margaret St","da":"Affected","id":"ab3srp8787ct","address":"117","geo_precision":"street","state":"AL"},"type":"Feature","geometry":{"type":"Point","coordinates":[-88.085757,30.691637]}},{"properties":{"city":"Mobile","name":null,"county":"Mobile","unit":null,"geo_score":0.857,"dwelling":"SFD","notes":null,"street":"Margaret St","da":"Affected","id":"ab3srp0eu8sd","address":"118","geo_precision":"street","state":"AL"},"type":"Feature","geometry":{"type":"Point","coordinates":[-88.085757,30.691637]}},{"properties":{"city":"Mobile","name":null,"county":"Mobile","unit":null,"geo_score":0.857,"dwelling":"SFD","notes":null,"street":"Margaret St","da":"Affected","id":"ab3srov8cbs6","address":"119","geo_precision":"street","state":"AL"},"type":"Feature","geometry":{"type":"Point","coordinates":[-88.085757,30.691637]}},{"properties":{"city":"Mobile","name":null,"county":"Mobile","unit":null,"geo_score":0.857,"dwelling":"SFD","notes":null,"street":"Margaret St","da":"Minor","id":"ab3srotxb386","address":"120","geo_precision":"street","state":"AL"},"type":"Feature","geometry":{"type":"Point","coordinates":[-88.085757,30.691637]}},{"properties":{"city":"Mobile","name":null,"county":"Mobile","unit":null,"geo_score":0.857,"dwelling":"SFD","notes":null,"street":"Margaret St","da":"Minor","id":"ab3srp74kg4h","address":"121","geo_precision":"street","state":"AL"},"type":"Feature","geometry":{"type":"Point","coordinates":[-88.085757,30.691637]}},{"properties":{"city":"Mobile","name":null,"county":"Mobile","unit":null,"geo_score":0.857,"dwelling":"SFD","notes":null,"street":"Margaret St","da":"Affected","id":"ab3srp1886ts","address":"123","geo_precision":"street","state":"AL"},"type":"Feature","geometry":{"type":"Point","coordinates":[-88.085757,30.691637]}},{"properties":{"city":"Mobile","name":null,"county":"Mobile","unit":null,"geo_score":0.857,"dwelling":"SFD","notes":null,"street":"Mohawk St","da":"Affected","id":"ab3sroxqnt3r","address":"419","geo_precision":"street","state":"AL"},"type":"Feature","geometry":{"type":"Point","coordinates":[-88.091759,30.684742]}},{"properties":{"city":"Mobile","name":null,"county":"Mobile","unit":null,"geo_score":0.857,"dwelling":"SFD","notes":null,"street":"Mohawk St","da":"Affected","id":"ab3sroyiv0lo","address":"420","geo_precision":"street","state":"AL"},"type":"Feature","geometry":{"type":"Point","coordinates":[-88.091759,30.684742]}},{"properties":{"city":"Mobile","name":null,"county":"Mobile","unit":null,"geo_score":0.857,"dwelling":"SFD","notes":null,"street":"Mohawk St","da":"Affected","id":"ab3srp89w6jl","address":"421","geo_precision":"street","state":"AL"},"type":"Feature","geometry":{"type":"Point","coordinates":[-88.091759,30.684742]}},{"properties":{"city":"Mobile","name":null,"county":"Mobile","unit":null,"geo_score":0.857,"dwelling":"SFD","notes":null,"street":"Mohawk St","da":"Affected","id":"ab3srp2zkham","address":"423","geo_precision":"street","state":"AL"},"type":"Feature","geometry":{"type":"Point","coordinates":[-88.091759,30.684742]}},{"properties":{"city":"Mobile","name":null,"county":"Mobile","unit":null,"geo_score":0.857,"dwelling":"SFD","notes":null,"street":"Mohawk St","da":"Affected","id":"ab3srowsalyn","address":"425","geo_precision":"street","state":"AL"},"type":"Feature","geometry":{"type":"Point","coordinates":[-88.091759,30.684742]}},{"properties":{"city":"Mobile","name":null,"county":"Mobile","unit":null,"geo_score":0.857,"dwelling":"SFD","notes":null,"street":"Mohawk St","da":"Affected","id":"ab3srp6sv0io","address":"427","geo_precision":"street","state":"AL"},"type":"Feature","geometry":{"type":"Point","coordinates":[-88.091759,30.684742]}},{"properties":{"city":"Mobile","name":null,"county":"Mobile","unit":null,"geo_score":0.857,"dwelling":"SFD","notes":null,"street":"Mohawk St","da":"Affected","id":"ab3srp15jats","address":"1407","geo_precision":"street","state":"AL"},"type":"Feature","geometry":{"type":"Point","coordinates":[-88.091759,30.684742]}},{"properties":{"city":"Mobile","name":null,"county":"Mobile","unit":null,"geo_score":0.857,"dwelling":"SFD","notes":null,"street":"Mohawk St","da":"Affected","id":"ab3sroxpyrkk","address":"1413","geo_precision":"street","state":"AL"},"type":"Feature","geometry":{"type":"Point","coordinates":[-88.091759,30.684742]}},{"properties":{"city":"Mobile","name":null,"county":"Mobile","unit":null,"geo_score":0.857,"dwelling":"SFD","notes":null,"street":"Mohawk St","da":"Affected","id":"ab3srp4jbv67","address":"1415","geo_precision":"street","state":"AL"},"type":"Feature","geometry":{"type":"Point","coordinates":[-88.091759,30.684742]}},{"properties":{"city":"Mobile","name":null,"county":"Mobile","unit":null,"geo_score":0.857,"dwelling":"SFD","notes":null,"street":"Mohawk St","da":"Affected","id":"ab3srp8lel0i","address":"1417","geo_precision":"street","state":"AL"},"type":"Feature","geometry":{"type":"Point","coordinates":[-88.091759,30.684742]}},{"properties":{"city":"Mobile","name":null,"county":"Mobile","unit":null,"geo_score":0.857,"dwelling":"SFD","notes":null,"street":"Myrtle Ave","da":"Affected","id":"ab3srozab51q","address":"1900","geo_precision":"street","state":"AL"},"type":"Feature","geometry":{"type":"Point","coordinates":[-88.085456,30.67718]}},{"properties":{"city":"Mobile","name":null,"county":"Mobile","unit":null,"geo_score":0.857,"dwelling":"SFD","notes":null,"street":"Myrtle Ave","da":"Minor","id":"ab3sroubb4ur","address":"1902","geo_precision":"street","state":"AL"},"type":"Feature","geometry":{"type":"Point","coordinates":[-88.085456,30.67718]}},{"properties":{"city":"Mobile","name":null,"county":"Mobile","unit":null,"geo_score":0.857,"dwelling":"SFD","notes":null,"street":"Myrtle Ave","da":"Affected","id":"ab3srp0u566u","address":"1903","geo_precision":"street","state":"AL"},"type":"Feature","geometry":{"type":"Point","coordinates":[-88.085456,30.67718]}},{"properties":{"city":"Mobile","name":null,"county":"Mobile","unit":"1","geo_score":0.857,"dwelling":"APT","notes":null,"street":"Myrtle Ave","da":"Minor","id":"ab3srp44ze5m","address":"1904","geo_precision":"street","state":"AL"},"type":"Feature","geometry":{"type":"Point","coordinates":[-88.085456,30.67718]}},{"properties":{"city":"Mobile","name":null,"county":"Mobile","unit":"2","geo_score":0.857,"dwelling":"APT","notes":null,"street":"Myrtle Ave","da":"Minor","id":"ab3srp60gair","address":"1904","geo_precision":"street","state":"AL"},"type":"Feature","geometry":{"type":"Point","coordinates":[-88.085456,30.67718]}},{"properties":{"city":"Mobile","name":null,"county":"Mobile","unit":"3","geo_score":0.857,"dwelling":"APT","notes":null,"street":"Myrtle Ave","da":"Minor","id":"ab3srp0xn3b5","address":"1904","geo_precision":"street","state":"AL"},"type":"Feature","geometry":{"type":"Point","coordinates":[-88.085456,30.67718]}},{"properties":{"city":"Mobile","name":null,"county":"Mobile","unit":"4","geo_score":0.857,"dwelling":"APT","notes":null,"street":"Myrtle Ave","da":"Minor","id":"ab3sroxnn5c9","address":"1904","geo_precision":"street","state":"AL"},"type":"Feature","geometry":{"type":"Point","coordinates":[-88.085456,30.67718]}},{"properties":{"city":"Mobile","name":null,"county":"Mobile","unit":null,"geo_score":0.857,"dwelling":"SFD","notes":null,"street":"Myrtle Ave","da":"Affected","id":"ab3sroxshnnp","address":"1908","geo_precision":"street","state":"AL"},"type":"Feature","geometry":{"type":"Point","coordinates":[-88.085456,30.67718]}},{"properties":{"city":"Mobile","name":null,"county":"Mobile","unit":"A","geo_score":0.857,"dwelling":"APT","notes":null,"street":"Myrtle Ave","da":"Affected","id":"ab3srp8st44u","address":"1910","geo_precision":"street","state":"AL"},"type":"Feature","geometry":{"type":"Point","coordinates":[-88.085456,30.67718]}},{"properties":{"city":"Mobile","name":null,"county":"Mobile","unit":"B","geo_score":0.857,"dwelling":"APT","notes":null,"street":"Myrtle Ave","da":"Affected","id":"ab3sroxonczu","address":"1910","geo_precision":"street","state":"AL"},"type":"Feature","geometry":{"type":"Point","coordinates":[-88.085456,30.67718]}},{"properties":{"city":"Mobile","name":null,"county":"Mobile","unit":null,"geo_score":0.857,"dwelling":"SFD","notes":null,"street":"Myrtle Ave","da":"Affected","id":"ab3srp3mgrnp","address":"1912","geo_precision":"street","state":"AL"},"type":"Feature","geometry":{"type":"Point","coordinates":[-88.085456,30.67718]}},{"properties":{"city":"Mobile","name":null,"county":"Mobile","unit":null,"geo_score":0.857,"dwelling":"SFD","notes":null,"street":"Myrtle Ave","da":"Affected","id":"ab3sroxvc8qj","address":"1914","geo_precision":"street","state":"AL"},"type":"Feature","geometry":{"type":"Point","coordinates":[-88.085456,30.67718]}},{"properties":{"city":"Mobile","name":null,"county":"Mobile","unit":null,"geo_score":0.857,"dwelling":"SFD","notes":null,"street":"Myrtle Ave","da":"Affected","id":"ab3srp8jqhxt","address":"1916","geo_precision":"street","state":"AL"},"type":"Feature","geometry":{"type":"Point","coordinates":[-88.085456,30.67718]}},{"properties":{"city":"Mobile","name":null,"county":"Mobile","unit":null,"geo_score":0.857,"dwelling":"MH","notes":null,"street":"Myrtle Ave","da":"Affected","id":"ab3srp24sozk","address":"1917","geo_precision":"street","state":"AL"},"type":"Feature","geometry":{"type":"Point","coordinates":[-88.085456,30.67718]}},{"properties":{"city":"Mobile","name":null,"county":"Mobile","unit":null,"geo_score":0.857,"dwelling":"SFD","notes":null,"street":"Myrtle Ave","da":"Affected","id":"ab3sroz5xbl5","address":"1918","geo_precision":"street","state":"AL"},"type":"Feature","geometry":{"type":"Point","coordinates":[-88.085456,30.67718]}},{"properties":{"city":"Mobile","name":null,"county":"Mobile","unit":null,"geo_score":0.857,"dwelling":"SFD","notes":null,"street":"Myrtle Ave","da":"Minor","id":"ab3srotjd9q6","address":"1920","geo_precision":"street","state":"AL"},"type":"Feature","geometry":{"type":"Point","coordinates":[-88.085456,30.67718]}},{"properties":{"city":"Mobile","name":null,"county":"Mobile","unit":null,"geo_score":0.857,"dwelling":"SFD","notes":null,"street":"Myrtle Ave","da":"Minor","id":"ab3srowuyghz","address":"1950","geo_precision":"street","state":"AL"},"type":"Feature","geometry":{"type":"Point","coordinates":[-88.085456,30.67718]}},{"properties":{"city":"Mobile","name":null,"county":"Mobile","unit":null,"geo_score":0.857,"dwelling":"SFD","notes":null,"street":"Myrtle Ave","da":"Affected","id":"ab3srp2cegu7","address":"1952","geo_precision":"street","state":"AL"},"type":"Feature","geometry":{"type":"Point","coordinates":[-88.085456,30.67718]}},{"properties":{"city":"Mobile","name":null,"county":"Mobile","unit":null,"geo_score":0.857,"dwelling":"SFD","notes":null,"street":"Myrtle Ave","da":"Affected","id":"ab3srp39q08f","address":"1952","geo_precision":"street","state":"AL"},"type":"Feature","geometry":{"type":"Point","coordinates":[-88.085456,30.67718]}},{"properties":{"city":"Mobile","name":null,"county":"Mobile","unit":null,"geo_score":0.857,"dwelling":"SFD","notes":null,"street":"Myrtle Ave","da":"Affected","id":"ab3srosl68m2","address":"1953","geo_precision":"street","state":"AL"},"type":"Feature","geometry":{"type":"Point","coordinates":[-88.085456,30.67718]}},{"properties":{"city":"Mobile","name":null,"county":"Mobile","unit":"A","geo_score":0.476,"dwelling":"APT","notes":"roof leaks","street":"N. Carlen St.","da":"Major","id":"ab3srp50ls14","address":"2","geo_precision":"street","state":"AL"},"type":"Feature","geometry":{"type":"Point","coordinates":[-88.157294,30.63534]}},{"properties":{"city":"Mobile","name":null,"county":"Mobile","unit":"B","geo_score":0.476,"dwelling":"APT","notes":"roof leaks","street":"N. Carlen St.","da":"Major","id":"ab3srp05rc1u","address":"2","geo_precision":"street","state":"AL"},"type":"Feature","geometry":{"type":"Point","coordinates":[-88.157294,30.63534]}},{"properties":{"city":"Mobile","name":null,"county":"Mobile","unit":null,"geo_score":0.476,"dwelling":"SFD","notes":null,"street":"N. Carlen St.","da":"Minor","id":"ab3srp4gj3di","address":"115","geo_precision":"street","state":"AL"},"type":"Feature","geometry":{"type":"Point","coordinates":[-88.157294,30.63534]}},{"properties":{"city":"Mobile","name":null,"county":"Mobile","unit":null,"geo_score":0.476,"dwelling":"SFD","notes":null,"street":"N. Carlen St.","da":"Major","id":"ab3srp014ds6","address":"117","geo_precision":"street","state":"AL"},"type":"Feature","geometry":{"type":"Point","coordinates":[-88.157294,30.63534]}},{"properties":{"city":"Mobile","name":null,"county":"Mobile","unit":null,"geo_score":0.476,"dwelling":"SFD","notes":null,"street":"N. Carlen St.","da":"Major","id":"ab3srp1pobz4","address":"119","geo_precision":"street","state":"AL"},"type":"Feature","geometry":{"type":"Point","coordinates":[-88.157294,30.63534]}},{"properties":{"city":"Mobile","name":null,"county":"Mobile","unit":null,"geo_score":0.476,"dwelling":"SFD","notes":"nearing destroyed tree thru front porch and into roof of front","street":"N. Carlen St.","da":"Major","id":"ab3sroxscw46","address":"121","geo_precision":"street","state":"AL"},"type":"Feature","geometry":{"type":"Point","coordinates":[-88.157294,30.63534]}},{"properties":{"city":"Mobile","name":null,"county":"Mobile","unit":null,"geo_score":0.476,"dwelling":"SFD","notes":null,"street":"N. Carlen St.","da":"Minor","id":"ab3srp2ds6lj","address":"123","geo_precision":"street","state":"AL"},"type":"Feature","geometry":{"type":"Point","coordinates":[-88.157294,30.63534]}},{"properties":{"city":"Mobile","name":null,"county":"Mobile","unit":null,"geo_score":0.476,"dwelling":"SFD","notes":null,"street":"N. Carlen St.","da":"Minor","id":"ab3sroy371ym","address":"125","geo_precision":"street","state":"AL"},"type":"Feature","geometry":{"type":"Point","coordinates":[-88.157294,30.63534]}},{"properties":{"city":"Mobile","name":null,"county":"Mobile","unit":null,"geo_score":0.476,"dwelling":"SFD","notes":"wall from another house blown into the back this house needs tarps","street":"N. Carlen St.","da":"Major","id":"ab3srovl8h3t","address":"127","geo_precision":"street","state":"AL"},"type":"Feature","geometry":{"type":"Point","coordinates":[-88.157294,30.63534]}},{"properties":{"city":"Mobile","name":null,"county":"Mobile","unit":null,"geo_score":0.476,"dwelling":"SFD","notes":null,"street":"N. Carlen St.","da":"Minor","id":"ab3srp6tt615","address":"129","geo_precision":"street","state":"AL"},"type":"Feature","geometry":{"type":"Point","coordinates":[-88.157294,30.63534]}},{"properties":{"city":"Mobile","name":null,"county":"Mobile","unit":null,"geo_score":0.476,"dwelling":"MH","notes":null,"street":"N. Carlen St.","da":"Affected","id":"ab3srp67wi5a","address":"131","geo_precision":"street","state":"AL"},"type":"Feature","geometry":{"type":"Point","coordinates":[-88.157294,30.63534]}},{"properties":{"city":"Mobile","name":null,"county":"Mobile","unit":null,"geo_score":0.476,"dwelling":"SFD","notes":null,"street":"N. Carlen St.","da":"Minor","id":"ab3srowm2caj","address":"135","geo_precision":"street","state":"AL"},"type":"Feature","geometry":{"type":"Point","coordinates":[-88.157294,30.63534]}},{"properties":{"city":"Mobile","name":null,"county":"Mobile","unit":null,"geo_score":0.476,"dwelling":"SFD","notes":null,"street":"N. Carlen St.","da":"Affected","id":"ab3srp26bvsw","address":"146","geo_precision":"street","state":"AL"},"type":"Feature","geometry":{"type":"Point","coordinates":[-88.157294,30.63534]}},{"properties":{"city":"Mobile","name":null,"county":"Mobile","unit":null,"geo_score":0.476,"dwelling":"SFD","notes":"fences down/ window out detached garage","street":"N. Carlen St.","da":"Affected","id":"ab3sroyn5d54","address":"148","geo_precision":"street","state":"AL"},"type":"Feature","geometry":{"type":"Point","coordinates":[-88.157294,30.63534]}},{"properties":{"city":"Mobile","name":null,"county":"Mobile","unit":"1","geo_score":0.476,"dwelling":"APT","notes":null,"street":"N. Carlen St.","da":"Affected","id":"ab3srp73tv9d","address":"1235","geo_precision":"street","state":"AL"},"type":"Feature","geometry":{"type":"Point","coordinates":[-88.157294,30.63534]}},{"properties":{"city":"Mobile","name":null,"county":"Mobile","unit":"2","geo_score":0.476,"dwelling":"APT","notes":null,"street":"N. Carlen St.","da":"Affected","id":"ab3srota38vv","address":"1235","geo_precision":"street","state":"AL"},"type":"Feature","geometry":{"type":"Point","coordinates":[-88.157294,30.63534]}},{"properties":{"city":"Luverne","name":null,"county":"Crenshaw","unit":null,"geo_score":0.468,"dwelling":"SFD","notes":null,"street":"N. Franklin","da":"Affected","id":"ab3sroxf7aw7","address":"241","geo_precision":"street","state":"AL"},"type":"Feature","geometry":{"type":"Point","coordinates":[-86.270653,31.720623]}},{"properties":{"city":"Luverne","name":null,"county":"Crenshaw","unit":null,"geo_score":0.468,"dwelling":"SFD","notes":null,"street":"N. Franklin","da":"Minor","id":"ab3srp6vsaj9","address":"337","geo_precision":"street","state":"AL"},"type":"Feature","geometry":{"type":"Point","coordinates":[-86.270653,31.720623]}},{"properties":{"city":"Luverne","name":null,"county":"Crenshaw","unit":null,"geo_score":0.468,"dwelling":"SFD","notes":null,"street":"N. Franklin","da":"Destroyed","id":"ab3srou926rl","address":"370","geo_precision":"street","state":"AL"},"type":"Feature","geometry":{"type":"Point","coordinates":[-86.270653,31.720623]}},{"properties":{"city":"Luverne","name":null,"county":"Crenshaw","unit":null,"geo_score":0.468,"dwelling":"SFD","notes":null,"street":"N. Franklin","da":"Minor","id":"ab3srotgpvu3","address":"400","geo_precision":"street","state":"AL"},"type":"Feature","geometry":{"type":"Point","coordinates":[-86.270653,31.720623]}},{"properties":{"city":"Wilmer","name":null,"county":"Mobile","unit":null,"geo_score":0.857,"dwelling":"MH","notes":"siding on one side off, shingles missing","street":"Natchez Hwy","da":"Minor","id":"ab3srov5p38u","address":"4951","geo_precision":"street","state":"AL"},"type":"Feature","geometry":{"type":"Point","coordinates":[-88.407513,30.797154]}},{"properties":{"city":"Wilmer","name":null,"county":"Mobile","unit":null,"geo_score":0.857,"dwelling":"MH","notes":"shingles missing","street":"Natchez Hwy","da":"Affected","id":"ab3sroxya4df","address":"4960","geo_precision":"street","state":"AL"},"type":"Feature","geometry":{"type":"Point","coordinates":[-88.407513,30.797154]}},{"properties":{"city":"Wilmer","name":null,"county":"Mobile","unit":null,"geo_score":0.857,"dwelling":"MH","notes":"split in front, roof damage","street":"Natchez Hwy","da":"Major","id":"ab3srp7iggaz","address":"4970","geo_precision":"street","state":"AL"},"type":"Feature","geometry":{"type":"Point","coordinates":[-88.407513,30.797154]}},{"properties":{"city":"Wilmer","name":null,"county":"Mobile","unit":null,"geo_score":0.857,"dwelling":"MH","notes":"Broken Window, shingles missing","street":"Natchez Hwy","da":"Affected","id":"ab3srotv80r5","address":"4980","geo_precision":"street","state":"AL"},"type":"Feature","geometry":{"type":"Point","coordinates":[-88.407513,30.797154]}},{"properties":{"city":"Wilmer","name":null,"county":"Mobile","unit":null,"geo_score":0.857,"dwelling":"MH","notes":"Shingles missing, debris","street":"Natchez Hwy","da":"Affected","id":"ab3srp3f0nj4","address":"5010","geo_precision":"street","state":"AL"},"type":"Feature","geometry":{"type":"Point","coordinates":[-88.407513,30.797154]}},{"properties":{"city":"Wilmer","name":null,"county":"Mobile","unit":null,"geo_score":0.857,"dwelling":"MH","notes":"Shingles missing, debris","street":"Natchez Hwy","da":"Affected","id":"ab3srovsl6dr","address":"5020","geo_precision":"street","state":"AL"},"type":"Feature","geometry":{"type":"Point","coordinates":[-88.407513,30.797154]}},{"properties":{"city":"Wilmer","name":null,"county":"Mobile","unit":null,"geo_score":0.0,"dwelling":"MH","notes":"Shingles missing, debris","street":"Natchez Hwy","da":"Affected","id":"ab3srp7ffszw","address":"5030","geo_precision":"unmatched","state":"Al"},"type":"Feature","geometry":null},{"properties":{"city":"Mobile","name":null,"county":"Mobile","unit":null,"geo_score":0.74,"dwelling":"SFD","notes":null,"street":"North Carlen","da":"Minor","id":"ab3srp1z47xe","address":"106","geo_precision":"street","state":"AL"},"type":"Feature","geometry":{"type":"Point","coordinates":[-88.08437,30.687209]}},{"properties":{"city":"Mobile","name":null,"county":"Mobile","unit":null,"geo_score":0.74,"dwelling":"SFD","notes":null,"street":"North Carlen","da":"Major","id":"ab3sroyhoc3p","address":"107","geo_precision":"street","state":"AL"},"type":"Feature","geometry":{"type":"Point","coordinates":[-88.08437,30.687209]}},{"properties":{"city":"Mobile","name":null,"county":"Mobile","unit":null,"geo_score":0.74,"dwelling":"SFD","notes":null,"street":"North Carlen","da":"Major","id":"ab3sroth06w3","address":"108","geo_precision":"street","state":"AL"},"type":"Feature","geometry":{"type":"Point","coordinates":[-88.08437,30.687209]}},{"properties":{"city":"Mobile","name":null,"county":"Mobile","unit":null,"geo_score":0.74,"dwelling":"SFD","notes":null,"street":"North Carlen","da":"Major","id":"ab3srp6b0q04","address":"110","geo_precision":"street","state":"AL"},"type":"Feature","geometry":{"type":"Point","coordinates":[-88.08437,30.687209]}},{"properties":{"city":"Mobile","name":null,"county":"Mobile","unit":null,"geo_score":0.74,"dwelling":"SFD","notes":null,"street":"North Carlen","da":"Major","id":"ab3sroz5nzqd","address":"111","geo_precision":"street","state":"AL"},"type":"Feature","geometry":{"type":"Point","coordinates":[-88.08437,30.687209]}},{"properties":{"city":"Mobile","name":null,"county":"Mobile","unit":null,"geo_score":0.74,"dwelling":"SFD","notes":null,"street":"North Carlen","da":"Major","id":"ab3sroter4ye","address":"112","geo_precision":"street","state":"AL"},"type":"Feature","geometry":{"type":"Point","coordinates":[-88.08437,30.687209]}},{"properties":{"city":"Mobile","name":null,"county":"Mobile","unit":null,"geo_score":0.74,"dwelling":"SFD","notes":null,"street":"North Carlen","da":"Major","id":"ab3srp5ys2lx","address":"113","geo_precision":"street","state":"AL"},"type":"Feature","geometry":{"type":"Point","coordinates":[-88.08437,30.687209]}},{"properties":{"city":"Mobile","name":null,"county":"Mobile","unit":null,"geo_score":0.74,"dwelling":"SFD","notes":null,"street":"North Carlen","da":"Major","id":"ab3srp0ge26x","address":"114","geo_precision":"street","state":"AL"},"type":"Feature","geometry":{"type":"Point","coordinates":[-88.08437,30.687209]}},{"properties":{"city":"Mobile","name":null,"county":"Mobile","unit":null,"geo_score":0.74,"dwelling":"SFD","notes":null,"street":"North Carlen","da":"Major","id":"ab3sroug5jkn","address":"116","geo_precision":"street","state":"AL"},"type":"Feature","geometry":{"type":"Point","coordinates":[-88.08437,30.687209]}},{"properties":{"city":"Mobile","name":null,"county":"Mobile","unit":null,"geo_score":0.74,"dwelling":"SFD","notes":null,"street":"North Carlen","da":"Major","id":"ab3srowdiksy","address":"118","geo_precision":"street","state":"AL"},"type":"Feature","geometry":{"type":"Point","coordinates":[-88.08437,30.687209]}},{"properties":{"city":"Mobile","name":null,"county":"Mobile","unit":null,"geo_score":0.74,"dwelling":"SFD","notes":null,"street":"North Carlen","da":"Major","id":"ab3srp1rp3xd","address":"120","geo_precision":"street","state":"AL"},"type":"Feature","geometry":{"type":"Point","coordinates":[-88.08437,30.687209]}},{"properties":{"city":"Mobile","name":null,"county":"Mobile","unit":null,"geo_score":0.74,"dwelling":"SFD","notes":null,"street":"North Carlen","da":"Minor","id":"ab3srozf43he","address":"122","geo_precision":"street","state":"AL"},"type":"Feature","geometry":{"type":"Point","coordinates":[-88.08437,30.687209]}},{"properties":{"city":"Mobile","name":null,"county":"Mobile","unit":null,"geo_score":0.74,"dwelling":"SFD","notes":null,"street":"North Carlen","da":"Major","id":"ab3srozgpqwc","address":"124","geo_precision":"street","state":"AL"},"type":"Feature","geometry":{"type":"Point","coordinates":[-88.08437,30.687209]}},{"properties":{"city":"Mobile","name":null,"county":"Mobile","unit":null,"geo_score":0.74,"dwelling":"SFD","notes":null,"street":"North Carlen","da":"Major","id":"ab3srp7ht4gu","address":"126","geo_precision":"street","state":"AL"},"type":"Feature","geometry":{"type":"Point","coordinates":[-88.08437,30.687209]}},{"properties":{"city":"Mobile","name":null,"county":"Mobile","unit":null,"geo_score":0.74,"dwelling":"SFD","notes":null,"street":"North Carlen","da":"Minor","id":"ab3srp2mc4f8","address":"128","geo_precision":"street","state":"AL"},"type":"Feature","geometry":{"type":"Point","coordinates":[-88.08437,30.687209]}},{"properties":{"city":"Mobile","name":null,"county":"Mobile","unit":null,"geo_score":0.74,"dwelling":"MH","notes":null,"street":"North Carlen","da":"Minor","id":"ab3srotl4x7b","address":"130","geo_precision":"street","state":"AL"},"type":"Feature","geometry":{"type":"Point","coordinates":[-88.08437,30.687209]}},{"properties":{"city":"Mobile","name":null,"county":"Mobile","unit":null,"geo_score":0.74,"dwelling":"SFD","notes":null,"street":"North Carlen","da":"Destroyed","id":"ab3srp16k4ac","address":"132","geo_precision":"street","state":"AL"},"type":"Feature","geometry":{"type":"Point","coordinates":[-88.08437,30.687209]}},{"properties":{"city":"Mobile","name":null,"county":"Mobile","unit":null,"geo_score":0.74,"dwelling":"SFD","notes":null,"street":"North Carlen","da":"Affected","id":"ab3srp8gc64a","address":"134","geo_precision":"street","state":"AL"},"type":"Feature","geometry":{"type":"Point","coordinates":[-88.08437,30.687209]}},{"properties":{"city":"Mobile","name":null,"county":"Mobile","unit":null,"geo_score":0.74,"dwelling":"SFD","notes":null,"street":"North Carlen","da":"Minor","id":"ab3srp2ul8sv","address":"136","geo_precision":"street","state":"AL"},"type":"Feature","geometry":{"type":"Point","coordinates":[-88.08437,30.687209]}},{"properties":{"city":"Mobile","name":null,"county":"Mobile","unit":null,"geo_score":0.74,"dwelling":"SFD","notes":null,"street":"North Carlen","da":"Minor","id":"ab3sroyejamg","address":"137","geo_precision":"street","state":"AL"},"type":"Feature","geometry":{"type":"Point","coordinates":[-88.08437,30.687209]}},{"properties":{"city":"Mobile","name":null,"county":"Mobile","unit":null,"geo_score":0.74,"dwelling":"SFD","notes":null,"street":"North Carlen","da":"Affected","id":"ab3sroyitaxe","address":"139","geo_precision":"street","state":"AL"},"type":"Feature","geometry":{"type":"Point","coordinates":[-88.08437,30.687209]}},{"properties":{"city":"Mobile","name":null,"county":"Mobile","unit":null,"geo_score":0.74,"dwelling":"SFD","notes":null,"street":"North Carlen","da":"Minor","id":"ab3srp37uk7q","address":"143","geo_precision":"street","state":"AL"},"type":"Feature","geometry":{"type":"Point","coordinates":[-88.08437,30.687209]}},{"properties":{"city":"Mobile","name":null,"county":"Mobile","unit":null,"geo_score":0.74,"dwelling":"SFD","notes":null,"street":"North Carlen","da":"Affected","id":"ab3sroz2at7p","address":"144","geo_precision":"street","state":"AL"},"type":"Feature","geometry":{"type":"Point","coordinates":[-88.08437,30.687209]}},{"properties":{"city":"Mobile","name":null,"county":"Mobile","unit":null,"geo_score":0.74,"dwelling":"SFD","notes":null,"street":"North Carlen","da":"Affected","id":"ab3sroscq0jl","address":"145","geo_precision":"street","state":"AL"},"type":"Feature","geometry":{"type":"Point","coordinates":[-88.08437,30.687209]}},{"properties":{"city":"Mobile","name":null,"county":"Mobile","unit":null,"geo_score":0.75,"dwelling":"SFD","notes":null,"street":"Oak Drive Ct","da":"Affected","id":"ab3sroutnbrs","address":"504","geo_precision":"street","state":"AL"},"type":"Feature","geometry":{"type":"Point","coordinates":[-88.076225,30.709342]}},{"properties":{"city":"Mobile","name":null,"county":"Mobile","unit":null,"geo_score":0.75,"dwelling":"SFD","notes":null,"street":"Oak Drive Ct","da":"Affected","id":"ab3srovan9zm","address":"506","geo_precision":"street","state":"AL"},"type":"Feature","geometry":{"type":"Point","coordinates":[-88.076225,30.709342]}},{"properties":{"city":"Mobile","name":"Jones","county":"Mobile","unit":null,"geo_score":0.75,"dwelling":"SFD","notes":"roof damage/shingles missing","street":"Oak Drive Ct","da":"Minor","id":"ab3srp1w4alk","address":"510","geo_precision":"street","state":"AL"},"type":"Feature","geometry":{"type":"Point","coordinates":[-88.076225,30.709342]}},{"properties":{"city":"Mobile","name":"Ms. Pew","county":"Mobile","unit":null,"geo_score":0.75,"dwelling":"SFD","notes":"need two tarps roof damage - shingles missing - wheel chair","street":"Oak Drive Ct","da":"Minor","id":"ab3srp6fxgzv","address":"550","geo_precision":"street","state":"AL"},"type":"Feature","geometry":{"type":"Point","coordinates":[-88.076225,30.709342]}},{"properties":{"city":"Mobile","name":"John Collins","county":"Mobile","unit":null,"geo_score":0.75,"dwelling":"SFD","notes":"need tarp roof/siding - shingles missing","street":"Oak Drive Ct","da":"Minor","id":"ab3srox29sny","address":"552","geo_precision":"street","state":"AL"},"type":"Feature","geometry":{"type":"Point","coordinates":[-88.076225,30.709342]}},{"properties":{"city":"Mobile","name":null,"county":"Mobile","unit":null,"geo_score":0.75,"dwelling":"SFD","notes":"roof damage","street":"Oak Drive Ct","da":"Minor","id":"ab3srp8t044t","address":"558","geo_precision":"street","state":"AL"},"type":"Feature","geometry":{"type":"Point","coordinates":[-88.076225,30.709342]}},{"properties":{"city":"Mobile","name":null,"county":"Mobile","unit":null,"geo_score":0.857,"dwelling":"SFD","notes":null,"street":"Old Government St","da":"Minor","id":"ab3srp3xfzv6","address":"1905","geo_precision":"street","state":"AL"},"type":"Feature","geometry":{"type":"Point","coordinates":[-88.081516,30.677903]}},{"properties":{"city":"Mobile","name":null,"county":"Mobile","unit":null,"geo_score":0.857,"dwelling":"SFD","notes":null,"street":"Old Government St","da":"Minor","id":"ab3srouv5oov","address":"1907","geo_precision":"street","state":"AL"},"type":"Feature","geometry":{"type":"Point","coordinates":[-88.081516,30.677903]}},{"properties":{"city":"Mobile","name":null,"county":"Mobile","unit":null,"geo_score":0.857,"dwelling":"SFD","notes":null,"street":"Old Government St","da":"Major","id":"ab3srp6d64t6","address":"1908","geo_precision":"street","state":"AL"},"type":"Feature","geometry":{"type":"Point","coordinates":[-88.081516,30.677903]}},{"properties":{"city":"Mobile","name":null,"county":"Mobile","unit":null,"geo_score":0.857,"dwelling":"SFD","notes":null,"street":"Old Government St","da":"Affected","id":"ab3srp5t8rii","address":"1909","geo_precision":"street","state":"AL"},"type":"Feature","geometry":{"type":"Point","coordinates":[-88.081516,30.677903]}},{"properties":{"city":"Mobile","name":null,"county":"Mobile","unit":null,"geo_score":0.857,"dwelling":"SFD","notes":null,"street":"Old Government St","da":"Major","id":"ab3srp1r0x72","address":"1910","geo_precision":"street","state":"AL"},"type":"Feature","geometry":{"type":"Point","coordinates":[-88.081516,30.677903]}},{"properties":{"city":"Mobile","name":null,"county":"Mobile","unit":"A","geo_score":0.857,"dwelling":"APT","notes":"unknown unit number","street":"Old Government St","da":"Minor","id":"ab3sroxr7j7i","address":"1911","geo_precision":"street","state":"AL"},"type":"Feature","geometry":{"type":"Point","coordinates":[-88.081516,30.677903]}},{"properties":{"city":"Mobile","name":null,"county":"Mobile","unit":"B","geo_score":0.857,"dwelling":"APT","notes":"unknown unit number","street":"Old Government St","da":"Minor","id":"ab3sroyp3cbh","address":"1911","geo_precision":"street","state":"AL"},"type":"Feature","geometry":{"type":"Point","coordinates":[-88.081516,30.677903]}},{"properties":{"city":"Mobile","name":null,"county":"Mobile","unit":"C","geo_score":0.857,"dwelling":"APT","notes":"unknown unit number","street":"Old Government St","da":"Minor","id":"ab3srosgina6","address":"1911","geo_precision":"street","state":"AL"},"type":"Feature","geometry":{"type":"Point","coordinates":[-88.081516,30.677903]}},{"properties":{"city":"Mobile","name":null,"county":"Mobile","unit":"D","geo_score":0.857,"dwelling":"APT","notes":"unknown unit number","street":"Old Government St","da":"Minor","id":"ab3srp1dlx7x","address":"1911","geo_precision":"street","state":"AL"},"type":"Feature","geometry":{"type":"Point","coordinates":[-88.081516,30.677903]}},{"properties":{"city":"Mobile","name":null,"county":"Mobile","unit":null,"geo_score":0.857,"dwelling":"SFD","notes":null,"street":"Old Government St","da":"Minor","id":"ab3srox2y23n","address":"1912","geo_precision":"street","state":"AL"},"type":"Feature","geometry":{"type":"Point","coordinates":[-88.081516,30.677903]}},{"properties":{"city":"Mobile","name":null,"county":"Mobile","unit":null,"geo_score":0.857,"dwelling":"SFD","notes":"roof damage","street":"Old Government St","da":"Major","id":"ab3srp2q14zy","address":"1913","geo_precision":"street","state":"AL"},"type":"Feature","geometry":{"type":"Point","coordinates":[-88.081516,30.677903]}},{"properties":{"city":"Mobile","name":null,"county":"Mobile","unit":null,"geo_score":0.857,"dwelling":"SFD","notes":null,"street":"Old Government St","da":"Minor","id":"ab3srozm0bvq","address":"1914","geo_precision":"street","state":"AL"},"type":"Feature","geometry":{"type":"Point","coordinates":[-88.081516,30.677903]}},{"properties":{"city":"Mobile","name":null,"county":"Mobile","unit":null,"geo_score":0.857,"dwelling":"SFD","notes":null,"street":"Old Government St","da":"Affected","id":"ab3srp2abebh","address":"1915","geo_precision":"street","state":"AL"},"type":"Feature","geometry":{"type":"Point","coordinates":[-88.081516,30.677903]}},{"properties":{"city":"Mobile","name":null,"county":"Mobile","unit":null,"geo_score":0.857,"dwelling":"SFD","notes":null,"street":"Old Government St","da":"Minor","id":"ab3srovyek4c","address":"1916","geo_precision":"street","state":"AL"},"type":"Feature","geometry":{"type":"Point","coordinates":[-88.081516,30.677903]}},{"properties":{"city":"Mobile","name":null,"county":"Mobile","unit":null,"geo_score":0.857,"dwelling":"SFD","notes":null,"street":"Old Government St","da":"Minor","id":"ab3sroshc1pu","address":"1917","geo_precision":"street","state":"AL"},"type":"Feature","geometry":{"type":"Point","coordinates":[-88.081516,30.677903]}},{"properties":{"city":"Mobile","name":null,"county":"Mobile","unit":null,"geo_score":0.857,"dwelling":"SFD","notes":null,"street":"Old Government St","da":"Minor","id":"ab3sroygcvim","address":"1918","geo_precision":"street","state":"AL"},"type":"Feature","geometry":{"type":"Point","coordinates":[-88.081516,30.677903]}},{"properties":{"city":"Mobile","name":null,"county":"Mobile","unit":null,"geo_score":0.857,"dwelling":"SFD","notes":null,"street":"Old Government St","da":"Affected","id":"ab3srp3ueo8e","address":"1919","geo_precision":"street","state":"AL"},"type":"Feature","geometry":{"type":"Point","coordinates":[-88.081516,30.677903]}},{"properties":{"city":"Mobile","name":null,"county":"Mobile","unit":null,"geo_score":0.857,"dwelling":"SFD","notes":null,"street":"Old Government St","da":"Affected","id":"ab3sroxbddvx","address":"1920","geo_precision":"street","state":"AL"},"type":"Feature","geometry":{"type":"Point","coordinates":[-88.081516,30.677903]}},{"properties":{"city":"Mobile","name":null,"county":"Mobile","unit":null,"geo_score":0.857,"dwelling":"SFD","notes":null,"street":"Old Government St","da":"Affected","id":"ab3srp23ibz7","address":"1921","geo_precision":"street","state":"AL"},"type":"Feature","geometry":{"type":"Point","coordinates":[-88.081516,30.677903]}},{"properties":{"city":"Mobile","name":null,"county":"Mobile","unit":null,"geo_score":0.75,"dwelling":"SFD","notes":null,"street":"Old Shell","da":"Destroyed","id":"ab3srp8ojxc2","address":"1840","geo_precision":"street","state":"AL"},"type":"Feature","geometry":{"type":"Point","coordinates":[-88.058031,30.689217]}},{"properties":{"city":"Mobile","name":null,"county":"Mobile","unit":null,"geo_score":0.75,"dwelling":"SFD","notes":null,"street":"Old Shell","da":"Major","id":"ab3srp0vo5fq","address":"1842","geo_precision":"street","state":"AL"},"type":"Feature","geometry":{"type":"Point","coordinates":[-88.058031,30.689217]}},{"properties":{"city":"Mobile","name":null,"county":"Mobile","unit":null,"geo_score":0.75,"dwelling":"SFD","notes":null,"street":"Old Shell","da":"Destroyed","id":"ab3srp58ziba","address":"1844","geo_precision":"street","state":"AL"},"type":"Feature","geometry":{"type":"Point","coordinates":[-88.058031,30.689217]}},{"properties":{"city":"Mobile","name":null,"county":"Mobile","unit":null,"geo_score":0.75,"dwelling":"SFD","notes":null,"street":"Old Shell","da":"Destroyed","id":"ab3srp1vyvbb","address":"1850","geo_precision":"street","state":"AL"},"type":"Feature","geometry":{"type":"Point","coordinates":[-88.058031,30.689217]}},{"properties":{"city":"Mobile","name":null,"county":"Mobile","unit":null,"geo_score":0.75,"dwelling":"SFD","notes":null,"street":"Old Shell","da":"Major","id":"ab3srovsql79","address":"1851","geo_precision":"street","state":"AL"},"type":"Feature","geometry":{"type":"Point","coordinates":[-88.058031,30.689217]}},{"properties":{"city":"Mobile","name":null,"county":"Mobile","unit":null,"geo_score":0.75,"dwelling":"MH","notes":null,"street":"Old Shell","da":"Major","id":"ab3srp271h0r","address":"1852 1/2","geo_precision":"street","state":"AL"},"type":"Feature","geometry":{"type":"Point","coordinates":[-88.058031,30.689217]}},{"properties":{"city":"Mobile","name":null,"county":"Mobile","unit":null,"geo_score":0.75,"dwelling":"SFD","notes":null,"street":"Old Shell","da":"Major","id":"ab3srowlqaf5","address":"1854","geo_precision":"street","state":"AL"},"type":"Feature","geometry":{"type":"Point","coordinates":[-88.058031,30.689217]}},{"properties":{"city":"Mobile","name":null,"county":"Mobile","unit":null,"geo_score":0.75,"dwelling":"SFD","notes":"tree thru side of house &amp; back","street":"Old Shell","da":"Major","id":"ab3srp0e9rj7","address":"1857","geo_precision":"street","state":"AL"},"type":"Feature","geometry":{"type":"Point","coordinates":[-88.058031,30.689217]}},{"properties":{"city":"Mobile","name":null,"county":"Mobile","unit":null,"geo_score":0.75,"dwelling":"SFD","notes":null,"street":"Old Shell","da":"Destroyed","id":"ab3srp751b08","address":"1858","geo_precision":"street","state":"AL"},"type":"Feature","geometry":{"type":"Point","coordinates":[-88.058031,30.689217]}},{"properties":{"city":"Mobile","name":null,"county":"Mobile","unit":null,"geo_score":0.75,"dwelling":"SFD","notes":null,"street":"Old Shell","da":"Major","id":"ab3srotvfhx9","address":"1861","geo_precision":"street","state":"AL"},"type":"Feature","geometry":{"type":"Point","coordinates":[-88.058031,30.689217]}},{"properties":{"city":"Marengo","name":null,"county":"Demopolis","unit":null,"geo_score":0.0,"dwelling":"SFD","notes":"roof/window/siding/porch","street":"Old Spring Hill Rd","da":"Minor","id":"ab3srp7jd963","address":"2104","geo_precision":"unmatched","state":"AL"},"type":"Feature","geometry":null},{"properties":{"city":"Marengo","name":null,"county":"Demopolis","unit":null,"geo_score":0.0,"dwelling":"SFD","notes":"roof/window/siding/porch","street":"Old Spring Hill Rd","da":"Minor","id":"ab3srowjvpgj","address":"2105","geo_precision":"unmatched","state":"AL"},"type":"Feature","geometry":null},{"properties":{"city":"Marengo","name":null,"county":"Demopolis","unit":null,"geo_score":0.0,"dwelling":"SFD","notes":"roof/window/siding/porch","street":"Old Spring Hill Rd","da":"Minor","id":"ab3srp4z7hsm","address":"2107","geo_precision":"unmatched","state":"AL"},"type":"Feature","geometry":null},{"properties":{"city":"Choctaw","name":"Terry Lee Hearn","county":"Butler","unit":null,"geo_score":0.0,"dwelling":"MH","notes":null,"street":"Pineview Rd.","da":"Destroyed","id":"ab3sroupt5kn","address":"976","geo_precision":"unmatched","state":"AL"},"type":"Feature","geometry":null},{"properties":{"city":"Choctaw","name":"Amanda and Dewayne Hearn","county":"Butler","unit":null,"geo_score":0.0,"dwelling":"MH","notes":null,"street":"Pineview Rd.","da":"Destroyed","id":"ab3srow7s4ge","address":"1067","geo_precision":"unmatched","state":"AL"},"type":"Feature","geometry":null},{"properties":{"city":"Choctaw","name":"Danny and Sharon Hearn","county":"Butler","unit":null,"geo_score":0.0,"dwelling":"MH","notes":null,"street":"Pineview Rd.","da":"Destroyed","id":"ab3sroznwjmd","address":"1069","geo_precision":"unmatched","state":"AL"},"type":"Feature","geometry":null},{"properties":{"city":"Choctaw","name":"Stephen and Monica Donovan","county":"Butler","unit":null,"geo_score":0.0,"dwelling":"MH","notes":null,"street":"Pineview Rd.","da":"Destroyed","id":"ab3srotl2pz0","address":"1071","geo_precision":"unmatched","state":"AL"},"type":"Feature","geometry":null},{"properties":{"city":"Marengo","name":null,"county":"Demopolis","unit":null,"geo_score":0.0,"dwelling":"SFD","notes":"Per DA J. Phillips 1 major/4 minor on Reed Dr.","street":"Reed Dr.","da":"Major","id":"ab3srovms2p2","address":"2002","geo_precision":"unmatched","state":"AL"},"type":"Feature","geometry":null},{"properties":{"city":"Marengo","name":null,"county":"Demopolis","unit":null,"geo_score":0.0,"dwelling":"SFD","notes":"Per DA J. Phillips 1 major/4 minor on Reed Dr.","street":"Reed Dr.","da":"Minor","id":"ab3srothalr3","address":"2011","geo_precision":"unmatched","state":"AL"},"type":"Feature","geometry":null},{"properties":{"city":"Marengo","name":null,"county":"Demopolis","unit":null,"geo_score":0.0,"dwelling":"SFD","notes":"Per DA J. Phillips 1 major/4 minor on Reed Dr.","street":"Reed Dr.","da":"Minor","id":"ab3srp2ityow","address":"?","geo_precision":"unmatched","state":"AL"},"type":"Feature","geometry":null},{"properties":{"city":"Marengo","name":null,"county":"Demopolis","unit":null,"geo_score":0.0,"dwelling":"SFD","notes":"Per DA J. Phillips 1 major/4 minor on Reed Dr.","street":"Reed Dr.","da":"Minor","id":"ab3sroxwg5g6","address":"?","geo_precision":"unmatched","state":"AL"},"type":"Feature","geometry":null},{"properties":{"city":"Marengo","name":null,"county":"Demopolis","unit":null,"geo_score":0.0,"dwelling":"SFD","notes":"Per DA J. Phillips 1 major/4 minor on Reed Dr.","street":"Reed Dr.","da":"Minor","id":"ab3srp1j8j0m","address":"?","geo_precision":"unmatched","state":"AL"},"type":"Feature","geometry":null},{"properties":{"city":"Mobile","name":null,"county":"Mobile","unit":null,"geo_score":0.714,"dwelling":"SFD","notes":null,"street":"Rickarby St","da":"Major","id":"ab3srp0s3itx","address":"7","geo_precision":"city","state":"AL"},"type":"Feature","geometry":{"type":"Point","coordinates":[-88.103184,30.701142]}},{"properties":{"city":"Mobile","name":null,"county":"Mobile","unit":null,"geo_score":0.714,"dwelling":"SFD","notes":null,"street":"Rickarby St","da":"Affected","id":"ab3srot5rzd5","address":"8","geo_precision":"city","state":"AL"},"type":"Feature","geometry":{"type":"Point","coordinates":[-88.103184,30.701142]}},{"properties":{"city":"Mobile","name":null,"county":"Mobile","unit":null,"geo_score":0.714,"dwelling":"SFD","notes":null,"street":"Rickarby St","da":"Major","id":"ab3srp5syv5m","address":"9","geo_precision":"city","state":"AL"},"type":"Feature","geometry":{"type":"Point","coordinates":[-88.103184,30.701142]}},{"properties":{"city":"Mobile","name":null,"county":"Mobile","unit":null,"geo_score":0.714,"dwelling":"SFD","notes":null,"street":"Rickarby St","da":"Minor","id":"ab3srp4ca904","address":"10","geo_precision":"city","state":"AL"},"type":"Feature","geometry":{"type":"Point","coordinates":[-88.103184,30.701142]}},{"properties":{"city":"Mobile","name":null,"county":"Mobile","unit":null,"geo_score":0.714,"dwelling":"SFD","notes":null,"street":"Rickarby St","da":"Major","id":"ab3srousu7ti","address":"11","geo_precision":"city","state":"AL"},"type":"Feature","geometry":{"type":"Point","coordinates":[-88.103184,30.701142]}},{"properties":{"city":"Mobile","name":null,"county":"Mobile","unit":null,"geo_score":0.714,"dwelling":"SFD","notes":"possible 2 units back entrance is upstairs","street":"Rickarby St","da":"Minor","id":"ab3srounyqsj","address":"12","geo_precision":"city","state":"AL"},"type":"Feature","geometry":{"type":"Point","coordinates":[-88.103184,30.701142]}},{"properties":{"city":"Mobile","name":null,"county":"Mobile","unit":null,"geo_score":0.714,"dwelling":"SFD","notes":null,"street":"Rickarby St","da":"Major","id":"ab3srp37f2o2","address":"13","geo_precision":"city","state":"AL"},"type":"Feature","geometry":{"type":"Point","coordinates":[-88.103184,30.701142]}},{"properties":{"city":"Mobile","name":null,"county":"Mobile","unit":null,"geo_score":0.714,"dwelling":"SFD","notes":null,"street":"Rickarby St","da":"Minor","id":"ab3srowlxvqu","address":"14","geo_precision":"city","state":"AL"},"type":"Feature","geometry":{"type":"Point","coordinates":[-88.103184,30.701142]}},{"properties":{"city":"Mobile","name":null,"county":"Mobile","unit":null,"geo_score":0.714,"dwelling":"SFD","notes":null,"street":"Rickarby St","da":"Major","id":"ab3sroz199l9","address":"15","geo_precision":"city","state":"AL"},"type":"Feature","geometry":{"type":"Point","coordinates":[-88.103184,30.701142]}},{"properties":{"city":"Mobile","name":null,"county":"Mobile","unit":null,"geo_score":0.714,"dwelling":"SFD","notes":null,"street":"Rickarby St","da":"Affected","id":"ab3srowi753y","address":"16","geo_precision":"city","state":"AL"},"type":"Feature","geometry":{"type":"Point","coordinates":[-88.103184,30.701142]}},{"properties":{"city":"Mobile","name":null,"county":"Mobile","unit":null,"geo_score":0.714,"dwelling":"SFD","notes":null,"street":"Rickarby St","da":"Major","id":"ab3srovnj3op","address":"17","geo_precision":"city","state":"AL"},"type":"Feature","geometry":{"type":"Point","coordinates":[-88.103184,30.701142]}},{"properties":{"city":"Mobile","name":null,"county":"Mobile","unit":null,"geo_score":0.714,"dwelling":"SFD","notes":null,"street":"Rickarby St","da":"Affected","id":"ab3sroukxlbr","address":"18","geo_precision":"city","state":"AL"},"type":"Feature","geometry":{"type":"Point","coordinates":[-88.103184,30.701142]}},{"properties":{"city":"Mobile","name":null,"county":"Mobile","unit":null,"geo_score":0.714,"dwelling":"SFD","notes":null,"street":"Rickarby St","da":"Affected","id":"ab3srotz4udz","address":"20","geo_precision":"city","state":"AL"},"type":"Feature","geometry":{"type":"Point","coordinates":[-88.103184,30.701142]}},{"properties":{"city":"Mobile","name":null,"county":"Mobile","unit":null,"geo_score":0.714,"dwelling":"SFD","notes":null,"street":"Rickarby St","da":"Major","id":"ab3srp0svl5h","address":"21","geo_precision":"city","state":"AL"},"type":"Feature","geometry":{"type":"Point","coordinates":[-88.103184,30.701142]}},{"properties":{"city":"Mobile","name":null,"county":"Mobile","unit":null,"geo_score":0.714,"dwelling":"SFD","notes":"roof damage","street":"Rickarby St","da":"Major","id":"ab3sroxyvzcv","address":"22","geo_precision":"city","state":"AL"},"type":"Feature","geometry":{"type":"Point","coordinates":[-88.103184,30.701142]}},{"properties":{"city":"Prichard","name":null,"county":"Mobile","unit":null,"geo_score":0.857,"dwelling":"SFD","notes":"Shingles off left side of roof.  Back of roof damaged. Front soffett damaged. Right back corner of roof damaged.","street":"Semler St.","da":"Major","id":"ab3srp2qgsho","address":"806","geo_precision":"street","state":"AL"},"type":"Feature","geometry":{"type":"Point","coordinates":[-88.062795,30.730313]}},{"properties":{"city":"Prichard","name":"Jose Shelton","county":"Mobile","unit":null,"geo_score":0.857,"dwelling":"SFD","notes":"shingles off front roof. One of 2 carports supports broken. One front porch support gone.  Second one is not stable.","street":"Semler St.","da":"Minor","id":"ab3sroxjk5pw","address":"807","geo_precision":"street","state":"AL"},"type":"Feature","geometry":{"type":"Point","coordinates":[-88.062795,30.730313]}},{"properties":{"city":"Prichard","name":"Vanessa Clarake (334-892-5364)","county":"Mobile","unit":null,"geo_score":0.857,"dwelling":"SFD","notes":"shingles off portion of rood.  3 windows broken on rt side of house.  Kitchen window left side broken out. Screens off porch,","street":"Semler St.","da":"Major","id":"ab3srozcccdo","address":"817","geo_precision":"street","state":"AL"},"type":"Feature","geometry":{"type":"Point","coordinates":[-88.062795,30.730313]}},{"properties":{"city":"Prichard","name":null,"county":"Mobile","unit":null,"geo_score":0.857,"dwelling":"SFD","notes":"abandoned?","street":"Semler St.","da":"Major","id":"ab3srouk3n6d","address":"823","geo_precision":"street","state":"AL"},"type":"Feature","geometry":{"type":"Point","coordinates":[-88.062795,30.730313]}},{"properties":{"city":"Prichard","name":"Mary Robinson (490-5661 or 222-3001)","county":"Mobile","unit":null,"geo_score":0.857,"dwelling":"SFD","notes":"right rear wall is torn off.  Back wall is caving in.  4x6 hole in left rear roof (open to elements). Window busted out o left front. Some shingle off roof. Roof has a dip on left side. Storm caused?  Information from Tiffany Smith (daughter who also lives here:","street":"Semler St.","da":"Major","id":"ab3srowrpuu0","address":"824","geo_precision":"street","state":"AL"},"type":"Feature","geometry":{"type":"Point","coordinates":[-88.062795,30.730313]}},{"properties":{"city":"Prichard","name":"Deborah Smith (342-0573)","county":"Mobile","unit":null,"geo_score":0.857,"dwelling":"SFD","notes":"site destroyed. House shifted from foundation. Floor not level. Water pipe loose.","street":"Semler St.","da":"Major","id":"ab3sroup9gjs","address":"826","geo_precision":"street","state":"AL"},"type":"Feature","geometry":{"type":"Point","coordinates":[-88.062795,30.730313]}},{"properties":{"city":"Prichard","name":null,"county":"Mobile","unit":null,"geo_score":0.857,"dwelling":"SFD","notes":"abandoned?","street":"Semler St.","da":"Minor","id":"ab3srp8iy4pn","address":"827","geo_precision":"street","state":"AL"},"type":"Feature","geometry":{"type":"Point","coordinates":[-88.062795,30.730313]}},{"properties":{"city":"Prichard","name":null,"county":"Mobile","unit":null,"geo_score":0.857,"dwelling":"SFD","notes":"some shingles off roof","street":"Semler St.","da":"Affected","id":"ab3srp4peqi5","address":"905","geo_precision":"street","state":"AL"},"type":"Feature","geometry":{"type":"Point","coordinates":[-88.062795,30.730313]}},{"properties":{"city":"Prichard","name":"Elizabeth Hale (452-8745)","county":"Mobile","unit":null,"geo_score":0.857,"dwelling":"SFD","notes":"Board penatrated right wall.  Minor shingle damage. Only visible damage.","street":"Semler St.","da":"Minor","id":"ab3srp222oju","address":"906","geo_precision":"street","state":"AL"},"type":"Feature","geometry":{"type":"Point","coordinates":[-88.062795,30.730313]}},{"properties":{"city":"Prichard","name":"Elizabeth Rembort (456-1593)","county":"Mobile","unit":null,"geo_score":0.857,"dwelling":"SFD","notes":"window and a/c on left turn out.  Front banister and support column displaced couldn't see roof re:shingles","street":"Semler St.","da":"Affected","id":"ab3srp336jnl","address":"913","geo_precision":"street","state":"AL"},"type":"Feature","geometry":{"type":"Point","coordinates":[-88.062795,30.730313]}},{"properties":{"city":"Prichard","name":null,"county":"Mobile","unit":null,"geo_score":0.857,"dwelling":"SFD","notes":"Left back corner lost shingles","street":"Semler St.","da":"Affected","id":"ab3srp0vkh81","address":"914","geo_precision":"street","state":"AL"},"type":"Feature","geometry":{"type":"Point","coordinates":[-88.062795,30.730313]}},{"properties":{"city":"Prichard","name":null,"county":"Mobile","unit":null,"geo_score":0.857,"dwelling":null,"notes":"no apparent damage (possible 4 x 4 hole in roof","street":"Semler St.","da":null,"id":"ab3srozvlrkh","address":"920","geo_precision":"street","state":"AL"},"type":"Feature","geometry":{"type":"Point","coordinates":[-88.062795,30.730313]}},{"properties":{"city":"Prichard","name":null,"county":"Mobile","unit":null,"geo_score":0.857,"dwelling":null,"notes":"abandoned?","street":"Semler St.","da":null,"id":"ab3srox2jtry","address":"?","geo_precision":"street","state":"AL"},"type":"Feature","geometry":{"type":"Point","coordinates":[-88.062795,30.730313]}},{"properties":{"city":"Prichard","name":null,"county":"Mobile","unit":null,"geo_score":0.857,"dwelling":"SFD","notes":"appears to be abandoned. Blue tarps on roof appear aged. House in poor shape. Does not appear to be from this storm.","street":"Semler St.","da":"Minor","id":"ab3srot3fulk","address":"?","geo_precision":"street","state":"AL"},"type":"Feature","geometry":{"type":"Point","coordinates":[-88.062795,30.730313]}},{"properties":{"city":"Prichard","name":null,"county":"Mobile","unit":null,"geo_score":0.857,"dwelling":null,"notes":"abandoned?","street":"Semler St.","da":null,"id":"ab3srp84jqj7","address":"915?","geo_precision":"street","state":"AL"},"type":"Feature","geometry":{"type":"Point","coordinates":[-88.062795,30.730313]}},{"properties":{"city":"Mobile","name":null,"county":"Mobile","unit":null,"geo_score":0.791,"dwelling":"SFD","notes":null,"street":"Shell Rd Pl","da":"Affected","id":"ab3srp1bl8tw","address":"100","geo_precision":"street","state":"AL"},"type":"Feature","geometry":{"type":"Point","coordinates":[-88.082481,30.687991]}},{"properties":{"city":"Mobile","name":null,"county":"Mobile","unit":null,"geo_score":0.791,"dwelling":"SFD","notes":null,"street":"Shell Rd Pl","da":"Affected","id":"ab3srotae7oc","address":"101","geo_precision":"street","state":"AL"},"type":"Feature","geometry":{"type":"Point","coordinates":[-88.082481,30.687991]}},{"properties":{"city":"Mobile","name":null,"county":"Mobile","unit":null,"geo_score":0.791,"dwelling":"SFD","notes":null,"street":"Shell Rd Pl","da":"Affected","id":"ab3srp6dxts5","address":"104","geo_precision":"street","state":"AL"},"type":"Feature","geometry":{"type":"Point","coordinates":[-88.082481,30.687991]}},{"properties":{"city":"Mobile","name":null,"county":"Mobile","unit":null,"geo_score":0.791,"dwelling":"SFD","notes":null,"street":"Shell Rd Pl","da":"Affected","id":"ab3srp16iu44","address":"105","geo_precision":"street","state":"AL"},"type":"Feature","geometry":{"type":"Point","coordinates":[-88.082481,30.687991]}},{"properties":{"city":"Mobile","name":null,"county":"Mobile","unit":null,"geo_score":0.791,"dwelling":"SFD","notes":null,"street":"Shell Rd Pl","da":"Affected","id":"ab3srovapphj","address":"108","geo_precision":"street","state":"AL"},"type":"Feature","geometry":{"type":"Point","coordinates":[-88.082481,30.687991]}},{"properties":{"city":"Mobile","name":null,"county":"Mobile","unit":null,"geo_score":0.791,"dwelling":"SFD","notes":null,"street":"Shell Rd Pl","da":"Affected","id":"ab3srotothus","address":"109","geo_precision":"street","state":"AL"},"type":"Feature","geometry":{"type":"Point","coordinates":[-88.082481,30.687991]}},{"properties":{"city":"Mobile","name":null,"county":"Mobile","unit":null,"geo_score":0.791,"dwelling":"SFD","notes":null,"street":"Shell Rd Pl","da":"Affected","id":"ab3sroyq6xqp","address":"112","geo_precision":"street","state":"AL"},"type":"Feature","geometry":{"type":"Point","coordinates":[-88.082481,30.687991]}},{"properties":{"city":"Mobile","name":null,"county":"Mobile","unit":null,"geo_score":0.791,"dwelling":"SFD","notes":null,"street":"Shell Rd Pl","da":"Affected","id":"ab3sroym242r","address":"113","geo_precision":"street","state":"AL"},"type":"Feature","geometry":{"type":"Point","coordinates":[-88.082481,30.687991]}},{"properties":{"city":"Mobile","name":null,"county":"Mobile","unit":null,"geo_score":0.791,"dwelling":"SFD","notes":null,"street":"Shell Rd Pl","da":"Affected","id":"ab3srp2cqnmq","address":"115","geo_precision":"street","state":"AL"},"type":"Feature","geometry":{"type":"Point","coordinates":[-88.082481,30.687991]}},{"properties":{"city":"Mobile","name":null,"county":"Mobile","unit":null,"geo_score":0.791,"dwelling":"SFD","notes":null,"street":"Shell Rd Pl","da":"Affected","id":"ab3srp5je7yu","address":"116","geo_precision":"street","state":"AL"},"type":"Feature","geometry":{"type":"Point","coordinates":[-88.082481,30.687991]}},{"properties":{"city":"Mobile","name":null,"county":"Mobile","unit":null,"geo_score":0.791,"dwelling":"SFD","notes":null,"street":"Shell Road Place","da":"Minor","id":"ab3srp1wdet4","address":"117","geo_precision":"street","state":"AL"},"type":"Feature","geometry":{"type":"Point","coordinates":[-88.082481,30.687991]}},{"properties":{"city":"Mobile","name":null,"county":"Mobile","unit":null,"geo_score":0.791,"dwelling":"SFD","notes":null,"street":"Shell Road Place","da":"Minor","id":"ab3srp5e7wa3","address":"118","geo_precision":"street","state":"AL"},"type":"Feature","geometry":{"type":"Point","coordinates":[-88.082481,30.687991]}},{"properties":{"city":"Mobile","name":null,"county":"Mobile","unit":null,"geo_score":0.791,"dwelling":"SFD","notes":null,"street":"Shell Road Place","da":"Minor","id":"ab3srovn4lir","address":"119","geo_precision":"street","state":"AL"},"type":"Feature","geometry":{"type":"Point","coordinates":[-88.082481,30.687991]}},{"properties":{"city":"Mobile","name":null,"county":"Mobile","unit":null,"geo_score":0.758,"dwelling":"MH","notes":null,"street":"Silverwood","da":"Major","id":"ab3srp2ca0ob","address":"63","geo_precision":"street","state":"AL"},"type":"Feature","geometry":{"type":"Point","coordinates":[-88.266171,30.674999]}},{"properties":{"city":"Mobile","name":null,"county":"Mobile","unit":null,"geo_score":0.758,"dwelling":"MH","notes":null,"street":"Silverwood","da":"Major","id":"ab3srp7k7sf2","address":"65","geo_precision":"street","state":"AL"},"type":"Feature","geometry":{"type":"Point","coordinates":[-88.266171,30.674999]}},{"properties":{"city":"Mobile","name":null,"county":"Mobile","unit":null,"geo_score":0.758,"dwelling":"SFD","notes":null,"street":"Silverwood","da":"Destroyed","id":"ab3srovtpxcp","address":"67","geo_precision":"street","state":"AL"},"type":"Feature","geometry":{"type":"Point","coordinates":[-88.266171,30.674999]}},{"properties":{"city":"Mobile","name":null,"county":"Mobile","unit":null,"geo_score":0.758,"dwelling":"MH","notes":"Vacant","street":"Silverwood","da":"Minor","id":"ab3srp0zuomp","address":"69","geo_precision":"street","state":"AL"},"type":"Feature","geometry":{"type":"Point","coordinates":[-88.266171,30.674999]}},{"properties":{"city":"Mobile","name":null,"county":"Mobile","unit":null,"geo_score":0.758,"dwelling":"SFD","notes":null,"street":"Silverwood","da":"Affected","id":"ab3srp5bzhhe","address":"120","geo_precision":"street","state":"AL"},"type":"Feature","geometry":{"type":"Point","coordinates":[-88.266171,30.674999]}},{"properties":{"city":"Mobile","name":null,"county":"Mobile","unit":null,"geo_score":0.758,"dwelling":"SFD","notes":"Roof with tarp","street":"Silverwood","da":"Minor","id":"ab3srp4uucft","address":"121","geo_precision":"street","state":"AL"},"type":"Feature","geometry":{"type":"Point","coordinates":[-88.266171,30.674999]}},{"properties":{"city":"Mobile","name":null,"county":"Mobile","unit":null,"geo_score":0.758,"dwelling":"SFD","notes":null,"street":"Silverwood","da":"Affected","id":"ab3srp50tcjz","address":"122","geo_precision":"street","state":"AL"},"type":"Feature","geometry":{"type":"Point","coordinates":[-88.266171,30.674999]}},{"properties":{"city":"Mobile","name":null,"county":"Mobile","unit":null,"geo_score":0.758,"dwelling":"SFD","notes":null,"street":"Silverwood","da":"Major","id":"ab3srou6oywj","address":"123","geo_precision":"street","state":"AL"},"type":"Feature","geometry":{"type":"Point","coordinates":[-88.266171,30.674999]}},{"properties":{"city":"Mobile","name":null,"county":"Mobile","unit":null,"geo_score":0.758,"dwelling":"SFD","notes":null,"street":"Silverwood","da":"Affected","id":"ab3srp0qzkit","address":"124","geo_precision":"street","state":"AL"},"type":"Feature","geometry":{"type":"Point","coordinates":[-88.266171,30.674999]}},{"properties":{"city":"Mobile","name":null,"county":"Mobile","unit":null,"geo_score":0.758,"dwelling":"SFD","notes":null,"street":"Silverwood","da":"Major","id":"ab3srox6cunc","address":"125","geo_precision":"street","state":"AL"},"type":"Feature","geometry":{"type":"Point","coordinates":[-88.266171,30.674999]}},{"properties":{"city":"Mobile","name":null,"county":"Mobile","unit":null,"geo_score":0.758,"dwelling":"SFD","notes":null,"street":"Silverwood","da":"Minor","id":"ab3srp3qhwim","address":"126","geo_precision":"street","state":"AL"},"type":"Feature","geometry":{"type":"Point","coordinates":[-88.266171,30.674999]}},{"properties":{"city":"Mobile","name":null,"county":"Mobile","unit":null,"geo_score":0.758,"dwelling":"SFD","notes":null,"street":"Silverwood","da":"Major","id":"ab3srp2lkj46","address":"127","geo_precision":"street","state":"AL"},"type":"Feature","geometry":{"type":"Point","coordinates":[-88.266171,30.674999]}},{"properties":{"city":"Mobile","name":null,"county":"Mobile","unit":null,"geo_score":0.758,"dwelling":"SFD","notes":null,"street":"Silverwood","da":"Affected","id":"ab3sroudrcyi","address":"128","geo_precision":"street","state":"AL"},"type":"Feature","geometry":{"type":"Point","coordinates":[-88.266171,30.674999]}},{"properties":{"city":"Mobile","name":null,"county":"Mobile","unit":null,"geo_score":0.758,"dwelling":"SFD","notes":"Vacant house","street":"Silverwood","da":"Destroyed","id":"ab3srp2j52s7","address":"129","geo_precision":"street","state":"AL"},"type":"Feature","geometry":{"type":"Point","coordinates":[-88.266171,30.674999]}},{"properties":{"city":"Mobile","name":null,"county":"Mobile","unit":null,"geo_score":0.758,"dwelling":"SFD","notes":null,"street":"Silverwood","da":"Minor","id":"ab3srp12xnjz","address":"130","geo_precision":"street","state":"AL"},"type":"Feature","geometry":{"type":"Point","coordinates":[-88.266171,30.674999]}},{"properties":{"city":"Mobile","name":null,"county":"Mobile","unit":null,"geo_score":0.758,"dwelling":"SFD","notes":null,"street":"Silverwood","da":"Destroyed","id":"ab3srp3v5cnq","address":"131","geo_precision":"street","state":"AL"},"type":"Feature","geometry":{"type":"Point","coordinates":[-88.266171,30.674999]}},{"properties":{"city":"Mobile","name":null,"county":"Mobile","unit":null,"geo_score":0.758,"dwelling":"SFD","notes":"chimney gone","street":"Silverwood","da":"Affected","id":"ab3srp2z7kms","address":"132","geo_precision":"street","state":"AL"},"type":"Feature","geometry":{"type":"Point","coordinates":[-88.266171,30.674999]}},{"properties":{"city":"Mobile","name":null,"county":"Mobile","unit":null,"geo_score":0.758,"dwelling":"SFD","notes":null,"street":"Silverwood","da":"Major","id":"ab3srp68s7kw","address":"133","geo_precision":"street","state":"AL"},"type":"Feature","geometry":{"type":"Point","coordinates":[-88.266171,30.674999]}},{"properties":{"city":"Mobile","name":null,"county":"Mobile","unit":null,"geo_score":0.758,"dwelling":"SFD","notes":"chimney from 132 blew into 132 top floor","street":"Silverwood","da":"Minor","id":"ab3srou6kuvb","address":"134","geo_precision":"street","state":"AL"},"type":"Feature","geometry":{"type":"Point","coordinates":[-88.266171,30.674999]}},{"properties":{"city":"Mobile","name":null,"county":"Mobile","unit":null,"geo_score":0.758,"dwelling":"SFD","notes":null,"street":"Silverwood","da":"Major","id":"ab3srp7oi5jl","address":"135","geo_precision":"street","state":"AL"},"type":"Feature","geometry":{"type":"Point","coordinates":[-88.266171,30.674999]}},{"properties":{"city":"Mobile","name":null,"county":"Mobile","unit":null,"geo_score":0.758,"dwelling":"SFD","notes":null,"street":"Silverwood","da":"Minor","id":"ab3srp5w4lql","address":"136","geo_precision":"street","state":"AL"},"type":"Feature","geometry":{"type":"Point","coordinates":[-88.266171,30.674999]}},{"properties":{"city":"Mobile","name":null,"county":"Mobile","unit":null,"geo_score":0.758,"dwelling":"SFD","notes":null,"street":"Silverwood","da":"Major","id":"ab3srp5la4vu","address":"137","geo_precision":"street","state":"AL"},"type":"Feature","geometry":{"type":"Point","coordinates":[-88.266171,30.674999]}},{"properties":{"city":"Mobile","name":null,"county":"Mobile","unit":null,"geo_score":0.758,"dwelling":"SFD","notes":null,"street":"Silverwood","da":"Major","id":"ab3srp8fvum0","address":"139","geo_precision":"street","state":"AL"},"type":"Feature","geometry":{"type":"Point","coordinates":[-88.266171,30.674999]}},{"properties":{"city":"Mobile","name":null,"county":"Mobile","unit":null,"geo_score":0.0,"dwelling":"SFD","notes":null,"street":"Silverwood","da":"Minor","id":"ab3srp0r0g95","address":"139","geo_precision":"unmatched","state":"Al"},"type":"Feature","geometry":null},{"properties":{"city":"Mobile","name":null,"county":"Mobile","unit":null,"geo_score":0.758,"dwelling":"SFD","notes":"large tree thru roof of 1/3 house","street":"Silverwood","da":"Major","id":"ab3srp6vale5","address":"140","geo_precision":"street","state":"AL"},"type":"Feature","geometry":{"type":"Point","coordinates":[-88.266171,30.674999]}},{"properties":{"city":"Mobile","name":null,"county":"Mobile","unit":null,"geo_score":0.758,"dwelling":"SFD","notes":null,"street":"Silverwood","da":"Minor","id":"ab3srosflp7p","address":"141","geo_precision":"street","state":"AL"},"type":"Feature","geometry":{"type":"Point","coordinates":[-88.266171,30.674999]}},{"properties":{"city":"Mobile","name":null,"county":"Mobile","unit":null,"geo_score":0.0,"dwelling":"SFD","notes":null,"street":"Silverwood","da":"Minor","id":"ab3srp8s4oy5","address":"142","geo_precision":"unmatched","state":"Al"},"type":"Feature","geometry":null},{"properties":{"city":"Mobile","name":null,"county":"Mobile","unit":null,"geo_score":0.758,"dwelling":"SFD","notes":null,"street":"Silverwood","da":"Affected","id":"ab3srp3t6g9t","address":"143","geo_precision":"street","state":"AL"},"type":"Feature","geometry":{"type":"Point","coordinates":[-88.266171,30.674999]}},{"properties":{"city":"Mobile","name":null,"county":"Mobile","unit":null,"geo_score":0.758,"dwelling":"SFD","notes":null,"street":"Silverwood","da":"Affected","id":"ab3srou1h39n","address":"145","geo_precision":"street","state":"AL"},"type":"Feature","geometry":{"type":"Point","coordinates":[-88.266171,30.674999]}},{"properties":{"city":"Mobile","name":null,"county":"Mobile","unit":null,"geo_score":0.0,"dwelling":"SFD","notes":null,"street":"South Carlen","da":"Destroyed","id":"ab3sroxfjz1e","address":"8","geo_precision":"unmatched","state":"Al"},"type":"Feature","geometry":null},{"properties":{"city":"Mobile","name":null,"county":"Mobile","unit":null,"geo_score":0.0,"dwelling":"SFD","notes":null,"street":"South Carlen","da":"Destroyed","id":"ab3srox0yvk4","address":"10","geo_precision":"unmatched","state":"Al"},"type":"Feature","geometry":null},{"properties":{"city":"Mobile","name":null,"county":"Mobile","unit":null,"geo_score":0.0,"dwelling":"SFD","notes":null,"street":"South Carlen","da":"Destroyed","id":"ab3srovw9wku","address":"12","geo_precision":"unmatched","state":"Al"},"type":"Feature","geometry":null},{"properties":{"city":"Mobile","name":null,"county":"Mobile","unit":null,"geo_score":0.0,"dwelling":"SFD","notes":"Roof Damage Back Side","street":"South Carlen","da":"Minor","id":"ab3sroul4mz6","address":"13","geo_precision":"unmatched","state":"Al"},"type":"Feature","geometry":null},{"properties":{"city":"Mobile","name":null,"county":"Mobile","unit":null,"geo_score":0.0,"dwelling":"SFD","notes":null,"street":"South Carlen","da":"Destroyed","id":"ab3sroy9evch","address":"14","geo_precision":"unmatched","state":"Al"},"type":"Feature","geometry":null},{"properties":{"city":"Mobile","name":null,"county":"Mobile","unit":"A","geo_score":0.0,"dwelling":"Apt","notes":"Roof Damage","street":"South Carlen","da":"Major","id":"ab3srovk0igp","address":"15","geo_precision":"unmatched","state":"Al"},"type":"Feature","geometry":null},{"properties":{"city":"Mobile","name":null,"county":"Mobile","unit":"B","geo_score":0.0,"dwelling":"Apt","notes":"Roof Damage","street":"South Carlen","da":"Major","id":"ab3srot9hxhm","address":"15","geo_precision":"unmatched","state":"Al"},"type":"Feature","geometry":null},{"properties":{"city":"Mobile","name":null,"county":"Mobile","unit":null,"geo_score":0.0,"dwelling":"SFD","notes":null,"street":"South Carlen","da":"Destroyed","id":"ab3srp7x7i54","address":"16","geo_precision":"unmatched","state":"Al"},"type":"Feature","geometry":null},{"properties":{"city":"Mobile","name":null,"county":"Mobile","unit":null,"geo_score":0.0,"dwelling":"SFD","notes":"Roof Collapsed","street":"South Carlen","da":"Destroyed","id":"ab3srown0pq5","address":"17","geo_precision":"unmatched","state":"Al"},"type":"Feature","geometry":null},{"properties":{"city":"Mobile","name":null,"county":"Mobile","unit":null,"geo_score":0.0,"dwelling":"SFD","notes":null,"street":"South Carlen","da":"Destroyed","id":"ab3srowm45w2","address":"18","geo_precision":"unmatched","state":"Al"},"type":"Feature","geometry":null},{"properties":{"city":"Mobile","name":null,"county":"Mobile","unit":null,"geo_score":0.0,"dwelling":"SFD","notes":"Roof Damage","street":"South Carlen","da":"Major","id":"ab3srp7czvbx","address":"19","geo_precision":"unmatched","state":"Al"},"type":"Feature","geometry":null},{"properties":{"city":"Mobile","name":null,"county":"Mobile","unit":null,"geo_score":0.0,"dwelling":"SFD","notes":null,"street":"South Carlen","da":"Destroyed","id":"ab3srp4kt2ie","address":"20","geo_precision":"unmatched","state":"Al"},"type":"Feature","geometry":null},{"properties":{"city":"Mobile","name":null,"county":"Mobile","unit":null,"geo_score":0.0,"dwelling":"SFD","notes":"Major Roof Damage","street":"South Carlen","da":"Major","id":"ab3srot0rsuy","address":"21","geo_precision":"unmatched","state":"Al"},"type":"Feature","geometry":null},{"properties":{"city":"Mobile","name":null,"county":"Mobile","unit":null,"geo_score":0.0,"dwelling":"SFD","notes":"Think 2 Stories Top Gone","street":"South Carlen","da":"Destroyed","id":"ab3srp4ks8kq","address":"22","geo_precision":"unmatched","state":"Al"},"type":"Feature","geometry":null},{"properties":{"city":"Mobile","name":null,"county":"Mobile","unit":null,"geo_score":0.0,"dwelling":"SFD","notes":null,"street":"South Carlen","da":"Affected","id":"ab3srotcpjfh","address":"23","geo_precision":"unmatched","state":"Al"},"type":"Feature","geometry":null},{"properties":{"city":"Mobile","name":null,"county":"Mobile","unit":null,"geo_score":0.0,"dwelling":"SFD","notes":null,"street":"South Carlen","da":"Affected","id":"ab3srp56va7o","address":"25","geo_precision":"unmatched","state":"Al"},"type":"Feature","geometry":null},{"properties":{"city":"Mobile","name":null,"county":"Mobile","unit":null,"geo_score":0.0,"dwelling":"SFD","notes":null,"street":"South Carlen","da":"Affected","id":"ab3srp7deeg2","address":"27","geo_precision":"unmatched","state":"Al"},"type":"Feature","geometry":null},{"properties":{"city":"Mobile","name":null,"county":"Mobile","unit":null,"geo_score":0.0,"dwelling":"SFD","notes":null,"street":"South Carlen","da":"Affected","id":"ab3srp6d4dxd","address":"29","geo_precision":"unmatched","state":"Al"},"type":"Feature","geometry":null},{"properties":{"city":"Mobile","name":null,"county":"Mobile","unit":null,"geo_score":0.0,"dwelling":"SFD","notes":"Roof Damage","street":"South Carlen","da":"Major","id":"ab3srovx5mua","address":"31","geo_precision":"unmatched","state":"Al"},"type":"Feature","geometry":null},{"properties":{"city":"Mobile","name":null,"county":"Mobile","unit":null,"geo_score":0.0,"dwelling":"SFD","notes":"Second Floor Gone","street":"South Carlen","da":"Destroyed","id":"ab3srozds54w","address":"50","geo_precision":"unmatched","state":"Al"},"type":"Feature","geometry":null},{"properties":{"city":"Mobile","name":null,"county":"Mobile","unit":null,"geo_score":0.0,"dwelling":"SFD","notes":null,"street":"South Carlen","da":"Affected","id":"ab3sroxj6nno","address":"51","geo_precision":"unmatched","state":"Al"},"type":"Feature","geometry":null},{"properties":{"city":"Mobile","name":null,"county":"Mobile","unit":null,"geo_score":0.0,"dwelling":"SFD","notes":"Second Floor Gone","street":"South Carlen","da":"Destroyed","id":"ab3srp5864fu","address":"52","geo_precision":"unmatched","state":"Al"},"type":"Feature","geometry":null},{"properties":{"city":"Mobile","name":null,"county":"Mobile","unit":null,"geo_score":0.0,"dwelling":"SFD","notes":null,"street":"South Carlen","da":"Affected","id":"ab3sroza6jc6","address":"55","geo_precision":"unmatched","state":"Al"},"type":"Feature","geometry":null},{"properties":{"city":"Mobile","name":null,"county":"Mobile","unit":null,"geo_score":0.0,"dwelling":"SFD","notes":null,"street":"South Carlen","da":"Affected","id":"ab3sroxbgke2","address":"57","geo_precision":"unmatched","state":"Al"},"type":"Feature","geometry":null},{"properties":{"city":"Mobile","name":null,"county":"Mobile","unit":null,"geo_score":0.0,"dwelling":"SFD","notes":"Roof Damage","street":"South Carlen","da":"Minor","id":"ab3srotl5jot","address":"59","geo_precision":"unmatched","state":"Al"},"type":"Feature","geometry":null},{"properties":{"city":"Mobile","name":null,"county":"Mobile","unit":null,"geo_score":0.0,"dwelling":"SFD","notes":"Roof Damage    Across from Murphy High School","street":"South Carlen","da":"Minor","id":"ab3srowycmjj","address":"105","geo_precision":"unmatched","state":"Al"},"type":"Feature","geometry":null},{"properties":{"city":"Mobile","name":null,"county":"Mobile","unit":null,"geo_score":0.0,"dwelling":"SFD","notes":null,"street":"South Carlen","da":"Affected","id":"ab3srp8743fm","address":"107","geo_precision":"unmatched","state":"Al"},"type":"Feature","geometry":null},{"properties":{"city":"Mobile","name":null,"county":"Mobile","unit":null,"geo_score":0.0,"dwelling":"SFD","notes":null,"street":"South Carlen","da":"Affected","id":"ab3srp0p2p67","address":"109","geo_precision":"unmatched","state":"Al"},"type":"Feature","geometry":null},{"properties":{"city":"Mobile","name":null,"county":"Mobile","unit":null,"geo_score":0.0,"dwelling":"SFD","notes":null,"street":"South Carlen","da":"Affected","id":"ab3srox5euag","address":"111","geo_precision":"unmatched","state":"Al"},"type":"Feature","geometry":null},{"properties":{"city":"Mobile","name":null,"county":"Mobile","unit":null,"geo_score":0.0,"dwelling":"SFD","notes":null,"street":"South Carlen","da":"Affected","id":"ab3srp38dl2k","address":"113","geo_precision":"unmatched","state":"Al"},"type":"Feature","geometry":null},{"properties":{"city":"Mobile","name":null,"county":"Mobile","unit":null,"geo_score":0.0,"dwelling":"SFD","notes":null,"street":"South Carlen","da":"Affected","id":"ab3srp8sf8od","address":"115","geo_precision":"unmatched","state":"Al"},"type":"Feature","geometry":null},{"properties":{"city":"Mobile","name":null,"county":"Mobile","unit":null,"geo_score":0.0,"dwelling":"SFD","notes":null,"street":"South Carlen","da":"Affected","id":"ab3srp7v9wdt","address":"117","geo_precision":"unmatched","state":"Al"},"type":"Feature","geometry":null},{"properties":{"city":"Mobile","name":null,"county":"Mobile","unit":null,"geo_score":0.0,"dwelling":"SFD","notes":null,"street":"South Carlen","da":"Affected","id":"ab3srp7zcwdf","address":"119","geo_precision":"unmatched","state":"Al"},"type":"Feature","geometry":null},{"properties":{"city":"Mobile","name":null,"county":"Mobile","unit":null,"geo_score":0.0,"dwelling":"SFD","notes":null,"street":"Souty Carlen","da":"Affected","id":"ab3srp45mf93","address":"53","geo_precision":"unmatched","state":"Al"},"type":"Feature","geometry":null},{"properties":{"city":"Wilmer","name":"Neely","county":"Mobile","unit":null,"geo_score":0.0,"dwelling":"Mobile H","notes":"Roof Damage Water Damage","street":"Spotted Fawn","da":"Affected","id":"ab3srospr7wn","address":"4950","geo_precision":"unmatched","state":"Al"},"type":"Feature","geometry":null},{"properties":{"city":"Wilmer","name":"Neeley","county":"Mobile","unit":null,"geo_score":0.0,"dwelling":"Mobile H","notes":"Flattened Mobile Home  Needsmedications","street":"Spotted Fawn","da":"Destroyed","id":"ab3srp6ccecb","address":"4980","geo_precision":"unmatched","state":"Al"},"type":"Feature","geometry":null},{"properties":{"city":"Mobile","name":null,"county":"Mobile","unit":null,"geo_score":0.0,"dwelling":"SFD","notes":null,"street":"Springhill Ave","da":"Major","id":"ab3srozwkmik","address":"1809","geo_precision":"unmatched","state":"Al"},"type":"Feature","geometry":null},{"properties":{"city":"Mobile","name":null,"county":"Mobile","unit":null,"geo_score":0.0,"dwelling":"SFD","notes":null,"street":"Springhill Ave","da":"Major","id":"ab3srp0eebak","address":"1811","geo_precision":"unmatched","state":"Al"},"type":"Feature","geometry":null},{"properties":{"city":"Mobile","name":null,"county":"Mobile","unit":null,"geo_score":0.0,"dwelling":"SFD","notes":"Roof Damage","street":"St. Charles Ave","da":"Affected","id":"ab3srp5niaed","address":"310","geo_precision":"unmatched","state":"Al"},"type":"Feature","geometry":null},{"properties":{"city":"Mobile","name":null,"county":"Mobile","unit":null,"geo_score":0.0,"dwelling":"SFD","notes":"Roof Damage","street":"St. Charles Ave","da":"Affected","id":"ab3srp6rvw5h","address":"353","geo_precision":"unmatched","state":"Al"},"type":"Feature","geometry":null},{"properties":{"city":"Mobile","name":null,"county":"Mobile","unit":null,"geo_score":0.0,"dwelling":"SFD","notes":"Roof Damage","street":"St. Charles Ave","da":"Affected","id":"ab3srou24qfz","address":"356","geo_precision":"unmatched","state":"Al"},"type":"Feature","geometry":null},{"properties":{"city":"Marengo","name":null,"county":"Demopolis","unit":null,"geo_score":0.0,"dwelling":"MH","notes":"Sunset area - unknown address","street":"Sunset Rd.","da":"Destroyed","id":"ab3srp02fwuw","address":"?","geo_precision":"unmatched","state":"AL"},"type":"Feature","geometry":null},{"properties":{"city":"Marengo","name":null,"county":"Demopolis","unit":null,"geo_score":0.0,"dwelling":"MH","notes":"Sunset area - unknown address","street":"Sunset Rd.","da":"Destroyed","id":"ab3srp2k7o5n","address":"?","geo_precision":"unmatched","state":"AL"},"type":"Feature","geometry":null},{"properties":{"city":"Marengo","name":null,"county":"Demopolis","unit":null,"geo_score":0.0,"dwelling":"MH","notes":"Sunset area - unknown address","street":"Sunset Rd.","da":"Major","id":"ab3srp6zldhz","address":"?","geo_precision":"unmatched","state":"AL"},"type":"Feature","geometry":null},{"properties":{"city":"Marengo","name":null,"county":"Demopolis","unit":null,"geo_score":0.0,"dwelling":"MH","notes":"Sunset area - unknown address","street":"Sunset Rd.","da":"Major","id":"ab3srp60chx8","address":"?","geo_precision":"unmatched","state":"AL"},"type":"Feature","geometry":null},{"properties":{"city":"Mobile","name":null,"county":"Mobile","unit":null,"geo_score":0.0,"dwelling":"SFD","notes":"1st on Right         (between Old Govt. and Myrtle)","street":"Topic St","da":"Minor","id":"ab3srp84fb9i","address":"?","geo_precision":"unmatched","state":"Al"},"type":"Feature","geometry":null},{"properties":{"city":"Mobile","name":null,"county":"Mobile","unit":null,"geo_score":0.0,"dwelling":"SFD","notes":"2nd on Right","street":"Topic St","da":"Minor","id":"ab3sroz5fvow","address":"?","geo_precision":"unmatched","state":"Al"},"type":"Feature","geometry":null},{"properties":{"city":"Mobile","name":null,"county":"Mobile","unit":null,"geo_score":0.0,"dwelling":"SFD","notes":"3rd on Right","street":"Topic St","da":"Minor","id":"ab3srp312ypk","address":"?","geo_precision":"unmatched","state":"Al"},"type":"Feature","geometry":null},{"properties":{"city":"Mobile","name":null,"county":"Mobile","unit":null,"geo_score":0.0,"dwelling":"SFD","notes":"4th on Right","street":"Topic St","da":"Minor","id":"ab3srp0dhxhh","address":"?","geo_precision":"unmatched","state":"Al"},"type":"Feature","geometry":null},{"properties":{"city":"Mobile","name":null,"county":"Mobile","unit":null,"geo_score":0.0,"dwelling":"SFD","notes":"1st on left","street":"Topic St","da":"Affected","id":"ab3sroyr6qjw","address":"?","geo_precision":"unmatched","state":"Al"},"type":"Feature","geometry":null},{"properties":{"city":"Mobile","name":null,"county":"Mobile","unit":null,"geo_score":0.0,"dwelling":"SFD","notes":"2nd on Left","street":"Topic St","da":"Affected","id":"ab3sroy5pstq","address":"?","geo_precision":"unmatched","state":"Al"},"type":"Feature","geometry":null},{"properties":{"city":"Mobile","name":null,"county":"Mobile","unit":null,"geo_score":0.0,"dwelling":"SFD","notes":"3rd  on left","street":"Topic St","da":"Affected","id":"ab3srotl5o6s","address":"?","geo_precision":"unmatched","state":"Al"},"type":"Feature","geometry":null},{"properties":{"city":"Mobile","name":null,"county":"Mobile","unit":null,"geo_score":0.0,"dwelling":"SFD","notes":"4th on left","street":"Topic St","da":"Affected","id":"ab3srp4sg1iv","address":"?","geo_precision":"unmatched","state":"Al"},"type":"Feature","geometry":null},{"properties":{"city":"Prichard","name":null,"county":"Mobile","unit":null,"geo_score":0.0,"dwelling":"SFD","notes":"Right exterior leanng. Danger of collapse-Roof collased on Rt sideFrnt poarch damagedWall and roof seperatedon left side","street":"Traffic St","da":"Major","id":"ab3srp2jg996","address":"833","geo_precision":"unmatched","state":"Al"},"type":"Feature","geometry":null},{"properties":{"city":"Prichard","name":null,"county":"Mobile","unit":null,"geo_score":0.0,"dwelling":"SFD","notes":"Major damage to roof and supports","street":"Traffic St","da":"Major","id":"ab3srp41kjuu","address":"905","geo_precision":"unmatched","state":"Al"},"type":"Feature","geometry":null},{"properties":{"city":"Wilmer","name":null,"county":"Mobile","unit":null,"geo_score":0.0,"dwelling":"Mobile H","notes":"Siding off carport roof damaged","street":"Whitetail Rd","da":"Affected","id":"ab3srp5eouex","address":"15380","geo_precision":"unmatched","state":"Al"},"type":"Feature","geometry":null},{"properties":{"city":"Wilmer","name":null,"county":"Mobile","unit":null,"geo_score":0.0,"dwelling":"Mobile H","notes":"Roof damage/power line down","street":"Whitetail Rd","da":"Affected","id":"ab3srp8laiwm","address":"15385","geo_precision":"unmatched","state":"Al"},"type":"Feature","geometry":null},{"properties":{"city":"Wilmer","name":null,"county":"Mobile","unit":null,"geo_score":0.0,"dwelling":"Mobile H","notes":"Shingles missing","street":"Whitetail Rd","da":"Affected","id":"ab3sroxiduyr","address":"15405","geo_precision":"unmatched","state":"Al"},"type":"Feature","geometry":null},{"properties":{"city":"Wilmer","name":null,"county":"Mobile","unit":null,"geo_score":0.0,"dwelling":"Mobile H","notes":"1st house on right","street":"Whitetail Rd","da":"Affected","id":"ab3srp385isy","address":"?","geo_precision":"unmatched","state":"Al"},"type":"Feature","geometry":null},{"properties":{"city":"Mobile","name":null,"county":"Mobile","unit":null,"geo_score":0.0,"dwelling":"SFD","notes":"2 story","street":"Wilcox St","da":"Destroyed","id":"ab3srp85s896","address":"51","geo_precision":"unmatched","state":"Al"},"type":"Feature","geometry":null},{"properties":{"city":"Mobile","name":null,"county":"Mobile","unit":null,"geo_score":0.0,"dwelling":"SFD","notes":"siding","street":"Williams St","da":"Minor","id":"ab3srour3y0j","address":"449","geo_precision":"unmatched","state":"Al"},"type":"Feature","geometry":null},{"properties":{"city":"Mobile","name":null,"county":"Mobile","unit":null,"geo_score":0.0,"dwelling":"SFD","notes":"Roof damage","street":"Williams St","da":"Major","id":"ab3srp31baxj","address":"450","geo_precision":"unmatched","state":"Al"},"type":"Feature","geometry":null},{"properties":{"city":"Mobile","name":null,"county":"Mobile","unit":null,"geo_score":0.0,"dwelling":"SFD","notes":null,"street":"Williams St","da":"Affected","id":"ab3srovizusk","address":"451","geo_precision":"unmatched","state":"Al"},"type":"Feature","geometry":null},{"properties":{"city":"Mobile","name":null,"county":"Mobile","unit":null,"geo_score":0.0,"dwelling":"SFD","notes":null,"street":"Williams St","da":"Affected","id":"ab3srozzexon","address":"452","geo_precision":"unmatched","state":"Al"},"type":"Feature","geometry":null},{"properties":{"city":"Mobile","name":null,"county":"Mobile","unit":null,"geo_score":0.0,"dwelling":"SFD","notes":null,"street":"Williams St","da":"Affected","id":"ab3srotvuyzd","address":"453","geo_precision":"unmatched","state":"Al"},"type":"Feature","geometry":null},{"properties":{"city":"Mobile","name":null,"county":"Mobile","unit":"A","geo_score":0.0,"dwelling":"Apt","notes":null,"street":"Williams St","da":"Minor","id":"ab3sroshfm9p","address":"454","geo_precision":"unmatched","state":"Al"},"type":"Feature","geometry":null},{"properties":{"city":"Mobile","name":null,"county":"Mobile","unit":"B","geo_score":0.0,"dwelling":"Apt","notes":null,"street":"Williams St","da":"Minor","id":"ab3srp8nxz8r","address":"454","geo_precision":"unmatched","state":"Al"},"type":"Feature","geometry":null},{"properties":{"city":"Mobile","name":null,"county":"Mobile","unit":"A","geo_score":0.0,"dwelling":"Apt","notes":null,"street":"Williams St","da":"Minor","id":"ab3srotc9o6f","address":"456","geo_precision":"unmatched","state":"Al"},"type":"Feature","geometry":null},{"properties":{"city":"Mobile","name":null,"county":"Mobile","unit":"B","geo_score":0.0,"dwelling":"Apt","notes":null,"street":"Williams St","da":"Minor","id":"ab3sroxmocso","address":"456","geo_precision":"unmatched","state":"Al"},"type":"Feature","geometry":null},{"properties":{"city":"Mobile","name":null,"county":"Mobile","unit":null,"geo_score":0.0,"dwelling":"SFD","notes":null,"street":"Williams St","da":"Affected","id":"ab3srp5knwsd","address":"457","geo_precision":"unmatched","state":"Al"},"type":"Feature","geometry":null},{"properties":{"city":"Mobile","name":null,"county":"Mobile","unit":"A","geo_score":0.0,"dwelling":"Apt","notes":null,"street":"Williams St","da":"Affected","id":"ab3srp8aycnx","address":"458","geo_precision":"unmatched","state":"Al"},"type":"Feature","geometry":null},{"properties":{"city":"Mobile","name":null,"county":"Mobile","unit":"B","geo_score":0.0,"dwelling":"Apt","notes":null,"street":"Williams St","da":"Affected","id":"ab3srozo0027","address":"458","geo_precision":"unmatched","state":"Al"},"type":"Feature","geometry":null},{"properties":{"city":"Mobile","name":null,"county":"Mobile","unit":null,"geo_score":0.0,"dwelling":"SFD","notes":null,"street":"Williams St","da":"Affected","id":"ab3srp1k09zr","address":"500","geo_precision":"unmatched","state":"Al"},"type":"Feature","geometry":null},{"properties":{"city":"Mobile","name":null,"county":"Mobile","unit":"A","geo_score":0.0,"dwelling":"Apt","notes":"Roof damage and garage","street":"Williams St","da":"Minor","id":"ab3srovxhcgu","address":"501","geo_precision":"unmatched","state":"Al"},"type":"Feature","geometry":null},{"properties":{"city":"Mobile","name":null,"county":"Mobile","unit":"B","geo_score":0.0,"dwelling":"Apt","notes":"Roof damage and garage","street":"Williams St","da":"Minor","id":"ab3srotht2zj","address":"501","geo_precision":"unmatched","state":"Al"},"type":"Feature","geometry":null},{"properties":{"city":"Mobile","name":null,"county":"Mobile","unit":null,"geo_score":0.0,"dwelling":"SFD","notes":null,"street":"Williams St","da":"Minor","id":"ab3srp8t27kf","address":"502","geo_precision":"unmatched","state":"Al"},"type":"Feature","geometry":null},{"properties":{"city":"Mobile","name":null,"county":"Mobile","unit":null,"geo_score":0.0,"dwelling":"SFD","notes":null,"street":"Williams St","da":"Affected","id":"ab3srp1vpqj9","address":"503","geo_precision":"unmatched","state":"Al"},"type":"Feature","geometry":null},{"properties":{"city":"Mobile","name":null,"county":"Mobile","unit":null,"geo_score":0.0,"dwelling":"SFD","notes":null,"street":"Williams St","da":"Affected","id":"ab3srp3my5dk","address":"506","geo_precision":"unmatched","state":"Al"},"type":"Feature","geometry":null},{"properties":{"city":"Mobile","name":null,"county":"Mobile","unit":null,"geo_score":0.0,"dwelling":"SFD","notes":"tree down back yard","street":"Williams St","da":"Affected","id":"ab3srp6l3o84","address":"507","geo_precision":"unmatched","state":"Al"},"type":"Feature","geometry":null},{"properties":{"city":"Mobile","name":null,"county":"Mobile","unit":"A","geo_score":0.0,"dwelling":"Apt","notes":null,"street":"Williams St","da":"Minor","id":"ab3srp4f19my","address":"508","geo_precision":"unmatched","state":"Al"},"type":"Feature","geometry":null},{"properties":{"city":"Mobile","name":null,"county":"Mobile","unit":"B","geo_score":0.0,"dwelling":"Apt","notes":null,"street":"Williams St","da":"Minor","id":"ab3srp8edhbt","address":"508","geo_precision":"unmatched","state":"Al"},"type":"Feature","geometry":null},{"properties":{"city":"Mobile","name":null,"county":"Mobile","unit":"A","geo_score":0.0,"dwelling":"Apt","notes":null,"street":"Williams St","da":"Affected","id":"ab3srosouw0d","address":"512","geo_precision":"unmatched","state":"Al"},"type":"Feature","geometry":null},{"properties":{"city":"Mobile","name":null,"county":"Mobile","unit":"B","geo_score":0.0,"dwelling":"Apt","notes":null,"street":"Williams St","da":"Affected","id":"ab3srox4i6yw","address":"512","geo_precision":"unmatched","state":"Al"},"type":"Feature","geometry":null},{"properties":{"city":"Mobile","name":null,"county":"Mobile","unit":null,"geo_score":0.0,"dwelling":"SFD","notes":null,"street":"Williams St","da":"Affected","id":"ab3srp5aj1cz","address":"514","geo_precision":"unmatched","state":"Al"},"type":"Feature","geometry":null},{"properties":{"city":"Mobile","name":null,"county":"Mobile","unit":null,"geo_score":0.0,"dwelling":"SFD","notes":null,"street":"Williams St","da":"Minor","id":"ab3srp3wvobk","address":"518","geo_precision":"unmatched","state":"Al"},"type":"Feature","geometry":null},{"properties":{"city":"Mobile","name":null,"county":"Mobile","unit":null,"geo_score":0.0,"dwelling":"SFD","notes":null,"street":"Williams St","da":"Affected","id":"ab3srotmilil","address":"552","geo_precision":"unmatched","state":"Al"},"type":"Feature","geometry":null},{"properties":{"city":"Mobile","name":null,"county":"Mobile","unit":null,"geo_score":0.0,"dwelling":"SFD","notes":"Fence down","street":"Williams St","da":"Affected","id":"ab3srp36c3a8","address":"555","geo_precision":"unmatched","state":"Al"},"type":"Feature","geometry":null},{"properties":{"city":"Mobile","name":null,"county":"Mobile","unit":null,"geo_score":0.0,"dwelling":"SFD","notes":null,"street":"Williams St","da":"Affected","id":"ab3srp38xgi8","address":"556","geo_precision":"unmatched","state":"Al"},"type":"Feature","geometry":null},{"properties":{"city":"Mobile","name":null,"county":"Mobile","unit":null,"geo_score":0.0,"dwelling":"SFD","notes":"Roof Damage","street":"Williams St","da":"Minor","id":"ab3sroy5xqev","address":"558","geo_precision":"unmatched","state":"Al"},"type":"Feature","geometry":null},{"properties":{"city":"Mobile","name":null,"county":"Mobile","unit":null,"geo_score":0.0,"dwelling":"SFD","notes":"Vacant","street":"Williams St","da":"Affected","id":"ab3srp1id7v5","address":"559","geo_precision":"unmatched","state":"Al"},"type":"Feature","geometry":null},{"properties":{"city":"Mobile","name":null,"county":"Mobile","unit":null,"geo_score":0.0,"dwelling":"SFD","notes":"Roof Damage","street":"Williams St","da":"Minor","id":"ab3sroxo6mgb","address":"568","geo_precision":"unmatched","state":"Al"},"type":"Feature","geometry":null},{"properties":{"city":"Mobile","name":null,"county":"Mobile","unit":null,"geo_score":0.0,"dwelling":"SFD","notes":null,"street":"Williams St","da":"Minor","id":"ab3srp5e88ng","address":"611","geo_precision":"unmatched","state":"Al"},"type":"Feature","geometry":null},{"properties":{"city":"Mobile","name":null,"county":"Mobile","unit":null,"geo_score":0.0,"dwelling":"SFD","notes":null,"street":"Williams St","da":"Minor","id":"ab3srp0ojspo","address":"617","geo_precision":"unmatched","state":"Al"},"type":"Feature","geometry":null},{"properties":{"city":"Mobile","name":null,"county":"Mobile","unit":null,"geo_score":0.0,"dwelling":"SFD","notes":"Siding","street":"Williams St","da":"Minor","id":"ab3srp7abap2","address":"629","geo_precision":"unmatched","state":"Al"},"type":"Feature","geometry":null},{"properties":{"city":"Mobile","name":null,"county":"Mobile","unit":null,"geo_score":0.0,"dwelling":"SFD","notes":null,"street":"Williams St","da":"Affected","id":"ab3srovra76g","address":"?","geo_precision":"unmatched","state":"Al"},"type":"Feature","geometry":null}],"is_temporal":false,"author":{"url":"","metadata":"","contact_name":"","contact_address":"","source":"","contact_phone":""},"source":"","pagination":{"sort":null,"start":0,"total":538,"limit":1000000},"state":"complete","tags":"tornados","published":"2014-08-16T23:38:34-04:00","id":308119}