{"type":"FeatureCollection","data_type":"Dataset","url_type":null,"permissions":[{"permissions":{"download":true,"view":true},"group_id":"everyone"}],"classification":null,"title":"2013 Chicago Christmas Tree Recycling","count":23,"stream_id":308247,"contributor":{"url":"http://geocommons.com/users/28246","name":"natejones"},"data_attributes":null,"calculation_params":null,"icon_link":null,"link":"http://geocommons.com/overlays/308247.json","extent":[-87.7943,41.6859,-87.5362,42.0022],"geometry_types":["point"],"unique_name":null,"name":"2013 Chicago Christmas Tree Recycling","feature_count":23,"description":"Christmas tree recycling sites in Chicago","next_feature":null,"is_raster":false,"short_classification":"Y","stats":{"latitude":{"max":42.00222,"mean":41.8542295652174,"variance":0.0111981618952569,"stdev":0.105821367857616,"median":41.87089,"min":41.68593},"sequence":{"max":23,"mean":12.0,"variance":46.0,"stdev":6.78232998312527,"median":12,"min":1},"longitude":{"max":-87.53624,"mean":-87.6782069565217,"variance":0.00484708306758906,"stdev":0.069620995881911,"median":-87.69031,"min":-87.79429}},"features":[{"properties":{"name":"Bessemer Park","city":"Chicago","sequence":1,"zip":"60617-3163","latitude":41.73272,"longitude":-87.55527,"id":"ab66n1fsk443","address":"8930 S Muskegon Ave","state":"IL"},"type":"Feature","geometry":{"type":"Point","coordinates":[-87.55527,41.73272]}},{"properties":{"name":"Clark Park","city":"Chicago","sequence":2,"zip":"60618","latitude":41.94684,"longitude":-87.70299,"id":"ab66n1h72wim","address":"3400 N. Rockwell Ave.","state":"IL"},"type":"Feature","geometry":{"type":"Point","coordinates":[-87.70299,41.94684]}},{"properties":{"name":"Forestry Site","city":"Chicago","sequence":3,"zip":"60628-3033","latitude":41.7049,"longitude":-87.6034,"id":"ab66n1etf3fp","address":"900 E 103rd St","state":"IL"},"type":"Feature","geometry":{"type":"Point","coordinates":[-87.6034,41.7049]}},{"properties":{"name":"Garfield Park","city":"Chicago","sequence":4,"zip":"60624-1912","latitude":41.88118,"longitude":-87.71595,"id":"ab66n1km7fwc","address":"100 N Central Park Ave","state":"IL"},"type":"Feature","geometry":{"type":"Point","coordinates":[-87.71595,41.88118]}},{"properties":{"name":"Grant Park","city":"Chicago","sequence":5,"zip":"60605","latitude":41.86902,"longitude":-87.62707,"id":"ab66n1de0nj7","address":"900 S. Columbus Dr.","state":"IL"},"type":"Feature","geometry":{"type":"Point","coordinates":[-87.62707,41.86902]}},{"properties":{"name":"Humboldt Park Boathouse","city":"Chicago","sequence":6,"zip":"60622","latitude":41.90084,"longitude":-87.67075,"id":"ab66n1q2yn1j","address":"1369 N. Sacramento Blvd.","state":"IL"},"type":"Feature","geometry":{"type":"Point","coordinates":[-87.67075,41.90084]}},{"properties":{"name":"Jackson Park","city":"Chicago","sequence":7,"zip":"60649","latitude":41.76232,"longitude":-87.56895,"id":"ab66n1metw36","address":"6300 S. Cornell Ave.","state":"IL"},"type":"Feature","geometry":{"type":"Point","coordinates":[-87.56895,41.76232]}},{"properties":{"name":"Kennedy Park","city":"Chicago","sequence":8,"zip":"60655","latitude":41.69617,"longitude":-87.70213,"id":"ab66n1jahb0q","address":"2427 W 113Th St","state":"IL"},"type":"Feature","geometry":{"type":"Point","coordinates":[-87.70213,41.69617]}},{"properties":{"name":"Kelvyn Park","city":"Chicago","sequence":9,"zip":"60639-1920","latitude":41.92838,"longitude":-87.73775,"id":"ab66n1m64b4u","address":"4438 W Wrightwood Ave","state":"IL"},"type":"Feature","geometry":{"type":"Point","coordinates":[-87.73775,41.92838]}},{"properties":{"name":"Lake Meadows Park","city":"Chicago","sequence":10,"zip":"60616","latitude":41.84583,"longitude":-87.62862,"id":"ab66n1ga7357","address":"3117 S Rhodes Ave","state":"IL"},"type":"Feature","geometry":{"type":"Point","coordinates":[-87.62862,41.84583]}},{"properties":{"name":"Lincoln Park","city":"Chicago","sequence":11,"zip":"60614-2874","latitude":41.92705,"longitude":-87.64453,"id":"ab66n1oo7tg5","address":"2430 N Cannon Dr","state":"IL"},"type":"Feature","geometry":{"type":"Point","coordinates":[-87.64453,41.92705]}},{"properties":{"name":"Margate Park","city":"Chicago","sequence":12,"zip":"60640-3943","latitude":41.9714,"longitude":-87.65048,"id":"ab66n1pq8l80","address":"4921 N Marine Dr","state":"IL"},"type":"Feature","geometry":{"type":"Point","coordinates":[-87.65048,41.9714]}},{"properties":{"name":"Marquette Park","city":"Chicago","sequence":13,"zip":"60629-3555","latitude":41.771,"longitude":-87.70325,"id":"ab66n1hykilg","address":"6700 S Kedzie Ave","state":"IL"},"type":"Feature","geometry":{"type":"Point","coordinates":[-87.70325,41.771]}},{"properties":{"name":"McKinley Park","city":"Chicago","sequence":14,"zip":"60609-2209","latitude":41.82306,"longitude":-87.67948,"id":"ab66n1s9mtk0","address":"2210 W Pershing Rd","state":"IL"},"type":"Feature","geometry":{"type":"Point","coordinates":[-87.67948,41.82306]}},{"properties":{"name":"Mt. Greenwood Park","city":"Chicago","sequence":15,"zip":"60655-4040","latitude":41.69153,"longitude":-87.71418,"id":"ab66n1kbiig6","address":"3721 W 111th St","state":"IL"},"type":"Feature","geometry":{"type":"Point","coordinates":[-87.71418,41.69153]}},{"properties":{"name":"North Park Village","city":"Chicago","sequence":16,"zip":"60646-6007","latitude":41.98635,"longitude":-87.72838,"id":"ab66n1s8xbsi","address":"5801 N Pulaski Rd","state":"IL"},"type":"Feature","geometry":{"type":"Point","coordinates":[-87.72838,41.98635]}},{"properties":{"name":"Norwood Park","city":"Chicago","sequence":17,"zip":"60631-3132","latitude":41.98768,"longitude":-87.79429,"id":"ab66n1nyiyfl","address":"5801 N Natoma Ave","state":"IL"},"type":"Feature","geometry":{"type":"Point","coordinates":[-87.79429,41.98768]}},{"properties":{"name":"Portage Park","city":"Chicago","sequence":18,"zip":"60641-1346","latitude":41.95583,"longitude":-87.76215,"id":"ab66n1e5x6et","address":"4100 N Long Ave","state":"IL"},"type":"Feature","geometry":{"type":"Point","coordinates":[-87.76215,41.95583]}},{"properties":{"name":"Riis Park","city":"Chicago","sequence":19,"zip":"60639","latitude":41.92055,"longitude":-87.75489,"id":"ab66n1siz350","address":"6201 W Wrightwood Ave","state":"IL"},"type":"Feature","geometry":{"type":"Point","coordinates":[-87.75489,41.92055]}},{"properties":{"name":"Rowan Park","city":"Chicago","sequence":20,"zip":"60617-7311","latitude":41.68593,"longitude":-87.53624,"id":"ab66n1fi9qgq","address":"11546 S Avenue L","state":"IL"},"type":"Feature","geometry":{"type":"Point","coordinates":[-87.53624,41.68593]}},{"properties":{"name":"Sheridan Park","city":"Chicago","sequence":21,"zip":"60607-4248","latitude":41.87089,"longitude":-87.6542,"id":"ab66n1ohgtky","address":"910 S Aberdeen St","state":"IL"},"type":"Feature","geometry":{"type":"Point","coordinates":[-87.6542,41.87089]}},{"properties":{"name":"Warren Park","city":"Chicago","sequence":22,"zip":"60645-5047","latitude":42.00222,"longitude":-87.69031,"id":"ab66n1frvyyp","address":"6601 N Western Ave","state":"IL"},"type":"Feature","geometry":{"type":"Point","coordinates":[-87.69031,42.00222]}},{"properties":{"name":"Wentworth Park","city":"Chicago","sequence":23,"zip":"60638","latitude":41.78559,"longitude":-87.7735,"id":"ab66n1mf61g6","address":"5701 S. Narragansett Ave.","state":"IL"},"type":"Feature","geometry":{"type":"Point","coordinates":[-87.7735,41.78559]}}],"is_temporal":false,"author":{"url":"","metadata":"","contact_name":"","contact_address":"","source":"","contact_phone":""},"source":"","pagination":{"sort":null,"start":0,"total":23,"limit":1000000},"state":"complete","tags":"chicago,christmas,christmastree,recycling,tree","published":"2014-08-16T23:46:28-04:00","id":308247}