{"type":"FeatureCollection","data_type":"Dataset","url_type":null,"permissions":[{"permissions":{"download":true,"view":true},"group_id":"everyone"}],"classification":null,"title":"Contact_List_Beyond_Jobs_Sites_MapNEW","count":41,"stream_id":308494,"contributor":{"url":"http://geocommons.com/users/57857","name":"alysse"},"data_attributes":null,"calculation_params":null,"icon_link":null,"link":"http://geocommons.com/overlays/308494.json","extent":[-157.895,21.3352,-70.2626,47.6535],"geometry_types":["point"],"unique_name":null,"name":"Contact_List_Beyond_Jobs_Sites_MapNEW","feature_count":41,"description":"","next_feature":null,"is_raster":false,"short_classification":"Y","stats":{},"features":[{"properties":{"company":"Goodwill Industries of Central Texas","city":"Austin","zip":"78753","title":"Workforce Development Director","contact":"Steve Kaiven","geo_score":1.0,"phone":"(512) 748-7317","id":"ab6zj2lee8af","address":"1015 Norwood Park Blvd","geo_precision":"range","state":"TX","email":"steve.kaiven@austingoodwill.org"},"type":"Feature","geometry":{"type":"Point","coordinates":[-97.696893,30.342118]}},{"properties":{"company":"Morgan Memorial Goodwill Industries","city":"Boston","zip":"02119","title":"Director of Workforce Development","contact":"Valerie Gold","geo_score":0.986,"phone":"(617) 541-1434","id":"ab6zj2oogjtp","address":"1010 Harrison Avenue","geo_precision":"range","state":"MA","email":"vgold@goodwillmass.org"},"type":"Feature","geometry":{"type":"Point","coordinates":[-71.079454,42.331995]}},{"properties":{"company":"Goodwill of Western and Northern Connecticut Inc.","city":"Bridgeport","zip":"06605","title":"JFES Coordinator","contact":"Carol Robles","geo_score":1.0,"phone":"203 5815371","id":"ab6zj2kx8vge","address":"165 Ocean Terrace","geo_precision":"range","state":"CT","email":"crobles@gwct.org"},"type":"Feature","geometry":{"type":"Point","coordinates":[-73.218323,41.160461]}},{"properties":{"company":"Goodwill Industries of Western New York, Inc.","city":"Buffalo","zip":"14206","title":"Director of Human Services","contact":"Daniel Colpoys","geo_score":1.0,"phone":"(716) 854-3494","id":"ab6zj2mwbcoi","address":"1119 William Street","geo_precision":"range","state":"NY","email":"danielc@goodwillwny.org"},"type":"Feature","geometry":{"type":"Point","coordinates":[-78.832053,42.884913]}},{"properties":{"company":"Goodwill Columbus","city":"Columbus","zip":"43212","title":"VP","contact":"Debra Shinoskie","geo_score":1.0,"phone":"(614) 583-0349","id":"ab6zj2pk3en4","address":"1331 Edgehill Rd","geo_precision":"range","state":"OH","email":"debra.shinoskie@gwcols.com"},"type":"Feature","geometry":{"type":"Point","coordinates":[-83.02932,39.985828]}},{"properties":{"company":"Goodwill Industries of The Southern Rivers, Inc.","city":"Columbus","zip":"31906","title":"Director Workforce Development and Training","contact":"Kathy Carlisle","geo_score":0.742,"phone":"(706) 681-6561","id":"ab6zj2lwjwm4","address":"2601 Cross Country Drive","geo_precision":"street","state":"GA","email":"kcarlisle@gwisr.org"},"type":"Feature","geometry":{"type":"Point","coordinates":[-84.951169,32.481881]}},{"properties":{"company":"Goodwill Industries of South Texas, Inc.","city":"Corpus Christi","zip":"78405","title":"Vice President of Workforce Development","contact":"Rachel Loera","geo_score":0.614,"phone":"(361) 884-4068","id":"ab6zj2ns1oqj","address":"2961 S. Port St.","geo_precision":"street","state":"TX","email":"rloera@goodwillsouthtexas.com"},"type":"Feature","geometry":{"type":"Point","coordinates":[-97.420513,27.786129]}},{"properties":{"company":"Goodwill Industries of Dallas","city":"Dallas","zip":"75212","title":"Vice President Workforce Development","contact":"Kamala  Kannan","geo_score":0.597,"phone":"(214) 638-2800","id":"ab6zj2h3oozz","address":"3020 N. Westmoreland","geo_precision":"street","state":"TX","email":"kkannan@goodwilldallas.org"},"type":"Feature","geometry":{"type":"Point","coordinates":[-96.873848,32.768181]}},{"properties":{"company":"Goodwill Industries of Lane and South Coast Counties","city":"Eugene","zip":"97408","title":"Director of Human Resources and Workforce Development","contact":"Rick Kangail","geo_score":1.0,"phone":"(541) 345-1801","id":"ab6zj2otfb70","address":"1010 Green Acres Road","geo_precision":"range","state":"OR","email":"rickk@goodwilloregon.org"},"type":"Feature","geometry":{"type":"Point","coordinates":[-123.094315,44.093243]}},{"properties":{"company":"Easter Seals-Goodwill Northern Rocky Mountain, Inc.","city":"Great Falls","zip":"59405","title":"AVP Workforce Development","contact":"Tina Stevens","geo_score":0.902,"phone":"(208) 255-6859","id":"ab6zj2gvm3i7","address":"4400 Central Ave","geo_precision":"range","state":"ID","email":"TinaS@esgw.org"},"type":"Feature","geometry":{"type":"Point","coordinates":[-111.229411,47.504951]}},{"properties":{"company":"Goodwill Industries of the Upstate/Midlands South Carolina, Inc.","city":"Greenville","zip":"29607","title":"Training Program Manager","contact":"Michelle Neeley","geo_score":1.0,"phone":"(864) 351-0147","id":"ab6zj2mit2x0","address":"115 Haywood Rd","geo_precision":"range","state":"SC","email":"mneeley@goodwillsc.org"},"type":"Feature","geometry":{"type":"Point","coordinates":[-82.344924,34.836796]}},{"properties":{"company":"Goodwill Industries of Hawaii, Inc.","city":"Honolulu","zip":"96819","title":"Senior Director Human Services","contact":"Katherine Keir","geo_score":1.0,"phone":"(808) 836-0313","id":"ab6zj2jln2ur","address":"2610 Kilihau St.","geo_precision":"range","state":"HI","email":"kkeir@higoodwill.org"},"type":"Feature","geometry":{"type":"Point","coordinates":[-157.894757,21.335229]}},{"properties":{"company":"Goodwill Industries of Houston","city":"Houston","zip":"77055","title":"Manager","contact":"Alma Duldulao-Ybarra","geo_score":0.912,"phone":"(832) 431-4473","id":"ab6zj2lklemg","address":"1140 West Loop North","geo_precision":"range","state":"TX","email":"a_ybarra@goodwillhouston.org"},"type":"Feature","geometry":{"type":"Point","coordinates":[-95.451293,29.788937]}},{"properties":{"company":"Goodwill Industries of Kyowva Area, Inc.","city":"Huntington","zip":"25776-7365","title":"Work Adjustment Counselor","contact":"Keith Vass","geo_score":0.766,"phone":"(304) 523-7461","id":"ab6zj2ow1kk8","address":"1102 Memorial Blvd.","geo_precision":"range","state":"WV","email":"kvass@goodwillhunting.org"},"type":"Feature","geometry":{"type":"Point","coordinates":[-82.463506,38.406251]}},{"properties":{"company":"Goodwill Industries of North Florida, Inc.","city":"Jacksonville","zip":"32205","title":"Vice President of Workforce Development","contact":"Linda Lewis","geo_score":0.415,"phone":"(904) 384-1361","id":"ab6zj2etvvsf","address":"4527 Lenox Avenue","geo_precision":"street","state":"FL","email":"lewisl@goodwilljax.org"},"type":"Feature","geometry":{"type":"Point","coordinates":[-81.662498,30.374205]}},{"properties":{"company":"Goodwill Industries of Southwestern Michigan, Inc.","city":"Kalamazoo","zip":"49022","title":"Director of Human Services Projects and Grants","contact":"Jennifer Tucker","geo_score":0.325,"phone":"(269) 382-0490","id":"ab6zj2pxj5dl","address":"420 E. Alcott","geo_precision":"street","state":"MI","email":"jtucker@goodwillswmi.org"},"type":"Feature","geometry":{"type":"Point","coordinates":[-85.579424,42.2703]}},{"properties":{"company":"Goodwill Industries - Knoxville, Inc.","city":"Knoxville","zip":"37939","title":"Vice President of Employment, Rehabilitation, &amp; Training","contact":"Meaghan Johnson","geo_score":0.805,"phone":"(865) 588-8567","id":"ab6zj2ey6s1h","address":"5307 Kingston Pike","geo_precision":"range","state":"TN","email":"mjohnson@gwiktn.org"},"type":"Feature","geometry":{"type":"Point","coordinates":[-83.990133,35.937802]}},{"properties":{"company":"Goodwill Industries of Arkansas","city":"Little Rock","zip":"72201","title":"Director of Mission Services and Family Strengthening","contact":"Kim Hogue","geo_score":0.625,"phone":"(501) 372-5100 x1173","id":"ab6zj2ubzo8c","address":"1110 W. 7th Street","geo_precision":"street","state":"AR","email":"khogue@goodwillar.org"},"type":"Feature","geometry":{"type":"Point","coordinates":[-92.272094,34.742258]}},{"properties":{"company":"Southern Oregon Goodwill Industries","city":"Medford","zip":"97501","title":"Director of Mission Services","contact":"Shae Johns","geo_score":0.857,"phone":"(541) 772-3300","id":"ab6zj2no1xnc","address":"11 W. Jackson","geo_precision":"zip","state":"OR","email":"shae.johns@sogoodwill.org"},"type":"Feature","geometry":{"type":"Point","coordinates":[-122.72255,42.482623]}},{"properties":{"company":"Goodwill Easter Seals of the Gulf Coast, Inc.","city":"Mobile","zip":"36617","title":"Asst VP, Mission Services","contact":"Jean Broach","geo_score":1.0,"phone":"(251) 471-1581","id":"ab6zj2flufjj","address":"2448 Gordon Smith Drive","geo_precision":"range","state":"AL","email":"jean@gesgc.org"},"type":"Feature","geometry":{"type":"Point","coordinates":[-88.09811,30.703576]}},{"properties":{"company":"Goodwill Industries of West Michigan, Inc.","city":"Muskegon","zip":"49442","title":"Program Manager","contact":"Kathleen King","geo_score":0.805,"phone":"(231) 722-7871","id":"ab6zj2n66v7y","address":"271 Apple Avenue","geo_precision":"street","state":"MI","email":"kking@goodwillwm.org"},"type":"Feature","geometry":{"type":"Point","coordinates":[-86.204219,43.234232]}},{"properties":{"company":"Goodwill Industries of Middle Tennessee, Inc.","city":"Nashville","zip":"37208","title":"Compliance Manager","contact":"Barbara Stout","geo_score":1.0,"phone":"(615) 346-1267","id":"ab6zj2ntnnmy","address":"1015 Herman Street","geo_precision":"range","state":"TN","email":"barbara.stout@givegw.org"},"type":"Feature","geometry":{"type":"Point","coordinates":[-86.79289,36.168632]}},{"properties":{"company":"Goodwill Industries of Southeastern Louisiana, Inc.","city":"New Orleans","zip":"70119","title":"Vice President of Mission Services","contact":"Kim Rugon","geo_score":1.0,"phone":"(504) 456-2622","id":"ab6zj2f4m9dg","address":"3400 Tulane Avenue","geo_precision":"range","state":"LA","email":"krugon@goodwillno.org"},"type":"Feature","geometry":{"type":"Point","coordinates":[-90.099612,29.965839]}},{"properties":{"company":"Goodwill Industries of Southwest Florida, Inc.","city":"North Fort Myers","zip":"33917","title":"Director of Career Development Services","contact":"Todd Ryan","geo_score":0.493,"phone":"(239) 995-2106","id":"ab6zj2kt3wo3","address":"4940 Bayline Drive","geo_precision":"street","state":"FL","email":"toddryan@goodwillswfl.org"},"type":"Feature","geometry":{"type":"Point","coordinates":[-82.146549,26.697512]}},{"properties":{"company":"Goodwill Industries of Southern Nevada, Inc.","city":"North Las Vegas","zip":"89030","title":"Director of Mission Services","contact":"Elizabeth McDaniels","geo_score":0.902,"phone":"(702) 214-2007","id":"ab6zj2s9jkay","address":"1280 West Cheyenne Avenue","geo_precision":"range","state":"NV","email":"elizabethm@sngoodwill.org"},"type":"Feature","geometry":{"type":"Point","coordinates":[-115.154513,36.217793]}},{"properties":{"company":"Goodwill Industries of Central Illinois","city":"Peoria","zip":"61615","title":"Program Developer/CARF Compliance","contact":"Brenda Wilder","geo_score":0.619,"phone":"(309) 682-1113","id":"ab6zj2spmgvy","address":"8400 N. Allen Rd.","geo_precision":"street","state":"IL","email":"bwilder@goodwillpeo.org"},"type":"Feature","geometry":{"type":"Point","coordinates":[-89.638491,40.751031]}},{"properties":{"company":"Goodwill Industries of Northern New England","city":"Portland","zip":"04101","title":"Workforce Development Director","contact":"Bethany Campbell","geo_score":1.0,"phone":"(207) 370-3913","id":"ab6zj2kavna2","address":"353 Cumberland Avenue","geo_precision":"range","state":"ME","email":"bethany.campbell@goodwillnne.org"},"type":"Feature","geometry":{"type":"Point","coordinates":[-70.262591,43.6573]}},{"properties":{"company":"Goodwill of Central Virginia","city":"Richmond","zip":"23225","title":"Operations Manager","contact":"Monica Palmer","geo_score":1.0,"phone":"(804) 205-0375","id":"ab6zj2hhv4lp","address":"6301 Midlothian Turnpike","geo_precision":"range","state":"VA","email":"monica.palmer@goodwillvirginia.org"},"type":"Feature","geometry":{"type":"Point","coordinates":[-77.510882,37.504097]}},{"properties":{"company":"Goodwill Industries of the Valleys, Inc.","city":"Roanoke","zip":"24017","title":"Senior Workforce Regional Director","contact":"Mary Ann Gilmer","geo_score":0.937,"phone":"(540) 581-0620","id":"ab6zj2jl3ey4","address":"2502 Melrose Avenue","geo_precision":"range","state":"VA","email":"mgilmer@goodwillvalleys.com"},"type":"Feature","geometry":{"type":"Point","coordinates":[-79.976905,37.286993]}},{"properties":{"company":"MERS/Missouri Goodwill Industries","city":"Saint Louis","zip":"63103","title":"Vice President","contact":"Hilary Wagner","geo_score":1.0,"phone":"(314) 241-3464","id":"ab6zj2m4iif7","address":"1727 Locust Street","geo_precision":"range","state":"MO","email":"hwagner@mersgoodwill.org"},"type":"Feature","geometry":{"type":"Point","coordinates":[-90.204998,38.632373]}},{"properties":{"company":"Goodwill Industries of San Antonio","city":"San Antonio","zip":"78207","title":"Director of People Services","contact":"Clarke Mosley","geo_score":0.604,"phone":"(210) 924-8581","id":"ab6zj2k57zg3","address":"406 W. Commerce","geo_precision":"street","state":"TX","email":"cmosley@goodwillsa.org"},"type":"Feature","geometry":{"type":"Point","coordinates":[-98.498082,29.425397]}},{"properties":{"company":"Goodwill Industries of Orange County, California","city":"Santa Ana","zip":"92703","title":"Director of Employment Services","contact":"Carlos Burela","geo_score":0.604,"phone":"(714) 638-1741","id":"ab6zj2j3n0ug","address":"401 N. Fairview St.","geo_precision":"street","state":"CA","email":"carlosb@ocgoodwill.org"},"type":"Feature","geometry":{"type":"Point","coordinates":[-117.90481,33.748819]}},{"properties":{"company":"Goodwill Industries of the Coastal Empire, Inc.","city":"Savannah","zip":"31406","title":"Interim Vice President Mission Services","contact":"Brenda Pollen","geo_score":1.0,"phone":"(912) 354-6611","id":"ab6zj2gx0o6w","address":"7220 Sallie Mood Drive","geo_precision":"range","state":"GA","email":"bpollen@goodwillsavannah.org"},"type":"Feature","geometry":{"type":"Point","coordinates":[-81.090622,32.000164]}},{"properties":{"company":"Goodwill Industries of Michiana, Inc.","city":"South Bend","zip":"46619","title":"Director of Workforce Development Services","contact":"Arden  Floran","geo_score":0.61,"phone":"(574) 472-7347","id":"ab6zj2l65jrp","address":"1805 W. Western Ave","geo_precision":"street","state":"IN","email":"afloran@goodwillni.org"},"type":"Feature","geometry":{"type":"Point","coordinates":[-86.355953,41.671817]}},{"properties":{"company":"Goodwill Industries of The Inland Northwest","city":"Spokane","zip":"99202","title":"Program Manager","contact":"Briana Richardson","geo_score":0.476,"phone":"(208) 277-7872","id":"ab6zj2o0b38a","address":"130 E. Third Ave","geo_precision":"street","state":"ID","email":"brianar@giin.org"},"type":"Feature","geometry":{"type":"Point","coordinates":[-117.411223,47.65353]}},{"properties":{"company":"Goodwill/Easter Seals Minnesota","city":"St. Paul","zip":"55104","title":"Director of Skills Training","contact":"Becky Brink","geo_score":0.961,"phone":"(651) 379-5880","id":"ab6zj2kfmal4","address":"553 Fairview Avenue N.","geo_precision":"range","state":"MN","email":"bbrink@goodwilleasterseals.org"},"type":"Feature","geometry":{"type":"Point","coordinates":[-93.177274,44.957755]}},{"properties":{"company":"Goodwill Industries-Suncoast, Inc.","city":"St. Petersburg","zip":"33702","title":"Director Community and Program Development","contact":"Kris Rawson","geo_score":0.683,"phone":"(727) 523-1512","id":"ab6zj2nb8slb","address":"10596 Gandy Boulavard","geo_precision":"street","state":"FL","email":"kris.rawson@goodwillsuncoast.com"},"type":"Feature","geometry":{"type":"Point","coordinates":[-82.682931,27.840066]}},{"properties":{"company":"Tacoma Goodwill Industries","city":"Tacoma","zip":"98409","title":"Vocational Services Manager","contact":"Wendy Martindale","geo_score":0.935,"phone":"(253) 573-6629","id":"ab6zj2huvf0x","address":"714 South 27th Street","geo_precision":"range","state":"WA","email":"wmartindale@tacomagoodwill.org"},"type":"Feature","geometry":{"type":"Point","coordinates":[-122.442712,47.236015]}},{"properties":{"company":"Goodwill Industries of Tulsa, Inc.","city":"Tulsa","zip":"74107-3817","title":"Director of Finance &amp; IT","contact":"Karla Davis","geo_score":0.585,"phone":"(918) 581-1234","id":"ab6zj2kambu0","address":"2800 Southwest Boulavard","geo_precision":"zip","state":"OK","email":"kdavis@goodwilltulsa.org"},"type":"Feature","geometry":{"type":"Point","coordinates":[-95.954871,36.076795]}},{"properties":{"company":"Heart of Texas Goodwill Industries, Inc.","city":"Waco","zip":"76711","title":"Mission Services Director","contact":"Shannon Kendrick","geo_score":0.625,"phone":"(254) 753-7337","id":"ab6zj2tprp9g","address":"1700 S. New Road","geo_precision":"street","state":"TX","email":"skendrick@hotgoodwill.org"},"type":"Feature","geometry":{"type":"Point","coordinates":[-97.164064,31.515466]}},{"properties":{"company":"Goodwill Industries of Delaware &amp; Delaware County, Inc.","city":"Wilmington","zip":"19802","title":"Vice President Mission Services","contact":"Allison David","geo_score":0.601,"phone":"(302) 504-3554","id":"ab6zj2u25oc5","address":"300 E. Lea Boulavard","geo_precision":"street","state":"DE","email":"adavid@goodwillde.org"},"type":"Feature","geometry":{"type":"Point","coordinates":[-75.520573,39.761433]}}],"is_temporal":false,"author":{"url":"","metadata":null,"contact_name":null,"contact_address":null,"source":null,"contact_phone":null},"source":"","pagination":{"sort":null,"start":0,"total":41,"limit":1000000},"state":"complete","tags":"","published":"2014-08-16T23:58:37-04:00","id":308494}