{"type":"FeatureCollection","data_type":"Dataset","url_type":null,"permissions":[{"permissions":{"download":true,"view":true},"group_id":"everyone"}],"classification":null,"title":"Accomack Fires III","count":36,"stream_id":308576,"contributor":{"url":"http://geocommons.com/users/57635","name":"penserga25"},"data_attributes":null,"calculation_params":null,"icon_link":null,"link":"http://geocommons.com/overlays/308576.json","extent":[-76.2748,36.807,-75.4621,37.9956],"geometry_types":["point"],"unique_name":null,"name":"Accomack Fires III","feature_count":36,"description":"","next_feature":null,"is_raster":false,"short_classification":"Y","stats":{"date":{"max":"2012/12/24 00:00:00 -0500","mean":"2012/11/28 03:20:00 -0500","variance":1420540416000.0,"stdev":1191864.26072771,"median":"2012/11/24 00:00:00 -0500","min":"2012/11/12 00:00:00 -0500"},"fips":{"max":51001,"mean":51001.0,"variance":0.0,"stdev":0.0,"median":51001,"min":51001}},"features":[{"properties":{"zip":"23421","date":{"end_time":"2012/11/13 00:00:00 -0500","original":"Nov. 12, 2012","granularity":"day","time":"2012/11/12 00:00:00 -0500"},"type":"Residential","geo_score":0.708,"town":"Parksley","id":"ab75j1mh3ovl","address":"26000 Dennis Drive","geo_precision":"street","fips":51001},"type":"Feature","geometry":{"type":"Point","coordinates":[-75.624595,37.796886]}},{"properties":{"zip":"23488","date":{"end_time":"2012/11/14 00:00:00 -0500","original":"Nov. 13, 2012","granularity":"day","time":"2012/11/13 00:00:00 -0500"},"type":"Residential","geo_score":0.708,"town":"Withams","id":"ab75j1cz47cm","address":"7300 Neal Parker Rd.","geo_precision":"street","fips":51001},"type":"Feature","geometry":{"type":"Point","coordinates":[-75.592494,37.960774]}},{"properties":{"zip":"23357","date":{"end_time":"2012/11/14 00:00:00 -0500","original":"Nov. 13, 2012","granularity":"day","time":"2012/11/13 00:00:00 -0500"},"type":"Residential","geo_score":0.708,"town":"Greenbush","id":"ab75j1jgi6rn","address":"23000 Drummonds Mill Rd.","geo_precision":"street","fips":51001},"type":"Feature","geometry":{"type":"Point","coordinates":[-75.679198,37.759892]}},{"properties":{"zip":"23421","date":{"end_time":"2012/11/14 00:00:00 -0500","original":"Nov. 13, 2012","granularity":"day","time":"2012/11/13 00:00:00 -0500"},"type":"Residential","geo_score":0.708,"town":"Parksley","id":"ab75j175y4qv","address":"25000 Johnson Rd.","geo_precision":"street","fips":51001},"type":"Feature","geometry":{"type":"Point","coordinates":[-75.625838,37.74799]}},{"properties":{"zip":"23359","date":{"end_time":"2012/11/14 00:00:00 -0500","original":"Nov. 13, 2012","granularity":"day","time":"2012/11/13 00:00:00 -0500"},"type":"Residential","geo_score":0.902,"town":"Hallwood","id":"ab75j18j9kyz","address":"27000 Savannah Rd.","geo_precision":"range","fips":51001},"type":"Feature","geometry":{"type":"Point","coordinates":[-75.599272,37.877507]}},{"properties":{"zip":"23308","date":{"end_time":"2012/11/16 00:00:00 -0500","original":"Nov. 15, 2012","granularity":"day","time":"2012/11/15 00:00:00 -0500"},"type":"Residential","geo_score":0.78,"town":"Bloxom","id":"ab75j1lvkcnt","address":"26000 Mason Rd.","geo_precision":"street","fips":51001},"type":"Feature","geometry":{"type":"Point","coordinates":[-75.625008,37.822319]}},{"properties":{"zip":"23421","date":{"end_time":"2012/11/16 00:00:00 -0500","original":"Nov. 15, 2012","granularity":"day","time":"2012/11/15 00:00:00 -0500"},"type":"Residential","geo_score":0.714,"town":"Parksley","id":"ab75j1apagfu","address":null,"geo_precision":"zip","fips":51001},"type":"Feature","geometry":{"type":"Point","coordinates":[-75.686041,37.795961]}},{"properties":{"zip":"23410","date":{"end_time":"2012/11/16 00:00:00 -0500","original":"Nov. 15, 2012","granularity":"day","time":"2012/11/15 00:00:00 -0500"},"type":"Residential","geo_score":0.708,"town":"Melfa","id":"ab75j1mncrdt","address":"16000 Hollies Church Rd.","geo_precision":"street","fips":51001},"type":"Feature","geometry":{"type":"Point","coordinates":[-75.793264,37.650935]}},{"properties":{"zip":"23488","date":{"end_time":"2012/11/18 00:00:00 -0500","original":"Nov. 17, 2012","granularity":"day","time":"2012/11/17 00:00:00 -0500"},"type":"Residential","geo_score":0.902,"town":"Withams","id":"ab75j19uf77f","address":"27000 Withams Rd.","geo_precision":"range","fips":51001},"type":"Feature","geometry":{"type":"Point","coordinates":[-75.602787,37.93649]}},{"properties":{"zip":"23421","date":{"end_time":"2012/11/18 00:00:00 -0500","original":"Nov. 17, 2012","granularity":"day","time":"2012/11/17 00:00:00 -0500"},"type":"Residential","geo_score":0.768,"town":"Gargtha","id":"ab75j1au8tpa","address":"18000 Metompkin Rd.","geo_precision":"range","fips":51001},"type":"Feature","geometry":{"type":"Point","coordinates":[-75.582646,37.792748]}},{"properties":{"zip":"23410","date":{"end_time":"2012/11/18 00:00:00 -0500","original":"Nov. 17, 2012","granularity":"day","time":"2012/11/17 00:00:00 -0500"},"type":"Residential","geo_score":0.708,"town":"Melfa","id":"ab75j1j6x0jj","address":"29000 Seaside Rd.","geo_precision":"street","fips":51001},"type":"Feature","geometry":{"type":"Point","coordinates":[-75.699475,37.643219]}},{"properties":{"zip":"23415","date":{"end_time":"2012/11/18 00:00:00 -0500","original":"Nov. 17, 2012","granularity":"day","time":"2012/11/17 00:00:00 -0500"},"type":"Residential","geo_score":0.902,"town":"New Church","id":"ab75j1mhauzh","address":"3500 Davis Rd.","geo_precision":"range","fips":51001},"type":"Feature","geometry":{"type":"Point","coordinates":[-75.527042,37.995629]}},{"properties":{"zip":"23395","date":{"end_time":"2012/11/19 00:00:00 -0500","original":"Nov. 18, 2012","granularity":"day","time":"2012/11/18 00:00:00 -0500"},"type":"Residential","geo_score":0.902,"town":"Horntown","id":"ab75j16jp5kc","address":"4600 Fleming Rd.","geo_precision":"range","fips":51001},"type":"Feature","geometry":{"type":"Point","coordinates":[-75.462113,37.970609]}},{"properties":{"zip":"23421","date":{"end_time":"2012/11/20 00:00:00 -0500","original":"Nov. 19, 2012","granularity":"day","time":"2012/11/19 00:00:00 -0500"},"type":"Residential","geo_score":0.687,"town":"Parksley","id":"ab75j19kxl4h","address":"17000 Hopetown Rd.","geo_precision":"street","fips":51001},"type":"Feature","geometry":{"type":"Point","coordinates":[-75.636759,37.809072]}},{"properties":{"zip":"23301","date":{"end_time":"2012/11/20 00:00:00 -0500","original":"Nov. 19, 2012","granularity":"day","time":"2012/11/19 00:00:00 -0500"},"type":"Residential","geo_score":0.591,"town":"Accomac","id":"ab75j1ccd4zm","address":"23000 Drummond Ln.","geo_precision":"street","fips":51001},"type":"Feature","geometry":{"type":"Point","coordinates":[-75.671694,37.714444]}},{"properties":{"zip":"23421","date":{"end_time":"2012/11/22 00:00:00 -0500","original":"Nov. 21, 2012","granularity":"day","time":"2012/11/21 00:00:00 -0500"},"type":"Residential","geo_score":0.714,"town":"Parksley","id":"ab75j19ogw0s","address":null,"geo_precision":"zip","fips":51001},"type":"Feature","geometry":{"type":"Point","coordinates":[-75.686041,37.795961]}},{"properties":{"zip":"23417","date":{"end_time":"2012/11/22 00:00:00 -0500","original":"Nov. 21, 2012","granularity":"day","time":"2012/11/21 00:00:00 -0500"},"type":"Residential","geo_score":0.429,"town":"Onancock","id":"ab75j17ilyfp","address":"27000 Mt. Nebo Rd.","geo_precision":"street","fips":51001},"type":"Feature","geometry":{"type":"Point","coordinates":[-75.810503,37.669411]}},{"properties":{"zip":"23410","date":{"end_time":"2012/11/23 00:00:00 -0500","original":"Nov. 22 2012","granularity":"day","time":"2012/11/22 00:00:00 -0500"},"type":"Residential","geo_score":0.902,"town":"Melfa","id":"ab75j1ez13ob","address":"29000 Beacon Rd.","geo_precision":"range","fips":51001},"type":"Feature","geometry":{"type":"Point","coordinates":[-75.770251,37.641258]}},{"properties":{"zip":"23415","date":{"end_time":"2012/11/25 00:00:00 -0500","original":"Nov. 24, 2012","granularity":"day","time":"2012/11/24 00:00:00 -0500"},"type":"Commercial","geo_score":0.902,"town":"New Church","id":"ab75j1kbsge6","address":"5300 Holland Rd.","geo_precision":"range","fips":51001},"type":"Feature","geometry":{"type":"Point","coordinates":[-75.564421,37.957989]}},{"properties":{"zip":"23410","date":{"end_time":"2012/11/29 00:00:00 -0500","original":"Nov. 28, 2012","granularity":"day","time":"2012/11/28 00:00:00 -0500"},"type":"Residential","geo_score":0.708,"town":"Melfa","id":"ab75j1atkf9g","address":"29000 Race Track Rd.","geo_precision":"street","fips":51001},"type":"Feature","geometry":{"type":"Point","coordinates":[-75.738374,37.642578]}},{"properties":{"zip":"23301","date":{"end_time":"2012/12/01 00:00:00 -0500","original":"Nov. 30, 2012","granularity":"day","time":"2012/11/30 00:00:00 -0500"},"type":"Residential","geo_score":0.717,"town":"Accomac","id":"ab75j18iuwru","address":"24000 Church Rd.","geo_precision":"street","fips":51001},"type":"Feature","geometry":{"type":"Point","coordinates":[-75.678134,37.714487]}},{"properties":{"zip":"23426","date":{"end_time":"2012/12/01 00:00:00 -0500","original":"Nov. 30, 2012","granularity":"day","time":"2012/11/30 00:00:00 -0500"},"type":"Residential","geo_score":0.709,"town":"Sanford","id":"ab75j17n2gvf","address":"23000 Belinda Rd.","geo_precision":"street","fips":51001},"type":"Feature","geometry":{"type":"Point","coordinates":[-75.670395,37.91746]}},{"properties":{"zip":"23420","date":{"end_time":"2012/12/03 00:00:00 -0500","original":"Dec. 2, 2012","granularity":"day","time":"2012/12/02 00:00:00 -0500"},"type":"Commercial","geo_score":0.902,"town":"Painter","id":"ab75j1ez6p6c","address":"31000 Boston Rd.","geo_precision":"range","fips":51001},"type":"Feature","geometry":{"type":"Point","coordinates":[-75.82727,37.621154]}},{"properties":{"zip":"23308","date":{"end_time":"2012/12/03 00:00:00 -0500","original":"Dec. 2, 2012","granularity":"day","time":"2012/12/02 00:00:00 -0500"},"type":"Residential","geo_score":0.319,"town":"Bloxom","id":"ab75j1bquxrb","address":"26000 State Rt. 690","geo_precision":"street","fips":51001},"type":"Feature","geometry":{"type":"Point","coordinates":[-76.274791,36.806961]}},{"properties":{"zip":"23308","date":{"end_time":"2012/12/04 00:00:00 -0500","original":"Dec. 3, 2012","granularity":"day","time":"2012/12/03 00:00:00 -0500"},"type":"Residential","geo_score":0.814,"town":"Winterville","id":"ab75j1kw6ec1","address":"25000 Guilford Rd.","geo_precision":"range","fips":51001},"type":"Feature","geometry":{"type":"Point","coordinates":[-75.637286,37.827932]}},{"properties":{"zip":"23420","date":{"end_time":"2012/12/04 00:00:00 -0500","original":"Dec. 3, 2012","granularity":"day","time":"2012/12/03 00:00:00 -0500"},"type":"Commercial","geo_score":0.707,"town":"Painter","id":"ab75j1duubfz","address":"28000 Bobtown Rd.","geo_precision":"street","fips":51001},"type":"Feature","geometry":{"type":"Point","coordinates":[-75.815348,37.629957]}},{"properties":{"zip":"23417","date":{"end_time":"2012/12/08 00:00:00 -0500","original":"Dec. 7, 2012","granularity":"day","time":"2012/12/07 00:00:00 -0500"},"type":"Residential","geo_score":0.78,"town":"Savageville","id":"ab75j1fuicz8","address":"26000 Redwood Rd.","geo_precision":"range","fips":51001},"type":"Feature","geometry":{"type":"Point","coordinates":[-75.727891,37.681665]}},{"properties":{"zip":"23301","date":{"end_time":"2012/12/13 00:00:00 -0500","original":"Dec. 12, 2012","granularity":"day","time":"2012/12/12 00:00:00 -0500"},"type":"Residential","geo_score":0.488,"town":"Accomac","id":"ab75j1770gg9","address":"22000 Ticktown Rd.","geo_precision":"zip","fips":51001},"type":"Feature","geometry":{"type":"Point","coordinates":[-75.66604,37.689575]}},{"properties":{"zip":"23421","date":{"end_time":"2012/12/16 00:00:00 -0500","original":"Dec. 15, 2012","granularity":"day","time":"2012/12/15 00:00:00 -0500"},"type":"Residential","geo_score":0.876,"town":"Hopeton","id":"ab75j1jlhsao","address":"25000 Mathews Rd.","geo_precision":"range","fips":51001},"type":"Feature","geometry":{"type":"Point","coordinates":[-75.64166,37.807137]}},{"properties":{"zip":"23396","date":{"end_time":"2012/12/17 00:00:00 -0500","original":"Dec. 16, 2012","granularity":"day","time":"2012/12/16 00:00:00 -0500"},"type":"Residential","geo_score":0.488,"town":"Oak Hall","id":"ab75j19q5clt","address":"30000 Withams Rd.","geo_precision":"zip","fips":51001},"type":"Feature","geometry":{"type":"Point","coordinates":[-75.555142,37.923682]}},{"properties":{"zip":"23421","date":{"end_time":"2012/12/18 00:00:00 -0500","original":"Dec. 17, 2012","granularity":"day","time":"2012/12/17 00:00:00 -0500"},"type":"Residential","geo_score":0.857,"town":"Hopeton","id":"ab75j1ag3oen","address":"Hopeton Rd.","geo_precision":"street","fips":51001},"type":"Feature","geometry":{"type":"Point","coordinates":[-75.631248,37.81735]}},{"properties":{"zip":"23401","date":{"end_time":"2012/12/19 00:00:00 -0500","original":"Dec. 18, 2012","granularity":"day","time":"2012/12/18 00:00:00 -0500"},"type":"Residential","geo_score":0.708,"town":"Keller","id":"ab75j1h2b2mn","address":"31000 Lankford Highway","geo_precision":"street","fips":51001},"type":"Feature","geometry":{"type":"Point","coordinates":[-75.758566,37.625848]}},{"properties":{"zip":"23301","date":{"end_time":"2012/12/21 00:00:00 -0500","original":"Dec. 20, 2012","granularity":"day","time":"2012/12/20 00:00:00 -0500"},"type":"Residential","geo_score":0.902,"town":"Accomac","id":"ab75j193p7wk","address":"23000 Front St.","geo_precision":"range","fips":51001},"type":"Feature","geometry":{"type":"Point","coordinates":[-75.679958,37.716377]}},{"properties":{"zip":"23421","date":{"end_time":"2012/12/23 00:00:00 -0500","original":"Dec. 22,2012","granularity":"day","time":"2012/12/22 00:00:00 -0500"},"type":"Residential","geo_score":0.902,"town":"Parksley","id":"ab75j1fm4k3j","address":"25000 Parksley Rd.","geo_precision":"range","fips":51001},"type":"Feature","geometry":{"type":"Point","coordinates":[-75.645052,37.778076]}},{"properties":{"zip":"23420","date":{"end_time":"2012/12/24 00:00:00 -0500","original":"Dec. 23, 2012","granularity":"day","time":"2012/12/23 00:00:00 -0500"},"type":"Commercial","geo_score":0.587,"town":"Painter","id":"ab75j1hcl9e8","address":"18000 Mappsburg Rd.","geo_precision":"street","fips":51001},"type":"Feature","geometry":{"type":"Point","coordinates":[-75.776086,37.581995]}},{"properties":{"zip":"23414","date":{"end_time":"2012/12/25 00:00:00 -0500","original":"Dec.24,2012","granularity":"day","time":"2012/12/24 00:00:00 -0500"},"type":"Commercial","geo_score":0.707,"town":"Nelsonia","id":"ab75j16m9bqj","address":"26000 Nelsonia Rd.","geo_precision":"street","fips":51001},"type":"Feature","geometry":{"type":"Point","coordinates":[-75.584142,37.818038]}}],"is_temporal":true,"author":{"url":"","metadata":"","contact_name":"","contact_address":"","source":"","contact_phone":""},"source":"","pagination":{"sort":null,"start":0,"total":36,"limit":1000000},"state":"complete","tags":"","published":"2014-08-17T00:06:04-04:00","id":308576}