{"type":"FeatureCollection","data_type":"Dataset","url_type":null,"permissions":[{"permissions":{"download":true,"view":true},"group_id":"everyone"}],"classification":null,"title":"Student Info Listing 2009","count":35,"stream_id":308914,"contributor":{"url":"http://geocommons.com/users/58623","name":"cashford"},"data_attributes":null,"calculation_params":null,"icon_link":null,"link":"http://geocommons.com/overlays/308914.json","extent":[-156.686,20.8822,-70.8732,47.8579],"geometry_types":["point"],"unique_name":null,"name":"Student Info Listing 2009","feature_count":35,"description":"","next_feature":null,"is_raster":false,"short_classification":"Y","stats":{},"features":[{"properties":{"city":"Kingwood","country":"United States","geo_score":0.857,"zip code":"77345","id":"ab83y7jbkn23","geo_precision":"zip","state":"TX"},"type":"Feature","geometry":{"type":"Point","coordinates":[-95.434241,29.83399]}},{"properties":{"city":"Bronx","country":"United States","geo_score":0.857,"zip code":"10453","id":"ab83y7rpr7mz","geo_precision":"zip","state":"NY"},"type":"Feature","geometry":{"type":"Point","coordinates":[-73.919859,40.849822]}},{"properties":{"city":"Camp Hill","country":"United States","geo_score":0.857,"zip code":"17011","id":"ab83y7qktppt","geo_precision":"zip","state":"PA"},"type":"Feature","geometry":{"type":"Point","coordinates":[-76.901363,40.231757]}},{"properties":{"city":"West Chester","country":"United States","geo_score":0.857,"zip code":"19382","id":"ab83y7jdh8tx","geo_precision":"zip","state":"PA"},"type":"Feature","geometry":{"type":"Point","coordinates":[-75.630235,39.912284]}},{"properties":{"city":"Dubuque","country":"United States","geo_score":0.857,"zip code":"52002","id":"ab83y7r2v6jh","geo_precision":"zip","state":"IA"},"type":"Feature","geometry":{"type":"Point","coordinates":[-90.7718,42.532019]}},{"properties":{"city":"Roxbury","country":"United States","geo_score":0.857,"zip code":"06783","id":"ab83y7jc1f67","geo_precision":"zip","state":"CT"},"type":"Feature","geometry":{"type":"Point","coordinates":[-73.310673,41.508429]}},{"properties":{"city":"Wenham","country":"United States","geo_score":0.857,"zip code":"01984","id":"ab83y7l3b58v","geo_precision":"zip","state":"MA"},"type":"Feature","geometry":{"type":"Point","coordinates":[-70.8732,42.597691]}},{"properties":{"city":"Lake Oswego","country":"United States","geo_score":0.857,"zip code":"97034","id":"ab83y7v3zfv0","geo_precision":"zip","state":"OR"},"type":"Feature","geometry":{"type":"Point","coordinates":[-122.660372,45.424286]}},{"properties":{"city":"Shorewood","country":"United States","geo_score":0.857,"zip code":"53211","id":"ab83y7z7uxau","geo_precision":"zip","state":"WI"},"type":"Feature","geometry":{"type":"Point","coordinates":[-87.889534,43.082018]}},{"properties":{"city":"Allston","country":"United States","geo_score":0.857,"zip code":"02134","id":"ab83y7jbpo03","geo_precision":"zip","state":"MA"},"type":"Feature","geometry":{"type":"Point","coordinates":[-71.112646,42.357169]}},{"properties":{"city":"Crofton","country":"United States","geo_score":0.857,"zip code":"21114","id":"ab83y7jm8b4e","geo_precision":"zip","state":"MD"},"type":"Feature","geometry":{"type":"Point","coordinates":[-76.622577,39.06436]}},{"properties":{"city":"Beverly Hills","country":"United States","geo_score":0.857,"zip code":"90212","id":"ab83y7odtygo","geo_precision":"zip","state":"CA"},"type":"Feature","geometry":{"type":"Point","coordinates":[-118.298662,33.786594]}},{"properties":{"city":"Milwaukee","country":"United States","geo_score":0.857,"zip code":"53212","id":"ab83y7z5uh46","geo_precision":"zip","state":"WI"},"type":"Feature","geometry":{"type":"Point","coordinates":[-87.907178,43.074862]}},{"properties":{"city":"Los Gatos","country":"United States","geo_score":0.857,"zip code":"95032","id":"ab83y7qy0co0","geo_precision":"zip","state":"CA"},"type":"Feature","geometry":{"type":"Point","coordinates":[-121.66186,37.070923]}},{"properties":{"city":"Evanston","country":"United States","geo_score":0.857,"zip code":"60202","id":"ab83y7n9y3q0","geo_precision":"zip","state":"IL"},"type":"Feature","geometry":{"type":"Point","coordinates":[-87.687969,42.044529]}},{"properties":{"city":"New Lenox","country":"United States","geo_score":0.857,"zip code":"60451","id":"ab83y7p2dlf4","geo_precision":"zip","state":"IL"},"type":"Feature","geometry":{"type":"Point","coordinates":[-87.912553,41.511421]}},{"properties":{"city":"Ann Arbor","country":"United States","geo_score":0.857,"zip code":"48103","id":"ab83y7z084c2","geo_precision":"zip","state":"MI"},"type":"Feature","geometry":{"type":"Point","coordinates":[-83.849042,42.266638]}},{"properties":{"city":"Snohomish","country":"United States","geo_score":0.857,"zip code":"98296","id":"ab83y7y2nnwf","geo_precision":"zip","state":"WA"},"type":"Feature","geometry":{"type":"Point","coordinates":[-122.092025,47.857915]}},{"properties":{"city":"Holtsville","country":"United States","geo_score":0.857,"zip code":"11742","id":"ab83y7j1ctop","geo_precision":"zip","state":"NY"},"type":"Feature","geometry":{"type":"Point","coordinates":[-73.048985,40.798994]}},{"properties":{"city":"Lubbock","country":"United States","geo_score":0.857,"zip code":"79410","id":"ab83y7rsq3dq","geo_precision":"zip","state":"TX"},"type":"Feature","geometry":{"type":"Point","coordinates":[-101.896394,33.572085]}},{"properties":{"city":"San Lorenzo","country":"United States","geo_score":0.857,"zip code":"94580","id":"ab83y7ml6448","geo_precision":"zip","state":"CA"},"type":"Feature","geometry":{"type":"Point","coordinates":[-122.133825,37.68123]}},{"properties":{"city":"Burr Ridge","country":"United States","geo_score":0.857,"zip code":"60527","id":"ab83y7nkl0uu","geo_precision":"zip","state":"IL"},"type":"Feature","geometry":{"type":"Point","coordinates":[-88.088716,41.839679]}},{"properties":{"city":"Richmond","country":"United States","geo_score":0.857,"zip code":"23227","id":"ab83y7mjzwxx","geo_precision":"zip","state":"VA"},"type":"Feature","geometry":{"type":"Point","coordinates":[-77.437483,37.633201]}},{"properties":{"city":"Phoenix","country":"United States","geo_score":0.857,"zip code":"85050","id":"ab83y7khl23g","geo_precision":"zip","state":"AZ"},"type":"Feature","geometry":{"type":"Point","coordinates":[-112.18717,33.276539]}},{"properties":{"city":"Memphis","country":"United States","geo_score":0.857,"zip code":"38120","id":"ab83y7v9p1yg","geo_precision":"zip","state":"TN"},"type":"Feature","geometry":{"type":"Point","coordinates":[-89.842541,35.123644]}},{"properties":{"city":"Glencoe","country":"United States","geo_score":0.857,"zip code":"60022","id":"ab83y7n3ndpi","geo_precision":"zip","state":"IL"},"type":"Feature","geometry":{"type":"Point","coordinates":[-87.815914,42.102927]}},{"properties":{"city":"Austin","country":"United States","geo_score":0.857,"zip code":"78757","id":"ab83y7lfkw4s","geo_precision":"zip","state":"TX"},"type":"Feature","geometry":{"type":"Point","coordinates":[-97.601444,30.348567]}},{"properties":{"city":"Highland Park","country":"United States","geo_score":0.857,"zip code":"60035","id":"ab83y7we5icq","geo_precision":"zip","state":"IL"},"type":"Feature","geometry":{"type":"Point","coordinates":[-87.787009,42.163637]}},{"properties":{"city":"Cypress","country":"United States","geo_score":0.857,"zip code":"77429","id":"ab83y7kpikih","geo_precision":"zip","state":"TX"},"type":"Feature","geometry":{"type":"Point","coordinates":[-95.434241,29.83399]}},{"properties":{"city":"Brunswick","country":"United States","geo_score":0.857,"zip code":"21716","id":"ab83y7woov5a","geo_precision":"zip","state":"MD"},"type":"Feature","geometry":{"type":"Point","coordinates":[-77.624701,39.317945]}},{"properties":{"city":"Erie","country":"United States","geo_score":0.857,"zip code":"16506","id":"ab83y7yhre67","geo_precision":"zip","state":"PA"},"type":"Feature","geometry":{"type":"Point","coordinates":[-80.140894,42.08089]}},{"properties":{"city":"Nanuet","country":"United States","geo_score":0.857,"zip code":"10954","id":"ab83y7k9cvpc","geo_precision":"zip","state":"NY"},"type":"Feature","geometry":{"type":"Point","coordinates":[-74.010934,41.097716]}},{"properties":{"city":"Pune, Maharashtra","country":"India","geo_score":0.571,"zip code":"411040","id":"ab83y7lkwy1u","geo_precision":"city","state":null},"type":"Feature","geometry":{"type":"Point","coordinates":[-156.685833,20.882222]}},{"properties":{"city":"Evanston","country":"United States","geo_score":0.857,"zip code":"60201","id":"ab83y7x4689g","geo_precision":"zip","state":"IL"},"type":"Feature","geometry":{"type":"Point","coordinates":[-87.702155,42.049148]}},{"properties":{"city":"Stafford","country":"United States","geo_score":0.857,"zip code":"22554","id":"ab83y7jjivr8","geo_precision":"zip","state":"VA"},"type":"Feature","geometry":{"type":"Point","coordinates":[-77.469428,38.42207]}}],"is_temporal":false,"author":{"url":"","metadata":"","contact_name":"","contact_address":"","source":"","contact_phone":""},"source":"","pagination":{"sort":null,"start":0,"total":35,"limit":1000000},"state":"complete","tags":"","published":"2014-08-17T00:36:22-04:00","id":308914}