{"type":"FeatureCollection","data_type":"Dataset","url_type":null,"permissions":[{"permissions":{"download":true,"view":true},"group_id":"everyone"}],"classification":null,"title":"Student_Info_Listing_SP_2013","count":84,"stream_id":308925,"contributor":{"url":"http://geocommons.com/users/58623","name":"cashford"},"data_attributes":null,"calculation_params":null,"icon_link":null,"link":"http://geocommons.com/overlays/308925.json","extent":[-122.823,29.6664,-70.6145,48.9007],"geometry_types":["point"],"unique_name":null,"name":"Student_Info_Listing_SP_2013","feature_count":84,"description":"","next_feature":null,"is_raster":false,"short_classification":"Y","stats":{},"features":[{"properties":{"city":"North Charleston","country":"United States","geo_score":0.857,"zip code":"29406","id":"ab854qzmyjwv","geo_precision":"zip","state":"SC"},"type":"Feature","geometry":{"type":"Point","coordinates":[-79.97481,32.85462]}},{"properties":{"city":"Buxton","country":"United States","geo_score":0.857,"zip code":"04093","id":"ab854quiacfq","geo_precision":"zip","state":"ME"},"type":"Feature","geometry":{"type":"Point","coordinates":[-70.614501,43.689801]}},{"properties":{"city":"Warroad","country":"United States","geo_score":0.857,"zip code":"56763","id":"ab854qzf80t1","geo_precision":"zip","state":"MN"},"type":"Feature","geometry":{"type":"Point","coordinates":[-95.250324,48.900663]}},{"properties":{"city":"Palo Alto","country":"United States","geo_score":0.857,"zip code":"94306","id":"ab854qwpsz7a","geo_precision":"zip","state":"CA"},"type":"Feature","geometry":{"type":"Point","coordinates":[-121.705327,37.189396]}},{"properties":{"city":"Palos Heights","country":"United States","geo_score":0.857,"zip code":"60463","id":"ab854qqbi78t","geo_precision":"zip","state":"IL"},"type":"Feature","geometry":{"type":"Point","coordinates":[-87.68732,41.811929]}},{"properties":{"city":"Kendall Park","country":"United States","geo_score":0.857,"zip code":"08824","id":"ab854qtmat3v","geo_precision":"zip","state":"NJ"},"type":"Feature","geometry":{"type":"Point","coordinates":[-74.549761,40.422955]}},{"properties":{"city":"Worcester","country":"United States","geo_score":0.857,"zip code":"01604","id":"ab854qq6z160","geo_precision":"zip","state":"MA"},"type":"Feature","geometry":{"type":"Point","coordinates":[-71.76678,42.247955]}},{"properties":{"city":"Woodbury","country":"United States","geo_score":0.857,"zip code":"55125","id":"ab854qs6g3jh","geo_precision":"zip","state":"MN"},"type":"Feature","geometry":{"type":"Point","coordinates":[-92.95938,44.923855]}},{"properties":{"city":"Bowie","country":"United States","geo_score":0.857,"zip code":"20720","id":"ab854r22abfe","geo_precision":"zip","state":"MD"},"type":"Feature","geometry":{"type":"Point","coordinates":[-76.79098,38.98851]}},{"properties":{"city":"Newtown","country":"United States","geo_score":0.857,"zip code":"18940","id":"ab854r035af5","geo_precision":"zip","state":"PA"},"type":"Feature","geometry":{"type":"Point","coordinates":[-74.969334,40.262886]}},{"properties":{"city":"Scottsdale","country":"United States","geo_score":0.857,"zip code":"85259","id":"ab854qwozgj0","geo_precision":"zip","state":"AZ"},"type":"Feature","geometry":{"type":"Point","coordinates":[-112.18717,33.276539]}},{"properties":{"city":"Austin","country":"United States","geo_score":0.857,"zip code":"78726","id":"ab854qy9tknp","geo_precision":"zip","state":"TX"},"type":"Feature","geometry":{"type":"Point","coordinates":[-97.843801,30.427124]}},{"properties":{"city":"Ellicott City","country":"United States","geo_score":0.857,"zip code":"21042","id":"ab854qskrltz","geo_precision":"zip","state":"MD"},"type":"Feature","geometry":{"type":"Point","coordinates":[-76.897247,39.261897]}},{"properties":{"city":"Cambridge","country":"United States","geo_score":0.857,"zip code":"02139","id":"ab854r2hw520","geo_precision":"zip","state":"MA"},"type":"Feature","geometry":{"type":"Point","coordinates":[-71.103663,42.358431]}},{"properties":{"city":"New York","country":"United States","geo_score":0.857,"zip code":"10025","id":"ab854qrti3g1","geo_precision":"zip","state":"NY"},"type":"Feature","geometry":{"type":"Point","coordinates":[-73.967778,40.798664]}},{"properties":{"city":"Franklin","country":"United States","geo_score":0.857,"zip code":"13775","id":"ab854qti8qzb","geo_precision":"zip","state":"NY"},"type":"Feature","geometry":{"type":"Point","coordinates":[-75.136628,42.32887]}},{"properties":{"city":"Burleson","country":"United States","geo_score":0.857,"zip code":"76028","id":"ab854qzg0pul","geo_precision":"zip","state":"TX"},"type":"Feature","geometry":{"type":"Point","coordinates":[-97.235569,32.55236]}},{"properties":{"city":"Bexley","country":"United States","geo_score":0.857,"zip code":"43209","id":"ab854qxva2mq","geo_precision":"zip","state":"OH"},"type":"Feature","geometry":{"type":"Point","coordinates":[-82.93768,39.968953]}},{"properties":{"city":"Crozet","country":"United States","geo_score":0.857,"zip code":"22932","id":"ab854r1jgooe","geo_precision":"zip","state":"VA"},"type":"Feature","geometry":{"type":"Point","coordinates":[-78.667797,38.15069]}},{"properties":{"city":"Haddonfield","country":"United States","geo_score":0.857,"zip code":"08033","id":"ab854qstjgnb","geo_precision":"zip","state":"NJ"},"type":"Feature","geometry":{"type":"Point","coordinates":[-75.033414,39.876313]}},{"properties":{"city":"Savoy","country":"United States","geo_score":0.857,"zip code":"61874","id":"ab854qpvfn4s","geo_precision":"zip","state":"IL"},"type":"Feature","geometry":{"type":"Point","coordinates":[-88.253105,40.068677]}},{"properties":{"city":"State College","country":"United States","geo_score":0.857,"zip code":"16801","id":"ab854r24dkq3","geo_precision":"zip","state":"PA"},"type":"Feature","geometry":{"type":"Point","coordinates":[-77.825555,40.763396]}},{"properties":{"city":"Shutesbury","country":"United States","geo_score":0.857,"zip code":"01072","id":"ab854qxt1zyy","geo_precision":"zip","state":"MA"},"type":"Feature","geometry":{"type":"Point","coordinates":[-72.44017,42.471562]}},{"properties":{"city":"Marietta","country":"United States","geo_score":0.857,"zip code":"30064","id":"ab854qrl7vsr","geo_precision":"zip","state":"GA"},"type":"Feature","geometry":{"type":"Point","coordinates":[-84.629241,33.923652]}},{"properties":{"city":"Acton","country":"United States","geo_score":0.857,"zip code":"01720","id":"ab854qyy7ljt","geo_precision":"zip","state":"MA"},"type":"Feature","geometry":{"type":"Point","coordinates":[-71.409506,42.475093]}},{"properties":{"city":"Chehalis","country":"United States","geo_score":0.857,"zip code":"98532","id":"ab854qxjt4cq","geo_precision":"zip","state":"WA"},"type":"Feature","geometry":{"type":"Point","coordinates":[-122.822619,46.547051]}},{"properties":{"city":"Boulder","country":"United States","geo_score":0.857,"zip code":"80302","id":"ab854qqekyko","geo_precision":"zip","state":"CO"},"type":"Feature","geometry":{"type":"Point","coordinates":[-105.390027,40.063935]}},{"properties":{"city":"Severna Park","country":"United States","geo_score":0.857,"zip code":"21146","id":"ab854r1opdvp","geo_precision":"zip","state":"MD"},"type":"Feature","geometry":{"type":"Point","coordinates":[-76.57552,39.09261]}},{"properties":{"city":"East Windsor","country":"United States","geo_score":0.857,"zip code":"08520","id":"ab854qup8ml3","geo_precision":"zip","state":"NJ"},"type":"Feature","geometry":{"type":"Point","coordinates":[-74.491264,40.263999]}},{"properties":{"city":"Newburyport","country":"United States","geo_score":0.857,"zip code":"01950","id":"ab854qyc2ueq","geo_precision":"zip","state":"MA"},"type":"Feature","geometry":{"type":"Point","coordinates":[-70.866164,42.816758]}},{"properties":{"city":"Levittown","country":"United States","geo_score":0.857,"zip code":"19054","id":"ab854r3zavae","geo_precision":"zip","state":"PA"},"type":"Feature","geometry":{"type":"Point","coordinates":[-74.821857,40.174246]}},{"properties":{"city":"Hagaman","country":"United States","geo_score":0.857,"zip code":"12086","id":"ab854qoxsv5w","geo_precision":"zip","state":"NY"},"type":"Feature","geometry":{"type":"Point","coordinates":[-74.155559,42.969505]}},{"properties":{"city":"Greenwich","country":"United States","geo_score":0.857,"zip code":"06830","id":"ab854qsppvmm","geo_precision":"zip","state":"CT"},"type":"Feature","geometry":{"type":"Point","coordinates":[-73.619294,41.119541]}},{"properties":{"city":"York","country":"United States","geo_score":0.857,"zip code":"17403","id":"ab854r1ovkb2","geo_precision":"zip","state":"PA"},"type":"Feature","geometry":{"type":"Point","coordinates":[-76.657189,39.931488]}},{"properties":{"city":"Elkins Park","country":"United States","geo_score":0.857,"zip code":"19027","id":"ab854qze688b","geo_precision":"zip","state":"PA"},"type":"Feature","geometry":{"type":"Point","coordinates":[-75.131518,40.07501]}},{"properties":{"city":"Exeter","country":"United States","geo_score":0.857,"zip code":"03833","id":"ab854qqg7riw","geo_precision":"zip","state":"NH"},"type":"Feature","geometry":{"type":"Point","coordinates":[-70.94339,42.985921]}},{"properties":{"city":"Marysville","country":"United States","geo_score":0.857,"zip code":"98271","id":"ab854qutep2t","geo_precision":"zip","state":"WA"},"type":"Feature","geometry":{"type":"Point","coordinates":[-122.234168,48.079149]}},{"properties":{"city":"Lansdale","country":"United States","geo_score":0.857,"zip code":"19446","id":"ab854qq2r8g6","geo_precision":"zip","state":"PA"},"type":"Feature","geometry":{"type":"Point","coordinates":[-75.302676,40.221773]}},{"properties":{"city":"Seattle","country":"United States","geo_score":0.857,"zip code":"98105","id":"ab854qrxemd7","geo_precision":"zip","state":"WA"},"type":"Feature","geometry":{"type":"Point","coordinates":[-121.803388,47.432251]}},{"properties":{"city":"Merion","country":"United States","geo_score":0.857,"zip code":"19066","id":"ab854qqhoypo","geo_precision":"zip","state":"PA"},"type":"Feature","geometry":{"type":"Point","coordinates":[-75.251015,39.993446]}},{"properties":{"city":"Madisonville","country":"United States","geo_score":0.857,"zip code":"70447","id":"ab854qs19kj9","geo_precision":"zip","state":"LA"},"type":"Feature","geometry":{"type":"Point","coordinates":[-90.142301,30.406861]}},{"properties":{"city":"Lawrenceville","country":"United States","geo_score":0.857,"zip code":"30043","id":"ab854r4kbg97","geo_precision":"zip","state":"GA"},"type":"Feature","geometry":{"type":"Point","coordinates":[-84.012608,34.00309]}},{"properties":{"city":"Northborough","country":"United States","geo_score":0.857,"zip code":"01532","id":"ab854qz8bwpd","geo_precision":"zip","state":"MA"},"type":"Feature","geometry":{"type":"Point","coordinates":[-71.64282,42.322118]}},{"properties":{"city":"Richland","country":"United States","geo_score":0.714,"zip code":"99354","id":"ab854r3eldi6","geo_precision":"city","state":"WA"},"type":"Feature","geometry":{"type":"Point","coordinates":[-119.491659,46.282031]}},{"properties":{"city":"Long Branch","country":"United States","geo_score":0.857,"zip code":"07740","id":"ab854qz3co8y","geo_precision":"zip","state":"NJ"},"type":"Feature","geometry":{"type":"Point","coordinates":[-73.984026,40.313166]}},{"properties":{"city":"New Orleans","country":"United States","geo_score":0.857,"zip code":"70119","id":"ab854r2yy92a","geo_precision":"zip","state":"LA"},"type":"Feature","geometry":{"type":"Point","coordinates":[-90.08542,29.973053]}},{"properties":{"city":"Columbus","country":"United States","geo_score":0.857,"zip code":"43235","id":"ab854qua1kyz","geo_precision":"zip","state":"OH"},"type":"Feature","geometry":{"type":"Point","coordinates":[-82.974204,40.108836]}},{"properties":{"city":"Worth","country":"United States","geo_score":0.857,"zip code":"60482","id":"ab854qqokbbf","geo_precision":"zip","state":"IL"},"type":"Feature","geometry":{"type":"Point","coordinates":[-87.740051,41.683367]}},{"properties":{"city":"Southport","country":"United States","geo_score":0.714,"zip code":"06890","id":"ab854qud1013","geo_precision":"city","state":"CT"},"type":"Feature","geometry":{"type":"Point","coordinates":[-73.289859,41.143396]}},{"properties":{"city":"Hibbing","country":"United States","geo_score":0.857,"zip code":"55746","id":"ab854qzn6fu1","geo_precision":"zip","state":"MN"},"type":"Feature","geometry":{"type":"Point","coordinates":[-93.020753,47.264659]}},{"properties":{"city":"Downers Grove","country":"United States","geo_score":0.857,"zip code":"60515","id":"ab854r1wqsuo","geo_precision":"zip","state":"IL"},"type":"Feature","geometry":{"type":"Point","coordinates":[-88.012267,41.796279]}},{"properties":{"city":"Bellingham","country":"United States","geo_score":0.857,"zip code":"98229","id":"ab854qqdpctv","geo_precision":"zip","state":"WA"},"type":"Feature","geometry":{"type":"Point","coordinates":[-122.410041,48.693122]}},{"properties":{"city":"Bainbridge Island","country":"United States","geo_score":0.857,"zip code":"98110","id":"ab854r3usv5r","geo_precision":"zip","state":"WA"},"type":"Feature","geometry":{"type":"Point","coordinates":[-122.579862,47.66704]}},{"properties":{"city":"Havre de Grace","country":"United States","geo_score":0.857,"zip code":"21078","id":"ab854qt5alqt","geo_precision":"zip","state":"MD"},"type":"Feature","geometry":{"type":"Point","coordinates":[-76.15517,39.560095]}},{"properties":{"city":"Madison","country":"United States","geo_score":0.857,"zip code":"53715","id":"ab854qq6kgws","geo_precision":"zip","state":"WI"},"type":"Feature","geometry":{"type":"Point","coordinates":[-89.394619,43.061839]}},{"properties":{"city":"Okemos","country":"United States","geo_score":0.857,"zip code":"48864","id":"ab854r1hx0g4","geo_precision":"zip","state":"MI"},"type":"Feature","geometry":{"type":"Point","coordinates":[-84.425136,42.719534]}},{"properties":{"city":"Norwalk","country":"United States","geo_score":0.857,"zip code":"06855","id":"ab854qzfy9e7","geo_precision":"zip","state":"CT"},"type":"Feature","geometry":{"type":"Point","coordinates":[-73.398362,41.099196]}},{"properties":{"city":"Grand Rapids","country":"United States","geo_score":0.857,"zip code":"49504","id":"ab854qotuypu","geo_precision":"zip","state":"MI"},"type":"Feature","geometry":{"type":"Point","coordinates":[-85.768092,43.001413]}},{"properties":{"city":"Center Valley","country":"United States","geo_score":0.857,"zip code":"18034","id":"ab854qvqrf80","geo_precision":"zip","state":"PA"},"type":"Feature","geometry":{"type":"Point","coordinates":[-75.432682,40.551765]}},{"properties":{"city":"New City","country":"United States","geo_score":0.857,"zip code":"10956","id":"ab854qx9k5uw","geo_precision":"zip","state":"NY"},"type":"Feature","geometry":{"type":"Point","coordinates":[-73.994585,41.186206]}},{"properties":{"city":"Hartford","country":"United States","geo_score":0.857,"zip code":"06120","id":"ab854qxu6b7x","geo_precision":"zip","state":"CT"},"type":"Feature","geometry":{"type":"Point","coordinates":[-72.669936,41.785449]}},{"properties":{"city":"North little rock","country":"United States","geo_score":0.857,"zip code":"72116","id":"ab854r3nisav","geo_precision":"zip","state":"AR"},"type":"Feature","geometry":{"type":"Point","coordinates":[-92.23126,34.836479]}},{"properties":{"city":"Mount Gilead","country":"United States","geo_score":0.857,"zip code":"43338","id":"ab854qsv5sx4","geo_precision":"zip","state":"OH"},"type":"Feature","geometry":{"type":"Point","coordinates":[-82.729898,40.579504]}},{"properties":{"city":"Gainesville","country":"United States","geo_score":0.857,"zip code":"32601","id":"ab854qu0tdxn","geo_precision":"zip","state":"FL"},"type":"Feature","geometry":{"type":"Point","coordinates":[-82.407885,29.666356]}},{"properties":{"city":"Cranford","country":"United States","geo_score":0.857,"zip code":"07016","id":"ab854r3h3n50","geo_precision":"zip","state":"NJ"},"type":"Feature","geometry":{"type":"Point","coordinates":[-74.287092,40.658991]}},{"properties":{"city":"Lynchburg","country":"United States","geo_score":0.857,"zip code":"24503","id":"ab854r4jbusf","geo_precision":"zip","state":"VA"},"type":"Feature","geometry":{"type":"Point","coordinates":[-79.27864,37.504584]}},{"properties":{"city":"Metairie","country":"United States","geo_score":0.857,"zip code":"70006","id":"ab854r3c22z0","geo_precision":"zip","state":"LA"},"type":"Feature","geometry":{"type":"Point","coordinates":[-90.195842,30.013413]}},{"properties":{"city":"Mobile","country":"United States","geo_score":0.857,"zip code":"36695","id":"ab854r3z7k8t","geo_precision":"zip","state":"AL"},"type":"Feature","geometry":{"type":"Point","coordinates":[-88.226989,30.666959]}},{"properties":{"city":"Madison","country":"United States","geo_score":0.857,"zip code":"53704","id":"ab854qtybdk2","geo_precision":"zip","state":"WI"},"type":"Feature","geometry":{"type":"Point","coordinates":[-89.379563,43.118328]}},{"properties":{"city":"Ulster Park","country":"United States","geo_score":0.857,"zip code":"12487","id":"ab854qt0tf99","geo_precision":"zip","state":"NY"},"type":"Feature","geometry":{"type":"Point","coordinates":[-74.017907,41.857076]}},{"properties":{"city":"Winchester","country":"United States","geo_score":0.857,"zip code":"01890","id":"ab854r2ya8zw","geo_precision":"zip","state":"MA"},"type":"Feature","geometry":{"type":"Point","coordinates":[-71.148779,42.454545]}},{"properties":{"city":"Austin","country":"United States","geo_score":0.857,"zip code":"78731","id":"ab854r2qtdr5","geo_precision":"zip","state":"TX"},"type":"Feature","geometry":{"type":"Point","coordinates":[-97.769769,30.345554]}},{"properties":{"city":"Wynnewood","country":"United States","geo_score":0.857,"zip code":"19096","id":"ab854qvhc4w4","geo_precision":"zip","state":"PA"},"type":"Feature","geometry":{"type":"Point","coordinates":[-75.275462,39.986223]}},{"properties":{"city":"Eden Prairie","country":"United States","geo_score":0.857,"zip code":"55347","id":"ab854r37n9xd","geo_precision":"zip","state":"MN"},"type":"Feature","geometry":{"type":"Point","coordinates":[-93.459829,44.841713]}},{"properties":{"city":"Millville","country":"United States","geo_score":0.857,"zip code":"01529","id":"ab854r02nwjq","geo_precision":"zip","state":"MA"},"type":"Feature","geometry":{"type":"Point","coordinates":[-71.846943,42.124662]}},{"properties":{"city":"Newtown","country":"United States","geo_score":0.857,"zip code":"06470","id":"ab854qyuhndy","geo_precision":"zip","state":"CT"},"type":"Feature","geometry":{"type":"Point","coordinates":[-73.35623,41.379262]}},{"properties":{"city":"Somers","country":"United States","geo_score":0.857,"zip code":"10589","id":"ab854qp5mg3v","geo_precision":"zip","state":"NY"},"type":"Feature","geometry":{"type":"Point","coordinates":[-73.693685,41.326544]}},{"properties":{"city":"Boston","country":"United States","geo_score":0.857,"zip code":"02116","id":"ab854qq942he","geo_precision":"zip","state":"MA"},"type":"Feature","geometry":{"type":"Point","coordinates":[-71.086095,42.347207]}},{"properties":{"city":"Gilford","country":"United States","geo_score":0.857,"zip code":"03249","id":"ab854r3925bu","geo_precision":"zip","state":"NH"},"type":"Feature","geometry":{"type":"Point","coordinates":[-71.478141,43.572782]}},{"properties":{"city":"Toms River","country":"United States","geo_score":0.857,"zip code":"08753","id":"ab854qvf51vh","geo_precision":"zip","state":"NJ"},"type":"Feature","geometry":{"type":"Point","coordinates":[-74.204308,39.942063]}},{"properties":{"city":"Ellicott City","country":"United States","geo_score":0.857,"zip code":"21042","id":"ab854qvwb4zp","geo_precision":"zip","state":"MD"},"type":"Feature","geometry":{"type":"Point","coordinates":[-76.897247,39.261897]}},{"properties":{"city":"Auburn","country":"United States","geo_score":0.857,"zip code":"98001","id":"ab854r1gbccn","geo_precision":"zip","state":"WA"},"type":"Feature","geometry":{"type":"Point","coordinates":[-121.821908,47.465495]}},{"properties":{"city":"Arlington","country":"United States","geo_score":0.857,"zip code":"22207","id":"ab854r2450qh","geo_precision":"zip","state":"VA"},"type":"Feature","geometry":{"type":"Point","coordinates":[-77.122344,38.907416]}},{"properties":{"city":"Scotts Valley","country":"United States","geo_score":0.857,"zip code":"95066","id":"ab854qy5ck7l","geo_precision":"zip","state":"CA"},"type":"Feature","geometry":{"type":"Point","coordinates":[-122.006276,37.071387]}}],"is_temporal":false,"author":{"url":"","metadata":null,"contact_name":null,"contact_address":null,"source":null,"contact_phone":null},"source":"","pagination":{"sort":null,"start":0,"total":84,"limit":1000000},"state":"complete","tags":"","published":"2014-08-17T00:36:28-04:00","id":308925}