{"type":"FeatureCollection","data_type":"Dataset","url_type":null,"permissions":[{"permissions":{"download":true,"view":true},"group_id":"everyone"}],"classification":null,"title":"Student_Info_Listing_2012","count":103,"stream_id":308924,"contributor":{"url":"http://geocommons.com/users/58623","name":"cashford"},"data_attributes":null,"calculation_params":null,"icon_link":null,"link":"http://geocommons.com/overlays/308924.json","extent":[-122.179,29.834,-68.795,48.9007],"geometry_types":["point"],"unique_name":null,"name":"Student_Info_Listing_2012","feature_count":103,"description":"","next_feature":null,"is_raster":false,"short_classification":"Y","stats":{},"features":[{"properties":{"city":"Princeton Jct","country":"United States","geo_score":0.857,"zip code":"08550","id":"ab852vs45on5","geo_precision":"zip","state":"NJ"},"type":"Feature","geometry":{"type":"Point","coordinates":[-74.613768,40.282331]}},{"properties":{"city":"Rutland","country":"United States","geo_score":0.857,"zip code":"05701","id":"ab852vqkf81e","geo_precision":"zip","state":"VT"},"type":"Feature","geometry":{"type":"Point","coordinates":[-72.93586,43.630346]}},{"properties":{"city":"Brooklyn","country":"United States","geo_score":0.857,"zip code":"11226","id":"ab852vp7fpir","geo_precision":"zip","state":"NY"},"type":"Feature","geometry":{"type":"Point","coordinates":[-73.959027,40.652048]}},{"properties":{"city":"Bangor","country":"United States","geo_score":0.857,"zip code":"04401","id":"ab852vwgx26j","geo_precision":"zip","state":"ME"},"type":"Feature","geometry":{"type":"Point","coordinates":[-68.795037,44.770627]}},{"properties":{"city":"Chicago","country":"United States","geo_score":0.857,"zip code":"60618","id":"ab852vv36ghj","geo_precision":"zip","state":"IL"},"type":"Feature","geometry":{"type":"Point","coordinates":[-87.68732,41.811929]}},{"properties":{"city":"Catonsville","country":"United States","geo_score":0.857,"zip code":"21228","id":"ab852vziji8t","geo_precision":"zip","state":"MD"},"type":"Feature","geometry":{"type":"Point","coordinates":[-76.74275,39.287884]}},{"properties":{"city":"Arlington","country":"United States","geo_score":0.857,"zip code":"76012","id":"ab852w27gt7m","geo_precision":"zip","state":"TX"},"type":"Feature","geometry":{"type":"Point","coordinates":[-97.131689,32.77408]}},{"properties":{"city":"Lebanon","country":"United States","geo_score":0.857,"zip code":"62254","id":"ab852vyxke4r","geo_precision":"zip","state":"IL"},"type":"Feature","geometry":{"type":"Point","coordinates":[-89.82823,38.605448]}},{"properties":{"city":"Millbrook","country":"United States","geo_score":0.857,"zip code":"12545","id":"ab852vse0alg","geo_precision":"zip","state":"NY"},"type":"Feature","geometry":{"type":"Point","coordinates":[-73.713463,41.76565]}},{"properties":{"city":"Washington","country":"United States","geo_score":0.857,"zip code":"20003","id":"ab852w1dpr9n","geo_precision":"zip","state":"DC"},"type":"Feature","geometry":{"type":"Point","coordinates":[-76.988897,38.860315]}},{"properties":{"city":"Providence","country":"United States","geo_score":0.857,"zip code":"02906","id":"ab852vuez35n","geo_precision":"zip","state":"RI"},"type":"Feature","geometry":{"type":"Point","coordinates":[-71.394717,41.8374]}},{"properties":{"city":"Bethesda","country":"United States","geo_score":0.857,"zip code":"20814","id":"ab852voirvab","geo_precision":"zip","state":"MD"},"type":"Feature","geometry":{"type":"Point","coordinates":[-77.109978,38.98261]}},{"properties":{"city":"Edison","country":"United States","geo_score":0.857,"zip code":"08820","id":"ab852vzuyiyl","geo_precision":"zip","state":"NJ"},"type":"Feature","geometry":{"type":"Point","coordinates":[-74.362616,40.576611]}},{"properties":{"city":"Bala Cynwyd","country":"United States","geo_score":0.857,"zip code":"19004","id":"ab852vscooxc","geo_precision":"zip","state":"PA"},"type":"Feature","geometry":{"type":"Point","coordinates":[-75.242959,40.00289]}},{"properties":{"city":"Washington","country":"United States","geo_score":0.857,"zip code":"20009","id":"ab852vws7zd0","geo_precision":"zip","state":"DC"},"type":"Feature","geometry":{"type":"Point","coordinates":[-77.039798,38.919261]}},{"properties":{"city":"Ithaca","country":"United States","geo_score":0.857,"zip code":"14850","id":"ab852vy6087t","geo_precision":"zip","state":"NY"},"type":"Feature","geometry":{"type":"Point","coordinates":[-76.437994,42.455073]}},{"properties":{"city":"Stoughton","country":"United States","geo_score":0.857,"zip code":"53589","id":"ab852vrw5az8","geo_precision":"zip","state":"WI"},"type":"Feature","geometry":{"type":"Point","coordinates":[-89.122058,42.965557]}},{"properties":{"city":"Denton","country":"United States","geo_score":0.857,"zip code":"21629","id":"ab852vud9lrr","geo_precision":"zip","state":"MD"},"type":"Feature","geometry":{"type":"Point","coordinates":[-75.839101,38.889003]}},{"properties":{"city":"Decatur","country":"United States","geo_score":0.857,"zip code":"30030","id":"ab852vsca4ca","geo_precision":"zip","state":"GA"},"type":"Feature","geometry":{"type":"Point","coordinates":[-84.291723,33.772554]}},{"properties":{"city":"Milton","country":"United States","geo_score":0.857,"zip code":"02186","id":"ab852vyf0dhj","geo_precision":"zip","state":"MA"},"type":"Feature","geometry":{"type":"Point","coordinates":[-71.080051,42.254266]}},{"properties":{"city":"Mount Pleasant","country":"United States","geo_score":0.857,"zip code":"29464","id":"ab852vshdr5a","geo_precision":"zip","state":"SC"},"type":"Feature","geometry":{"type":"Point","coordinates":[-79.884253,32.802676]}},{"properties":{"city":"Hayward","country":"United States","geo_score":0.857,"zip code":"94544","id":"ab852vs7mj4l","geo_precision":"zip","state":"CA"},"type":"Feature","geometry":{"type":"Point","coordinates":[-122.061673,37.613883]}},{"properties":{"city":"Knoxville","country":"United States","geo_score":0.857,"zip code":"37938","id":"ab852w22akpe","geo_precision":"zip","state":"TN"},"type":"Feature","geometry":{"type":"Point","coordinates":[-83.937408,36.032026]}},{"properties":{"city":"Milford","country":"United States","geo_score":0.714,"zip code":"06461","id":"ab852vwbu1ks","geo_precision":"city","state":"CT"},"type":"Feature","geometry":{"type":"Point","coordinates":[-72.951273,41.343773]}},{"properties":{"city":"Pleasantville","country":"United States","geo_score":0.857,"zip code":"10570","id":"ab852vrp58d9","geo_precision":"zip","state":"NY"},"type":"Feature","geometry":{"type":"Point","coordinates":[-73.792214,41.131069]}},{"properties":{"city":"Bloomington","country":"United States","geo_score":0.857,"zip code":"55431","id":"ab852vybpibu","geo_precision":"zip","state":"MN"},"type":"Feature","geometry":{"type":"Point","coordinates":[-93.311823,44.828764]}},{"properties":{"city":"Byfield","country":"United States","geo_score":0.857,"zip code":"01922","id":"ab852vucfz0s","geo_precision":"zip","state":"MA"},"type":"Feature","geometry":{"type":"Point","coordinates":[-70.903664,42.748703]}},{"properties":{"city":"Saranac Lake","country":"United States","geo_score":0.857,"zip code":"12983","id":"ab852vpmqsyi","geo_precision":"zip","state":"NY"},"type":"Feature","geometry":{"type":"Point","coordinates":[-74.143489,44.35283]}},{"properties":{"city":"Chevy Chase","country":"United States","geo_score":0.857,"zip code":"20815","id":"ab852vya18yl","geo_precision":"zip","state":"MD"},"type":"Feature","geometry":{"type":"Point","coordinates":[-77.097478,38.97011]}},{"properties":{"city":"Minneapolis","country":"United States","geo_score":0.857,"zip code":"55417","id":"ab852vtc5zdk","geo_precision":"zip","state":"MN"},"type":"Feature","geometry":{"type":"Point","coordinates":[-93.253624,44.962965]}},{"properties":{"city":"Vienna","country":"United States","geo_score":0.857,"zip code":"22182","id":"ab852vq10178","geo_precision":"zip","state":"VA"},"type":"Feature","geometry":{"type":"Point","coordinates":[-77.268022,38.935292]}},{"properties":{"city":"Apex","country":"United States","geo_score":0.857,"zip code":"27502","id":"ab852vyerjeo","geo_precision":"zip","state":"NC"},"type":"Feature","geometry":{"type":"Point","coordinates":[-78.857507,35.789317]}},{"properties":{"city":"Avondale","country":"United States","geo_score":0.857,"zip code":"19311","id":"ab852vqg67yk","geo_precision":"zip","state":"PA"},"type":"Feature","geometry":{"type":"Point","coordinates":[-75.839686,39.866821]}},{"properties":{"city":"Lexington","country":"United States","geo_score":0.857,"zip code":"40508","id":"ab852vym6fb5","geo_precision":"zip","state":"KY"},"type":"Feature","geometry":{"type":"Point","coordinates":[-84.498954,38.051285]}},{"properties":{"city":"Bellevue","country":"United States","geo_score":0.857,"zip code":"98005","id":"ab852vmmsb75","geo_precision":"zip","state":"WA"},"type":"Feature","geometry":{"type":"Point","coordinates":[-122.178883,47.620471]}},{"properties":{"city":"Columbus","country":"United States","geo_score":0.857,"zip code":"43219","id":"ab852vy62zaw","geo_precision":"zip","state":"OH"},"type":"Feature","geometry":{"type":"Point","coordinates":[-82.910251,40.032615]}},{"properties":{"city":"Lansdale","country":"United States","geo_score":0.857,"zip code":"19446","id":"ab852vssqtux","geo_precision":"zip","state":"PA"},"type":"Feature","geometry":{"type":"Point","coordinates":[-75.302676,40.221773]}},{"properties":{"city":"Glenview","country":"United States","geo_score":0.857,"zip code":"60025","id":"ab852vxz8h6t","geo_precision":"zip","state":"IL"},"type":"Feature","geometry":{"type":"Point","coordinates":[-87.819714,42.082715]}},{"properties":{"city":"Los Gatos","country":"United States","geo_score":0.857,"zip code":"95032","id":"ab852vo12ngl","geo_precision":"zip","state":"CA"},"type":"Feature","geometry":{"type":"Point","coordinates":[-121.66186,37.070923]}},{"properties":{"city":"Chevy Chase","country":"United States","geo_score":0.857,"zip code":"20815","id":"ab852vvl37qg","geo_precision":"zip","state":"MD"},"type":"Feature","geometry":{"type":"Point","coordinates":[-77.097478,38.97011]}},{"properties":{"city":"Frederick","country":"United States","geo_score":0.857,"zip code":"21702","id":"ab852w05hi3k","geo_precision":"zip","state":"MD"},"type":"Feature","geometry":{"type":"Point","coordinates":[-77.461211,39.492596]}},{"properties":{"city":"Hong Kong","country":"Hong Kong","geo_score":0.714,"zip code":"01075","id":"ab852w2cj7u3","geo_precision":"zip","state":null},"type":"Feature","geometry":{"type":"Point","coordinates":[-72.558699,42.280647]}},{"properties":{"city":"Columbus","country":"United States","geo_score":0.857,"zip code":"43235","id":"ab852vw68o4p","geo_precision":"zip","state":"OH"},"type":"Feature","geometry":{"type":"Point","coordinates":[-82.974204,40.108836]}},{"properties":{"city":"Cranston","country":"United States","geo_score":0.857,"zip code":"02910","id":"ab852vqsejm8","geo_precision":"zip","state":"RI"},"type":"Feature","geometry":{"type":"Point","coordinates":[-71.522839,41.7776]}},{"properties":{"city":"Concord","country":"United States","geo_score":0.857,"zip code":"01742","id":"ab852vvtny90","geo_precision":"zip","state":"MA"},"type":"Feature","geometry":{"type":"Point","coordinates":[-71.459405,42.446396]}},{"properties":{"city":"Palisades","country":"United States","geo_score":0.857,"zip code":"10964","id":"ab852voqlna2","geo_precision":"zip","state":"NY"},"type":"Feature","geometry":{"type":"Point","coordinates":[-73.92093,41.008947]}},{"properties":{"city":"Aurora","country":"United States","geo_score":0.857,"zip code":"44202","id":"ab852vmnanwc","geo_precision":"zip","state":"OH"},"type":"Feature","geometry":{"type":"Point","coordinates":[-81.381777,41.344499]}},{"properties":{"city":"Phoenixville","country":"United States","geo_score":0.857,"zip code":"19460","id":"ab852w092m5q","geo_precision":"zip","state":"PA"},"type":"Feature","geometry":{"type":"Point","coordinates":[-75.537137,40.122882]}},{"properties":{"city":"Syracuse","country":"United States","geo_score":0.857,"zip code":"13224","id":"ab852vrjw9gz","geo_precision":"zip","state":"NY"},"type":"Feature","geometry":{"type":"Point","coordinates":[-76.099394,43.038366]}},{"properties":{"city":"Atlantic Highlands","country":"United States","geo_score":0.857,"zip code":"07716","id":"ab852w1zwks0","geo_precision":"zip","state":"NJ"},"type":"Feature","geometry":{"type":"Point","coordinates":[-74.05617,40.404762]}},{"properties":{"city":"Northville","country":"United States","geo_score":0.714,"zip code":"48168","id":"ab852vnv15jk","geo_precision":"city","state":"MI"},"type":"Feature","geometry":{"type":"Point","coordinates":[-83.432434,42.41729]}},{"properties":{"city":"Roanoke","country":"United States","geo_score":0.857,"zip code":"24014","id":"ab852vx476n6","geo_precision":"zip","state":"VA"},"type":"Feature","geometry":{"type":"Point","coordinates":[-79.92837,37.231805]}},{"properties":{"city":"Elkins Park","country":"United States","geo_score":0.857,"zip code":"19027","id":"ab852vya4n6g","geo_precision":"zip","state":"PA"},"type":"Feature","geometry":{"type":"Point","coordinates":[-75.131518,40.07501]}},{"properties":{"city":"Seattle","country":"United States","geo_score":0.857,"zip code":"98119","id":"ab852vvrbz2w","geo_precision":"zip","state":"WA"},"type":"Feature","geometry":{"type":"Point","coordinates":[-121.803388,47.432251]}},{"properties":{"city":"Crete","country":"United States","geo_score":0.857,"zip code":"68333","id":"ab852vytvwfl","geo_precision":"zip","state":"NE"},"type":"Feature","geometry":{"type":"Point","coordinates":[-96.875304,40.588337]}},{"properties":{"city":"Concord","country":"United States","geo_score":0.857,"zip code":"01742","id":"ab852w13xqwb","geo_precision":"zip","state":"MA"},"type":"Feature","geometry":{"type":"Point","coordinates":[-71.459405,42.446396]}},{"properties":{"city":"Pittsfield","country":"United States","geo_score":0.857,"zip code":"01201-8302","id":"ab852vxtlp74","geo_precision":"zip","state":"MA"},"type":"Feature","geometry":{"type":"Point","coordinates":[-73.331219,42.39953]}},{"properties":{"city":"Milwaukee","country":"United States","geo_score":0.857,"zip code":"53216","id":"ab852vqi53r9","geo_precision":"zip","state":"WI"},"type":"Feature","geometry":{"type":"Point","coordinates":[-87.976988,43.086244]}},{"properties":{"city":"Chapel Hill","country":"United States","geo_score":0.857,"zip code":"27517","id":"ab852vut2eb7","geo_precision":"zip","state":"NC"},"type":"Feature","geometry":{"type":"Point","coordinates":[-78.906933,35.981803]}},{"properties":{"city":"Tallahassee","country":"United States","geo_score":0.857,"zip code":"32317","id":"ab852vt9a1pf","geo_precision":"zip","state":"FL"},"type":"Feature","geometry":{"type":"Point","coordinates":[-84.346204,30.479347]}},{"properties":{"city":"Philadelphia","country":"United States","geo_score":0.857,"zip code":"19118","id":"ab852vwekmee","geo_precision":"zip","state":"PA"},"type":"Feature","geometry":{"type":"Point","coordinates":[-75.2074,40.077055]}},{"properties":{"city":"Frankfort","country":"United States","geo_score":0.857,"zip code":"60423","id":"ab852vu69pii","geo_precision":"zip","state":"IL"},"type":"Feature","geometry":{"type":"Point","coordinates":[-87.896109,41.451744]}},{"properties":{"city":"Fort Collins","country":"United States","geo_score":0.857,"zip code":"80524","id":"ab852vtiunkn","geo_precision":"zip","state":"CO"},"type":"Feature","geometry":{"type":"Point","coordinates":[-105.252751,40.59889]}},{"properties":{"city":"Raleigh","country":"United States","geo_score":0.857,"zip code":"27609","id":"ab852vnea9yh","geo_precision":"zip","state":"NC"},"type":"Feature","geometry":{"type":"Point","coordinates":[-78.518056,35.96154]}},{"properties":{"city":"Mequon","country":"United States","geo_score":0.857,"zip code":"53097","id":"ab852vmotqfi","geo_precision":"zip","state":"WI"},"type":"Feature","geometry":{"type":"Point","coordinates":[-87.980914,43.247112]}},{"properties":{"city":"Schaumburg","country":"United States","geo_score":0.857,"zip code":"60173","id":"ab852vmrowwx","geo_precision":"zip","state":"IL"},"type":"Feature","geometry":{"type":"Point","coordinates":[-88.046403,42.079837]}},{"properties":{"city":"Newbury","country":"United States","geo_score":0.857,"zip code":"01951","id":"ab852vncmedq","geo_precision":"zip","state":"MA"},"type":"Feature","geometry":{"type":"Point","coordinates":[-70.867246,42.777524]}},{"properties":{"city":"North Hollywood","country":"United States","geo_score":0.857,"zip code":"91607","id":"ab852vrvt5rx","geo_precision":"zip","state":"CA"},"type":"Feature","geometry":{"type":"Point","coordinates":[-118.298662,33.786594]}},{"properties":{"city":"New Milford","country":"United States","geo_score":0.857,"zip code":"06776","id":"ab852von7hz8","geo_precision":"zip","state":"CT"},"type":"Feature","geometry":{"type":"Point","coordinates":[-73.439566,41.559817]}},{"properties":{"city":"Washington","country":"United States","geo_score":0.857,"zip code":"20015","id":"ab852vwi7lqk","geo_precision":"zip","state":"DC"},"type":"Feature","geometry":{"type":"Point","coordinates":[-77.070949,38.96926]}},{"properties":{"city":"Moon Township","country":"United States","geo_score":0.857,"zip code":"15108","id":"ab852vmrudsv","geo_precision":"zip","state":"PA"},"type":"Feature","geometry":{"type":"Point","coordinates":[-80.239226,40.508957]}},{"properties":{"city":"Greer","country":"United States","geo_score":0.857,"zip code":"29651","id":"ab852vuiz3yj","geo_precision":"zip","state":"SC"},"type":"Feature","geometry":{"type":"Point","coordinates":[-82.212056,34.961228]}},{"properties":{"city":"Houston","country":"United States","geo_score":0.857,"zip code":"77005","id":"ab852vqcgkoi","geo_precision":"zip","state":"TX"},"type":"Feature","geometry":{"type":"Point","coordinates":[-95.434241,29.83399]}},{"properties":{"city":"Troy","country":"United States","geo_score":0.857,"zip code":"45373","id":"ab852vuxeeyh","geo_precision":"zip","state":"OH"},"type":"Feature","geometry":{"type":"Point","coordinates":[-84.279668,39.965332]}},{"properties":{"city":"Wauwatosa","country":"United States","geo_score":0.857,"zip code":"53225","id":"ab852voqh2qw","geo_precision":"zip","state":"WI"},"type":"Feature","geometry":{"type":"Point","coordinates":[-88.040188,43.115159]}},{"properties":{"city":"FPO","country":"United States","geo_score":0.0,"zip code":"09627","id":"ab852vm5a3wj","geo_precision":"unmatched","state":"AE"},"type":"Feature","geometry":null},{"properties":{"city":"Vienna","country":"United States","geo_score":0.857,"zip code":"22181","id":"ab852vm47sjz","geo_precision":"zip","state":"VA"},"type":"Feature","geometry":{"type":"Point","coordinates":[-77.295256,38.90521]}},{"properties":{"city":"Columbia","country":"United States","geo_score":0.857,"zip code":"65201","id":"ab852vtk7krc","geo_precision":"zip","state":"MO"},"type":"Feature","geometry":{"type":"Point","coordinates":[-92.472408,38.911702]}},{"properties":{"city":"Princeton","country":"United States","geo_score":0.857,"zip code":"08540","id":"ab852w1r9x8h","geo_precision":"zip","state":"NJ"},"type":"Feature","geometry":{"type":"Point","coordinates":[-74.64795,40.363882]}},{"properties":{"city":"Wilbraham","country":"United States","geo_score":0.857,"zip code":"01095","id":"ab852vod6gk1","geo_precision":"zip","state":"MA"},"type":"Feature","geometry":{"type":"Point","coordinates":[-72.489988,42.125974]}},{"properties":{"city":"Norcross","country":"United States","geo_score":0.857,"zip code":"30092","id":"ab852vtoy40p","geo_precision":"zip","state":"GA"},"type":"Feature","geometry":{"type":"Point","coordinates":[-84.138468,33.910725]}},{"properties":{"city":"Westerville","country":"United States","geo_score":0.857,"zip code":"43081","id":"ab852vti8bws","geo_precision":"zip","state":"OH"},"type":"Feature","geometry":{"type":"Point","coordinates":[-82.888234,40.102008]}},{"properties":{"city":"Cornish","country":"United States","geo_score":0.857,"zip code":"03745","id":"ab852vu8rrkq","geo_precision":"zip","state":"NH"},"type":"Feature","geometry":{"type":"Point","coordinates":[-72.337149,43.462156]}},{"properties":{"city":"Laconia","country":"United States","geo_score":0.857,"zip code":"03246","id":"ab852vrxeis2","geo_precision":"zip","state":"NH"},"type":"Feature","geometry":{"type":"Point","coordinates":[-71.44424,43.608965]}},{"properties":{"city":"Lutherville","country":"United States","geo_score":0.857,"zip code":"21093","id":"ab852vowdler","geo_precision":"zip","state":"MD"},"type":"Feature","geometry":{"type":"Point","coordinates":[-76.617469,39.415384]}},{"properties":{"city":"Plaistow","country":"United States","geo_score":0.857,"zip code":"03865","id":"ab852vueklq0","geo_precision":"zip","state":"New Hampshire"},"type":"Feature","geometry":{"type":"Point","coordinates":[-71.117003,42.827589]}},{"properties":{"city":"Des Moines","country":"United States","geo_score":0.857,"zip code":"50321","id":"ab852vnqvon2","geo_precision":"zip","state":"IA"},"type":"Feature","geometry":{"type":"Point","coordinates":[-93.659668,41.546945]}},{"properties":{"city":"Albany","country":"United States","geo_score":0.857,"zip code":"12203","id":"ab852vtmiw5t","geo_precision":"zip","state":"NY"},"type":"Feature","geometry":{"type":"Point","coordinates":[-73.857496,42.700345]}},{"properties":{"city":"Birmingham","country":"United States","geo_score":0.857,"zip code":"35210","id":"ab852vzw8nd3","geo_precision":"zip","state":"AL"},"type":"Feature","geometry":{"type":"Point","coordinates":[-86.654709,33.563993]}},{"properties":{"city":"Princeton","country":"United States","geo_score":0.857,"zip code":"08540","id":"ab852vsd9ypo","geo_precision":"zip","state":"NJ"},"type":"Feature","geometry":{"type":"Point","coordinates":[-74.64795,40.363882]}},{"properties":{"city":"Wauwatosa","country":"United States","geo_score":0.857,"zip code":"53213","id":"ab852vxwjzq7","geo_precision":"zip","state":"WI"},"type":"Feature","geometry":{"type":"Point","coordinates":[-87.999511,43.075461]}},{"properties":{"city":"New York","country":"United States","geo_score":0.857,"zip code":"10027","id":"ab852vtz2b3y","geo_precision":"zip","state":"NY"},"type":"Feature","geometry":{"type":"Point","coordinates":[-73.9532,40.812242]}},{"properties":{"city":"Pasadena","country":"United States","geo_score":0.857,"zip code":"91105","id":"ab852vp24lff","geo_precision":"zip","state":"CA"},"type":"Feature","geometry":{"type":"Point","coordinates":[-118.298662,33.786594]}},{"properties":{"city":"Martinez","country":"United States","geo_score":0.857,"zip code":"94553","id":"ab852vrunadw","geo_precision":"zip","state":"CA"},"type":"Feature","geometry":{"type":"Point","coordinates":[-122.075241,37.983533]}},{"properties":{"city":"Coxsackie","country":"United States","geo_score":0.857,"zip code":"12051","id":"ab852vvfokgy","geo_precision":"zip","state":"NY"},"type":"Feature","geometry":{"type":"Point","coordinates":[-73.847967,42.355924]}},{"properties":{"city":"Sharon","country":"United States","geo_score":0.857,"zip code":"02067","id":"ab852w1065ql","geo_precision":"zip","state":"MA"},"type":"Feature","geometry":{"type":"Point","coordinates":[-71.184785,42.105288]}},{"properties":{"city":"Chicago","country":"United States","geo_score":0.857,"zip code":"60630","id":"ab852vybcex3","geo_precision":"zip","state":"IL"},"type":"Feature","geometry":{"type":"Point","coordinates":[-87.68732,41.811929]}},{"properties":{"city":"Warroad","country":"United States","geo_score":0.857,"zip code":"56763","id":"ab852w084u36","geo_precision":"zip","state":"MN"},"type":"Feature","geometry":{"type":"Point","coordinates":[-95.250324,48.900663]}},{"properties":{"city":"Mahwah","country":"United States","geo_score":0.857,"zip code":"07430","id":"ab852vu3gyfk","geo_precision":"zip","state":"NJ"},"type":"Feature","geometry":{"type":"Point","coordinates":[-74.135977,41.094541]}},{"properties":{"city":"South Toms River","country":"United States","geo_score":0.857,"zip code":"08757","id":"ab852vv8qxo3","geo_precision":"zip","state":"NJ"},"type":"Feature","geometry":{"type":"Point","coordinates":[-74.264068,39.943064]}},{"properties":{"city":"Arlington","country":"United States","geo_score":0.857,"zip code":"22202","id":"ab852vwilsrb","geo_precision":"zip","state":"VA"},"type":"Feature","geometry":{"type":"Point","coordinates":[-77.059721,38.854462]}},{"properties":{"city":"Pittsburgh","country":"United States","geo_score":0.857,"zip code":"15241","id":"ab852vxniatj","geo_precision":"zip","state":"PA"},"type":"Feature","geometry":{"type":"Point","coordinates":[-80.072277,40.326181]}},{"properties":{"city":"Barberton","country":"United States","geo_score":0.857,"zip code":"44203","id":"ab852vwanf11","geo_precision":"zip","state":"OH"},"type":"Feature","geometry":{"type":"Point","coordinates":[-81.63818,41.029222]}}],"is_temporal":false,"author":{"url":"","metadata":null,"contact_name":null,"contact_address":null,"source":null,"contact_phone":null},"source":"","pagination":{"sort":null,"start":0,"total":103,"limit":1000000},"state":"complete","tags":"","published":"2014-08-17T00:36:28-04:00","id":308924}