{"type":"FeatureCollection","data_type":"Dataset","url_type":null,"permissions":[{"permissions":{"download":true,"view":true},"group_id":"everyone"}],"classification":null,"title":"Student Info Listing 2010","count":70,"stream_id":308915,"contributor":{"url":"http://geocommons.com/users/58623","name":"cashford"},"data_attributes":null,"calculation_params":null,"icon_link":null,"link":"http://geocommons.com/overlays/308915.json","extent":[-157.716,20.8822,-70.3978,47.4323],"geometry_types":["point"],"unique_name":null,"name":"Student Info Listing 2010","feature_count":70,"description":"","next_feature":null,"is_raster":false,"short_classification":"Y","stats":{},"features":[{"properties":{"city":"Reisterstown","country":"United States","geo_score":0.857,"zip code":"21136","id":"ab84cnbvd0wd","geo_precision":"zip","state":"MD"},"type":"Feature","geometry":{"type":"Point","coordinates":[-76.798032,39.543993]}},{"properties":{"city":"New York","country":"United States","geo_score":0.857,"zip code":"10033","id":"ab84cniupyeo","geo_precision":"zip","state":"NY"},"type":"Feature","geometry":{"type":"Point","coordinates":[-73.934764,40.851293]}},{"properties":{"city":"Philadelphia","country":"United States","geo_score":0.857,"zip code":"19143","id":"ab84cn53vb99","geo_precision":"zip","state":"PA"},"type":"Feature","geometry":{"type":"Point","coordinates":[-75.187023,39.957312]}},{"properties":{"city":"Easthampton","country":"United States","geo_score":0.857,"zip code":"01027","id":"ab84cn9jfr15","geo_precision":"zip","state":"MA"},"type":"Feature","geometry":{"type":"Point","coordinates":[-72.737593,42.287589]}},{"properties":{"city":"Durham","country":"United States","geo_score":0.857,"zip code":"06422","id":"ab84cn8r82hu","geo_precision":"zip","state":"CT"},"type":"Feature","geometry":{"type":"Point","coordinates":[-72.682297,41.462468]}},{"properties":{"city":"Cicero","country":"United States","geo_score":0.857,"zip code":"13039","id":"ab84cnfixhql","geo_precision":"zip","state":"NY"},"type":"Feature","geometry":{"type":"Point","coordinates":[-76.154128,43.125491]}},{"properties":{"city":"Scarborough","country":"United States","geo_score":0.857,"zip code":"04074","id":"ab84cn4xrpwc","geo_precision":"zip","state":"ME"},"type":"Feature","geometry":{"type":"Point","coordinates":[-70.397829,43.642026]}},{"properties":{"city":"Pittsburgh","country":"United States","geo_score":0.857,"zip code":"15238","id":"ab84cnec4zf2","geo_precision":"zip","state":"PA"},"type":"Feature","geometry":{"type":"Point","coordinates":[-79.888663,40.577012]}},{"properties":{"city":"Houston","country":"United States","geo_score":0.857,"zip code":"77019","id":"ab84cn86vxvr","geo_precision":"zip","state":"TX"},"type":"Feature","geometry":{"type":"Point","coordinates":[-95.434241,29.83399]}},{"properties":{"city":"Mamaroneck","country":"United States","geo_score":0.857,"zip code":"10543","id":"ab84cndd9g2l","geo_precision":"zip","state":"NY"},"type":"Feature","geometry":{"type":"Point","coordinates":[-73.738779,40.949199]}},{"properties":{"city":"Newton","country":"United States","geo_score":0.857,"zip code":"02459","id":"ab84cn3otq3z","geo_precision":"zip","state":"MA"},"type":"Feature","geometry":{"type":"Point","coordinates":[-71.183298,42.334146]}},{"properties":{"city":"North Canton","country":"United States","geo_score":0.857,"zip code":"44720","id":"ab84cn9rzlbf","geo_precision":"zip","state":"OH"},"type":"Feature","geometry":{"type":"Point","coordinates":[-81.433036,40.895607]}},{"properties":{"city":"Orchard Park","country":"United States","geo_score":0.857,"zip code":"14127","id":"ab84cn7yl8zu","geo_precision":"zip","state":"NY"},"type":"Feature","geometry":{"type":"Point","coordinates":[-78.704437,42.742541]}},{"properties":{"city":"Davidson","country":"United States","geo_score":0.714,"zip code":"28035","id":"ab84cnffeht4","geo_precision":"city","state":"NC"},"type":"Feature","geometry":{"type":"Point","coordinates":[-80.844594,35.283427]}},{"properties":{"city":"Denver","country":"United States","geo_score":0.857,"zip code":"80209","id":"ab84cngtt195","geo_precision":"zip","state":"CO"},"type":"Feature","geometry":{"type":"Point","coordinates":[-104.964236,39.707332]}},{"properties":{"city":"Kailua","country":"United States","geo_score":0.857,"zip code":"96734","id":"ab84cnir7db0","geo_precision":"zip","state":"HI"},"type":"Feature","geometry":{"type":"Point","coordinates":[-157.715833,21.391944]}},{"properties":{"city":"Aliso Viejo","country":"United States","geo_score":0.857,"zip code":"92656","id":"ab84cn6cqeut","geo_precision":"zip","state":"CA"},"type":"Feature","geometry":{"type":"Point","coordinates":[-117.751341,33.603459]}},{"properties":{"city":"Woodridge","country":"United States","geo_score":0.857,"zip code":"60517","id":"ab84cn9mkgpn","geo_precision":"zip","state":"IL"},"type":"Feature","geometry":{"type":"Point","coordinates":[-88.041731,41.736788]}},{"properties":{"city":"Cambria","country":"United States","geo_score":0.857,"zip code":"93428","id":"ab84cnixnixz","geo_precision":"zip","state":"CA"},"type":"Feature","geometry":{"type":"Point","coordinates":[-120.954454,35.587748]}},{"properties":{"city":"Camarillo","country":"United States","geo_score":0.857,"zip code":"93010","id":"ab84cndrnt3b","geo_precision":"zip","state":"CA"},"type":"Feature","geometry":{"type":"Point","coordinates":[-119.084253,34.307783]}},{"properties":{"city":"Gaithersburg","country":"United States","geo_score":0.857,"zip code":"20878","id":"ab84cn609g4s","geo_precision":"zip","state":"MD"},"type":"Feature","geometry":{"type":"Point","coordinates":[-77.252483,39.117886]}},{"properties":{"city":"Albuquerque","country":"United States","geo_score":0.857,"zip code":"87107","id":"ab84cn9k7w1p","geo_precision":"zip","state":"NM"},"type":"Feature","geometry":{"type":"Point","coordinates":[-106.638281,35.140444]}},{"properties":{"city":"Elmhurst","country":"United States","geo_score":0.857,"zip code":"60126","id":"ab84cn6wo74x","geo_precision":"zip","state":"IL"},"type":"Feature","geometry":{"type":"Point","coordinates":[-87.953954,41.93503]}},{"properties":{"city":"Franklin","country":"United States","geo_score":0.857,"zip code":"16323","id":"ab84cnh3azbq","geo_precision":"zip","state":"PA"},"type":"Feature","geometry":{"type":"Point","coordinates":[-79.896723,41.450334]}},{"properties":{"city":"Brisbane","country":"United States","geo_score":0.857,"zip code":"94005","id":"ab84cn4lp1lh","geo_precision":"zip","state":"CA"},"type":"Feature","geometry":{"type":"Point","coordinates":[-122.404332,37.689182]}},{"properties":{"city":"Collingswood","country":"United States","geo_score":0.857,"zip code":"08108","id":"ab84cnizwm8n","geo_precision":"zip","state":"NJ"},"type":"Feature","geometry":{"type":"Point","coordinates":[-74.991268,39.834003]}},{"properties":{"city":"Lee's Summit","country":"United States","geo_score":0.857,"zip code":"64086","id":"ab84cnb9ume2","geo_precision":"zip","state":"MO"},"type":"Feature","geometry":{"type":"Point","coordinates":[-94.288086,38.944006]}},{"properties":{"city":"Skokie","country":"United States","geo_score":0.857,"zip code":"60076","id":"ab84cn5rxyuc","geo_precision":"zip","state":"IL"},"type":"Feature","geometry":{"type":"Point","coordinates":[-87.883566,42.057878]}},{"properties":{"city":"Pittsburgh","country":"United States","geo_score":0.857,"zip code":"15221","id":"ab84cngc0eul","geo_precision":"zip","state":"PA"},"type":"Feature","geometry":{"type":"Point","coordinates":[-79.865049,40.417291]}},{"properties":{"city":"Hershey","country":"United States","geo_score":0.857,"zip code":"17033","id":"ab84cn973y8i","geo_precision":"zip","state":"PA"},"type":"Feature","geometry":{"type":"Point","coordinates":[-76.681914,40.290368]}},{"properties":{"city":"Saint Paul","country":"United States","geo_score":0.857,"zip code":"55105","id":"ab84cn8ev5fu","geo_precision":"zip","state":"MN"},"type":"Feature","geometry":{"type":"Point","coordinates":[-93.16097,44.934515]}},{"properties":{"city":"Mount Kisco","country":"United States","geo_score":0.857,"zip code":"10549","id":"ab84cn77v0jr","geo_precision":"zip","state":"NY"},"type":"Feature","geometry":{"type":"Point","coordinates":[-73.72286,41.197329]}},{"properties":{"city":"Albuquerque","country":"United States","geo_score":0.857,"zip code":"87122","id":"ab84cnck6jhb","geo_precision":"zip","state":"NM"},"type":"Feature","geometry":{"type":"Point","coordinates":[-106.5293,35.18531]}},{"properties":{"city":"Alexandria","country":"United States","geo_score":0.857,"zip code":"22307","id":"ab84cn4ur4ja","geo_precision":"zip","state":"VA"},"type":"Feature","geometry":{"type":"Point","coordinates":[-77.063033,38.785392]}},{"properties":{"city":"Nellysford","country":"United States","geo_score":0.857,"zip code":"22958","id":"ab84cna1s8k0","geo_precision":"zip","state":"VA"},"type":"Feature","geometry":{"type":"Point","coordinates":[-78.899467,37.884862]}},{"properties":{"city":"Oakland","country":"United States","geo_score":0.857,"zip code":"94618","id":"ab84cnh8k4sh","geo_precision":"zip","state":"CA"},"type":"Feature","geometry":{"type":"Point","coordinates":[-122.240179,37.843126]}},{"properties":{"city":"Phoenix","country":"United States","geo_score":0.857,"zip code":"21131","id":"ab84cnfzocab","geo_precision":"zip","state":"MD"},"type":"Feature","geometry":{"type":"Point","coordinates":[-76.546078,39.489551]}},{"properties":{"city":"Holland","country":"United States","geo_score":0.857,"zip code":"49424","id":"ab84cnezjq5x","geo_precision":"zip","state":"MI"},"type":"Feature","geometry":{"type":"Point","coordinates":[-86.121901,42.924578]}},{"properties":{"city":"Montclair","country":"United States","geo_score":0.857,"zip code":"07042","id":"ab84cnarq37w","geo_precision":"zip","state":"NJ"},"type":"Feature","geometry":{"type":"Point","coordinates":[-74.216389,40.811908]}},{"properties":{"city":"Ames","country":"United States","geo_score":0.857,"zip code":"50010","id":"ab84cngn425m","geo_precision":"zip","state":"IA"},"type":"Feature","geometry":{"type":"Point","coordinates":[-93.600254,42.037879]}},{"properties":{"city":"McLean","country":"United States","geo_score":0.857,"zip code":"22101","id":"ab84cnjdm3x8","geo_precision":"zip","state":"VA"},"type":"Feature","geometry":{"type":"Point","coordinates":[-77.18672,38.935202]}},{"properties":{"city":"Hasbrouck Heights","country":"United States","geo_score":0.857,"zip code":"07604","id":"ab84cnf5lk07","geo_precision":"zip","state":"NJ"},"type":"Feature","geometry":{"type":"Point","coordinates":[-74.075585,40.862349]}},{"properties":{"city":"Riverdale","country":"United States","geo_score":0.857,"zip code":"10471","id":"ab84cn9r9ieb","geo_precision":"zip","state":"NY"},"type":"Feature","geometry":{"type":"Point","coordinates":[-73.898677,40.899178]}},{"properties":{"city":"Downingtown","country":"United States","geo_score":0.857,"zip code":"19335","id":"ab84cndbkmpb","geo_precision":"zip","state":"PA"},"type":"Feature","geometry":{"type":"Point","coordinates":[-75.749663,40.037049]}},{"properties":{"city":"Seattle","country":"United States","geo_score":0.857,"zip code":"98102","id":"ab84cn5geeur","geo_precision":"zip","state":"WA"},"type":"Feature","geometry":{"type":"Point","coordinates":[-121.803388,47.432251]}},{"properties":{"city":"Mansfield","country":"United States","geo_score":0.857,"zip code":"02048","id":"ab84cni9x19w","geo_precision":"zip","state":"MA"},"type":"Feature","geometry":{"type":"Point","coordinates":[-71.24533,41.998155]}},{"properties":{"city":"Acton","country":"United States","geo_score":0.857,"zip code":"01720","id":"ab84cn4jmbai","geo_precision":"zip","state":"MA"},"type":"Feature","geometry":{"type":"Point","coordinates":[-71.409506,42.475093]}},{"properties":{"city":"Portland","country":"United States","geo_score":0.857,"zip code":"97214","id":"ab84cn3nvtij","geo_precision":"zip","state":"OR"},"type":"Feature","geometry":{"type":"Point","coordinates":[-122.660373,45.515396]}},{"properties":{"city":"St Louis","country":"United States","geo_score":0.857,"zip code":"63124","id":"ab84cnf4d72l","geo_precision":"zip","state":"MO"},"type":"Feature","geometry":{"type":"Point","coordinates":[-90.377566,38.637201]}},{"properties":{"city":"Burlington","country":"United States","geo_score":0.857,"zip code":"05401","id":"ab84cn7s6wki","geo_precision":"zip","state":"VT"},"type":"Feature","geometry":{"type":"Point","coordinates":[-73.151384,44.507404]}},{"properties":{"city":"Saint Paul","country":"United States","geo_score":0.857,"zip code":"55105","id":"ab84cnfwn0ej","geo_precision":"zip","state":"MN"},"type":"Feature","geometry":{"type":"Point","coordinates":[-93.16097,44.934515]}},{"properties":{"city":"Sterling","country":"United States","geo_score":0.857,"zip code":"20165","id":"ab84cnh54t76","geo_precision":"zip","state":"VA"},"type":"Feature","geometry":{"type":"Point","coordinates":[-77.386647,39.047157]}},{"properties":{"city":"Canandaigua","country":"United States","geo_score":0.857,"zip code":"14424","id":"ab84cngfmm4m","geo_precision":"zip","state":"NY"},"type":"Feature","geometry":{"type":"Point","coordinates":[-77.221924,42.94312]}},{"properties":{"city":"Bayside","country":"United States","geo_score":0.857,"zip code":"95524","id":"ab84cn5hcmdh","geo_precision":"zip","state":"CA"},"type":"Feature","geometry":{"type":"Point","coordinates":[-124.041746,40.823396]}},{"properties":{"city":"Oak Ridge","country":"United States","geo_score":0.857,"zip code":"37830","id":"ab84cn9t7tjr","geo_precision":"zip","state":"TN"},"type":"Feature","geometry":{"type":"Point","coordinates":[-84.202976,36.052579]}},{"properties":{"city":"Pune","country":"India","geo_score":0.571,"zip code":"411048","id":"ab84cngc8lbs","geo_precision":"city","state":null},"type":"Feature","geometry":{"type":"Point","coordinates":[-156.685833,20.882222]}},{"properties":{"city":"Fox Point","country":"United States","geo_score":0.857,"zip code":"53217","id":"ab84cn5ahi4a","geo_precision":"zip","state":"WI"},"type":"Feature","geometry":{"type":"Point","coordinates":[-87.933386,43.13446]}},{"properties":{"city":"Hyattsville","country":"United States","geo_score":0.857,"zip code":"20785","id":"ab84cn8b8r2z","geo_precision":"zip","state":"MD"},"type":"Feature","geometry":{"type":"Point","coordinates":[-76.879973,38.923723]}},{"properties":{"city":"Andover","country":"United States","geo_score":0.857,"zip code":"06232","id":"ab84cn91w039","geo_precision":"zip","state":"CT"},"type":"Feature","geometry":{"type":"Point","coordinates":[-72.374634,41.731847]}},{"properties":{"city":"Norwalk","country":"United States","geo_score":0.857,"zip code":"06853","id":"ab84cnjkow3i","geo_precision":"zip","state":"CT"},"type":"Feature","geometry":{"type":"Point","coordinates":[-73.436508,41.063986]}},{"properties":{"city":"Wausau","country":"United States","geo_score":0.857,"zip code":"54401","id":"ab84cngewx60","geo_precision":"zip","state":"WI"},"type":"Feature","geometry":{"type":"Point","coordinates":[-89.726791,44.951635]}},{"properties":{"city":"Stratford","country":"United States","geo_score":0.857,"zip code":"06614","id":"ab84cn9c00j5","geo_precision":"zip","state":"CT"},"type":"Feature","geometry":{"type":"Point","coordinates":[-73.130353,41.216006]}},{"properties":{"city":"Lincoln","country":"United States","geo_score":0.857,"zip code":"68516","id":"ab84cn3h6oxz","geo_precision":"zip","state":"NE"},"type":"Feature","geometry":{"type":"Point","coordinates":[-96.661769,40.777556]}},{"properties":{"city":"Cheltenham","country":"United States","geo_score":0.857,"zip code":"19012","id":"ab84cn4v4d41","geo_precision":"zip","state":"PA"},"type":"Feature","geometry":{"type":"Point","coordinates":[-75.131842,40.061778]}},{"properties":{"city":"APO","country":"United States","geo_score":0.0,"zip code":"09839","id":"ab84cndx0diu","geo_precision":"unmatched","state":"AE"},"type":"Feature","geometry":null},{"properties":{"city":"Holtsville","country":"United States","geo_score":0.857,"zip code":"11742","id":"ab84cnfk6bu9","geo_precision":"zip","state":"NY"},"type":"Feature","geometry":{"type":"Point","coordinates":[-73.048985,40.798994]}},{"properties":{"city":"Saint Peters","country":"United States","geo_score":0.857,"zip code":"63376","id":"ab84cn9k2q1u","geo_precision":"zip","state":"MO"},"type":"Feature","geometry":{"type":"Point","coordinates":[-90.661514,38.760608]}},{"properties":{"city":"Stamford","country":"United States","geo_score":0.857,"zip code":"06905","id":"ab84cnaipend","geo_precision":"zip","state":"CT"},"type":"Feature","geometry":{"type":"Point","coordinates":[-73.555679,41.066764]}},{"properties":{"city":"Damascus","country":"United States","geo_score":0.857,"zip code":"20872","id":"ab84cnd5sx5l","geo_precision":"zip","state":"MD"},"type":"Feature","geometry":{"type":"Point","coordinates":[-77.19776,39.317327]}},{"properties":{"city":"Kensington","country":"United States","geo_score":0.857,"zip code":"20895","id":"ab84cngk0l4j","geo_precision":"zip","state":"MD"},"type":"Feature","geometry":{"type":"Point","coordinates":[-77.062756,39.025387]}}],"is_temporal":false,"author":{"url":"","metadata":"","contact_name":"","contact_address":"","source":"","contact_phone":""},"source":"","pagination":{"sort":null,"start":0,"total":70,"limit":1000000},"state":"complete","tags":"","published":"2014-08-17T00:36:22-04:00","id":308915}