{"type":"FeatureCollection","data_type":"Dataset","url_type":null,"permissions":[{"permissions":{"download":true,"view":true},"group_id":"everyone"}],"classification":null,"title":"Revised CSV Data 01nc1102013","count":265,"stream_id":310431,"contributor":{"url":"http://geocommons.com/users/58319","name":"Nicholas.Casber"},"data_attributes":null,"calculation_params":null,"icon_link":null,"link":"http://geocommons.com/overlays/310431.json","extent":[-96.4851,40.7415,-90.3117,43.1999],"geometry_types":["point"],"unique_name":null,"name":"Revised CSV Data 01nc1102013","feature_count":265,"description":"","next_feature":null,"is_raster":false,"short_classification":"Y","stats":{"heat map score":{"max":10.0,"mean":3.31094339622641,"variance":2.95506918238994,"stdev":1.71903146637574,"median":3.0,"min":1.0}},"features":[{"properties":{"city":"Algona","zip":"50511","heat map score":2.0,"geo_score":0.854,"street":"2111 Highway 169 North","id":"abdu5o00e32b","geo_precision":"range","state":"IA"},"type":"Feature","geometry":{"type":"Point","coordinates":[-94.23632,43.084452]}},{"properties":{"city":"Altoona","zip":"50009","heat map score":7.2,"geo_score":0.935,"street":"803 8th St SW","id":"abdu5o4i8i2c","geo_precision":"range","state":"IA"},"type":"Feature","geometry":{"type":"Point","coordinates":[-93.472244,41.644161]}},{"properties":{"city":"Ankeny","zip":"50021","heat map score":3.0,"geo_score":1.0,"street":"1711 SE Oralabor Rd","id":"abdu5ocp1a2w","geo_precision":"range","state":"IA"},"type":"Feature","geometry":{"type":"Point","coordinates":[-93.588856,41.702881]}},{"properties":{"city":"Ankeny","zip":"50021","heat map score":3.4,"geo_score":0.979,"street":"1918 SE Hulsizer Road","id":"abdu5o7oqbok","geo_precision":"range","state":"IA"},"type":"Feature","geometry":{"type":"Point","coordinates":[-93.586117,41.710589]}},{"properties":{"city":"Ankeny","zip":"50021","heat map score":5.8,"geo_score":0.6,"street":"3110 S.E. Delaware Avenue","id":"abdu5o4h9dvp","geo_precision":"street","state":"IA"},"type":"Feature","geometry":{"type":"Point","coordinates":[-93.58107,41.73188]}},{"properties":{"city":"Ankeny","zip":"50021","heat map score":1.0,"geo_score":1.0,"street":"3401 SE Convenience Blvd","id":"abdu5odhwgg2","geo_precision":"range","state":"IA"},"type":"Feature","geometry":{"type":"Point","coordinates":[-93.572808,41.700131]}},{"properties":{"city":"Ankeny","zip":"50021","heat map score":2.0,"geo_score":0.7,"street":"One Sysco Drive","id":"abdu5o9s0kps","geo_precision":"street","state":"IA"},"type":"Feature","geometry":{"type":"Point","coordinates":[-93.600353,41.731843]}},{"properties":{"city":"Bettendorf","zip":"52722","heat map score":2.0,"geo_score":1.0,"street":"1423 Hillside Drive","id":"abdu5ocwzoiq","geo_precision":"range","state":"IA"},"type":"Feature","geometry":{"type":"Point","coordinates":[-90.511686,41.551402]}},{"properties":{"city":"Bettendorf","zip":"52722","heat map score":2.0,"geo_score":1.0,"street":"1620 Lincoln Road","id":"abdu5oelckfl","geo_precision":"range","state":"IA"},"type":"Feature","geometry":{"type":"Point","coordinates":[-90.512784,41.536779]}},{"properties":{"city":"Bettendorf","zip":"52722","heat map score":3.4,"geo_score":1.0,"street":"2030 Middle Road","id":"abdu5o4pzy4x","geo_precision":"range","state":"IA"},"type":"Feature","geometry":{"type":"Point","coordinates":[-90.503312,41.545356]}},{"properties":{"city":"Bettendorf","zip":"52722","heat map score":7.2,"geo_score":0.875,"street":"2732 62nd Street Court","id":"abdu5o00ck76","geo_precision":"range","state":"IA"},"type":"Feature","geometry":{"type":"Point","coordinates":[-90.446685,41.551324]}},{"properties":{"city":"Bettendorf","zip":"52722","heat map score":2.0,"geo_score":0.927,"street":"3223 South Hampton","id":"abdu5o5hzlb8","geo_precision":"range","state":"IA"},"type":"Feature","geometry":{"type":"Point","coordinates":[-90.504349,41.555824]}},{"properties":{"city":"Bettendorf","zip":"52722","heat map score":3.4,"geo_score":0.916,"street":"3333 18th Street","id":"abdu5nzf34q5","geo_precision":"range","state":"IA"},"type":"Feature","geometry":{"type":"Point","coordinates":[-90.499218,41.55576]}},{"properties":{"city":"Bettendorf","zip":"52722","heat map score":3.0,"geo_score":0.916,"street":"423 33rd Street","id":"abdu5ocr1vi1","geo_precision":"range","state":"IA"},"type":"Feature","geometry":{"type":"Point","coordinates":[-90.486904,41.526135]}},{"properties":{"city":"Bettendorf","zip":"52722","heat map score":2.0,"geo_score":0.878,"street":"604 Belmont Road","id":"abdu5ob855q5","geo_precision":"range","state":"IA"},"type":"Feature","geometry":{"type":"Point","coordinates":[-90.458559,41.550247]}},{"properties":{"city":"Bettendorf","zip":"52722","heat map score":2.0,"geo_score":0.902,"street":"610 Holmes","id":"abdu5oah0z3o","geo_precision":"range","state":"IA"},"type":"Feature","geometry":{"type":"Point","coordinates":[-90.524327,41.528332]}},{"properties":{"city":"Bettendorf","zip":"52722","heat map score":2.0,"geo_score":1.0,"street":"6333 Crow Creek Road","id":"abdu5nzqecl7","geo_precision":"range","state":"IA"},"type":"Feature","geometry":{"type":"Point","coordinates":[-90.451509,41.568219]}},{"properties":{"city":"Charles City","zip":"50616","heat map score":3.4,"geo_score":0.916,"street":"800 11th Street","id":"abdu5o2idshf","geo_precision":"range","state":"IA"},"type":"Feature","geometry":{"type":"Point","coordinates":[-92.682492,43.052656]}},{"properties":{"city":"Clarinda","zip":"51632","heat map score":3.0,"geo_score":0.659,"street":"1100 A North 1st Street","id":"abdu5o3i5fj2","geo_precision":"street","state":"IA"},"type":"Feature","geometry":{"type":"Point","coordinates":[-95.018166,40.741476]}},{"properties":{"city":"Council Bluffs","zip":"51503","heat map score":5.8,"geo_score":0.854,"street":"1023 4th St","id":"abdu5o7mpovk","geo_precision":"range","state":"IA"},"type":"Feature","geometry":{"type":"Point","coordinates":[-95.850587,41.251712]}},{"properties":{"city":"Council Bluffs","zip":"51501","heat map score":7.2,"geo_score":0.935,"street":"2100 S 35th St","id":"abdu5o43lu1e","geo_precision":"range","state":"IA"},"type":"Feature","geometry":{"type":"Point","coordinates":[-95.899495,41.242869]}},{"properties":{"city":"Council Bluffs","zip":"51501","heat map score":7.2,"geo_score":0.916,"street":"2601 Ninth  Ave","id":"abdu5o3aj0ds","geo_precision":"range","state":"IA"},"type":"Feature","geometry":{"type":"Point","coordinates":[-95.886772,41.253603]}},{"properties":{"city":"Davenport","zip":"52806","heat map score":2.0,"geo_score":0.935,"street":"100 W 76th St","id":"abdu5nzsb0x7","geo_precision":"range","state":"IA"},"type":"Feature","geometry":{"type":"Point","coordinates":[-90.575334,41.593998]}},{"properties":{"city":"Davenport","zip":"52801","heat map score":3.4,"geo_score":0.89,"street":"111 E  2nd St","id":"abdu5o0fovpk","geo_precision":"range","state":"IA"},"type":"Feature","geometry":{"type":"Point","coordinates":[-90.572743,41.521248]}},{"properties":{"city":"Davenport","zip":"52303","heat map score":4.4,"geo_score":0.837,"street":"1175 E 90th St","id":"abdu5o87gumu","geo_precision":"range","state":"IA"},"type":"Feature","geometry":{"type":"Point","coordinates":[-90.561197,41.610898]}},{"properties":{"city":"Davenport","zip":"52801","heat map score":3.4,"geo_score":0.927,"street":"131 E 4th Street","id":"abdu5o2r7jj7","geo_precision":"range","state":"IA"},"type":"Feature","geometry":{"type":"Point","coordinates":[-90.572947,41.523442]}},{"properties":{"city":"Davenport","zip":"52802","heat map score":4.4,"geo_score":0.927,"street":"1337 W 2nd St","id":"abdu5o6ccsn5","geo_precision":"range","state":"IA"},"type":"Feature","geometry":{"type":"Point","coordinates":[-90.592513,41.52122]}},{"properties":{"city":"Davenport","zip":"52804","heat map score":2.0,"geo_score":0.935,"street":"1717 West 12th Street","id":"abdu5o6ak543","geo_precision":"range","state":"IA"},"type":"Feature","geometry":{"type":"Point","coordinates":[-90.60208,41.531821]}},{"properties":{"city":"Davenport","zip":"52808","heat map score":4.4,"geo_score":0.805,"street":"1718 S Concord St","id":"abdu5oc8jnu2","geo_precision":"range","state":"IA"},"type":"Feature","geometry":{"type":"Point","coordinates":[-90.623942,41.501307]}},{"properties":{"city":"Davenport","zip":"52802","heat map score":3.0,"geo_score":0.805,"street":"1804 Stark St","id":"abdu5oegno83","geo_precision":"street","state":"IA"},"type":"Feature","geometry":{"type":"Point","coordinates":[-90.634243,41.508202]}},{"properties":{"city":"Davenport","zip":"52807","heat map score":6.2,"geo_score":1.0,"street":"1823 E Kimberly Road","id":"abdu5o51bkl9","geo_precision":"range","state":"IA"},"type":"Feature","geometry":{"type":"Point","coordinates":[-90.549353,41.556718]}},{"properties":{"city":"Davenport","zip":"52802","heat map score":2.4,"geo_score":1.0,"street":"1924 Comenitz Dr","id":"abdu5o6ekubu","geo_precision":"range","state":"IA"},"type":"Feature","geometry":{"type":"Point","coordinates":[-90.640905,41.50102]}},{"properties":{"city":"Davenport","zip":"52803","heat map score":2.0,"geo_score":0.74,"street":"1950 East 54th St","id":"abdu5od7s6zj","geo_precision":"range","state":"IA"},"type":"Feature","geometry":{"type":"Point","coordinates":[-90.549145,41.576752]}},{"properties":{"city":"Davenport","zip":"52803","heat map score":2.0,"geo_score":1.0,"street":"2015 Ripley St","id":"abdu5nzech2z","geo_precision":"range","state":"IA"},"type":"Feature","geometry":{"type":"Point","coordinates":[-90.578433,41.540273]}},{"properties":{"city":"Davenport","zip":"52801","heat map score":2.0,"geo_score":0.927,"street":"328 W 3rd Street","id":"abdu5o1v6h79","geo_precision":"range","state":"IA"},"type":"Feature","geometry":{"type":"Point","coordinates":[-90.578184,41.522518]}},{"properties":{"city":"Davenport","zip":"52801","heat map score":3.0,"geo_score":0.927,"street":"500 E 3rd Street","id":"abdu5o2ib1os","geo_precision":"range","state":"IA"},"type":"Feature","geometry":{"type":"Point","coordinates":[-90.565844,41.522383]}},{"properties":{"city":"Davenport","zip":"52806","heat map score":2.0,"geo_score":1.0,"street":"5003 N Brady St","id":"abdu5o07gb03","geo_precision":"range","state":"IA"},"type":"Feature","geometry":{"type":"Point","coordinates":[-90.568744,41.57144]}},{"properties":{"city":"Davenport","zip":"52803","heat map score":3.4,"geo_score":0.92,"street":"518 W Locust","id":"abdu5o3midsc","geo_precision":"range","state":"IA"},"type":"Feature","geometry":{"type":"Point","coordinates":[-90.582609,41.538354]}},{"properties":{"city":"Davenport","zip":"52803","heat map score":2.0,"geo_score":0.92,"street":"518 W Locust","id":"abdu5o7qf8qt","geo_precision":"range","state":"IA"},"type":"Feature","geometry":{"type":"Point","coordinates":[-90.582609,41.538354]}},{"properties":{"city":"Davenport","zip":"52803","heat map score":2.0,"geo_score":0.92,"street":"518 W Locust","id":"abdu5oewzvfh","geo_precision":"range","state":"IA"},"type":"Feature","geometry":{"type":"Point","coordinates":[-90.582609,41.538354]}},{"properties":{"city":"Davenport","zip":"52803","heat map score":2.0,"geo_score":0.92,"street":"518 W Locust","id":"abdu5oceohd2","geo_precision":"range","state":"IA"},"type":"Feature","geometry":{"type":"Point","coordinates":[-90.582609,41.538354]}},{"properties":{"city":"Davenport","zip":"52803","heat map score":2.0,"geo_score":0.92,"street":"518 W Locust","id":"abdu5oe1a59m","geo_precision":"range","state":"IA"},"type":"Feature","geometry":{"type":"Point","coordinates":[-90.582609,41.538354]}},{"properties":{"city":"Davenport","zip":"52803","heat map score":2.0,"geo_score":0.92,"street":"518 W Locust","id":"abdu5o0eiplu","geo_precision":"range","state":"IA"},"type":"Feature","geometry":{"type":"Point","coordinates":[-90.582609,41.538354]}},{"properties":{"city":"Davenport","zip":"52806","heat map score":7.2,"geo_score":1.0,"street":"7001 N Brady Street","id":"abdu5o4b0zus","geo_precision":"range","state":"IA"},"type":"Feature","geometry":{"type":"Point","coordinates":[-90.570923,41.588542]}},{"properties":{"city":"Davenport","zip":"52806","heat map score":2.0,"geo_score":0.808,"street":"8228 N Fairmount Street","id":"abdu5nzrqb5l","geo_precision":"street","state":"IA"},"type":"Feature","geometry":{"type":"Point","coordinates":[-90.629987,41.603593]}},{"properties":{"city":"Davenport","zip":"52804","heat map score":2.0,"geo_score":1.0,"street":"8500 Hillandale Road","id":"abdu5o27q6fm","geo_precision":"range","state":"IA"},"type":"Feature","geometry":{"type":"Point","coordinates":[-90.617477,41.608273]}},{"properties":{"city":"Des Moines","zip":"50319","heat map score":3.4,"geo_score":0.746,"street":"109 SE 13th Street","id":"abdu5of81216","geo_precision":"range","state":"IA"},"type":"Feature","geometry":{"type":"Point","coordinates":[-93.598944,41.58793]}},{"properties":{"city":"Des Moines","zip":"50319","heat map score":3.4,"geo_score":0.746,"street":"109 SE 13th Street","id":"abdu5o8lamxa","geo_precision":"range","state":"IA"},"type":"Feature","geometry":{"type":"Point","coordinates":[-93.598944,41.58793]}},{"properties":{"city":"Des Moines","zip":"50319","heat map score":2.0,"geo_score":0.746,"street":"109 SE 13th Street","id":"abdu5o1uuchy","geo_precision":"range","state":"IA"},"type":"Feature","geometry":{"type":"Point","coordinates":[-93.598944,41.58793]}},{"properties":{"city":"Des Moines","zip":"50319","heat map score":2.0,"geo_score":0.746,"street":"109 SE 13th Street","id":"abdu5o39f7gd","geo_precision":"range","state":"IA"},"type":"Feature","geometry":{"type":"Point","coordinates":[-93.598944,41.58793]}},{"properties":{"city":"Des Moines","zip":"50319","heat map score":2.0,"geo_score":0.746,"street":"109 SE 13th Street","id":"abdu5nzp3y96","geo_precision":"range","state":"IA"},"type":"Feature","geometry":{"type":"Point","coordinates":[-93.598944,41.58793]}},{"properties":{"city":"Des Moines","zip":"50319","heat map score":2.0,"geo_score":0.746,"street":"109 SE 13th Street","id":"abdu5o0bhinf","geo_precision":"range","state":"IA"},"type":"Feature","geometry":{"type":"Point","coordinates":[-93.598944,41.58793]}},{"properties":{"city":"Des Moines","zip":"50319","heat map score":2.0,"geo_score":0.746,"street":"109 SE 13th Street","id":"abdu5odwfpv6","geo_precision":"range","state":"IA"},"type":"Feature","geometry":{"type":"Point","coordinates":[-93.598944,41.58793]}},{"properties":{"city":"Des Moines","zip":"50319","heat map score":2.0,"geo_score":0.746,"street":"109 SE 13th Street","id":"abdu5o1x8h3u","geo_precision":"range","state":"IA"},"type":"Feature","geometry":{"type":"Point","coordinates":[-93.598944,41.58793]}},{"properties":{"city":"Des Moines","zip":"50319","heat map score":2.0,"geo_score":0.746,"street":"109 SE 13th Street","id":"abdu5o65qwlf","geo_precision":"range","state":"IA"},"type":"Feature","geometry":{"type":"Point","coordinates":[-93.598944,41.58793]}},{"properties":{"city":"Des Moines","zip":"50319","heat map score":2.0,"geo_score":0.746,"street":"109 SE 13th Street","id":"abdu5nzo0dgm","geo_precision":"range","state":"IA"},"type":"Feature","geometry":{"type":"Point","coordinates":[-93.598944,41.58793]}},{"properties":{"city":"Des Moines","zip":"50314","heat map score":2.0,"geo_score":0.902,"street":"1100 7th Street","id":"abdu5o22xm6r","geo_precision":"range","state":"IA"},"type":"Feature","geometry":{"type":"Point","coordinates":[-93.626926,41.597894]}},{"properties":{"city":"Des Moines","zip":"50315","heat map score":2.0,"geo_score":0.883,"street":"1111 Porter","id":"abdu5oc23hue","geo_precision":"range","state":"IA"},"type":"Feature","geometry":{"type":"Point","coordinates":[-93.628015,41.533811]}},{"properties":{"city":"Des Moines","zip":"50265","heat map score":6.2,"geo_score":0.724,"street":"1111 Sixth Avenue","id":"abdu5o04ofvk","geo_precision":"range","state":"IA"},"type":"Feature","geometry":{"type":"Point","coordinates":[-93.709906,41.586826]}},{"properties":{"city":"Des Moines","zip":"50309","heat map score":4.8,"geo_score":1.0,"street":"1200 Pleasant Street","id":"abdu5ocwc4l0","geo_precision":"range","state":"IA"},"type":"Feature","geometry":{"type":"Point","coordinates":[-93.636586,41.58986]}},{"properties":{"city":"Des Moines","zip":"50309","heat map score":2.0,"geo_score":1.0,"street":"123 E Walnut St","id":"abdu5o0wmok5","geo_precision":"range","state":"IA"},"type":"Feature","geometry":{"type":"Point","coordinates":[-93.614969,41.587819]}},{"properties":{"city":"Des Moines","zip":"50319","heat map score":3.4,"geo_score":0.805,"street":"1305 E Walnut St","id":"abdu5oaugngl","geo_precision":"range","state":"IA"},"type":"Feature","geometry":{"type":"Point","coordinates":[-93.598346,41.590961]}},{"properties":{"city":"Des Moines","zip":"50313","heat map score":7.2,"geo_score":1.0,"street":"1650 E Madison Ave","id":"abdu5oed6bzv","geo_precision":"range","state":"IA"},"type":"Feature","geometry":{"type":"Point","coordinates":[-93.594248,41.633179]}},{"properties":{"city":"Des Moines","zip":"50309","heat map score":3.4,"geo_score":1.0,"street":"1716 Locust Street","id":"abdu5o3lkc1z","geo_precision":"range","state":"IA"},"type":"Feature","geometry":{"type":"Point","coordinates":[-93.639473,41.583679]}},{"properties":{"city":"Des Moines","zip":"50309","heat map score":2.0,"geo_score":1.0,"street":"210 Walnut St","id":"abdu5o2870zh","geo_precision":"range","state":"IA"},"type":"Feature","geometry":{"type":"Point","coordinates":[-93.620819,41.586622]}},{"properties":{"city":"Des Moines","zip":"50313","heat map score":2.0,"geo_score":0.947,"street":"2115 NE 58th Avenue","id":"abdu5o9uphix","geo_precision":"range","state":"IA"},"type":"Feature","geometry":{"type":"Point","coordinates":[-93.586958,41.665899]}},{"properties":{"city":"Des Moines","zip":"50319","heat map score":2.0,"geo_score":0.732,"street":"215 E 7th Street","id":"abdu5o5pu6qu","geo_precision":"range","state":"IA"},"type":"Feature","geometry":{"type":"Point","coordinates":[-93.607899,41.588942]}},{"properties":{"city":"Des Moines","zip":"50317","heat map score":5.8,"geo_score":1.0,"street":"2345 E Market St","id":"abdu5o9eze0j","geo_precision":"range","state":"IA"},"type":"Feature","geometry":{"type":"Point","coordinates":[-93.577752,41.586784]}},{"properties":{"city":"Des Moines","zip":"50321","heat map score":2.0,"geo_score":1.0,"street":"2633 Fleur Drive","id":"abdu5obp1eyg","geo_precision":"range","state":"IA"},"type":"Feature","geometry":{"type":"Point","coordinates":[-93.644858,41.562165]}},{"properties":{"city":"Des Moines","zip":"50327","heat map score":3.4,"geo_score":0.691,"street":"300 E Locust Suite 100","id":"abdu5o8vtzkg","geo_precision":"range","state":"IA"},"type":"Feature","geometry":{"type":"Point","coordinates":[-93.613093,41.589337]}},{"properties":{"city":"Des Moines","zip":"50321","heat map score":2.0,"geo_score":1.0,"street":"3131 Fleur Drive, Unit 105","id":"abdu5o7tj4q3","geo_precision":"street","state":"IA"},"type":"Feature","geometry":{"type":"Point","coordinates":[-93.644812,41.576129]}},{"properties":{"city":"Des Moines","zip":"50312","heat map score":2.0,"geo_score":0.878,"street":"3200 Grand Ave","id":"abdu5o0iuwse","geo_precision":"street","state":"IA"},"type":"Feature","geometry":{"type":"Point","coordinates":[-93.659679,41.584438]}},{"properties":{"city":"Des Moines","zip":"50310","heat map score":2.0,"geo_score":0.916,"street":"3600 30th St","id":"abdu5oeyspwr","geo_precision":"range","state":"IA"},"type":"Feature","geometry":{"type":"Point","coordinates":[-93.658816,41.627753]}},{"properties":{"city":"Des Moines","zip":"50322","heat map score":3.0,"geo_score":0.912,"street":"3825 106th Street","id":"abdu5oa86en7","geo_precision":"range","state":"IA"},"type":"Feature","geometry":{"type":"Point","coordinates":[-93.762914,41.634107]}},{"properties":{"city":"Des Moines","zip":"50322","heat map score":3.0,"geo_score":0.912,"street":"3825 106th Street","id":"abdu5o2tyzc9","geo_precision":"range","state":"IA"},"type":"Feature","geometry":{"type":"Point","coordinates":[-93.762914,41.634107]}},{"properties":{"city":"Des Moines","zip":"50312","heat map score":2.0,"geo_score":0.685,"street":"4700 Grand Avenue","id":"abdu5o9y2kgg","geo_precision":"street","state":"IA"},"type":"Feature","geometry":{"type":"Point","coordinates":[-93.680366,41.584809]}},{"properties":{"city":"Des Moines","zip":"50321","heat map score":2.0,"geo_score":1.0,"street":"5800 Fleur Drive, Room 201","id":"abdu5nzd0ya8","geo_precision":"street","state":"IA"},"type":"Feature","geometry":{"type":"Point","coordinates":[-93.644812,41.576129]}},{"properties":{"city":"Des Moines","zip":"50309","heat map score":4.8,"geo_score":1.0,"street":"601 Locust Street","id":"abdu5o50hn8r","geo_precision":"range","state":"IA"},"type":"Feature","geometry":{"type":"Point","coordinates":[-93.626184,41.586574]}},{"properties":{"city":"Des Moines","zip":"50309","heat map score":6.2,"geo_score":1.0,"street":"666 Grand Avenue","id":"abdu5nznjarq","geo_precision":"range","state":"IA"},"type":"Feature","geometry":{"type":"Point","coordinates":[-93.625344,41.587745]}},{"properties":{"city":"Des Moines","zip":"50309","heat map score":4.8,"geo_score":0.805,"street":"700 East University Avenue","id":"abdu5o5ws554","geo_precision":"range","state":"IA"},"type":"Feature","geometry":{"type":"Point","coordinates":[-93.610176,41.600373]}},{"properties":{"city":"Des Moines","zip":"50309","heat map score":3.4,"geo_score":0.902,"street":"710 9th Street","id":"abdu5o2834fk","geo_precision":"range","state":"IA"},"type":"Feature","geometry":{"type":"Point","coordinates":[-93.629665,41.589645]}},{"properties":{"city":"Des Moines","zip":"50309","heat map score":6.2,"geo_score":0.451,"street":"711 High Street","id":"abdu5o46lbzp","geo_precision":"street","state":"IA"},"type":"Feature","geometry":{"type":"Point","coordinates":[-93.632807,41.53113]}},{"properties":{"city":"Des Moines","zip":"50309","heat map score":2.0,"geo_score":1.0,"street":"801 Park Street","id":"abdu5o8jo0p7","geo_precision":"range","state":"IA"},"type":"Feature","geometry":{"type":"Point","coordinates":[-93.628529,41.589832]}},{"properties":{"city":"Eagle Grove","zip":"50533","heat map score":7.2,"geo_score":1.0,"street":"220 N Lucas Avenue","id":"abdu5o6144xc","geo_precision":"range","state":"IA"},"type":"Feature","geometry":{"type":"Point","coordinates":[-93.902979,42.666067]}},{"properties":{"city":"Earlham","zip":"50072","heat map score":3.4,"geo_score":0.916,"street":"535 N Chestnut","id":"abdu5of0y4c8","geo_precision":"range","state":"IA"},"type":"Feature","geometry":{"type":"Point","coordinates":[-94.123074,41.495017]}},{"properties":{"city":"East Moline","zip":"61244","heat map score":4.4,"geo_score":0.902,"street":"1400 3rd Street","id":"abdu5odbfwbp","geo_precision":"range","state":"IL"},"type":"Feature","geometry":{"type":"Point","coordinates":[-90.455058,41.515551]}},{"properties":{"city":"East Moline","zip":"61244","heat map score":3.0,"geo_score":0.902,"street":"1400 3rd Street","id":"abdu5o0jt7oj","geo_precision":"range","state":"IL"},"type":"Feature","geometry":{"type":"Point","coordinates":[-90.455058,41.515551]}},{"properties":{"city":"East Moline","zip":"61244","heat map score":2.4,"geo_score":0.916,"street":"2116 8th Ave","id":"abdu5o2wrtjx","geo_precision":"range","state":"IL"},"type":"Feature","geometry":{"type":"Point","coordinates":[-90.421721,41.522225]}},{"properties":{"city":"Eldridge","zip":"52748","heat map score":2.0,"geo_score":0.857,"street":"950 E. Blackhawk Trail","id":"abdu5nzcjd11","geo_precision":"zip","state":"IA"},"type":"Feature","geometry":{"type":"Point","coordinates":[-90.564348,41.59972]}},{"properties":{"city":"Emmetsburg","zip":"50536","heat map score":3.4,"geo_score":1.0,"street":"3200 College Drive","id":"abdu5o0jne5z","geo_precision":"range","state":"IA"},"type":"Feature","geometry":{"type":"Point","coordinates":[-94.691311,43.126408]}},{"properties":{"city":"Emmetsburg","zip":"50536","heat map score":2.0,"geo_score":1.0,"street":"3200 College Drive","id":"abdu5oajwo0c","geo_precision":"range","state":"IA"},"type":"Feature","geometry":{"type":"Point","coordinates":[-94.691311,43.126408]}},{"properties":{"city":"Emmetsburg","zip":"50536","heat map score":2.0,"geo_score":1.0,"street":"3200 College Drive","id":"abdu5odxbe2k","geo_precision":"range","state":"IA"},"type":"Feature","geometry":{"type":"Point","coordinates":[-94.691311,43.126408]}},{"properties":{"city":"Emmetsburg","zip":"50536","heat map score":3.0,"geo_score":1.0,"street":"4739 380th Street","id":"abdu5o894cfz","geo_precision":"range","state":"IA"},"type":"Feature","geometry":{"type":"Point","coordinates":[-94.652816,43.097479]}},{"properties":{"city":"Fort Dodge","zip":"50501","heat map score":2.0,"geo_score":0.905,"street":"3584 5th Avenue South, PO Box 915","id":"abdu5o79rfeo","geo_precision":"street","state":"IA"},"type":"Feature","geometry":{"type":"Point","coordinates":[-94.182643,42.500999]}},{"properties":{"city":"Fort Dodge","zip":"50501","heat map score":5.8,"geo_score":0.837,"street":"800 Fifth Street NW","id":"abdu5o5s369o","geo_precision":"street","state":"IA"},"type":"Feature","geometry":{"type":"Point","coordinates":[-94.207295,42.521707]}},{"properties":{"city":"Fort Dodge","zip":"50501","heat map score":4.4,"geo_score":0.837,"street":"800 Fifth Street NW","id":"abdu5o7qegfw","geo_precision":"street","state":"IA"},"type":"Feature","geometry":{"type":"Point","coordinates":[-94.207295,42.521707]}},{"properties":{"city":"Hampton","zip":"50441","heat map score":2.0,"geo_score":0.947,"street":"101 12th Avenue NW","id":"abdu5o71zl5x","geo_precision":"range","state":"IA"},"type":"Feature","geometry":{"type":"Point","coordinates":[-93.209375,42.75264]}},{"properties":{"city":"Hampton","zip":"50441","heat map score":4.4,"geo_score":0.61,"street":"1280 Imperial Road, PO Box 536","id":"abdu5o7d62rj","geo_precision":"street","state":"IA"},"type":"Feature","geometry":{"type":"Point","coordinates":[-93.22804,42.724154]}},{"properties":{"city":"Hampton","zip":"50441","heat map score":4.4,"geo_score":0.935,"street":"712 1st Street NW","id":"abdu5odv1o2t","geo_precision":"range","state":"IA"},"type":"Feature","geometry":{"type":"Point","coordinates":[-93.208736,42.748651]}},{"properties":{"city":"Humboldt","zip":"50548","heat map score":4.4,"geo_score":0.935,"street":"1303 13th St North","id":"abdu5odr734o","geo_precision":"range","state":"IA"},"type":"Feature","geometry":{"type":"Point","coordinates":[-94.227069,42.736224]}},{"properties":{"city":"Humboldt","zip":"50548","heat map score":4.4,"geo_score":0.743,"street":"2512 Lincoln Ave., PO Box 69","id":"abdu5o32jnug","geo_precision":"street","state":"IA"},"type":"Feature","geometry":{"type":"Point","coordinates":[-94.36506,42.690279]}},{"properties":{"city":"Iowa City","zip":"52243","heat map score":3.4,"geo_score":0.526,"street":"101 ACT Drive","id":"abdu5o8ecjy5","geo_precision":"street","state":"IA"},"type":"Feature","geometry":{"type":"Point","coordinates":[-91.505701,41.684467]}},{"properties":{"city":"Iowa City","zip":"52240","heat map score":2.0,"geo_score":0.721,"street":"1200 S Riverside Drive","id":"abdu5oe60pbo","geo_precision":"street","state":"IA"},"type":"Feature","geometry":{"type":"Point","coordinates":[-91.540822,41.655065]}},{"properties":{"city":"Iowa City","zip":"52240","heat map score":3.4,"geo_score":1.0,"street":"123 S Linn Street","id":"abdu5o7qjwr2","geo_precision":"range","state":"IA"},"type":"Feature","geometry":{"type":"Point","coordinates":[-91.531731,41.659214]}},{"properties":{"city":"Iowa City","zip":"52240","heat map score":4.4,"geo_score":1.0,"street":"1832 Lower Muscatine Road","id":"abdu5nztue69","geo_precision":"range","state":"IA"},"type":"Feature","geometry":{"type":"Point","coordinates":[-91.508988,41.644307]}},{"properties":{"city":"Iowa City","zip":"52243","heat map score":3.4,"geo_score":0.526,"street":"200 ACT Drive","id":"abdu5oajb120","geo_precision":"street","state":"IA"},"type":"Feature","geometry":{"type":"Point","coordinates":[-91.505701,41.684467]}},{"properties":{"city":"Iowa City","zip":"52242","heat map score":6.2,"geo_score":0.585,"street":"200 University Services Building","id":"abdu5o3it2lo","geo_precision":"zip","state":"IA"},"type":"Feature","geometry":{"type":"Point","coordinates":[-91.555328,41.733924]}},{"properties":{"city":"Iowa City","zip":"52242","heat map score":6.2,"geo_score":0.585,"street":"200 University Services Building","id":"abdu5o0xurkf","geo_precision":"zip","state":"IA"},"type":"Feature","geometry":{"type":"Point","coordinates":[-91.555328,41.733924]}},{"properties":{"city":"Iowa City","zip":"52242","heat map score":4.8,"geo_score":0.585,"street":"200 University Services Building","id":"abdu5nz0hcqw","geo_precision":"zip","state":"IA"},"type":"Feature","geometry":{"type":"Point","coordinates":[-91.555328,41.733924]}},{"properties":{"city":"Iowa City","zip":"52242","heat map score":4.8,"geo_score":0.585,"street":"200 University Services Building","id":"abdu5o7bsqnw","geo_precision":"zip","state":"IA"},"type":"Feature","geometry":{"type":"Point","coordinates":[-91.555328,41.733924]}},{"properties":{"city":"Iowa City","zip":"52242","heat map score":4.8,"geo_score":0.585,"street":"200 University Services Building","id":"abdu5ochn7sv","geo_precision":"zip","state":"IA"},"type":"Feature","geometry":{"type":"Point","coordinates":[-91.555328,41.733924]}},{"properties":{"city":"Iowa City","zip":"52242","heat map score":3.4,"geo_score":0.585,"street":"200 University Services Building","id":"abdu5oejuyqg","geo_precision":"zip","state":"IA"},"type":"Feature","geometry":{"type":"Point","coordinates":[-91.555328,41.733924]}},{"properties":{"city":"Iowa City","zip":"52242","heat map score":3.4,"geo_score":0.585,"street":"200 University Services Building","id":"abdu5o1u1r8l","geo_precision":"zip","state":"IA"},"type":"Feature","geometry":{"type":"Point","coordinates":[-91.555328,41.733924]}},{"properties":{"city":"Iowa City","zip":"52242","heat map score":3.4,"geo_score":0.585,"street":"200 University Services Building","id":"abdu5offsg69","geo_precision":"zip","state":"IA"},"type":"Feature","geometry":{"type":"Point","coordinates":[-91.555328,41.733924]}},{"properties":{"city":"Iowa City","zip":"52242","heat map score":3.4,"geo_score":0.585,"street":"200 University Services Building","id":"abdu5o4rd75g","geo_precision":"zip","state":"IA"},"type":"Feature","geometry":{"type":"Point","coordinates":[-91.555328,41.733924]}},{"properties":{"city":"Iowa City","zip":"52242","heat map score":3.4,"geo_score":0.585,"street":"200 University Services Building","id":"abdu5nzlvek3","geo_precision":"zip","state":"IA"},"type":"Feature","geometry":{"type":"Point","coordinates":[-91.555328,41.733924]}},{"properties":{"city":"Iowa City","zip":"52242","heat map score":2.0,"geo_score":0.585,"street":"200 University Services Building","id":"abdu5oe11rv6","geo_precision":"zip","state":"IA"},"type":"Feature","geometry":{"type":"Point","coordinates":[-91.555328,41.733924]}},{"properties":{"city":"Iowa City","zip":"52242","heat map score":2.0,"geo_score":0.585,"street":"200 University Services Building","id":"abdu5o7dv8p1","geo_precision":"zip","state":"IA"},"type":"Feature","geometry":{"type":"Point","coordinates":[-91.555328,41.733924]}},{"properties":{"city":"Iowa City","zip":"52242","heat map score":2.0,"geo_score":0.585,"street":"200 University Services Building","id":"abdu5o8rf2b3","geo_precision":"zip","state":"IA"},"type":"Feature","geometry":{"type":"Point","coordinates":[-91.555328,41.733924]}},{"properties":{"city":"Iowa City","zip":"52240","heat map score":4.4,"geo_score":1.0,"street":"2000 Industrial Park Rd","id":"abdu5ob5uo40","geo_precision":"range","state":"IA"},"type":"Feature","geometry":{"type":"Point","coordinates":[-91.497379,41.635422]}},{"properties":{"city":"Iowa City","zip":"52243","heat map score":2.0,"geo_score":0.805,"street":"2101 ACT Circle","id":"abdu5nzwtsm3","geo_precision":"range","state":"IA"},"type":"Feature","geometry":{"type":"Point","coordinates":[-91.505701,41.684467]}},{"properties":{"city":"Iowa City","zip":"52240","heat map score":2.0,"geo_score":1.0,"street":"220 S Gilbert Street","id":"abdu5o8asnnf","geo_precision":"range","state":"IA"},"type":"Feature","geometry":{"type":"Point","coordinates":[-91.530132,41.658067]}},{"properties":{"city":"Iowa City","zip":"52240","heat map score":7.2,"geo_score":0.985,"street":"2200 Lower  Muscatine Rd","id":"abdu5o1jql6p","geo_precision":"range","state":"IA"},"type":"Feature","geometry":{"type":"Point","coordinates":[-91.50205,41.638958]}},{"properties":{"city":"Iowa City","zip":"52240","heat map score":3.4,"geo_score":1.0,"street":"2340 Heinz Rd.","id":"abdu5oau6828","geo_precision":"range","state":"IA"},"type":"Feature","geometry":{"type":"Point","coordinates":[-91.488676,41.635435]}},{"properties":{"city":"Iowa City","zip":"52240","heat map score":7.2,"geo_score":0.817,"street":"2500 Highway 6 East","id":"abdu5o2swc9v","geo_precision":"range","state":"IA"},"type":"Feature","geometry":{"type":"Point","coordinates":[-91.500515,41.638056]}},{"properties":{"city":"Iowa City","zip":"52240","heat map score":5.8,"geo_score":0.571,"street":"2515 Independence Road","id":"abdu5o8jv1vg","geo_precision":"street","state":"IA"},"type":"Feature","geometry":{"type":"Point","coordinates":[-91.680123,42.041292]}},{"properties":{"city":"Iowa City","zip":"52240","heat map score":2.0,"geo_score":1.0,"street":"2701 Bradford Drive","id":"abdu5o5wk2c7","geo_precision":"range","state":"IA"},"type":"Feature","geometry":{"type":"Point","coordinates":[-91.495617,41.646233]}},{"properties":{"city":"Iowa City","zip":"52240","heat map score":7.2,"geo_score":0.817,"street":"2710 Highway 6 East","id":"abdu5o44t94t","geo_precision":"range","state":"IA"},"type":"Feature","geometry":{"type":"Point","coordinates":[-91.494278,41.633539]}},{"properties":{"city":"Iowa City","zip":"52243","heat map score":4.8,"geo_score":0.61,"street":"2727 Scott Blvd.","id":"abdu5o7kxg1f","geo_precision":"street","state":"IA"},"type":"Feature","geometry":{"type":"Point","coordinates":[-91.507922,41.681348]}},{"properties":{"city":"Iowa City","zip":"52240","heat map score":3.4,"geo_score":1.0,"street":"28 S Linn Street","id":"abdu5oc3s9cm","geo_precision":"range","state":"IA"},"type":"Feature","geometry":{"type":"Point","coordinates":[-91.531568,41.660424]}},{"properties":{"city":"Iowa City","zip":"52243","heat map score":3.4,"geo_score":0.526,"street":"301 ACT Drive","id":"abdu5o11664h","geo_precision":"street","state":"IA"},"type":"Feature","geometry":{"type":"Point","coordinates":[-91.505701,41.684467]}},{"properties":{"city":"Iowa City","zip":"52240","heat map score":2.0,"geo_score":0.571,"street":"400 S Clinton St., Room B-10","id":"abdu5ocry6lu","geo_precision":"street","state":"IA"},"type":"Feature","geometry":{"type":"Point","coordinates":[-91.534607,41.661294]}},{"properties":{"city":"Iowa City","zip":"52240","heat map score":3.4,"geo_score":1.0,"street":"410 E Washington Street","id":"abdu5o72nbe4","geo_precision":"range","state":"IA"},"type":"Feature","geometry":{"type":"Point","coordinates":[-91.528761,41.660108]}},{"properties":{"city":"Iowa City","zip":"52243","heat map score":3.4,"geo_score":0.526,"street":"500 ACT Drive","id":"abdu5o6hnomf","geo_precision":"street","state":"IA"},"type":"Feature","geometry":{"type":"Point","coordinates":[-91.505701,41.684467]}},{"properties":{"city":"Jesup","zip":"50648","heat map score":5.8,"geo_score":1.0,"street":"850 Hawkeye Rd.","id":"abdu5o3krbpz","geo_precision":"range","state":"IA"},"type":"Feature","geometry":{"type":"Point","coordinates":[-92.078896,42.468173]}},{"properties":{"city":"Johnston","zip":"50131","heat map score":3.4,"geo_score":0.941,"street":"6400 NW 86th Street","id":"abdu5o8vow7h","geo_precision":"range","state":"IA"},"type":"Feature","geometry":{"type":"Point","coordinates":[-93.736532,41.676113]}},{"properties":{"city":"Knoxville","zip":"50138","heat map score":4.4,"geo_score":0.607,"street":"209 North Godfrey Lane, P.O. Box 536","id":"abdu5nzjf84t","geo_precision":"street","state":"IA"},"type":"Feature","geometry":{"type":"Point","coordinates":[-93.062496,41.315858]}},{"properties":{"city":"Knoxville","zip":"50138","heat map score":5.8,"geo_score":0.805,"street":"3406 East Pleasant Street","id":"abdu5oeo6285","geo_precision":"street","state":"IA"},"type":"Feature","geometry":{"type":"Point","coordinates":[-93.05806,41.320886]}},{"properties":{"city":"Le Mars","zip":"51031","heat map score":2.0,"geo_score":0.844,"street":"1101 Third Avenue SE","id":"abdu5o0rw5rl","geo_precision":"street","state":"IA"},"type":"Feature","geometry":{"type":"Point","coordinates":[-96.162228,42.780501]}},{"properties":{"city":"Le Mars","zip":"51031","heat map score":7.2,"geo_score":0.941,"street":"1191 18th Street SW","id":"abdu5ocijvxj","geo_precision":"range","state":"IA"},"type":"Feature","geometry":{"type":"Point","coordinates":[-96.176904,42.771472]}},{"properties":{"city":"Le Mars","zip":"51031","heat map score":3.0,"geo_score":0.537,"street":"1555 21st Street SW","id":"abdu5o7nt5jg","geo_precision":"street","state":"IA"},"type":"Feature","geometry":{"type":"Point","coordinates":[-96.485109,43.009789]}},{"properties":{"city":"Le Mars","zip":"51031","heat map score":2.0,"geo_score":0.935,"street":"22 Second Street NE","id":"abdu5o41hfy9","geo_precision":"range","state":"IA"},"type":"Feature","geometry":{"type":"Point","coordinates":[-96.166191,42.795418]}},{"properties":{"city":"Le Mars","zip":"51031","heat map score":2.0,"geo_score":0.941,"street":"241 12th Street SE","id":"abdu5odt9b51","geo_precision":"range","state":"IA"},"type":"Feature","geometry":{"type":"Point","coordinates":[-96.162949,42.778824]}},{"properties":{"city":"Le Mars","zip":"51031","heat map score":2.0,"geo_score":0.935,"street":"331 1st Street NE","id":"abdu5o7kqh9n","geo_precision":"range","state":"IA"},"type":"Feature","geometry":{"type":"Point","coordinates":[-96.161069,42.794358]}},{"properties":{"city":"Le Mars","zip":"51031","heat map score":2.0,"geo_score":0.935,"street":"46 First Street SW","id":"abdu5oexc74b","geo_precision":"range","state":"IA"},"type":"Feature","geometry":{"type":"Point","coordinates":[-96.166987,42.79176]}},{"properties":{"city":"Le Mars","zip":"51031","heat map score":5.8,"geo_score":0.935,"street":"801 6th Street SW","id":"abdu5o8fp1nz","geo_precision":"range","state":"IA"},"type":"Feature","geometry":{"type":"Point","coordinates":[-96.180117,42.78593]}},{"properties":{"city":"LeClaire","zip":"52753","heat map score":2.0,"geo_score":0.989,"street":"2100 Territorial Road","id":"abdu5o1qaj7u","geo_precision":"range","state":"IA"},"type":"Feature","geometry":{"type":"Point","coordinates":[-90.365655,41.612128]}},{"properties":{"city":"LeClaire","zip":"52753","heat map score":2.0,"geo_score":0.74,"street":"316 South 12th Street","id":"abdu5odllr9e","geo_precision":"street","state":"IA"},"type":"Feature","geometry":{"type":"Point","coordinates":[-90.35815,41.596601]}},{"properties":{"city":"LeClaire","zip":"52753","heat map score":2.0,"geo_score":0.989,"street":"3501 Wisconsin Street","id":"abdu5o5vxyfi","geo_precision":"range","state":"IA"},"type":"Feature","geometry":{"type":"Point","coordinates":[-90.391716,41.597615]}},{"properties":{"city":"Marcus","zip":"51035","heat map score":7.2,"geo_score":1.0,"street":"4808 F Avenue","id":"abdu5oe16caz","geo_precision":"range","state":"IA"},"type":"Feature","geometry":{"type":"Point","coordinates":[-95.759904,42.821209]}},{"properties":{"city":"Milan","zip":"61264","heat map score":4.2,"geo_score":0.935,"street":"1600 First Avenue E","id":"abdu5o28c2tt","geo_precision":"range","state":"IL"},"type":"Feature","geometry":{"type":"Point","coordinates":[-90.542771,41.452991]}},{"properties":{"city":"Milan","zip":"61264","heat map score":3.0,"geo_score":0.625,"street":"827 W. 9th Street","id":"abdu5o7ey2me","geo_precision":"street","state":"IL"},"type":"Feature","geometry":{"type":"Point","coordinates":[-90.581888,41.445201]}},{"properties":{"city":"Milan","zip":"61264","heat map score":3.0,"geo_score":0.599,"street":"7300 50th Street","id":"abdu5o12hasu","geo_precision":"street","state":"IL"},"type":"Feature","geometry":{"type":"Point","coordinates":[-90.524453,41.442187]}},{"properties":{"city":"Moline","zip":"61265","heat map score":4.0,"geo_score":0.927,"street":"501 River Drive","id":"abdu5nztr3zf","geo_precision":"range","state":"IL"},"type":"Feature","geometry":{"type":"Point","coordinates":[-90.52874,41.507713]}},{"properties":{"city":"Moline","zip":"61265","heat map score":4.0,"geo_score":0.927,"street":"909 River Drive","id":"abdu5o2py6tc","geo_precision":"range","state":"IL"},"type":"Feature","geometry":{"type":"Point","coordinates":[-90.52277,41.506856]}},{"properties":{"city":"Moline","zip":"61265","heat map score":3.4,"geo_score":0.927,"street":"6600 34th Avenue","id":"abdu5o3lkwop","geo_precision":"range","state":"IL"},"type":"Feature","geometry":{"type":"Point","coordinates":[-90.451837,41.478117]}},{"properties":{"city":"Moline","zip":"61265","heat map score":3.4,"geo_score":0.916,"street":"3210 41st Street","id":"abdu5of6uhr8","geo_precision":"range","state":"IL"},"type":"Feature","geometry":{"type":"Point","coordinates":[-90.477624,41.47898]}},{"properties":{"city":"Moline","zip":"61265","heat map score":3.4,"geo_score":0.886,"street":"One John Deere Place","id":"abdu5oag6lt3","geo_precision":"street","state":"IL"},"type":"Feature","geometry":{"type":"Point","coordinates":[-90.415728,41.472498]}},{"properties":{"city":"Moline","zip":"61265","heat map score":3.0,"geo_score":0.916,"street":"400 19th Street","id":"abdu5oanqua9","geo_precision":"range","state":"IL"},"type":"Feature","geometry":{"type":"Point","coordinates":[-90.511619,41.509062]}},{"properties":{"city":"Moline","zip":"61265","heat map score":2.0,"geo_score":0.927,"street":"6600 34th Avenue","id":"abdu5o0v0w70","geo_precision":"range","state":"IL"},"type":"Feature","geometry":{"type":"Point","coordinates":[-90.451837,41.478117]}},{"properties":{"city":"Moline","zip":"61265","heat map score":2.0,"geo_score":0.927,"street":"6600 34th Avenue","id":"abdu5o6zyxgi","geo_precision":"range","state":"IL"},"type":"Feature","geometry":{"type":"Point","coordinates":[-90.451837,41.478117]}},{"properties":{"city":"Moline","zip":"61265","heat map score":2.0,"geo_score":0.927,"street":"6600 34th Avenue","id":"abdu5odnpqaj","geo_precision":"range","state":"IL"},"type":"Feature","geometry":{"type":"Point","coordinates":[-90.451837,41.478117]}},{"properties":{"city":"Moline","zip":"61265","heat map score":2.0,"geo_score":0.526,"street":"3400 80th Street","id":"abdu5o5tmm0y","geo_precision":"street","state":"IL"},"type":"Feature","geometry":{"type":"Point","coordinates":[-90.938097,41.317296]}},{"properties":{"city":"Moline","zip":"61265","heat map score":2.0,"geo_score":0.927,"street":"1415 River Drive","id":"abdu5oaghqav","geo_precision":"range","state":"IL"},"type":"Feature","geometry":{"type":"Point","coordinates":[-90.517791,41.508168]}},{"properties":{"city":"Muscatine","zip":"52761","heat map score":10.0,"geo_score":0.837,"street":"1770 Bill Sharp Blvd","id":"abdu5of1q797","geo_precision":"street","state":"IA"},"type":"Feature","geometry":{"type":"Point","coordinates":[-90.823037,41.484173]}},{"properties":{"city":"New Sharon","zip":"50207","heat map score":1.0,"geo_score":1.0,"street":"PO Box 515, 1030 Hwy 146","id":"abdu5o2br46r","geo_precision":"range","state":"IA"},"type":"Feature","geometry":{"type":"Point","coordinates":[-92.651544,41.504634]}},{"properties":{"city":"Norwalk","zip":"50211","heat map score":2.0,"geo_score":0.805,"street":"200 Cherry Parkway","id":"abdu5ocf4f5w","geo_precision":"street","state":"IA"},"type":"Feature","geometry":{"type":"Point","coordinates":[-93.674039,41.475238]}},{"properties":{"city":"Oskaloosa","zip":"52577","heat map score":2.0,"geo_score":1.0,"street":"201 Trueblood Ave","id":"abdu5o75u8yh","geo_precision":"range","state":"IA"},"type":"Feature","geometry":{"type":"Point","coordinates":[-92.648045,41.307756]}},{"properties":{"city":"Oskaloosa","zip":"52577","heat map score":2.4,"geo_score":0.742,"street":"2905 South 33rd Street","id":"abdu5of9kqjm","geo_precision":"street","state":"IA"},"type":"Feature","geometry":{"type":"Point","coordinates":[-92.605399,41.269815]}},{"properties":{"city":"Redfield","zip":"50233","heat map score":4.4,"geo_score":0.768,"street":"1519 Hwy 6","id":"abdu5o4czij6","geo_precision":"range","state":"IA"},"type":"Feature","geometry":{"type":"Point","coordinates":[-94.17906,41.592853]}},{"properties":{"city":"Riverdale","zip":"52722","heat map score":2.0,"geo_score":0.878,"street":"500 Belmont Road","id":"abdu5o2p63ec","geo_precision":"street","state":"IA"},"type":"Feature","geometry":{"type":"Point","coordinates":[-90.465373,41.551752]}},{"properties":{"city":"Rock Island","zip":"61201","heat map score":4.4,"geo_score":0.902,"street":"3915 9th Street","id":"abdu5o6wahno","geo_precision":"range","state":"IL"},"type":"Feature","geometry":{"type":"Point","coordinates":[-90.58674,41.470804]}},{"properties":{"city":"Rock Island","zip":"61299","heat map score":4.0,"geo_score":0.317,"street":"Public Works, IMRI-PWF, Bldg 102/W/1","id":"abdu5o2c8mq6","geo_precision":"street","state":"IL"},"type":"Feature","geometry":{"type":"Point","coordinates":[-90.584694,41.418127]}},{"properties":{"city":"Rock Island","zip":"61299","heat map score":3.0,"geo_score":0.317,"street":"Public Works, IMRI-PWF, Bldg 102/W/1","id":"abdu5ocd271x","geo_precision":"street","state":"IL"},"type":"Feature","geometry":{"type":"Point","coordinates":[-90.584694,41.418127]}},{"properties":{"city":"Rock Island","zip":"61299","heat map score":3.0,"geo_score":0.317,"street":"Public Works, IMRI-PWF, Bldg 102/W/1","id":"abdu5oecahzn","geo_precision":"street","state":"IL"},"type":"Feature","geometry":{"type":"Point","coordinates":[-90.584694,41.418127]}},{"properties":{"city":"Rock Island","zip":"61299","heat map score":3.0,"geo_score":0.317,"street":"Public Works, IMRI-PWF, Bldg 102/W/1","id":"abdu5o3gmpl8","geo_precision":"street","state":"IL"},"type":"Feature","geometry":{"type":"Point","coordinates":[-90.584694,41.418127]}},{"properties":{"city":"Rock Island","zip":"61201","heat map score":3.0,"geo_score":0.916,"street":"350 44th Street","id":"abdu5odg6rqz","geo_precision":"range","state":"IL"},"type":"Feature","geometry":{"type":"Point","coordinates":[-90.540057,41.508675]}},{"properties":{"city":"Rock Island","zip":"61264","heat map score":3.0,"geo_score":0.879,"street":"4608 78th Avenue W","id":"abdu5o7xadib","geo_precision":"range","state":"IL"},"type":"Feature","geometry":{"type":"Point","coordinates":[-90.631759,41.443792]}},{"properties":{"city":"Rock Island","zip":"61299","heat map score":2.0,"geo_score":0.317,"street":"Public Works, IMRI-PWF, Bldg 102/W/1","id":"abdu5obv3dr2","geo_precision":"street","state":"IL"},"type":"Feature","geometry":{"type":"Point","coordinates":[-90.584694,41.418127]}},{"properties":{"city":"Rock Island","zip":"61204","heat map score":2.0,"geo_score":0.347,"street":"8001 TPC Road - P.O. Box 7210","id":"abdu5o57lbqp","geo_precision":"street","state":"IL"},"type":"Feature","geometry":{"type":"Point","coordinates":[-90.311748,41.557176]}},{"properties":{"city":"Rock Island","zip":"61201","heat map score":1.0,"geo_score":0.857,"street":"2832 5th St. Unit 1","id":"abdu5obkww7z","geo_precision":"street","state":"IL"},"type":"Feature","geometry":{"type":"Point","coordinates":[-90.591157,41.504093]}},{"properties":{"city":"Rock Valley","zip":"51247","heat map score":1.0,"geo_score":0.916,"street":"880 10th Street","id":"abdu5o2axgwe","geo_precision":"range","state":"IA"},"type":"Feature","geometry":{"type":"Point","coordinates":[-96.306124,43.199874]}},{"properties":{"city":"Sergeant Bluff","zip":"51054","heat map score":4.4,"geo_score":0.808,"street":"2753 Port Neal Circle","id":"abdu5o7g40zu","geo_precision":"street","state":"IA"},"type":"Feature","geometry":{"type":"Point","coordinates":[-96.359018,42.321749]}},{"properties":{"city":"Sheldon","zip":"51201","heat map score":3.4,"geo_score":1.0,"street":"603 W Park Street","id":"abdu5o8ouuky","geo_precision":"range","state":"IA"},"type":"Feature","geometry":{"type":"Point","coordinates":[-95.879883,43.18583]}},{"properties":{"city":"Shenandoah","zip":"51601","heat map score":7.2,"geo_score":0.967,"street":"1500 S Highway 59","id":"abdu5o3fxvob","geo_precision":"range","state":"IA"},"type":"Feature","geometry":{"type":"Point","coordinates":[-95.384704,40.829128]}},{"properties":{"city":"Silvis","zip":"61244","heat map score":3.0,"geo_score":0.455,"street":"1800 - 158th Street","id":"abdu5oc26ywu","geo_precision":"street","state":"IL"},"type":"Feature","geometry":{"type":"Point","coordinates":[-90.396363,41.53095]}},{"properties":{"city":"Silvis","zip":"61282","heat map score":2.0,"geo_score":0.916,"street":"1305 Fifth Ave","id":"abdu5o92j1p2","geo_precision":"range","state":"IL"},"type":"Feature","geometry":{"type":"Point","coordinates":[-90.411027,41.50566]}},{"properties":{"city":"Sioux City","zip":"51106","heat map score":2.0,"geo_score":1.0,"street":"1501 Morningside Ave","id":"abdu5o3pj63q","geo_precision":"range","state":"IA"},"type":"Feature","geometry":{"type":"Point","coordinates":[-96.357525,42.473707]}},{"properties":{"city":"Sioux City","zip":"51106","heat map score":3.4,"geo_score":1.0,"street":"1601 Morningside Ave","id":"abdu5o7vhrox","geo_precision":"range","state":"IA"},"type":"Feature","geometry":{"type":"Point","coordinates":[-96.358071,42.474642]}},{"properties":{"city":"Sioux City","zip":"51106","heat map score":2.0,"geo_score":0.585,"street":"1717 Sioux Trail","id":"abdu5ob0y6wj","geo_precision":"zip","state":"IA"},"type":"Feature","geometry":{"type":"Point","coordinates":[-96.338435,42.471097]}},{"properties":{"city":"Sioux City","zip":"51103","heat map score":2.0,"geo_score":0.927,"street":"2001 Casselman","id":"abdu5nz0br23","geo_precision":"range","state":"IA"},"type":"Feature","geometry":{"type":"Point","coordinates":[-96.443671,42.509404]}},{"properties":{"city":"Sioux City","zip":"51101","heat map score":3.4,"geo_score":1.0,"street":"225 Nebraska Street","id":"abdu5nzvero2","geo_precision":"range","state":"IA"},"type":"Feature","geometry":{"type":"Point","coordinates":[-96.403523,42.492358]}},{"properties":{"city":"Sioux City","zip":"51109","heat map score":2.0,"geo_score":1.0,"street":"2303 Riverside Blvd","id":"abdu5off1cqn","geo_precision":"range","state":"IA"},"type":"Feature","geometry":{"type":"Point","coordinates":[-96.475235,42.517166]}},{"properties":{"city":"Sioux City","zip":"51101","heat map score":3.4,"geo_score":0.902,"street":"320 6th St","id":"abdu5o5gclnv","geo_precision":"range","state":"IA"},"type":"Feature","geometry":{"type":"Point","coordinates":[-96.406666,42.496249]}},{"properties":{"city":"Sioux City","zip":"51104","heat map score":3.4,"geo_score":0.585,"street":"3303 Rebecca Street","id":"abdu5obisvgf","geo_precision":"zip","state":"IA"},"type":"Feature","geometry":{"type":"Point","coordinates":[-96.106247,42.472367]}},{"properties":{"city":"Sioux City","zip":"51104","heat map score":2.0,"geo_score":0.585,"street":"3303 Rebecca Street","id":"abdu5o6u4wcr","geo_precision":"zip","state":"IA"},"type":"Feature","geometry":{"type":"Point","coordinates":[-96.106247,42.472367]}},{"properties":{"city":"Sioux City","zip":"51104","heat map score":2.0,"geo_score":0.585,"street":"3303 Rebecca Street","id":"abdu5od2nbsy","geo_precision":"zip","state":"IA"},"type":"Feature","geometry":{"type":"Point","coordinates":[-96.106247,42.472367]}},{"properties":{"city":"Sioux City","zip":"51104","heat map score":2.0,"geo_score":0.585,"street":"3303 Rebecca Street","id":"abdu5o555nrh","geo_precision":"zip","state":"IA"},"type":"Feature","geometry":{"type":"Point","coordinates":[-96.106247,42.472367]}},{"properties":{"city":"Sioux City","zip":"51104","heat map score":2.0,"geo_score":0.585,"street":"3303 Rebecca Street","id":"abdu5o5ugqin","geo_precision":"zip","state":"IA"},"type":"Feature","geometry":{"type":"Point","coordinates":[-96.106247,42.472367]}},{"properties":{"city":"Sioux City","zip":"51104","heat map score":2.0,"geo_score":0.585,"street":"3303 Rebecca Street","id":"abdu5o8d29b4","geo_precision":"zip","state":"IA"},"type":"Feature","geometry":{"type":"Point","coordinates":[-96.106247,42.472367]}},{"properties":{"city":"Sioux City","zip":"51104","heat map score":2.0,"geo_score":0.585,"street":"3303 Rebecca Street","id":"abdu5o6xxa8i","geo_precision":"zip","state":"IA"},"type":"Feature","geometry":{"type":"Point","coordinates":[-96.106247,42.472367]}},{"properties":{"city":"Sioux City","zip":"51106","heat map score":3.4,"geo_score":1.0,"street":"3415 Peters Ave","id":"abdu5o3rtx65","geo_precision":"range","state":"IA"},"type":"Feature","geometry":{"type":"Point","coordinates":[-96.362956,42.475725]}},{"properties":{"city":"Sioux City","zip":"51106","heat map score":2.0,"geo_score":1.0,"street":"3600 Peters Ave","id":"abdu5oeket2x","geo_precision":"range","state":"IA"},"type":"Feature","geometry":{"type":"Point","coordinates":[-96.360877,42.47555]}},{"properties":{"city":"Sioux City","zip":"51106","heat map score":3.4,"geo_score":1.0,"street":"3609 Peters Ave","id":"abdu5oef5z7r","geo_precision":"range","state":"IA"},"type":"Feature","geometry":{"type":"Point","coordinates":[-96.360949,42.475702]}},{"properties":{"city":"Sioux City","zip":"51106","heat map score":3.4,"geo_score":1.0,"street":"3609 Peters Ave","id":"abdu5o4pjbov","geo_precision":"range","state":"IA"},"type":"Feature","geometry":{"type":"Point","coordinates":[-96.360949,42.475702]}},{"properties":{"city":"Sioux City","zip":"51106","heat map score":2.0,"geo_score":1.0,"street":"3625 Garretson Avenue","id":"abdu5nzialid","geo_precision":"range","state":"IA"},"type":"Feature","geometry":{"type":"Point","coordinates":[-96.359642,42.472457]}},{"properties":{"city":"Sioux City","zip":"51106","heat map score":2.0,"geo_score":1.0,"street":"3630 Peters Ave","id":"abdu5obpcrlr","geo_precision":"range","state":"IA"},"type":"Feature","geometry":{"type":"Point","coordinates":[-96.361158,42.475555]}},{"properties":{"city":"Sioux City","zip":"51106","heat map score":2.0,"geo_score":1.0,"street":"3700 Peters Ave","id":"abdu5o0lwjmz","geo_precision":"range","state":"IA"},"type":"Feature","geometry":{"type":"Point","coordinates":[-96.361813,42.475567]}},{"properties":{"city":"Sioux City","zip":"51101","heat map score":3.4,"geo_score":1.0,"street":"401 Gordon Drive","id":"abdu5o3okne6","geo_precision":"range","state":"IA"},"type":"Feature","geometry":{"type":"Point","coordinates":[-96.404876,42.489759]}},{"properties":{"city":"Sioux City","zip":"51104","heat map score":3.4,"geo_score":1.0,"street":"4200 Cheyenne Blvd","id":"abdu5o5juwoo","geo_precision":"range","state":"IA"},"type":"Feature","geometry":{"type":"Point","coordinates":[-96.392994,42.54411]}},{"properties":{"city":"Sioux City","zip":"51106","heat map score":3.0,"geo_score":1.0,"street":"4600 South Lewis Blvd","id":"abdu5o65nbqs","geo_precision":"range","state":"IA"},"type":"Feature","geometry":{"type":"Point","coordinates":[-96.367419,42.427497]}},{"properties":{"city":"Sioux City","zip":"51103","heat map score":2.4,"geo_score":0.805,"street":"4600 Stone Ave","id":"abdu5oc8hwel","geo_precision":"range","state":"IA"},"type":"Feature","geometry":{"type":"Point","coordinates":[-96.347057,42.479097]}},{"properties":{"city":"Sioux City","zip":"51106","heat map score":2.0,"geo_score":1.0,"street":"5000 Mayhew Ave","id":"abdu5nzl6g8j","geo_precision":"range","state":"IA"},"type":"Feature","geometry":{"type":"Point","coordinates":[-96.34042,42.45184]}},{"properties":{"city":"Sioux City","zip":"51106","heat map score":2.0,"geo_score":1.0,"street":"5011 Mayhew Ave","id":"abdu5od48ygg","geo_precision":"range","state":"IA"},"type":"Feature","geometry":{"type":"Point","coordinates":[-96.340265,42.452446]}},{"properties":{"city":"Sioux City","zip":"51101","heat map score":2.0,"geo_score":0.902,"street":"505 5th Street","id":"abdu5o3ij61k","geo_precision":"range","state":"IA"},"type":"Feature","geometry":{"type":"Point","coordinates":[-96.404251,42.495322]}},{"properties":{"city":"Sioux City","zip":"51101","heat map score":2.0,"geo_score":1.0,"street":"529 Pierce Street","id":"abdu5o7z9gyp","geo_precision":"range","state":"IA"},"type":"Feature","geometry":{"type":"Point","coordinates":[-96.405024,42.496029]}},{"properties":{"city":"Sioux City","zip":"51102","heat map score":4.4,"geo_score":0.314,"street":"One Fun Place, P.O. Box 178","id":"abdu5o5bcime","geo_precision":"street","state":"IA"},"type":"Feature","geometry":{"type":"Point","coordinates":[-96.462939,42.50166]}},{"properties":{"city":"Storm Lake","zip":"50588","heat map score":4.8,"geo_score":0.74,"street":"1250 N Lake Street","id":"abdu5od1gevu","geo_precision":"street","state":"IA"},"type":"Feature","geometry":{"type":"Point","coordinates":[-95.171219,42.619944]}},{"properties":{"city":"Treynor","zip":"51575","heat map score":2.0,"geo_score":1.0,"street":"102 East Main Street, PO Box 369","id":"abdu5oed4swx","geo_precision":"street","state":"IA"},"type":"Feature","geometry":{"type":"Point","coordinates":[-95.609421,41.232426]}},{"properties":{"city":"Treynor","zip":"51575","heat map score":2.0,"geo_score":0.878,"street":"4 Ehrig Avenue","id":"abdu5oczr54s","geo_precision":"range","state":"IA"},"type":"Feature","geometry":{"type":"Point","coordinates":[-95.602213,41.23151]}},{"properties":{"city":"Underwood","zip":"51576","heat map score":7.2,"geo_score":0.585,"street":"26325 Magnolia Road","id":"abdu5o8qu9xt","geo_precision":"zip","state":"IA"},"type":"Feature","geometry":{"type":"Point","coordinates":[-95.721535,41.382994]}},{"properties":{"city":"Urbandale","zip":"50322","heat map score":3.4,"geo_score":0.844,"street":"5100 NW 72nd St.","id":"abdu5nzz0f4g","geo_precision":"range","state":"IA"},"type":"Feature","geometry":{"type":"Point","coordinates":[-93.717112,41.654404]}},{"properties":{"city":"Waterloo","zip":"50701","heat map score":4.8,"geo_score":1.0,"street":"125 Commercial Street","id":"abdu5o5j0k7u","geo_precision":"range","state":"IA"},"type":"Feature","geometry":{"type":"Point","coordinates":[-92.344087,42.498169]}},{"properties":{"city":"Waterloo","zip":"50703","heat map score":3.4,"geo_score":1.0,"street":"1407 Independence Ave.","id":"abdu5o38n6y1","geo_precision":"range","state":"IA"},"type":"Feature","geometry":{"type":"Point","coordinates":[-92.309036,42.498459]}},{"properties":{"city":"Waterloo","zip":"50704","heat map score":3.4,"geo_score":0.805,"street":"1501 East Orange Rd","id":"abdu5o6s3tvj","geo_precision":"range","state":"IA"},"type":"Feature","geometry":{"type":"Point","coordinates":[-92.326015,42.428584]}},{"properties":{"city":"Waterloo","zip":"50704","heat map score":3.4,"geo_score":0.805,"street":"1501 East Orange Rd","id":"abdu5o33hptk","geo_precision":"range","state":"IA"},"type":"Feature","geometry":{"type":"Point","coordinates":[-92.326015,42.428584]}},{"properties":{"city":"Waterloo","zip":"50704","heat map score":3.4,"geo_score":0.805,"street":"1501 East Orange Rd","id":"abdu5o4zpz9g","geo_precision":"range","state":"IA"},"type":"Feature","geometry":{"type":"Point","coordinates":[-92.326015,42.428584]}},{"properties":{"city":"Waterloo","zip":"50704","heat map score":3.4,"geo_score":0.805,"street":"1501 East Orange Rd","id":"abdu5o77z06f","geo_precision":"range","state":"IA"},"type":"Feature","geometry":{"type":"Point","coordinates":[-92.326015,42.428584]}},{"properties":{"city":"Waterloo","zip":"50704","heat map score":3.4,"geo_score":0.805,"street":"1501 East Orange Rd","id":"abdu5o1psms2","geo_precision":"range","state":"IA"},"type":"Feature","geometry":{"type":"Point","coordinates":[-92.326015,42.428584]}},{"properties":{"city":"Waterloo","zip":"50704","heat map score":2.0,"geo_score":0.805,"street":"1501 East Orange Rd","id":"abdu5o8dlank","geo_precision":"range","state":"IA"},"type":"Feature","geometry":{"type":"Point","coordinates":[-92.326015,42.428584]}},{"properties":{"city":"Waterloo","zip":"50704","heat map score":2.0,"geo_score":0.805,"street":"1501 East Orange Rd","id":"abdu5o56ig34","geo_precision":"range","state":"IA"},"type":"Feature","geometry":{"type":"Point","coordinates":[-92.326015,42.428584]}},{"properties":{"city":"Waterloo","zip":"50704","heat map score":2.0,"geo_score":0.805,"street":"1501 East Orange Rd","id":"abdu5o0o26vk","geo_precision":"range","state":"IA"},"type":"Feature","geometry":{"type":"Point","coordinates":[-92.326015,42.428584]}},{"properties":{"city":"Waterloo","zip":"50704","heat map score":2.0,"geo_score":0.805,"street":"1501 East Orange Rd","id":"abdu5o7r8o79","geo_precision":"range","state":"IA"},"type":"Feature","geometry":{"type":"Point","coordinates":[-92.326015,42.428584]}},{"properties":{"city":"Waterloo","zip":"50704","heat map score":2.0,"geo_score":0.805,"street":"1501 East Orange Rd","id":"abdu5o6oxka9","geo_precision":"range","state":"IA"},"type":"Feature","geometry":{"type":"Point","coordinates":[-92.326015,42.428584]}},{"properties":{"city":"Waterloo","zip":"50704","heat map score":2.0,"geo_score":0.805,"street":"1501 East Orange Rd","id":"abdu5oea37y0","geo_precision":"range","state":"IA"},"type":"Feature","geometry":{"type":"Point","coordinates":[-92.326015,42.428584]}},{"properties":{"city":"Waterloo","zip":"50703","heat map score":2.0,"geo_score":0.878,"street":"1825 Logan Avenue","id":"abdu5o9e24se","geo_precision":"street","state":"IA"},"type":"Feature","geometry":{"type":"Point","coordinates":[-92.337653,42.526066]}},{"properties":{"city":"Waterloo","zip":"50704","heat map score":10.0,"geo_score":0.805,"street":"200 Westfield Ave","id":"abdu5o868ybp","geo_precision":"range","state":"IA"},"type":"Feature","geometry":{"type":"Point","coordinates":[-92.35333,42.497856]}},{"properties":{"city":"Waterloo","zip":"50702","heat map score":3.4,"geo_score":0.629,"street":"2060 Crossroads Center, Suite 124","id":"abdu5obcteho","geo_precision":"street","state":"IA"},"type":"Feature","geometry":{"type":"Point","coordinates":[-92.322516,42.464884]}},{"properties":{"city":"Waterloo","zip":"50703","heat map score":2.0,"geo_score":0.927,"street":"225 East 6th Street","id":"abdu5o9rw8cs","geo_precision":"range","state":"IA"},"type":"Feature","geometry":{"type":"Point","coordinates":[-92.333097,42.497512]}},{"properties":{"city":"Waterloo","zip":"50703","heat map score":5.8,"geo_score":0.857,"street":"2815 WCF &amp; N Drive","id":"abdu5o5qu9g0","geo_precision":"zip","state":"IA"},"type":"Feature","geometry":{"type":"Point","coordinates":[-92.258493,42.549802]}},{"properties":{"city":"Waterloo","zip":"50703","heat map score":3.0,"geo_score":1.0,"street":"2825 MidPort Blvd","id":"abdu5o6zcn01","geo_precision":"range","state":"IA"},"type":"Feature","geometry":{"type":"Point","coordinates":[-92.393585,42.547194]}},{"properties":{"city":"Waterloo","zip":"50703","heat map score":4.4,"geo_score":1.0,"street":"2839 Burton Ave","id":"abdu5obt75kc","geo_precision":"range","state":"IA"},"type":"Feature","geometry":{"type":"Point","coordinates":[-92.357388,42.540711]}},{"properties":{"city":"Waterloo","zip":"50703","heat map score":2.0,"geo_score":0.927,"street":"316 East 5th Street","id":"abdu5oc4z9pn","geo_precision":"range","state":"IA"},"type":"Feature","geometry":{"type":"Point","coordinates":[-92.33304,42.498951]}},{"properties":{"city":"Waterloo","zip":"50704","heat map score":10.0,"geo_score":0.752,"street":"3500 Donald Street","id":"abdu5o2hopv3","geo_precision":"range","state":"IA"},"type":"Feature","geometry":{"type":"Point","coordinates":[-92.262971,42.52728]}},{"properties":{"city":"Waterloo","zip":"50701","heat map score":10.0,"geo_score":1.0,"street":"3801 W Ridgeway Ave.","id":"abdu5o249iuz","geo_precision":"range","state":"IA"},"type":"Feature","geometry":{"type":"Point","coordinates":[-92.43446,42.469497]}},{"properties":{"city":"Waterloo","zip":"50701","heat map score":7.2,"geo_score":1.0,"street":"400 Westfield Ave","id":"abdu5oe00m8m","geo_precision":"range","state":"IA"},"type":"Feature","geometry":{"type":"Point","coordinates":[-92.350007,42.49816]}},{"properties":{"city":"Waterloo","zip":"50703","heat map score":2.0,"geo_score":1.0,"street":"515 Beech Street","id":"abdu5o57a77o","geo_precision":"range","state":"IA"},"type":"Feature","geometry":{"type":"Point","coordinates":[-92.320131,42.50509]}},{"properties":{"city":"Waterloo","zip":"50703","heat map score":2.0,"geo_score":1.0,"street":"818 Lafayette Street","id":"abdu5odnwu8p","geo_precision":"range","state":"IA"},"type":"Feature","geometry":{"type":"Point","coordinates":[-92.331895,42.496926]}},{"properties":{"city":"Waterloo","zip":"50702","heat map score":2.0,"geo_score":0.927,"street":"844 West 4th Street","id":"abdu5o4x2gsp","geo_precision":"range","state":"IA"},"type":"Feature","geometry":{"type":"Point","coordinates":[-92.346317,42.489921]}},{"properties":{"city":"Webster City","zip":"50595","heat map score":4.4,"geo_score":0.707,"street":"P.O. Box 610, 1434 220th Street","id":"abdu5o11reru","geo_precision":"range","state":"IA"},"type":"Feature","geometry":{"type":"Point","coordinates":[-93.885887,42.471816]}},{"properties":{"city":"West Des Moines","zip":"50265","heat map score":3.0,"geo_score":1.0,"street":"1323 Maple Street","id":"abdu5o8n9n6c","geo_precision":"range","state":"IA"},"type":"Feature","geometry":{"type":"Point","coordinates":[-93.71933,41.571152]}},{"properties":{"city":"West Des Moines","zip":"50266","heat map score":3.4,"geo_score":0.805,"street":"1401 Glen Oaks","id":"abdu5o50care","geo_precision":"range","state":"IA"},"type":"Feature","geometry":{"type":"Point","coordinates":[-93.778932,41.550578]}},{"properties":{"city":"West Des Moines","zip":"50265","heat map score":3.4,"geo_score":0.732,"street":"1401 Railroad Ave","id":"abdu5o2u6gri","geo_precision":"range","state":"IA"},"type":"Feature","geometry":{"type":"Point","coordinates":[-93.722431,41.569858]}},{"properties":{"city":"West Des Moines","zip":"50265","heat map score":3.0,"geo_score":1.0,"street":"1800 Fuller Road","id":"abdu5nzzvgjt","geo_precision":"range","state":"IA"},"type":"Feature","geometry":{"type":"Point","coordinates":[-93.730857,41.562727]}},{"properties":{"city":"West Des Moines","zip":"50266","heat map score":2.0,"geo_score":0.722,"street":"1801 68th Street","id":"abdu5od5ky0a","geo_precision":"street","state":"IA"},"type":"Feature","geometry":{"type":"Point","coordinates":[-93.801302,41.584405]}},{"properties":{"city":"West Des Moines","zip":"50265","heat map score":2.0,"geo_score":0.902,"street":"217 5th Street","id":"abdu5o0y534u","geo_precision":"range","state":"IA"},"type":"Feature","geometry":{"type":"Point","coordinates":[-93.708814,41.572273]}},{"properties":{"city":"West Des Moines","zip":"50265","heat map score":3.4,"geo_score":1.0,"street":"250 Mills Civic Parkway","id":"abdu5o1kn6x9","geo_precision":"range","state":"IA"},"type":"Feature","geometry":{"type":"Point","coordinates":[-93.756101,41.567627]}},{"properties":{"city":"West Des Moines","zip":"50265","heat map score":2.0,"geo_score":0.902,"street":"2500 Grand Avenue","id":"abdu5o28zkvo","geo_precision":"street","state":"IA"},"type":"Feature","geometry":{"type":"Point","coordinates":[-93.736894,41.555147]}},{"properties":{"city":"West Des Moines","zip":"50265","heat map score":2.0,"geo_score":0.902,"street":"318 5th Street","id":"abdu5o10hwx0","geo_precision":"range","state":"IA"},"type":"Feature","geometry":{"type":"Point","coordinates":[-93.708964,41.573656]}},{"properties":{"city":"West Des Moines","zip":"50265","heat map score":2.0,"geo_score":1.0,"street":"4000 Mills Civic Parkway","id":"abdu5o9tfri4","geo_precision":"range","state":"IA"},"type":"Feature","geometry":{"type":"Point","coordinates":[-93.758994,41.567046]}},{"properties":{"city":"West Des Moines","zip":"50265","heat map score":2.0,"geo_score":0.652,"street":"4200 Mills Civic Pkwy, Suite 2D","id":"abdu5o5rl1l1","geo_precision":"street","state":"IA"},"type":"Feature","geometry":{"type":"Point","coordinates":[-93.7567,41.567701]}},{"properties":{"city":"West Des Moines","zip":"50265","heat map score":2.0,"geo_score":1.0,"street":"5025 Grand Ave","id":"abdu5oauouc1","geo_precision":"range","state":"IA"},"type":"Feature","geometry":{"type":"Point","coordinates":[-93.770702,41.541334]}},{"properties":{"city":"West Des Moines","zip":"50265","heat map score":3.4,"geo_score":0.935,"street":"560 South 16th Street","id":"abdu5o17ze0d","geo_precision":"range","state":"IA"},"type":"Feature","geometry":{"type":"Point","coordinates":[-93.725854,41.566368]}},{"properties":{"city":"West Des Moines","zip":"50266","heat map score":4.8,"geo_score":0.976,"street":"6400 Weston Parkway","id":"abdu5odr5ok6","geo_precision":"range","state":"IA"},"type":"Feature","geometry":{"type":"Point","coordinates":[-93.796154,41.594287]}},{"properties":{"city":"West Des Moines","zip":"50265","heat map score":4.4,"geo_score":0.902,"street":"811 4th Street","id":"abdu5o7ymyqw","geo_precision":"range","state":"IA"},"type":"Feature","geometry":{"type":"Point","coordinates":[-93.707338,41.580878]}}],"is_temporal":false,"author":{"url":"","metadata":"","contact_name":"","contact_address":"","source":"","contact_phone":""},"source":"","pagination":{"sort":null,"start":0,"total":265,"limit":1000000},"state":"complete","tags":"","published":"2014-08-16T13:38:07-04:00","id":310431}