{"type":"FeatureCollection","data_type":"Dataset","url_type":null,"permissions":[{"permissions":{"download":true,"view":true},"group_id":"everyone"}],"classification":null,"title":"Northampton","count":73,"stream_id":310558,"contributor":{"url":"http://geocommons.com/users/58913","name":"xfeng33"},"data_attributes":null,"calculation_params":null,"icon_link":null,"link":"http://geocommons.com/overlays/310558.json","extent":[-87.8845,37.1838,-70.1426,44.3537],"geometry_types":["point"],"unique_name":null,"name":"Northampton","feature_count":73,"description":"","next_feature":null,"is_raster":false,"short_classification":"Y","stats":{},"features":[{"properties":{"zip":"01844","cus no":"101927","geo_score":0.714,"id":"abe32b2ufads","geo_precision":"zip"},"type":"Feature","geometry":{"type":"Point","coordinates":[-71.186915,42.73184]}},{"properties":{"zip":"07001","cus no":"119720","geo_score":0.714,"id":"abe32b0lylhg","geo_precision":"zip"},"type":"Feature","geometry":{"type":"Point","coordinates":[-74.27524,40.582845]}},{"properties":{"zip":"01038","cus no":"119867","geo_score":0.714,"id":"abe32axk1jvo","geo_precision":"zip"},"type":"Feature","geometry":{"type":"Point","coordinates":[-72.591756,42.410644]}},{"properties":{"zip":"21795","cus no":"122883","geo_score":0.714,"id":"abe32avxmrln","geo_precision":"zip"},"type":"Feature","geometry":{"type":"Point","coordinates":[-77.801661,39.548431]}},{"properties":{"zip":"19605","cus no":"123525","geo_score":0.714,"id":"abe32b4s6rze","geo_precision":"zip"},"type":"Feature","geometry":{"type":"Point","coordinates":[-75.936875,40.404815]}},{"properties":{"zip":"17225","cus no":"123980","geo_score":0.714,"id":"abe32aps69p4","geo_precision":"zip"},"type":"Feature","geometry":{"type":"Point","coordinates":[-77.852219,39.764816]}},{"properties":{"zip":"07095","cus no":"126605","geo_score":0.714,"id":"abe32azfqp5c","geo_precision":"zip"},"type":"Feature","geometry":{"type":"Point","coordinates":[-74.288023,40.553254]}},{"properties":{"zip":"12192","cus no":"126897","geo_score":0.714,"id":"abe32b31dq87","geo_precision":"zip"},"type":"Feature","geometry":{"type":"Point","coordinates":[-73.834836,42.397703]}},{"properties":{"zip":"10918","cus no":"127043","geo_score":0.714,"id":"abe32b43b2f1","geo_precision":"zip"},"type":"Feature","geometry":{"type":"Point","coordinates":[-74.255427,41.362038]}},{"properties":{"zip":"15522","cus no":"127583","geo_score":0.714,"id":"abe32arylw3a","geo_precision":"zip"},"type":"Feature","geometry":{"type":"Point","coordinates":[-78.52974,40.046469]}},{"properties":{"zip":"15205","cus no":"129292","geo_score":0.714,"id":"abe32atq1j41","geo_precision":"zip"},"type":"Feature","geometry":{"type":"Point","coordinates":[-80.082278,40.434513]}},{"properties":{"zip":"12095","cus no":"129789","geo_score":0.714,"id":"abe32az0t2ae","geo_precision":"zip"},"type":"Feature","geometry":{"type":"Point","coordinates":[-74.492362,43.084794]}},{"properties":{"zip":"08832","cus no":"131583","geo_score":0.714,"id":"abe32avdktf9","geo_precision":"zip"},"type":"Feature","geometry":{"type":"Point","coordinates":[-74.306961,40.517559]}},{"properties":{"zip":"14086","cus no":"132251","geo_score":0.714,"id":"abe32ayn7blh","geo_precision":"zip"},"type":"Feature","geometry":{"type":"Point","coordinates":[-78.632137,42.907658]}},{"properties":{"zip":"22942","cus no":"136040","geo_score":0.714,"id":"abe32ayt2kqz","geo_precision":"zip"},"type":"Feature","geometry":{"type":"Point","coordinates":[-78.219726,37.970974]}},{"properties":{"zip":"20794","cus no":"137335","geo_score":0.714,"id":"abe32azdbfl7","geo_precision":"zip"},"type":"Feature","geometry":{"type":"Point","coordinates":[-76.813394,39.155266]}},{"properties":{"zip":"17540","cus no":"137999","geo_score":0.714,"id":"abe32b57v198","geo_precision":"zip"},"type":"Feature","geometry":{"type":"Point","coordinates":[-76.244958,40.000099]}},{"properties":{"zip":"17522","cus no":"138027","geo_score":0.714,"id":"abe32avk7rjo","geo_precision":"zip"},"type":"Feature","geometry":{"type":"Point","coordinates":[-76.201062,40.196483]}},{"properties":{"zip":"02702","cus no":"140543","geo_score":0.714,"id":"abe32apkfq1s","geo_precision":"zip"},"type":"Feature","geometry":{"type":"Point","coordinates":[-71.017328,41.782993]}},{"properties":{"zip":"60018","cus no":"142772","geo_score":0.714,"id":"abe32av5up63","geo_precision":"zip"},"type":"Feature","geometry":{"type":"Point","coordinates":[-87.884509,41.995308]}},{"properties":{"zip":"04240","cus no":"142774","geo_score":0.714,"id":"abe32b38syym","geo_precision":"zip"},"type":"Feature","geometry":{"type":"Point","coordinates":[-70.142553,44.06563]}},{"properties":{"zip":"17901","cus no":"145772","geo_score":0.714,"id":"abe32avolojh","geo_precision":"zip"},"type":"Feature","geometry":{"type":"Point","coordinates":[-76.172164,40.687312]}},{"properties":{"zip":"10918","cus no":"146052","geo_score":0.714,"id":"abe32b2opomw","geo_precision":"zip"},"type":"Feature","geometry":{"type":"Point","coordinates":[-74.255427,41.362038]}},{"properties":{"zip":"01810","cus no":"146792","geo_score":0.714,"id":"abe32b1j7vea","geo_precision":"zip"},"type":"Feature","geometry":{"type":"Point","coordinates":[-71.165685,42.647991]}},{"properties":{"zip":"08817","cus no":"D00781","geo_score":0.714,"id":"abe32aze1pd2","geo_precision":"zip"},"type":"Feature","geometry":{"type":"Point","coordinates":[-74.393444,40.519753]}},{"properties":{"zip":"21901","cus no":"D00920","geo_score":0.714,"id":"abe32b1ygrc5","geo_precision":"zip"},"type":"Feature","geometry":{"type":"Point","coordinates":[-75.951055,39.619557]}},{"properties":{"zip":"17517","cus no":"D01619","geo_score":0.714,"id":"abe32az92he6","geo_precision":"zip"},"type":"Feature","geometry":{"type":"Point","coordinates":[-76.337734,40.188445]}},{"properties":{"zip":"07110","cus no":"D02815","geo_score":0.714,"id":"abe32av9zjcd","geo_precision":"zip"},"type":"Feature","geometry":{"type":"Point","coordinates":[-74.159449,40.821299]}},{"properties":{"zip":"13209","cus no":"D04796","geo_score":0.714,"id":"abe32apsqo03","geo_precision":"zip"},"type":"Feature","geometry":{"type":"Point","coordinates":[-76.207426,43.058122]}},{"properties":{"zip":"15801","cus no":"D04797","geo_score":0.714,"id":"abe32av4p8op","geo_precision":"zip"},"type":"Feature","geometry":{"type":"Point","coordinates":[-78.791142,41.057006]}},{"properties":{"zip":"06074","cus no":"D06531","geo_score":0.714,"id":"abe32b2pqt8n","geo_precision":"zip"},"type":"Feature","geometry":{"type":"Point","coordinates":[-72.564632,41.834198]}},{"properties":{"zip":"20774","cus no":"D07145","geo_score":0.714,"id":"abe32apchgq9","geo_precision":"zip"},"type":"Feature","geometry":{"type":"Point","coordinates":[-76.83886,38.937611]}},{"properties":{"zip":"08085","cus no":"D07545","geo_score":0.714,"id":"abe32azatfbw","geo_precision":"zip"},"type":"Feature","geometry":{"type":"Point","coordinates":[-75.337689,39.761502]}},{"properties":{"zip":"20794","cus no":"D07918","geo_score":0.714,"id":"abe32ayataeo","geo_precision":"zip"},"type":"Feature","geometry":{"type":"Point","coordinates":[-76.813394,39.155266]}},{"properties":{"zip":"11717","cus no":"D08605","geo_score":0.714,"id":"abe32atvi0yp","geo_precision":"zip"},"type":"Feature","geometry":{"type":"Point","coordinates":[-73.274006,40.770654]}},{"properties":{"zip":"08069","cus no":"D09344","geo_score":0.714,"id":"abe32axuzezo","geo_precision":"zip"},"type":"Feature","geometry":{"type":"Point","coordinates":[-75.469363,39.700669]}},{"properties":{"zip":"17406","cus no":"D09362","geo_score":0.714,"id":"abe32az6lkbk","geo_precision":"zip"},"type":"Feature","geometry":{"type":"Point","coordinates":[-76.594727,40.004593]}},{"properties":{"zip":"01501","cus no":"D09752","geo_score":0.714,"id":"abe32b3utys5","geo_precision":"zip"},"type":"Feature","geometry":{"type":"Point","coordinates":[-71.845905,42.21676]}},{"properties":{"zip":"18106","cus no":"D09812","geo_score":0.714,"id":"abe32at8154v","geo_precision":"zip"},"type":"Feature","geometry":{"type":"Point","coordinates":[-75.552963,40.566764]}},{"properties":{"zip":"12866","cus no":"D09854","geo_score":0.714,"id":"abe32awougi9","geo_precision":"zip"},"type":"Feature","geometry":{"type":"Point","coordinates":[-73.736231,43.06813]}},{"properties":{"zip":"02718","cus no":"D09946","geo_score":0.714,"id":"abe32ayzwwrq","geo_precision":"zip"},"type":"Feature","geometry":{"type":"Point","coordinates":[-71.013148,41.871407]}},{"properties":{"zip":"01038","cus no":"D09962","geo_score":0.714,"id":"abe32avak2wb","geo_precision":"zip"},"type":"Feature","geometry":{"type":"Point","coordinates":[-72.591756,42.410644]}},{"properties":{"zip":"12779","cus no":"D10358","geo_score":0.714,"id":"abe32az2idzy","geo_precision":"zip"},"type":"Feature","geometry":{"type":"Point","coordinates":[-74.716843,41.770195]}},{"properties":{"zip":"13642","cus no":"D10395","geo_score":0.714,"id":"abe32b06d8ol","geo_precision":"zip"},"type":"Feature","geometry":{"type":"Point","coordinates":[-75.510218,44.353672]}},{"properties":{"zip":"14892","cus no":"D10472","geo_score":0.714,"id":"abe32ato4ziy","geo_precision":"zip"},"type":"Feature","geometry":{"type":"Point","coordinates":[-76.523555,42.021741]}},{"properties":{"zip":"13206","cus no":"D10572","geo_score":0.714,"id":"abe32at7qgf6","geo_precision":"zip"},"type":"Feature","geometry":{"type":"Point","coordinates":[-76.104645,43.066178]}},{"properties":{"zip":"08901","cus no":"D10603","geo_score":0.714,"id":"abe32auj3qsy","geo_precision":"zip"},"type":"Feature","geometry":{"type":"Point","coordinates":[-74.444395,40.486754]}},{"properties":{"zip":"06489","cus no":"D10772","geo_score":0.714,"id":"abe32axsemgs","geo_precision":"zip"},"type":"Feature","geometry":{"type":"Point","coordinates":[-72.853434,41.558153]}},{"properties":{"zip":"06492","cus no":"D10773","geo_score":0.714,"id":"abe32b1g3ipk","geo_precision":"zip"},"type":"Feature","geometry":{"type":"Point","coordinates":[-72.81892,41.449868]}},{"properties":{"zip":"06019","cus no":"D10774","geo_score":0.714,"id":"abe32b3ybngt","geo_precision":"zip"},"type":"Feature","geometry":{"type":"Point","coordinates":[-72.899645,41.842882]}},{"properties":{"zip":"06413","cus no":"D10775","geo_score":0.714,"id":"abe32b1979n8","geo_precision":"zip"},"type":"Feature","geometry":{"type":"Point","coordinates":[-72.532934,41.298201]}},{"properties":{"zip":"06488","cus no":"D10776","geo_score":0.714,"id":"abe32aqnk8e2","geo_precision":"zip"},"type":"Feature","geometry":{"type":"Point","coordinates":[-73.252338,41.44454]}},{"properties":{"zip":"06906","cus no":"D10777","geo_score":0.714,"id":"abe32aqb62by","geo_precision":"zip"},"type":"Feature","geometry":{"type":"Point","coordinates":[-73.521416,41.071246]}},{"properties":{"zip":"06484","cus no":"D10778","geo_score":0.714,"id":"abe32b48qret","geo_precision":"zip"},"type":"Feature","geometry":{"type":"Point","coordinates":[-73.146222,41.296485]}},{"properties":{"zip":"06825","cus no":"D10779","geo_score":0.0,"id":"abe32azp3shf","geo_precision":"unmatched"},"type":"Feature","geometry":null},{"properties":{"zip":"06614","cus no":"D10842","geo_score":0.714,"id":"abe32aqwrmjn","geo_precision":"zip"},"type":"Feature","geometry":{"type":"Point","coordinates":[-73.130353,41.216006]}},{"properties":{"zip":"06082","cus no":"D10843","geo_score":0.714,"id":"abe32awxbkb1","geo_precision":"zip"},"type":"Feature","geometry":{"type":"Point","coordinates":[-72.571477,41.962597]}},{"properties":{"zip":"06514","cus no":"D10844","geo_score":0.714,"id":"abe32ayn54d5","geo_precision":"zip"},"type":"Feature","geometry":{"type":"Point","coordinates":[-72.908713,41.36343]}},{"properties":{"zip":"06118","cus no":"D10845","geo_score":0.714,"id":"abe32b33q34l","geo_precision":"zip"},"type":"Feature","geometry":{"type":"Point","coordinates":[-72.633702,41.740656]}},{"properties":{"zip":"06320","cus no":"D10846","geo_score":0.714,"id":"abe32axmpisj","geo_precision":"zip"},"type":"Feature","geometry":{"type":"Point","coordinates":[-72.099243,41.366487]}},{"properties":{"zip":"06119","cus no":"D10847","geo_score":0.714,"id":"abe32ars27zl","geo_precision":"zip"},"type":"Feature","geometry":{"type":"Point","coordinates":[-72.727308,41.763137]}},{"properties":{"zip":"06905","cus no":"D10848","geo_score":0.714,"id":"abe32awf9vfm","geo_precision":"zip"},"type":"Feature","geometry":{"type":"Point","coordinates":[-73.555679,41.066764]}},{"properties":{"zip":"06804","cus no":"D10849","geo_score":0.714,"id":"abe32aurmbcj","geo_precision":"zip"},"type":"Feature","geometry":{"type":"Point","coordinates":[-73.38762,41.466206]}},{"properties":{"zip":"06902","cus no":"D10850","geo_score":0.714,"id":"abe32ayb116v","geo_precision":"zip"},"type":"Feature","geometry":{"type":"Point","coordinates":[-73.544477,41.060196]}},{"properties":{"zip":"05301","cus no":"F12250","geo_score":0.714,"id":"abe32atrn6qn","geo_precision":"zip"},"type":"Feature","geometry":{"type":"Point","coordinates":[-72.742316,42.815638]}},{"properties":{"zip":"02767","cus no":"M02626","geo_score":0.714,"id":"abe32au9r838","geo_precision":"zip"},"type":"Feature","geometry":{"type":"Point","coordinates":[-71.048941,41.9367]}},{"properties":{"zip":"23842","cus no":"M15112","geo_score":0.714,"id":"abe32attuga5","geo_precision":"zip"},"type":"Feature","geometry":{"type":"Point","coordinates":[-77.320256,37.183761]}},{"properties":{"zip":"15672","cus no":"M20490","geo_score":0.714,"id":"abe32awmd8ns","geo_precision":"zip"},"type":"Feature","geometry":{"type":"Point","coordinates":[-79.605874,40.227293]}},{"properties":{"zip":"17847","cus no":"M22913","geo_score":0.714,"id":"abe32azp6h1p","geo_precision":"zip"},"type":"Feature","geometry":{"type":"Point","coordinates":[-76.871632,40.968974]}},{"properties":{"zip":"19551","cus no":"M50473","geo_score":0.714,"id":"abe32atz0k5m","geo_precision":"zip"},"type":"Feature","geometry":{"type":"Point","coordinates":[-75.88889,40.326171]}},{"properties":{"zip":"17013","cus no":"M50815","geo_score":0.714,"id":"abe32axqszkc","geo_precision":"zip"},"type":"Feature","geometry":{"type":"Point","coordinates":[-77.164425,40.27092]}},{"properties":{"zip":"07072","cus no":"M52162","geo_score":0.714,"id":"abe32apvabu5","geo_precision":"zip"},"type":"Feature","geometry":{"type":"Point","coordinates":[-74.076055,40.828399]}},{"properties":{"zip":"11378","cus no":"M52985","geo_score":0.714,"id":"abe32atflfhy","geo_precision":"zip"},"type":"Feature","geometry":{"type":"Point","coordinates":[-73.908413,40.722848]}}],"is_temporal":false,"author":{"url":"","metadata":null,"contact_name":null,"contact_address":null,"source":null,"contact_phone":null},"source":"","pagination":{"sort":null,"start":0,"total":73,"limit":1000000},"state":"complete","tags":"","published":"2014-08-16T13:44:23-04:00","id":310558}