{"type":"FeatureCollection","data_type":"Dataset","url_type":null,"permissions":[{"permissions":{"download":true,"view":true},"group_id":"everyone"}],"classification":null,"title":"proceeds to bpo","count":323,"stream_id":310819,"contributor":{"url":"http://geocommons.com/users/54081","name":"shap"},"data_attributes":null,"calculation_params":null,"icon_link":null,"link":"http://geocommons.com/overlays/310819.json","extent":[-114.232,31.4673,-96.7213,40.8679],"geometry_types":["point"],"unique_name":null,"name":"proceeds to bpo","feature_count":323,"description":"","next_feature":null,"is_raster":false,"short_classification":"Y","stats":{"prop_nonreo_sales_prc":{"max":null,"median":null,"min":null},"proceeds to adj bpo value":{"max":null,"median":null,"min":null}},"features":[{"properties":{"city":"MESA","st":"AZ","zip":"68520","proceeds to adj bpo value":"120.77%","prop_nonreo_sales_prc":"0","geo_score":0.493,"street address":"565 N GRAND","prop_stdz_adr_st_cd":"AZ","id":"abeogh0zy8yl","geo_precision":"street"},"type":"Feature","geometry":{"type":"Point","coordinates":[-96.721328,40.867889]}},{"properties":{"city":"PHOENIX","st":"AZ","zip":"85008","proceeds to adj bpo value":"169.60%","prop_nonreo_sales_prc":"0","geo_score":0.837,"street address":"2224 NORTH 24TH PLACE","prop_stdz_adr_st_cd":"AZ","id":"abeogh1zuo28","geo_precision":"range"},"type":"Feature","geometry":{"type":"Point","coordinates":[-112.029068,33.472707]}},{"properties":{"city":"PHOENIX","st":"AZ","zip":"85008","proceeds to adj bpo value":"103.86%","prop_nonreo_sales_prc":"0","geo_score":0.902,"street address":"3527 E PALM LN","prop_stdz_adr_st_cd":"AZ","id":"abeogh0tceyy","geo_precision":"range"},"type":"Feature","geometry":{"type":"Point","coordinates":[-112.006135,33.469322]}},{"properties":{"city":"PHOENIX","st":"AZ","zip":"85008","proceeds to adj bpo value":"85.49%","prop_nonreo_sales_prc":"0","geo_score":0.902,"street address":"3820 E WILSHIRE DR","prop_stdz_adr_st_cd":"AZ","id":"abeogh38aipx","geo_precision":"range"},"type":"Feature","geometry":{"type":"Point","coordinates":[-111.999317,33.47574]}},{"properties":{"city":"PHOENIX","st":"AZ","zip":"85008","proceeds to adj bpo value":"134.25%","prop_nonreo_sales_prc":"0","geo_score":0.504,"street address":"4726 E MCKINLEY ST","prop_stdz_adr_st_cd":"AZ","id":"abeogh5fdskn","geo_precision":"street"},"type":"Feature","geometry":{"type":"Point","coordinates":[-111.978627,33.357967]}},{"properties":{"city":"PHOENIX","st":"AZ","zip":"85009","proceeds to adj bpo value":"186.41%","prop_nonreo_sales_prc":"0","geo_score":0.902,"street address":"2637 W WASHINGTON ST","prop_stdz_adr_st_cd":"AZ","id":"abeogh389sj0","geo_precision":"range"},"type":"Feature","geometry":{"type":"Point","coordinates":[-112.116873,33.448116]}},{"properties":{"city":"PHOENIX","st":"AZ","zip":"85009","proceeds to adj bpo value":"146.27%","prop_nonreo_sales_prc":"0","geo_score":0.844,"street address":"112 S 29TH AVE","prop_stdz_adr_st_cd":"AZ","id":"abeogh0dxur0","geo_precision":"range"},"type":"Feature","geometry":{"type":"Point","coordinates":[-112.121811,33.447761]}},{"properties":{"city":"PHOENIX","st":"AZ","zip":"85009","proceeds to adj bpo value":"120.40%","prop_nonreo_sales_prc":"0","geo_score":0.902,"street address":"3234 WEST PIERCE STREET","prop_stdz_adr_st_cd":"AZ","id":"abeogh9nhb92","geo_precision":"range"},"type":"Feature","geometry":{"type":"Point","coordinates":[-112.129237,33.456019]}},{"properties":{"city":"PHOENIX","st":"AZ","zip":"85013","proceeds to adj bpo value":"93.89%","prop_nonreo_sales_prc":"0","geo_score":0.415,"street address":"3848 NORTH 3RD AVENUE #1009","prop_stdz_adr_st_cd":"AZ","id":"abeogha9bzl1","geo_precision":"street"},"type":"Feature","geometry":{"type":"Point","coordinates":[-112.078202,33.481257]}},{"properties":{"city":"PHOENIX","st":"AZ","zip":"85013","proceeds to adj bpo value":"97.83%","prop_nonreo_sales_prc":"0","geo_score":0.902,"street address":"206 WEST ROMA AVENUE","prop_stdz_adr_st_cd":"AZ","id":"abeogh6wbrxa","geo_precision":"range"},"type":"Feature","geometry":{"type":"Point","coordinates":[-112.078003,33.50122]}},{"properties":{"city":"PHOENIX","st":"AZ","zip":"85014","proceeds to adj bpo value":"105.38%","prop_nonreo_sales_prc":"0","geo_score":0.902,"street address":"845 E LAMAR ROAD","prop_stdz_adr_st_cd":"AZ","id":"abeoggzvxt5x","geo_precision":"range"},"type":"Feature","geometry":{"type":"Point","coordinates":[-112.06106,33.536359]}},{"properties":{"city":"PHOENIX","st":"AZ","zip":"85015","proceeds to adj bpo value":"118.19%","prop_nonreo_sales_prc":"0","geo_score":0.902,"street address":"2423 W WHITTON AVE","prop_stdz_adr_st_cd":"AZ","id":"abeoggzlqzrw","geo_precision":"range"},"type":"Feature","geometry":{"type":"Point","coordinates":[-112.109497,33.489599]}},{"properties":{"city":"PHOENIX","st":"AZ","zip":"85016","proceeds to adj bpo value":"265.78%","prop_nonreo_sales_prc":"0","geo_score":0.415,"street address":"4225 N 21ST STREET #30","prop_stdz_adr_st_cd":"AZ","id":"abeogh8ej8cc","geo_precision":"street"},"type":"Feature","geometry":{"type":"Point","coordinates":[-112.035551,33.483906]}},{"properties":{"city":"PHOENIX","st":"AZ","zip":"85016","proceeds to adj bpo value":"123.20%","prop_nonreo_sales_prc":"0","geo_score":0.902,"street address":"2906 E CHEERY LYNN RD","prop_stdz_adr_st_cd":"AZ","id":"abeogh1k3fqz","geo_precision":"range"},"type":"Feature","geometry":{"type":"Point","coordinates":[-112.017353,33.485115]}},{"properties":{"city":"PHOENIX","st":"AZ","zip":"85016","proceeds to adj bpo value":"104.32%","prop_nonreo_sales_prc":"0","geo_score":0.72,"street address":"4201 N 20TH STREET UNIT 226","prop_stdz_adr_st_cd":"AZ","id":"abeoghe6xo60","geo_precision":"range"},"type":"Feature","geometry":{"type":"Point","coordinates":[-112.03889,33.498387]}},{"properties":{"city":"PHOENIX","st":"AZ","zip":"85017","proceeds to adj bpo value":"213.59%","prop_nonreo_sales_prc":"0","geo_score":0.883,"street address":"2935 W MONTECITO AV","prop_stdz_adr_st_cd":"AZ","id":"abeogh4cakix","geo_precision":"range"},"type":"Feature","geometry":{"type":"Point","coordinates":[-112.124137,33.499241]}},{"properties":{"city":"PHOENIX","st":"AZ","zip":"85017","proceeds to adj bpo value":"199.83%","prop_nonreo_sales_prc":"0","geo_score":0.902,"street address":"3015 W KRALL ST","prop_stdz_adr_st_cd":"AZ","id":"abeogh1s9m0s","geo_precision":"range"},"type":"Feature","geometry":{"type":"Point","coordinates":[-112.123666,33.534077]}},{"properties":{"city":"PHOENIX","st":"AZ","zip":"85017","proceeds to adj bpo value":"174.62%","prop_nonreo_sales_prc":"0","geo_score":0.902,"street address":"3137 W PIERSON ST","prop_stdz_adr_st_cd":"AZ","id":"abeoghdgf9ow","geo_precision":"range"},"type":"Feature","geometry":{"type":"Point","coordinates":[-112.129103,33.506925]}},{"properties":{"city":"PHOENIX","st":"AZ","zip":"85017","proceeds to adj bpo value":"160.31%","prop_nonreo_sales_prc":"0","geo_score":0.902,"street address":"2906 WEST STELLA LANE","prop_stdz_adr_st_cd":"AZ","id":"abeogh4mkuy0","geo_precision":"range"},"type":"Feature","geometry":{"type":"Point","coordinates":[-112.124612,33.53057]}},{"properties":{"city":"PHOENIX","st":"AZ","zip":"85017","proceeds to adj bpo value":"150.13%","prop_nonreo_sales_prc":"0","geo_score":0.902,"street address":"3201 W STELLA LANE","prop_stdz_adr_st_cd":"AZ","id":"abeogh5yg60i","geo_precision":"range"},"type":"Feature","geometry":{"type":"Point","coordinates":[-112.12848,33.53041]}},{"properties":{"city":"PHOENIX","st":"AZ","zip":"85017","proceeds to adj bpo value":"143.33%","prop_nonreo_sales_prc":"0","geo_score":0.902,"street address":"3409 W CAMELBACK RD","prop_stdz_adr_st_cd":"AZ","id":"abeoggy57u7k","geo_precision":"range"},"type":"Feature","geometry":{"type":"Point","coordinates":[-112.134067,33.509362]}},{"properties":{"city":"PHOENIX","st":"AZ","zip":"85019","proceeds to adj bpo value":"90.55%","prop_nonreo_sales_prc":"0","geo_score":0.809,"street address":"3605 W BETHANY HOME RD UNIT 12","prop_stdz_adr_st_cd":"AZ","id":"abeoghe7t0jr","geo_precision":"range"},"type":"Feature","geometry":{"type":"Point","coordinates":[-112.136854,33.523888]}},{"properties":{"city":"PHOENIX","st":"AZ","zip":"85019","proceeds to adj bpo value":"149.01%","prop_nonreo_sales_prc":"0","geo_score":0.459,"street address":"3822 W. SAN JUAN AVENUE","prop_stdz_adr_st_cd":"AZ","id":"abeogh5hrwsr","geo_precision":"street"},"type":"Feature","geometry":{"type":"Point","coordinates":[-112.134393,33.518577]}},{"properties":{"city":"PHOENIX","st":"AZ","zip":"85019","proceeds to adj bpo value":"98.00%","prop_nonreo_sales_prc":"0","geo_score":0.902,"street address":"3641 W HAZELWOOD ST","prop_stdz_adr_st_cd":"AZ","id":"abeogh16pgpe","geo_precision":"range"},"type":"Feature","geometry":{"type":"Point","coordinates":[-112.136266,33.503527]}},{"properties":{"city":"PHOENIX","st":"AZ","zip":"85020","proceeds to adj bpo value":"126.64%","prop_nonreo_sales_prc":"0","geo_score":0.727,"street address":"1125 EAST NORTH LANE 2","prop_stdz_adr_st_cd":"AZ","id":"abeogh810l3x","geo_precision":"range"},"type":"Feature","geometry":{"type":"Point","coordinates":[-112.057311,33.580646]}},{"properties":{"city":"PHOENIX","st":"AZ","zip":"85020","proceeds to adj bpo value":"110.15%","prop_nonreo_sales_prc":"0","geo_score":0.415,"street address":"7557 NORTH DREAMY DRAW #248","prop_stdz_adr_st_cd":"AZ","id":"abeogh6w2ic5","geo_precision":"street"},"type":"Feature","geometry":{"type":"Point","coordinates":[-112.044768,33.542946]}},{"properties":{"city":"PHOENIX","st":"AZ","zip":"85021","proceeds to adj bpo value":"113.31%","prop_nonreo_sales_prc":"0","geo_score":0.756,"street address":"10411 N 11TH AVENUE  22","prop_stdz_adr_st_cd":"AZ","id":"abeogh5twpkk","geo_precision":"range"},"type":"Feature","geometry":{"type":"Point","coordinates":[-112.086814,33.581158]}},{"properties":{"city":"PHOENIX","st":"AZ","zip":"85021","proceeds to adj bpo value":"112.05%","prop_nonreo_sales_prc":"0","geo_score":0.713,"street address":"7126 NORTH 19TH AVENUE UNIT 165","prop_stdz_adr_st_cd":"AZ","id":"abeoggyu5gx5","geo_precision":"range"},"type":"Feature","geometry":{"type":"Point","coordinates":[-112.099657,33.539508]}},{"properties":{"city":"PHOENIX","st":"AZ","zip":"85022","proceeds to adj bpo value":"134.13%","prop_nonreo_sales_prc":"0","geo_score":0.61,"street address":"1720 E THUNDERBIRD ROAD #2016","prop_stdz_adr_st_cd":"AZ","id":"abeoggymzd3w","geo_precision":"range"},"type":"Feature","geometry":{"type":"Point","coordinates":[-112.038416,33.597022]}},{"properties":{"city":"PHOENIX","st":"AZ","zip":"85023","proceeds to adj bpo value":"110.01%","prop_nonreo_sales_prc":"0","geo_score":0.745,"street address":"17201 N 16TH DR APT 3","prop_stdz_adr_st_cd":"AZ","id":"abeogh7kexp6","geo_precision":"range"},"type":"Feature","geometry":{"type":"Point","coordinates":[-112.093193,33.643068]}},{"properties":{"city":"PHOENIX","st":"AZ","zip":"85023","proceeds to adj bpo value":"91.67%","prop_nonreo_sales_prc":"0","geo_score":0.902,"street address":"614 WEST FELLARS DRIVE","prop_stdz_adr_st_cd":"AZ","id":"abeoghd9ydry","geo_precision":"range"},"type":"Feature","geometry":{"type":"Point","coordinates":[-112.081716,33.636332]}},{"properties":{"city":"PHOENIX","st":"AZ","zip":"85023","proceeds to adj bpo value":"86.99%","prop_nonreo_sales_prc":"0","geo_score":0.844,"street address":"13802 N 17TH AVE","prop_stdz_adr_st_cd":"AZ","id":"abeogh796fq1","geo_precision":"range"},"type":"Feature","geometry":{"type":"Point","coordinates":[-112.094125,33.611539]}},{"properties":{"city":"PHOENIX","st":"AZ","zip":"85024","proceeds to adj bpo value":"127.96%","prop_nonreo_sales_prc":"0","geo_score":0.488,"street address":"913 E BLACKHAWK DR","prop_stdz_adr_st_cd":"AZ","id":"abeogh4wu753","geo_precision":"zip"},"type":"Feature","geometry":{"type":"Point","coordinates":[-112.18717,33.276539]}},{"properties":{"city":"PHOENIX","st":"AZ","zip":"85024","proceeds to adj bpo value":"106.66%","prop_nonreo_sales_prc":"0","geo_score":0.902,"street address":"1952 E ROSEMONTE DRIVE","prop_stdz_adr_st_cd":"AZ","id":"abeoghaf6piu","geo_precision":"range"},"type":"Feature","geometry":{"type":"Point","coordinates":[-112.040523,33.656942]}},{"properties":{"city":"PHOENIX","st":"AZ","zip":"85024","proceeds to adj bpo value":"93.14%","prop_nonreo_sales_prc":"0","geo_score":0.837,"street address":"19601 N 14TH ST","prop_stdz_adr_st_cd":"AZ","id":"abeoghe7rw3x","geo_precision":"range"},"type":"Feature","geometry":{"type":"Point","coordinates":[-112.052109,33.664576]}},{"properties":{"city":"PHOENIX","st":"AZ","zip":"85024","proceeds to adj bpo value":"122.69%","prop_nonreo_sales_prc":"0","geo_score":0.476,"street address":"19210 N. 14TH STREET","prop_stdz_adr_st_cd":"AZ","id":"abeogh97n5ms","geo_precision":"street"},"type":"Feature","geometry":{"type":"Point","coordinates":[-112.051076,33.656669]}},{"properties":{"city":"PHOENIX","st":"AZ","zip":"85024","proceeds to adj bpo value":"103.73%","prop_nonreo_sales_prc":"0","geo_score":0.902,"street address":"1406 EAST KERRY LANE","prop_stdz_adr_st_cd":"AZ","id":"abeoggz4ddtc","geo_precision":"range"},"type":"Feature","geometry":{"type":"Point","coordinates":[-112.05048,33.660609]}},{"properties":{"city":"PHOENIX","st":"AZ","zip":"85027","proceeds to adj bpo value":"174.24%","prop_nonreo_sales_prc":"0","geo_score":0.837,"street address":"20825 N 22ND DR","prop_stdz_adr_st_cd":"AZ","id":"abeogha3ox6a","geo_precision":"range"},"type":"Feature","geometry":{"type":"Point","coordinates":[-112.107312,33.675356]}},{"properties":{"city":"PHOENIX","st":"AZ","zip":"85027","proceeds to adj bpo value":"118.43%","prop_nonreo_sales_prc":"0","geo_score":0.415,"street address":"18811 NORTH 19TH AVENUE #3015","prop_stdz_adr_st_cd":"AZ","id":"abeogh47pbx5","geo_precision":"street"},"type":"Feature","geometry":{"type":"Point","coordinates":[-112.099773,33.658004]}},{"properties":{"city":"PHOENIX","st":"AZ","zip":"85027","proceeds to adj bpo value":"111.17%","prop_nonreo_sales_prc":"0","geo_score":0.468,"street address":"1019 W. MONONA DRIVE","prop_stdz_adr_st_cd":"AZ","id":"abeogh1g3y6v","geo_precision":"street"},"type":"Feature","geometry":{"type":"Point","coordinates":[-112.07568,33.675393]}},{"properties":{"city":"PHOENIX","st":"AZ","zip":"85027","proceeds to adj bpo value":"94.32%","prop_nonreo_sales_prc":"0","geo_score":0.902,"street address":"106 W RENEE DR","prop_stdz_adr_st_cd":"AZ","id":"abeoggz8to1r","geo_precision":"range"},"type":"Feature","geometry":{"type":"Point","coordinates":[-112.075434,33.655307]}},{"properties":{"city":"PHOENIX","st":"AZ","zip":"85027","proceeds to adj bpo value":"94.71%","prop_nonreo_sales_prc":"0","geo_score":0.902,"street address":"1668 W SEQUOIA DR","prop_stdz_adr_st_cd":"AZ","id":"abeogh7iu16b","geo_precision":"range"},"type":"Feature","geometry":{"type":"Point","coordinates":[-112.092164,33.664154]}},{"properties":{"city":"PHOENIX","st":"AZ","zip":"85028","proceeds to adj bpo value":"101.21%","prop_nonreo_sales_prc":"0","geo_score":0.769,"street address":"11640 N TATUM BLVD UNIT 2085","prop_stdz_adr_st_cd":"AZ","id":"abeoghcbjp7l","geo_precision":"range"},"type":"Feature","geometry":{"type":"Point","coordinates":[-111.980741,33.594777]}},{"properties":{"city":"PHOENIX","st":"AZ","zip":"85029","proceeds to adj bpo value":"185.11%","prop_nonreo_sales_prc":"0","geo_score":0.488,"street address":"3134 WEST YUCCA STREET","prop_stdz_adr_st_cd":"AZ","id":"abeogh1ekkec","geo_precision":"zip"},"type":"Feature","geometry":{"type":"Point","coordinates":[-112.18717,33.276539]}},{"properties":{"city":"PHOENIX","st":"AZ","zip":"85029","proceeds to adj bpo value":"141.89%","prop_nonreo_sales_prc":"0","geo_score":0.902,"street address":"3550 WEST JOAN DE ARC AV","prop_stdz_adr_st_cd":"AZ","id":"abeogh11gqu9","geo_precision":"range"},"type":"Feature","geometry":{"type":"Point","coordinates":[-112.137266,33.607287]}},{"properties":{"city":"PHOENIX","st":"AZ","zip":"85029","proceeds to adj bpo value":"132.25%","prop_nonreo_sales_prc":"0","geo_score":0.837,"street address":"13245 N 25TH DR","prop_stdz_adr_st_cd":"AZ","id":"abeoghdn33g7","geo_precision":"range"},"type":"Feature","geometry":{"type":"Point","coordinates":[-112.112436,33.607607]}},{"properties":{"city":"PHOENIX","st":"AZ","zip":"85029","proceeds to adj bpo value":"113.32%","prop_nonreo_sales_prc":"0","geo_score":0.468,"street address":"2509 W. DAHLIA DR.","prop_stdz_adr_st_cd":"AZ","id":"abeogh8osf51","geo_precision":"street"},"type":"Feature","geometry":{"type":"Point","coordinates":[-112.085943,33.602483]}},{"properties":{"city":"PHOENIX","st":"AZ","zip":"85031","proceeds to adj bpo value":"241.21%","prop_nonreo_sales_prc":"0","geo_score":0.902,"street address":"5515 WEST MONTEROSA STREET","prop_stdz_adr_st_cd":"AZ","id":"abeoggyp00vj","geo_precision":"range"},"type":"Feature","geometry":{"type":"Point","coordinates":[-112.17875,33.495506]}},{"properties":{"city":"PHOENIX","st":"AZ","zip":"85032","proceeds to adj bpo value":"103.78%","prop_nonreo_sales_prc":"0","geo_score":0.902,"street address":"4108 EAST WINDROSE DRIVE","prop_stdz_adr_st_cd":"AZ","id":"abeogh654gyy","geo_precision":"range"},"type":"Feature","geometry":{"type":"Point","coordinates":[-111.992312,33.602098]}},{"properties":{"city":"PHOENIX","st":"AZ","zip":"85032","proceeds to adj bpo value":"69.84%","prop_nonreo_sales_prc":"0","geo_score":0.902,"street address":"2502 E VILLA RITA DRIVE","prop_stdz_adr_st_cd":"AZ","id":"abeogh6xlil4","geo_precision":"range"},"type":"Feature","geometry":{"type":"Point","coordinates":[-112.028301,33.649344]}},{"properties":{"city":"PHOENIX","st":"AZ","zip":"85032","proceeds to adj bpo value":"101.96%","prop_nonreo_sales_prc":"0","geo_score":0.902,"street address":"3051 E CORRINE DR","prop_stdz_adr_st_cd":"AZ","id":"abeoghe9zl7o","geo_precision":"range"},"type":"Feature","geometry":{"type":"Point","coordinates":[-112.016045,33.60166]}},{"properties":{"city":"PHOENIX","st":"AZ","zip":"85033","proceeds to adj bpo value":"169.81%","prop_nonreo_sales_prc":"0","geo_score":0.844,"street address":"3215 N 79TH AVE","prop_stdz_adr_st_cd":"AZ","id":"abeoghde58va","geo_precision":"range"},"type":"Feature","geometry":{"type":"Point","coordinates":[-112.228667,33.48554]}},{"properties":{"city":"PHOENIX","st":"AZ","zip":"85033","proceeds to adj bpo value":"141.10%","prop_nonreo_sales_prc":"0","geo_score":0.902,"street address":"7904 W CATALINA DR","prop_stdz_adr_st_cd":"AZ","id":"abeogh9bbazv","geo_precision":"range"},"type":"Feature","geometry":{"type":"Point","coordinates":[-112.228738,33.481301]}},{"properties":{"city":"PHOENIX","st":"AZ","zip":"85033","proceeds to adj bpo value":"114.93%","prop_nonreo_sales_prc":"0","geo_score":0.902,"street address":"7262 WEST COLLEGE DRIVE","prop_stdz_adr_st_cd":"AZ","id":"abeoghe0xyyq","geo_precision":"range"},"type":"Feature","geometry":{"type":"Point","coordinates":[-112.215195,33.508389]}},{"properties":{"city":"PHOENIX","st":"AZ","zip":"85033","proceeds to adj bpo value":"99.50%","prop_nonreo_sales_prc":"0","geo_score":0.837,"street address":"4242 N 67TH LN","prop_stdz_adr_st_cd":"AZ","id":"abeoghe52bub","geo_precision":"range"},"type":"Feature","geometry":{"type":"Point","coordinates":[-112.204671,33.498209]}},{"properties":{"city":"PHOENIX","st":"AZ","zip":"85033","proceeds to adj bpo value":"94.24%","prop_nonreo_sales_prc":"0","geo_score":0.837,"street address":"4711 N 79TH DR","prop_stdz_adr_st_cd":"AZ","id":"abeoghbxzqtq","geo_precision":"range"},"type":"Feature","geometry":{"type":"Point","coordinates":[-112.229495,33.505975]}},{"properties":{"city":"PHOENIX","st":"AZ","zip":"85035","proceeds to adj bpo value":"175.99%","prop_nonreo_sales_prc":"0","geo_score":0.902,"street address":"5207 WEST ENCANTO BOULEVARD","prop_stdz_adr_st_cd":"AZ","id":"abeogh5jgqpn","geo_precision":"range"},"type":"Feature","geometry":{"type":"Point","coordinates":[-112.173703,33.473158]}},{"properties":{"city":"PHOENIX","st":"AZ","zip":"85035","proceeds to adj bpo value":"150.60%","prop_nonreo_sales_prc":"0","geo_score":0.837,"street address":"2830 NORTH 72ND DRIVE","prop_stdz_adr_st_cd":"AZ","id":"abeogh4qq9rn","geo_precision":"range"},"type":"Feature","geometry":{"type":"Point","coordinates":[-112.215848,33.480119]}},{"properties":{"city":"PHOENIX","st":"AZ","zip":"85035","proceeds to adj bpo value":"126.64%","prop_nonreo_sales_prc":"0","geo_score":0.844,"street address":"2201 NORTH 55TH AVENUE","prop_stdz_adr_st_cd":"AZ","id":"abeoghame6cw","geo_precision":"range"},"type":"Feature","geometry":{"type":"Point","coordinates":[-112.177721,33.471394]}},{"properties":{"city":"PHOENIX","st":"AZ","zip":"85035","proceeds to adj bpo value":"123.00%","prop_nonreo_sales_prc":"0","geo_score":0.902,"street address":"4810 W PALM LN","prop_stdz_adr_st_cd":"AZ","id":"abeogh9u3s15","geo_precision":"range"},"type":"Feature","geometry":{"type":"Point","coordinates":[-112.164162,33.469441]}},{"properties":{"city":"PHOENIX","st":"AZ","zip":"85035","proceeds to adj bpo value":"117.23%","prop_nonreo_sales_prc":"0","geo_score":0.866,"street address":"6201 WEST MONTE VISTA ROAD","prop_stdz_adr_st_cd":"AZ","id":"abeogh0y5e3u","geo_precision":"range"},"type":"Feature","geometry":{"type":"Point","coordinates":[-112.194269,33.470664]}},{"properties":{"city":"PHOENIX","st":"AZ","zip":"85037","proceeds to adj bpo value":"150.27%","prop_nonreo_sales_prc":"0","geo_score":0.902,"street address":"8508 W HAZELWOOD ST","prop_stdz_adr_st_cd":"AZ","id":"abeoghdnxdau","geo_precision":"range"},"type":"Feature","geometry":{"type":"Point","coordinates":[-112.243568,33.504144]}},{"properties":{"city":"PHOENIX","st":"AZ","zip":"85037","proceeds to adj bpo value":"138.55%","prop_nonreo_sales_prc":"0","geo_score":0.902,"street address":"8537 WEST MARIPOSA DRIVE","prop_stdz_adr_st_cd":"AZ","id":"abeogh2udh0d","geo_precision":"range"},"type":"Feature","geometry":{"type":"Point","coordinates":[-112.244084,33.50745]}},{"properties":{"city":"PHOENIX","st":"AZ","zip":"85037","proceeds to adj bpo value":"136.38%","prop_nonreo_sales_prc":"0","geo_score":0.708,"street address":"10839 W COOLIDGE ST","prop_stdz_adr_st_cd":"AZ","id":"abeoghcgemb6","geo_precision":"street"},"type":"Feature","geometry":{"type":"Point","coordinates":[-112.280284,33.50367]}},{"properties":{"city":"PHOENIX","st":"AZ","zip":"85037","proceeds to adj bpo value":"133.77%","prop_nonreo_sales_prc":"0","geo_score":0.902,"street address":"8859 W COLUMBUS AVE","prop_stdz_adr_st_cd":"AZ","id":"abeoghd1tfmf","geo_precision":"range"},"type":"Feature","geometry":{"type":"Point","coordinates":[-112.25068,33.488731]}},{"properties":{"city":"PHOENIX","st":"AZ","zip":"85037","proceeds to adj bpo value":"117.77%","prop_nonreo_sales_prc":"0","geo_score":0.707,"street address":"10922 WEST COLLEGE DRIVE","prop_stdz_adr_st_cd":"AZ","id":"abeoggyfze7f","geo_precision":"street"},"type":"Feature","geometry":{"type":"Point","coordinates":[-112.244132,33.50824]}},{"properties":{"city":"PHOENIX","st":"AZ","zip":"85037","proceeds to adj bpo value":"110.89%","prop_nonreo_sales_prc":"0","geo_score":0.488,"street address":"9229 WEST HIGHLAND AVENUE","prop_stdz_adr_st_cd":"AZ","id":"abeogh487y6s","geo_precision":"zip"},"type":"Feature","geometry":{"type":"Point","coordinates":[-112.18717,33.276539]}},{"properties":{"city":"PHOENIX","st":"AZ","zip":"85037","proceeds to adj bpo value":"109.09%","prop_nonreo_sales_prc":"0","geo_score":0.844,"street address":"4477 N 84TH AVE","prop_stdz_adr_st_cd":"AZ","id":"abeoggytc89w","geo_precision":"range"},"type":"Feature","geometry":{"type":"Point","coordinates":[-112.239615,33.500961]}},{"properties":{"city":"PHOENIX","st":"AZ","zip":"85037","proceeds to adj bpo value":"148.21%","prop_nonreo_sales_prc":"0","geo_score":0.902,"street address":"8302 WEST CLARENDON AVENUE","prop_stdz_adr_st_cd":"AZ","id":"abeoggyzm9d7","geo_precision":"range"},"type":"Feature","geometry":{"type":"Point","coordinates":[-112.237868,33.488992]}},{"properties":{"city":"PHOENIX","st":"AZ","zip":"85040","proceeds to adj bpo value":"130.42%","prop_nonreo_sales_prc":"0","geo_score":0.837,"street address":"5657 SOUTH 42ND STREET","prop_stdz_adr_st_cd":"AZ","id":"abeogha2auss","geo_precision":"range"},"type":"Feature","geometry":{"type":"Point","coordinates":[-111.990668,33.394741]}},{"properties":{"city":"PHOENIX","st":"AZ","zip":"85041","proceeds to adj bpo value":"134.60%","prop_nonreo_sales_prc":"0","geo_score":0.816,"street address":"1209W SHUMWAY FARM","prop_stdz_adr_st_cd":"AZ","id":"abeogha8vet4","geo_precision":"range"},"type":"Feature","geometry":{"type":"Point","coordinates":[-112.088226,33.383351]}},{"properties":{"city":"PHOENIX","st":"AZ","zip":"85041","proceeds to adj bpo value":"194.43%","prop_nonreo_sales_prc":"0","geo_score":0.902,"street address":"1534 WEST TAMARISK AVENUE","prop_stdz_adr_st_cd":"AZ","id":"abeoghct21sl","geo_precision":"range"},"type":"Feature","geometry":{"type":"Point","coordinates":[-112.094298,33.404391]}},{"properties":{"city":"PHOENIX","st":"AZ","zip":"85041","proceeds to adj bpo value":"131.53%","prop_nonreo_sales_prc":"0","geo_score":0.902,"street address":"2333 WEST GABY ROAD","prop_stdz_adr_st_cd":"AZ","id":"abeoghd6dc6s","geo_precision":"range"},"type":"Feature","geometry":{"type":"Point","coordinates":[-112.109353,33.403642]}},{"properties":{"city":"PHOENIX","st":"AZ","zip":"85041","proceeds to adj bpo value":"130.15%","prop_nonreo_sales_prc":"0","geo_score":0.902,"street address":"1841 W MALDONADO RD","prop_stdz_adr_st_cd":"AZ","id":"abeogh623ngc","geo_precision":"range"},"type":"Feature","geometry":{"type":"Point","coordinates":[-112.097197,33.383489]}},{"properties":{"city":"PHOENIX","st":"AZ","zip":"85041","proceeds to adj bpo value":"121.73%","prop_nonreo_sales_prc":"0","geo_score":0.732,"street address":"1541 WEST LYNNE LANE","prop_stdz_adr_st_cd":"AZ","id":"abeogh2rhb14","geo_precision":"street"},"type":"Feature","geometry":{"type":"Point","coordinates":[-112.091128,33.391208]}},{"properties":{"city":"PHOENIX","st":"AZ","zip":"85041","proceeds to adj bpo value":"108.85%","prop_nonreo_sales_prc":"0","geo_score":0.902,"street address":"128 WEST ELWOOD STREET","prop_stdz_adr_st_cd":"AZ","id":"abeogh74s5pg","geo_precision":"range"},"type":"Feature","geometry":{"type":"Point","coordinates":[-112.077144,33.414101]}},{"properties":{"city":"PHOENIX","st":"AZ","zip":"85042","proceeds to adj bpo value":"175.11%","prop_nonreo_sales_prc":"0","geo_score":0.829,"street address":"6826 SOUTH 8TH STREET","prop_stdz_adr_st_cd":"AZ","id":"abeoghdj52nl","geo_precision":"range"},"type":"Feature","geometry":{"type":"Point","coordinates":[-112.062293,33.38361]}},{"properties":{"city":"PHOENIX","st":"AZ","zip":"85042","proceeds to adj bpo value":"124.00%","prop_nonreo_sales_prc":"0","geo_score":0.902,"street address":"1113 E WINSTON DR","prop_stdz_adr_st_cd":"AZ","id":"abeoghb83ri6","geo_precision":"range"},"type":"Feature","geometry":{"type":"Point","coordinates":[-112.05939,33.369017]}},{"properties":{"city":"PHOENIX","st":"AZ","zip":"85042","proceeds to adj bpo value":"101.68%","prop_nonreo_sales_prc":"0","geo_score":0.476,"street address":"1117 E. BETH DRIVE","prop_stdz_adr_st_cd":"AZ","id":"abeogh60n26o","geo_precision":"street"},"type":"Feature","geometry":{"type":"Point","coordinates":[-112.070655,33.364607]}},{"properties":{"city":"PHOENIX","st":"AZ","zip":"85042","proceeds to adj bpo value":"96.39%","prop_nonreo_sales_prc":"0","geo_score":0.829,"street address":"7128 SOUTH 9TH PLACE","prop_stdz_adr_st_cd":"AZ","id":"abeoghbzq29n","geo_precision":"range"},"type":"Feature","geometry":{"type":"Point","coordinates":[-112.059362,33.381446]}},{"properties":{"city":"PHOENIX","st":"AZ","zip":"85042","proceeds to adj bpo value":"106.18%","prop_nonreo_sales_prc":"0","geo_score":0.902,"street address":"328 E MONTE WAY","prop_stdz_adr_st_cd":"AZ","id":"abeoghd2nzuv","geo_precision":"range"},"type":"Feature","geometry":{"type":"Point","coordinates":[-112.065971,33.361557]}},{"properties":{"city":"PHOENIX","st":"AZ","zip":"85043","proceeds to adj bpo value":"138.86%","prop_nonreo_sales_prc":"0","geo_score":0.837,"street address":"2226 S 82ND LN","prop_stdz_adr_st_cd":"AZ","id":"abeoggz14ujm","geo_precision":"range"},"type":"Feature","geometry":{"type":"Point","coordinates":[-112.237745,33.429226]}},{"properties":{"city":"PHOENIX","st":"AZ","zip":"85043","proceeds to adj bpo value":"123.55%","prop_nonreo_sales_prc":"0","geo_score":0.902,"street address":"7941 WEST WILLIAMS STREET","prop_stdz_adr_st_cd":"AZ","id":"abeoghatkg1d","geo_precision":"range"},"type":"Feature","geometry":{"type":"Point","coordinates":[-112.231599,33.421088]}},{"properties":{"city":"PHOENIX","st":"AZ","zip":"85043","proceeds to adj bpo value":"116.92%","prop_nonreo_sales_prc":"0","geo_score":0.902,"street address":"6943 WEST TAYLOR STREET","prop_stdz_adr_st_cd":"AZ","id":"abeogh5wik3i","geo_precision":"range"},"type":"Feature","geometry":{"type":"Point","coordinates":[-112.211529,33.453737]}},{"properties":{"city":"PHOENIX","st":"AZ","zip":"85043","proceeds to adj bpo value":"104.10%","prop_nonreo_sales_prc":"0","geo_score":0.708,"street address":"7309 WEST PAYSON ROAD","prop_stdz_adr_st_cd":"AZ","id":"abeoghd0c299","geo_precision":"street"},"type":"Feature","geometry":{"type":"Point","coordinates":[-112.230281,33.422601]}},{"properties":{"city":"PHOENIX","st":"AZ","zip":"85044","proceeds to adj bpo value":"136.73%","prop_nonreo_sales_prc":"0","geo_score":0.902,"street address":"4624 EAST DESERT DRIVE","prop_stdz_adr_st_cd":"AZ","id":"abeogh9aiv2n","geo_precision":"range"},"type":"Feature","geometry":{"type":"Point","coordinates":[-111.974962,33.367462]}},{"properties":{"city":"PHOENIX","st":"AZ","zip":"85044","proceeds to adj bpo value":"126.65%","prop_nonreo_sales_prc":"0","geo_score":0.902,"street address":"4629 EAST WINSTON DRIVE","prop_stdz_adr_st_cd":"AZ","id":"abeogh6touq2","geo_precision":"range"},"type":"Feature","geometry":{"type":"Point","coordinates":[-111.97511,33.368604]}},{"properties":{"city":"PHOENIX","st":"AZ","zip":"85050","proceeds to adj bpo value":"147.01%","prop_nonreo_sales_prc":"0","geo_score":0.837,"street address":"20814 NORTH 38TH PLACE","prop_stdz_adr_st_cd":"AZ","id":"abeogh6rpbir","geo_precision":"range"},"type":"Feature","geometry":{"type":"Point","coordinates":[-111.99963,33.676121]}},{"properties":{"city":"PHOENIX","st":"AZ","zip":"85051","proceeds to adj bpo value":"103.38%","prop_nonreo_sales_prc":"0","geo_score":0.902,"street address":"2530 W NORTHVIEW AVE","prop_stdz_adr_st_cd":"AZ","id":"abeogh2z6425","geo_precision":"range"},"type":"Feature","geometry":{"type":"Point","coordinates":[-112.113709,33.543744]}},{"properties":{"city":"PHOENIX","st":"AZ","zip":"85051","proceeds to adj bpo value":"92.47%","prop_nonreo_sales_prc":"0","geo_score":0.837,"street address":"7211 N 26TH LN","prop_stdz_adr_st_cd":"AZ","id":"abeogh3n570b","geo_precision":"range"},"type":"Feature","geometry":{"type":"Point","coordinates":[-112.116272,33.543503]}},{"properties":{"city":"PHOENIX","st":"AZ","zip":"85053","proceeds to adj bpo value":"106.86%","prop_nonreo_sales_prc":"0","geo_score":0.902,"street address":"3448 W HEARN RD","prop_stdz_adr_st_cd":"AZ","id":"abeogh3lopwe","geo_precision":"range"},"type":"Feature","geometry":{"type":"Point","coordinates":[-112.132592,33.614521]}},{"properties":{"city":"PHOENIX","st":"AZ","zip":"85053","proceeds to adj bpo value":"105.79%","prop_nonreo_sales_prc":"0","geo_score":0.902,"street address":"3202 WEST ANGELA DRIVE","prop_stdz_adr_st_cd":"AZ","id":"abeoggyn16pd","geo_precision":"range"},"type":"Feature","geometry":{"type":"Point","coordinates":[-112.130422,33.645582]}},{"properties":{"city":"PHOENIX","st":"AZ","zip":"85053","proceeds to adj bpo value":"86.80%","prop_nonreo_sales_prc":"0","geo_score":0.902,"street address":"3137 W COUNTRY GABLES DR","prop_stdz_adr_st_cd":"AZ","id":"abeogh1mbpfd","geo_precision":"range"},"type":"Feature","geometry":{"type":"Point","coordinates":[-112.127831,33.622302]}},{"properties":{"city":"ANTHEM","st":"AZ","zip":"85086","proceeds to adj bpo value":"99.45%","prop_nonreo_sales_prc":"0","geo_score":0.902,"street address":"3718 WEST CARTIER COURT","prop_stdz_adr_st_cd":"AZ","id":"abeoghdfkspd","geo_precision":"range"},"type":"Feature","geometry":{"type":"Point","coordinates":[-112.139182,33.875962]}},{"properties":{"city":"APACHE JUNCTION","st":"AZ","zip":"85119","proceeds to adj bpo value":"122.76%","prop_nonreo_sales_prc":"0","geo_score":0.0,"street address":"1045 E. YUMA AVE","prop_stdz_adr_st_cd":"AZ","id":"abeogh9ayxr2","geo_precision":"unmatched"},"type":"Feature","geometry":null},{"properties":{"city":"COOLIDGE","st":"AZ","zip":"85128","proceeds to adj bpo value":"89.75%","prop_nonreo_sales_prc":"0","geo_score":0.0,"street address":"1338 W CENTRAL AVE","prop_stdz_adr_st_cd":"AZ","id":"abeogh25ko1d","geo_precision":"unmatched"},"type":"Feature","geometry":null},{"properties":{"city":"MARICOPA","st":"AZ","zip":"85138","proceeds to adj bpo value":"122.14%","prop_nonreo_sales_prc":"0","geo_score":0.0,"street address":"18346 N CRESTVIEW LN","prop_stdz_adr_st_cd":"AZ","id":"abeoghe8azh7","geo_precision":"unmatched"},"type":"Feature","geometry":null},{"properties":{"city":"QUEEN CREEK","st":"AZ","zip":"85140","proceeds to adj bpo value":"97.03%","prop_nonreo_sales_prc":"0","geo_score":0.0,"street address":"4981 EAST MEADOW CREEK WAY","prop_stdz_adr_st_cd":"AZ","id":"abeogh92ws8h","geo_precision":"unmatched"},"type":"Feature","geometry":null},{"properties":{"city":"QUEEN CREEK","st":"AZ","zip":"85142","proceeds to adj bpo value":"99.15%","prop_nonreo_sales_prc":"0","geo_score":0.0,"street address":"18803 E SUPERSTITION DR","prop_stdz_adr_st_cd":"AZ","id":"abeogh9bhtbw","geo_precision":"unmatched"},"type":"Feature","geometry":null},{"properties":{"city":"MESA","st":"AZ","zip":"85201","proceeds to adj bpo value":"152.24%","prop_nonreo_sales_prc":"0","geo_score":0.829,"street address":"101 W 8TH PL","prop_stdz_adr_st_cd":"AZ","id":"abeogh0wdjhp","geo_precision":"range"},"type":"Feature","geometry":{"type":"Point","coordinates":[-111.83562,33.43041]}},{"properties":{"city":"MESA","st":"AZ","zip":"85201","proceeds to adj bpo value":"125.68%","prop_nonreo_sales_prc":"0","geo_score":0.415,"street address":"540 N MAY ST. 1093","prop_stdz_adr_st_cd":"AZ","id":"abeoghbc6uqe","geo_precision":"street"},"type":"Feature","geometry":{"type":"Point","coordinates":[-111.880265,33.428927]}},{"properties":{"city":"MESA","st":"AZ","zip":"85201","proceeds to adj bpo value":"122.90%","prop_nonreo_sales_prc":"0","geo_score":0.595,"street address":"141 N DATE APT 13","prop_stdz_adr_st_cd":"AZ","id":"abeoghao1viz","geo_precision":"street"},"type":"Feature","geometry":{"type":"Point","coordinates":[-111.844775,33.435404]}},{"properties":{"city":"MESA","st":"AZ","zip":"85201","proceeds to adj bpo value":"95.57%","prop_nonreo_sales_prc":"0","geo_score":0.902,"street address":"318 EAST JACARANDA STREET","prop_stdz_adr_st_cd":"AZ","id":"abeogh8pm380","geo_precision":"range"},"type":"Feature","geometry":{"type":"Point","coordinates":[-111.824622,33.448968]}},{"properties":{"city":"MESA","st":"AZ","zip":"85202","proceeds to adj bpo value":"93.55%","prop_nonreo_sales_prc":"0","geo_score":0.902,"street address":"2066 WEST PERALTA AVENUE","prop_stdz_adr_st_cd":"AZ","id":"abeogh34dg75","geo_precision":"range"},"type":"Feature","geometry":{"type":"Point","coordinates":[-111.879833,33.357649]}},{"properties":{"city":"MESA","st":"AZ","zip":"85202","proceeds to adj bpo value":"87.49%","prop_nonreo_sales_prc":"0","geo_score":0.902,"street address":"2142 W INLET LOOP","prop_stdz_adr_st_cd":"AZ","id":"abeogh3apnfd","geo_precision":"range"},"type":"Feature","geometry":{"type":"Point","coordinates":[-111.877184,33.38187]}},{"properties":{"city":"MESA","st":"AZ","zip":"85202","proceeds to adj bpo value":"83.66%","prop_nonreo_sales_prc":"0","geo_score":0.902,"street address":"1253 W PECOS AVE","prop_stdz_adr_st_cd":"AZ","id":"abeogh3owcd6","geo_precision":"range"},"type":"Feature","geometry":{"type":"Point","coordinates":[-111.860087,33.360102]}},{"properties":{"city":"MESA","st":"AZ","zip":"85202","proceeds to adj bpo value":"89.07%","prop_nonreo_sales_prc":"0","geo_score":0.902,"street address":"2113 W DEL CAMPO CIRCLE","prop_stdz_adr_st_cd":"AZ","id":"abeoghcf7qhl","geo_precision":"range"},"type":"Feature","geometry":{"type":"Point","coordinates":[-111.880853,33.40102]}},{"properties":{"city":"MESA","st":"AZ","zip":"85204","proceeds to adj bpo value":"154.26%","prop_nonreo_sales_prc":"0","geo_score":0.854,"street address":"1112 S SPUR","prop_stdz_adr_st_cd":"AZ","id":"abeogh0e0tx1","geo_precision":"range"},"type":"Feature","geometry":{"type":"Point","coordinates":[-111.800795,33.395753]}},{"properties":{"city":"MESA","st":"AZ","zip":"85204","proceeds to adj bpo value":"76.85%","prop_nonreo_sales_prc":"0","geo_score":0.902,"street address":"1832 EAST EMERALD AVENUE","prop_stdz_adr_st_cd":"AZ","id":"abeogh9gm61j","geo_precision":"range"},"type":"Feature","geometry":{"type":"Point","coordinates":[-111.790147,33.397456]}},{"properties":{"city":"MESA","st":"AZ","zip":"85204","proceeds to adj bpo value":"89.11%","prop_nonreo_sales_prc":"0","geo_score":0.902,"street address":"1528 E EL MORO AVE","prop_stdz_adr_st_cd":"AZ","id":"abeogh0gt5wy","geo_precision":"range"},"type":"Feature","geometry":{"type":"Point","coordinates":[-111.798415,33.398682]}},{"properties":{"city":"MESA","st":"AZ","zip":"85205","proceeds to adj bpo value":"121.86%","prop_nonreo_sales_prc":"0","geo_score":0.823,"street address":"4035 EAST CAMINO STREET","prop_stdz_adr_st_cd":"AZ","id":"abeoghaj2v5y","geo_precision":"range"},"type":"Feature","geometry":{"type":"Point","coordinates":[-111.743213,33.423989]}},{"properties":{"city":"MESA","st":"AZ","zip":"85205","proceeds to adj bpo value":"102.04%","prop_nonreo_sales_prc":"0","geo_score":0.462,"street address":"4842 E. PRINCESS DR.","prop_stdz_adr_st_cd":"AZ","id":"abeoghc0n56r","geo_precision":"street"},"type":"Feature","geometry":{"type":"Point","coordinates":[-111.736014,33.442721]}},{"properties":{"city":"MESA","st":"AZ","zip":"85205","proceeds to adj bpo value":"101.31%","prop_nonreo_sales_prc":"0","geo_score":0.837,"street address":"1648 N 59TH ST","prop_stdz_adr_st_cd":"AZ","id":"abeogha133bh","geo_precision":"range"},"type":"Feature","geometry":{"type":"Point","coordinates":[-111.70404,33.445577]}},{"properties":{"city":"MESA","st":"AZ","zip":"85206","proceeds to adj bpo value":"110.11%","prop_nonreo_sales_prc":"0","geo_score":0.902,"street address":"5645 EAST FLOSSMOOR AVENUE","prop_stdz_adr_st_cd":"AZ","id":"abeoggy0d4dq","geo_precision":"range"},"type":"Feature","geometry":{"type":"Point","coordinates":[-111.708553,33.394453]}},{"properties":{"city":"MESA","st":"AZ","zip":"85207","proceeds to adj bpo value":"132.13%","prop_nonreo_sales_prc":"0","geo_score":0.902,"street address":"9412 E EL PASO ST","prop_stdz_adr_st_cd":"AZ","id":"abeogh4084q4","geo_precision":"range"},"type":"Feature","geometry":{"type":"Point","coordinates":[-111.626736,33.431063]}},{"properties":{"city":"MESA","st":"AZ","zip":"85207","proceeds to adj bpo value":"119.09%","prop_nonreo_sales_prc":"0","geo_score":0.902,"street address":"11216 E DOVER ST","prop_stdz_adr_st_cd":"AZ","id":"abeogh8mgqfo","geo_precision":"range"},"type":"Feature","geometry":{"type":"Point","coordinates":[-111.588469,33.427324]}},{"properties":{"city":"MESA","st":"AZ","zip":"85207","proceeds to adj bpo value":"92.74%","prop_nonreo_sales_prc":"0","geo_score":0.902,"street address":"9420 EAST FLANDERS ROAD","prop_stdz_adr_st_cd":"AZ","id":"abeogh8b0wh5","geo_precision":"range"},"type":"Feature","geometry":{"type":"Point","coordinates":[-111.627559,33.434903]}},{"properties":{"city":"MESA","st":"AZ","zip":"85207","proceeds to adj bpo value":"98.65%","prop_nonreo_sales_prc":"0","geo_score":0.902,"street address":"7403 E IVYGLEN ST","prop_stdz_adr_st_cd":"AZ","id":"abeogh4xtpb3","geo_precision":"range"},"type":"Feature","geometry":{"type":"Point","coordinates":[-111.673801,33.445672]}},{"properties":{"city":"MESA","st":"AZ","zip":"85208","proceeds to adj bpo value":"126.91%","prop_nonreo_sales_prc":"0","geo_score":0.844,"street address":"447 S 89TH WAY","prop_stdz_adr_st_cd":"AZ","id":"abeoghci0rgx","geo_precision":"range"},"type":"Feature","geometry":{"type":"Point","coordinates":[-111.637388,33.406629]}},{"properties":{"city":"MESA","st":"AZ","zip":"85208","proceeds to adj bpo value":"100.17%","prop_nonreo_sales_prc":"0","geo_score":0.805,"street address":"8710 EAST KILAREA CIRCLE","prop_stdz_adr_st_cd":"AZ","id":"abeoghdebvgw","geo_precision":"range"},"type":"Feature","geometry":{"type":"Point","coordinates":[-111.647114,33.37668]}},{"properties":{"city":"MESA","st":"AZ","zip":"85208","proceeds to adj bpo value":"88.74%","prop_nonreo_sales_prc":"0","geo_score":0.708,"street address":"7900 EAST JAN AVENUE","prop_stdz_adr_st_cd":"AZ","id":"abeoghbuov21","geo_precision":"street"},"type":"Feature","geometry":{"type":"Point","coordinates":[-111.678266,33.38212]}},{"properties":{"city":"MESA","st":"AZ","zip":"85208","proceeds to adj bpo value":"103.93%","prop_nonreo_sales_prc":"0","geo_score":0.512,"street address":"1224 EAST EVERGREEN ST #213","prop_stdz_adr_st_cd":"AZ","id":"abeogh24paam","geo_precision":"range"},"type":"Feature","geometry":{"type":"Point","coordinates":[-111.854588,33.307172]}},{"properties":{"city":"MESA","st":"AZ","zip":"85210","proceeds to adj bpo value":"108.31%","prop_nonreo_sales_prc":"0","geo_score":0.417,"street address":"625 SOUTH WESTWOOD #114","prop_stdz_adr_st_cd":"AZ","id":"abeoghe98954","geo_precision":"street"},"type":"Feature","geometry":{"type":"Point","coordinates":[-111.852535,33.407686]}},{"properties":{"city":"MESA","st":"AZ","zip":"85212","proceeds to adj bpo value":"109.27%","prop_nonreo_sales_prc":"0","geo_score":0.902,"street address":"11205 EAST PERSIMMON AVENUE","prop_stdz_adr_st_cd":"AZ","id":"abeogh27pqj0","geo_precision":"range"},"type":"Feature","geometry":{"type":"Point","coordinates":[-111.590505,33.352761]}},{"properties":{"city":"MESA","st":"AZ","zip":"85212","proceeds to adj bpo value":"106.95%","prop_nonreo_sales_prc":"0","geo_score":0.796,"street address":"10353 EAST OSAGE","prop_stdz_adr_st_cd":"AZ","id":"abeogh2mipuo","geo_precision":"range"},"type":"Feature","geometry":{"type":"Point","coordinates":[-111.627731,33.362874]}},{"properties":{"city":"MESA","st":"AZ","zip":"85212","proceeds to adj bpo value":"104.95%","prop_nonreo_sales_prc":"0","geo_score":0.488,"street address":"11457 EAST PRONGHORN AVENUE","prop_stdz_adr_st_cd":"AZ","id":"abeogh3mhnb4","geo_precision":"zip"},"type":"Feature","geometry":{"type":"Point","coordinates":[-111.635307,33.342476]}},{"properties":{"city":"MESA","st":"AZ","zip":"85213","proceeds to adj bpo value":"159.86%","prop_nonreo_sales_prc":"0","geo_score":0.793,"street address":"2301 E UNIVERSITY DR UNIT 262","prop_stdz_adr_st_cd":"AZ","id":"abeoghblodvl","geo_precision":"range"},"type":"Feature","geometry":{"type":"Point","coordinates":[-111.777508,33.422677]}},{"properties":{"city":"MESA","st":"AZ","zip":"85215","proceeds to adj bpo value":"96.06%","prop_nonreo_sales_prc":"0","geo_score":0.902,"street address":"5331 EAST LINDSTROM LANE","prop_stdz_adr_st_cd":"AZ","id":"abeogh3usob9","geo_precision":"range"},"type":"Feature","geometry":{"type":"Point","coordinates":[-111.716806,33.453916]}},{"properties":{"city":"GOLD CANYON","st":"AZ","zip":"85218","proceeds to adj bpo value":"78.04%","prop_nonreo_sales_prc":"0","geo_score":0.403,"street address":"18245 EAST EL BUHO PEQUENO","prop_stdz_adr_st_cd":"AZ","id":"abeogh2cb8yd","geo_precision":"street"},"type":"Feature","geometry":{"type":"Point","coordinates":[-111.763297,33.310477]}},{"properties":{"city":"APACHE JUNCTION","st":"AZ","zip":"85220","proceeds to adj bpo value":"125.24%","prop_nonreo_sales_prc":"0","geo_score":0.902,"street address":"1738 SOUTH CARDINAL DRIVE","prop_stdz_adr_st_cd":"AZ","id":"abeogh3jm0aq","geo_precision":"range"},"type":"Feature","geometry":{"type":"Point","coordinates":[-111.55544,33.399649]}},{"properties":{"city":"CASA GRANDE","st":"AZ","zip":"85222","proceeds to adj bpo value":"107.98%","prop_nonreo_sales_prc":"0","geo_score":0.488,"street address":"1741 E CABORCA DRIVE","prop_stdz_adr_st_cd":"AZ","id":"abeoghb0k7y8","geo_precision":"zip"},"type":"Feature","geometry":{"type":"Point","coordinates":[-111.567069,32.879506]}},{"properties":{"city":"CASA GRANDE","st":"AZ","zip":"85222","proceeds to adj bpo value":"98.08%","prop_nonreo_sales_prc":"0","geo_score":0.902,"street address":"1368 NORTH OAK STREET","prop_stdz_adr_st_cd":"AZ","id":"abeogh14stp6","geo_precision":"range"},"type":"Feature","geometry":{"type":"Point","coordinates":[-111.710152,32.886754]}},{"properties":{"city":"CASA GRANDE","st":"AZ","zip":"85222","proceeds to adj bpo value":"93.61%","prop_nonreo_sales_prc":"0","geo_score":0.682,"street address":"289 WEST SETTLERS TRAIL","prop_stdz_adr_st_cd":"AZ","id":"abeogh2k0n3o","geo_precision":"range"},"type":"Feature","geometry":{"type":"Point","coordinates":[-111.783377,33.329579]}},{"properties":{"city":"CASA GRANDE","st":"AZ","zip":"85222","proceeds to adj bpo value":"90.51%","prop_nonreo_sales_prc":"0","geo_score":0.902,"street address":"125 E SAGUARO ST","prop_stdz_adr_st_cd":"AZ","id":"abeoghbu1df6","geo_precision":"range"},"type":"Feature","geometry":{"type":"Point","coordinates":[-111.749137,32.892669]}},{"properties":{"city":"CASA GRANDE","st":"AZ","zip":"85222","proceeds to adj bpo value":"88.54%","prop_nonreo_sales_prc":"0","geo_score":0.902,"street address":"1263 N LANTANA PL","prop_stdz_adr_st_cd":"AZ","id":"abeoggzncg3o","geo_precision":"range"},"type":"Feature","geometry":{"type":"Point","coordinates":[-111.708666,32.884754]}},{"properties":{"city":"CASA GRANDE","st":"AZ","zip":"85222","proceeds to adj bpo value":"123.73%","prop_nonreo_sales_prc":"0","geo_score":0.902,"street address":"1157 E SUNSET DR","prop_stdz_adr_st_cd":"AZ","id":"abeoggz3u1kd","geo_precision":"range"},"type":"Feature","geometry":{"type":"Point","coordinates":[-111.735752,32.89179]}},{"properties":{"city":"CASA GRANDE","st":"AZ","zip":"85222","proceeds to adj bpo value":"89.60%","prop_nonreo_sales_prc":"0","geo_score":0.902,"street address":"1921 N PALO VERDE COURT","prop_stdz_adr_st_cd":"AZ","id":"abeogh3ymf47","geo_precision":"range"},"type":"Feature","geometry":{"type":"Point","coordinates":[-111.746903,32.906433]}},{"properties":{"city":"ARIZONA CITY","st":"AZ","zip":"85223","proceeds to adj bpo value":"106.87%","prop_nonreo_sales_prc":"0","geo_score":0.902,"street address":"14681 SOUTH CHERRY HILLS DRIVE","prop_stdz_adr_st_cd":"AZ","id":"abeoghan2njq","geo_precision":"range"},"type":"Feature","geometry":{"type":"Point","coordinates":[-111.656503,32.746923]}},{"properties":{"city":"ARIZONA CITY","st":"AZ","zip":"85223","proceeds to adj bpo value":"92.59%","prop_nonreo_sales_prc":"0","geo_score":0.805,"street address":"11354 WEST LOBO DRIVE","prop_stdz_adr_st_cd":"AZ","id":"abeoggzzre6u","geo_precision":"range"},"type":"Feature","geometry":{"type":"Point","coordinates":[-111.689355,32.757037]}},{"properties":{"city":"CHANDLER","st":"AZ","zip":"85224","proceeds to adj bpo value":"130.76%","prop_nonreo_sales_prc":"0","geo_score":0.763,"street address":"1126 W ELLIOT RD UNIT 1015","prop_stdz_adr_st_cd":"AZ","id":"abeoggz978y2","geo_precision":"range"},"type":"Feature","geometry":{"type":"Point","coordinates":[-111.861498,33.349796]}},{"properties":{"city":"CHANDLER","st":"AZ","zip":"85224","proceeds to adj bpo value":"108.80%","prop_nonreo_sales_prc":"0","geo_score":0.902,"street address":"1570 W IVANHOE CT","prop_stdz_adr_st_cd":"AZ","id":"abeogh3pnj2k","geo_precision":"range"},"type":"Feature","geometry":{"type":"Point","coordinates":[-111.868518,33.316568]}},{"properties":{"city":"CHANDLER","st":"AZ","zip":"85224","proceeds to adj bpo value":"89.58%","prop_nonreo_sales_prc":"0","geo_score":0.902,"street address":"2524 NORTH CENTRAL DRIVE","prop_stdz_adr_st_cd":"AZ","id":"abeogh2quyvm","geo_precision":"range"},"type":"Feature","geometry":{"type":"Point","coordinates":[-111.864098,33.344469]}},{"properties":{"city":"CHANDLER","st":"AZ","zip":"85224","proceeds to adj bpo value":"32.82%","prop_nonreo_sales_prc":"0","geo_score":0.902,"street address":"1415 W TEMPLE PL","prop_stdz_adr_st_cd":"AZ","id":"abeoghbvimea","geo_precision":"range"},"type":"Feature","geometry":{"type":"Point","coordinates":[-111.867099,33.334174]}},{"properties":{"city":"CHANDLER","st":"AZ","zip":"85224","proceeds to adj bpo value":"117.05%","prop_nonreo_sales_prc":"0","geo_score":0.902,"street address":"2120 N CENTRAL DRIVE","prop_stdz_adr_st_cd":"AZ","id":"abeogh9d8l9g","geo_precision":"range"},"type":"Feature","geometry":{"type":"Point","coordinates":[-111.864285,33.337459]}},{"properties":{"city":"CHANDLER","st":"AZ","zip":"85224","proceeds to adj bpo value":"95.92%","prop_nonreo_sales_prc":"0","geo_score":0.902,"street address":"3005 N EL DORADO DR","prop_stdz_adr_st_cd":"AZ","id":"abeoghbojdec","geo_precision":"range"},"type":"Feature","geometry":{"type":"Point","coordinates":[-111.884664,33.351375]}},{"properties":{"city":"CHANDLER","st":"AZ","zip":"85224","proceeds to adj bpo value":"93.81%","prop_nonreo_sales_prc":"0","geo_score":0.902,"street address":"1406 W EL ALBA WAY","prop_stdz_adr_st_cd":"AZ","id":"abeogh4w7ieh","geo_precision":"range"},"type":"Feature","geometry":{"type":"Point","coordinates":[-111.866888,33.338611]}},{"properties":{"city":"CHANDLER","st":"AZ","zip":"85225","proceeds to adj bpo value":"126.25%","prop_nonreo_sales_prc":"0","geo_score":0.61,"street address":"726 SOUTH NEBRASKA STREET #134","prop_stdz_adr_st_cd":"AZ","id":"abeoghed55z6","geo_precision":"range"},"type":"Feature","geometry":{"type":"Point","coordinates":[-111.846516,33.301629]}},{"properties":{"city":"CHANDLER","st":"AZ","zip":"85225","proceeds to adj bpo value":"109.50%","prop_nonreo_sales_prc":"0","geo_score":0.902,"street address":"138 N ITHICA PL","prop_stdz_adr_st_cd":"AZ","id":"abeoghc3f0mz","geo_precision":"range"},"type":"Feature","geometry":{"type":"Point","coordinates":[-111.830007,33.304957]}},{"properties":{"city":"CHANDLER","st":"AZ","zip":"85225","proceeds to adj bpo value":"107.68%","prop_nonreo_sales_prc":"0","geo_score":0.902,"street address":"1361 EAST GARY DRIVE","prop_stdz_adr_st_cd":"AZ","id":"abeogh3fzo6z","geo_precision":"range"},"type":"Feature","geometry":{"type":"Point","coordinates":[-111.817181,33.321311]}},{"properties":{"city":"CHANDLER","st":"AZ","zip":"85225","proceeds to adj bpo value":"106.21%","prop_nonreo_sales_prc":"0","geo_score":0.902,"street address":"740 EAST GLENMERE DRIVE","prop_stdz_adr_st_cd":"AZ","id":"abeogh8myjyr","geo_precision":"range"},"type":"Feature","geometry":{"type":"Point","coordinates":[-111.829793,33.295739]}},{"properties":{"city":"CHANDLER","st":"AZ","zip":"85225","proceeds to adj bpo value":"97.46%","prop_nonreo_sales_prc":"0","geo_score":0.654,"street address":"1313 N DAKOTA ST","prop_stdz_adr_st_cd":"AZ","id":"abeogh67mro0","geo_precision":"street"},"type":"Feature","geometry":{"type":"Point","coordinates":[-111.84532,33.300585]}},{"properties":{"city":"CHANDLER","st":"AZ","zip":"85225","proceeds to adj bpo value":"91.56%","prop_nonreo_sales_prc":"0","geo_score":0.902,"street address":"13311 E BUTLER STREET","prop_stdz_adr_st_cd":"AZ","id":"abeoggy1qsfj","geo_precision":"range"},"type":"Feature","geometry":{"type":"Point","coordinates":[-111.796272,33.30096]}},{"properties":{"city":"CHANDLER","st":"AZ","zip":"85225","proceeds to adj bpo value":"90.64%","prop_nonreo_sales_prc":"0","geo_score":0.902,"street address":"1703 E GAIL DR","prop_stdz_adr_st_cd":"AZ","id":"abeogh6d9xjv","geo_precision":"range"},"type":"Feature","geometry":{"type":"Point","coordinates":[-111.812032,33.324111]}},{"properties":{"city":"CHANDLER","st":"AZ","zip":"85226","proceeds to adj bpo value":"87.39%","prop_nonreo_sales_prc":"0","geo_score":0.805,"street address":"800 N ENTRADA ST","prop_stdz_adr_st_cd":"AZ","id":"abeoghablkjk","geo_precision":"range"},"type":"Feature","geometry":{"type":"Point","coordinates":[-111.910003,33.316524]}},{"properties":{"city":"ELOY","st":"AZ","zip":"85231","proceeds to adj bpo value":"90.02%","prop_nonreo_sales_prc":"0","geo_score":0.902,"street address":"405 N SUNSHINE BLVD","prop_stdz_adr_st_cd":"AZ","id":"abeoghefx1p2","geo_precision":"range"},"type":"Feature","geometry":{"type":"Point","coordinates":[-111.550471,32.753879]}},{"properties":{"city":"GILBERT","st":"AZ","zip":"85233","proceeds to adj bpo value":"126.11%","prop_nonreo_sales_prc":"0","geo_score":0.902,"street address":"1063 W SANDY BANKS","prop_stdz_adr_st_cd":"AZ","id":"abeoggysppot","geo_precision":"range"},"type":"Feature","geometry":{"type":"Point","coordinates":[-111.813401,33.341433]}},{"properties":{"city":"GILBERT","st":"AZ","zip":"85233","proceeds to adj bpo value":"119.76%","prop_nonreo_sales_prc":"0","geo_score":0.902,"street address":"518 WEST PRINCETON AVENUE","prop_stdz_adr_st_cd":"AZ","id":"abeoghb95evr","geo_precision":"range"},"type":"Feature","geometry":{"type":"Point","coordinates":[-111.800612,33.365057]}},{"properties":{"city":"GILBERT","st":"AZ","zip":"85233","proceeds to adj bpo value":"93.42%","prop_nonreo_sales_prc":"0","geo_score":0.8,"street address":"250 W JUNIPER AVE UNIT 7","prop_stdz_adr_st_cd":"AZ","id":"abeoggxyyqxj","geo_precision":"range"},"type":"Feature","geometry":{"type":"Point","coordinates":[-111.795347,33.360145]}},{"properties":{"city":"GILBERT","st":"AZ","zip":"85234","proceeds to adj bpo value":"112.19%","prop_nonreo_sales_prc":"0","geo_score":0.61,"street address":"170 EAST GUADALUPE ROAD #101","prop_stdz_adr_st_cd":"AZ","id":"abeoghby3yhb","geo_precision":"range"},"type":"Feature","geometry":{"type":"Point","coordinates":[-111.786231,33.364406]}},{"properties":{"city":"GILBERT","st":"AZ","zip":"85234","proceeds to adj bpo value":"111.51%","prop_nonreo_sales_prc":"0","geo_score":0.902,"street address":"825 N BLUE MARLIN DR","prop_stdz_adr_st_cd":"AZ","id":"abeogh8k7wm7","geo_precision":"range"},"type":"Feature","geometry":{"type":"Point","coordinates":[-111.760661,33.36735]}},{"properties":{"city":"GILBERT","st":"AZ","zip":"85234","proceeds to adj bpo value":"99.02%","prop_nonreo_sales_prc":"0","geo_score":0.902,"street address":"223 EAST JUANITA AVENUE","prop_stdz_adr_st_cd":"AZ","id":"abeoghcy1g17","geo_precision":"range"},"type":"Feature","geometry":{"type":"Point","coordinates":[-111.785693,33.371153]}},{"properties":{"city":"HIGLEY","st":"AZ","zip":"85236","proceeds to adj bpo value":"115.08%","prop_nonreo_sales_prc":"0","geo_score":0.61,"street address":"3834 EAST KENT AVENUE","prop_stdz_adr_st_cd":"AZ","id":"abeogh578suk","geo_precision":"street"},"type":"Feature","geometry":{"type":"Point","coordinates":[-111.735098,33.327784]}},{"properties":{"city":"GILBERT","st":"AZ","zip":"85236","proceeds to adj bpo value":"103.42%","prop_nonreo_sales_prc":"0","geo_score":0.61,"street address":"3930 EAST JASPER DRIVE","prop_stdz_adr_st_cd":"AZ","id":"abeogh5y16gp","geo_precision":"street"},"type":"Feature","geometry":{"type":"Point","coordinates":[-111.732221,33.327354]}},{"properties":{"city":"MARICOPA","st":"AZ","zip":"85239","proceeds to adj bpo value":"100.54%","prop_nonreo_sales_prc":"0","geo_score":0.488,"street address":"43528 W SANSOM DR","prop_stdz_adr_st_cd":"AZ","id":"abeoggyyrfza","geo_precision":"zip"},"type":"Feature","geometry":{"type":"Point","coordinates":[-112.053351,32.957645]}},{"properties":{"city":"MARICOPA","st":"AZ","zip":"85239","proceeds to adj bpo value":"125.89%","prop_nonreo_sales_prc":"0","geo_score":0.488,"street address":"35724 WEST VELAZQUEZ DRIVE","prop_stdz_adr_st_cd":"AZ","id":"abeogh2vxvxf","geo_precision":"zip"},"type":"Feature","geometry":{"type":"Point","coordinates":[-112.053351,32.957645]}},{"properties":{"city":"MARICOPA","st":"AZ","zip":"85239","proceeds to adj bpo value":"128.54%","prop_nonreo_sales_prc":"0","geo_score":0.854,"street address":"44848 WEST MIRAMAR ROAD","prop_stdz_adr_st_cd":"AZ","id":"abeogh7qfla6","geo_precision":"range"},"type":"Feature","geometry":{"type":"Point","coordinates":[-112.049597,33.066554]}},{"properties":{"city":"MARICOPA","st":"AZ","zip":"85239","proceeds to adj bpo value":"123.61%","prop_nonreo_sales_prc":"0","geo_score":0.547,"street address":"41581 WEST SOMERSET DRIVE","prop_stdz_adr_st_cd":"AZ","id":"abeogh0k3okf","geo_precision":"street"},"type":"Feature","geometry":{"type":"Point","coordinates":[-111.710182,33.387873]}},{"properties":{"city":"MARICOPA","st":"AZ","zip":"85239","proceeds to adj bpo value":"119.04%","prop_nonreo_sales_prc":"0","geo_score":0.854,"street address":"45242 WEST PARAISO LANE","prop_stdz_adr_st_cd":"AZ","id":"abeogh3z8rpg","geo_precision":"range"},"type":"Feature","geometry":{"type":"Point","coordinates":[-112.053303,33.071817]}},{"properties":{"city":"MARICOPA","st":"AZ","zip":"85239","proceeds to adj bpo value":"116.83%","prop_nonreo_sales_prc":"0","geo_score":0.488,"street address":"41087 WEST THORNBERRY LANE","prop_stdz_adr_st_cd":"AZ","id":"abeoghcbmem4","geo_precision":"zip"},"type":"Feature","geometry":{"type":"Point","coordinates":[-112.053351,32.957645]}},{"properties":{"city":"MARICOPA","st":"AZ","zip":"85239","proceeds to adj bpo value":"109.31%","prop_nonreo_sales_prc":"0","geo_score":0.624,"street address":"45095 WEST SAGEBRUSH DRIVE","prop_stdz_adr_st_cd":"AZ","id":"abeogh1s9rzy","geo_precision":"street"},"type":"Feature","geometry":{"type":"Point","coordinates":[-112.037676,33.073023]}},{"properties":{"city":"MARICOPA","st":"AZ","zip":"85239","proceeds to adj bpo value":"106.28%","prop_nonreo_sales_prc":"0","geo_score":0.488,"street address":"41362 WEST HOPPER DRIVE","prop_stdz_adr_st_cd":"AZ","id":"abeoghbrryx3","geo_precision":"zip"},"type":"Feature","geometry":{"type":"Point","coordinates":[-112.053351,32.957645]}},{"properties":{"city":"MARICOPA","st":"AZ","zip":"85239","proceeds to adj bpo value":"103.49%","prop_nonreo_sales_prc":"0","geo_score":0.863,"street address":"45144 WEST MIRAFLORES STREET","prop_stdz_adr_st_cd":"AZ","id":"abeoghaendwy","geo_precision":"range"},"type":"Feature","geometry":{"type":"Point","coordinates":[-112.053103,33.067107]}},{"properties":{"city":"MARICOPA","st":"AZ","zip":"85239","proceeds to adj bpo value":"99.95%","prop_nonreo_sales_prc":"0","geo_score":0.635,"street address":"45704 WEST MOUNTAIN VIEW ROAD","prop_stdz_adr_st_cd":"AZ","id":"abeogh9td14r","geo_precision":"street"},"type":"Feature","geometry":{"type":"Point","coordinates":[-112.062224,33.042094]}},{"properties":{"city":"MARICOPA","st":"AZ","zip":"85239","proceeds to adj bpo value":"95.81%","prop_nonreo_sales_prc":"0","geo_score":0.796,"street address":"46083 WEST KELLER DRIVE","prop_stdz_adr_st_cd":"AZ","id":"abeoghc2xdtl","geo_precision":"range"},"type":"Feature","geometry":{"type":"Point","coordinates":[-112.062997,33.041617]}},{"properties":{"city":"MARICOPA","st":"AZ","zip":"85239","proceeds to adj bpo value":"87.79%","prop_nonreo_sales_prc":"0","geo_score":0.863,"street address":"20260 NORTH BIG DIPPER DRIVE","prop_stdz_adr_st_cd":"AZ","id":"abeoggzstnfk","geo_precision":"range"},"type":"Feature","geometry":{"type":"Point","coordinates":[-112.026,33.063601]}},{"properties":{"city":"MARICOPA","st":"AZ","zip":"85239","proceeds to adj bpo value":"86.80%","prop_nonreo_sales_prc":"0","geo_score":0.902,"street address":"11363 N ALLEGRO ROAD","prop_stdz_adr_st_cd":"AZ","id":"abeogh8sxijw","geo_precision":"range"},"type":"Feature","geometry":{"type":"Point","coordinates":[-112.179629,32.978214]}},{"properties":{"city":"MARICOPA","st":"AZ","zip":"85239","proceeds to adj bpo value":"103.92%","prop_nonreo_sales_prc":"0","geo_score":0.463,"street address":"18315 NORTH CELIS STREET","prop_stdz_adr_st_cd":"AZ","id":"abeogh10ew88","geo_precision":"street"},"type":"Feature","geometry":{"type":"Point","coordinates":[-111.89292,33.500653]}},{"properties":{"city":"MARICOPA","st":"AZ","zip":"85239","proceeds to adj bpo value":"107.02%","prop_nonreo_sales_prc":"0","geo_score":0.429,"street address":"44982 W. MIRAMAR RD.","prop_stdz_adr_st_cd":"AZ","id":"abeoggyq7d9z","geo_precision":"street"},"type":"Feature","geometry":{"type":"Point","coordinates":[-112.052495,33.066387]}},{"properties":{"city":"QUEEN CREEK","st":"AZ","zip":"85240","proceeds to adj bpo value":"102.05%","prop_nonreo_sales_prc":"0","geo_score":0.542,"street address":"38370 NORTH BEVERLY AVENUE","prop_stdz_adr_st_cd":"AZ","id":"abeogh2ybg9p","geo_precision":"street"},"type":"Feature","geometry":{"type":"Point","coordinates":[-111.853368,33.439464]}},{"properties":{"city":"QUEEN CREEK","st":"AZ","zip":"85242","proceeds to adj bpo value":"124.71%","prop_nonreo_sales_prc":"0","geo_score":0.463,"street address":"31219 NORTH CLARIDGE CIRCLE","prop_stdz_adr_st_cd":"AZ","id":"abeogh6uyy5c","geo_precision":"street"},"type":"Feature","geometry":{"type":"Point","coordinates":[-111.70634,33.596713]}},{"properties":{"city":"QUEEN CREEK","st":"AZ","zip":"85242","proceeds to adj bpo value":"132.26%","prop_nonreo_sales_prc":"0","geo_score":0.512,"street address":"2641 WEST GOLD DUST AVENUE","prop_stdz_adr_st_cd":"AZ","id":"abeoghal415i","geo_precision":"street"},"type":"Feature","geometry":{"type":"Point","coordinates":[-111.642837,33.245975]}},{"properties":{"city":"QUEEN CREEK","st":"AZ","zip":"85242","proceeds to adj bpo value":"130.20%","prop_nonreo_sales_prc":"0","geo_score":0.547,"street address":"1674 EAST MADDISON CIRCLE","prop_stdz_adr_st_cd":"AZ","id":"abeogh7opzce","geo_precision":"street"},"type":"Feature","geometry":{"type":"Point","coordinates":[-112.033912,33.058571]}},{"properties":{"city":"QUEEN CREEK","st":"AZ","zip":"85242","proceeds to adj bpo value":"101.37%","prop_nonreo_sales_prc":"0","geo_score":0.537,"street address":"3836 W SOUTH BUTTE RD","prop_stdz_adr_st_cd":"AZ","id":"abeogh5e61h8","geo_precision":"street"},"type":"Feature","geometry":{"type":"Point","coordinates":[-111.91304,33.367815]}},{"properties":{"city":"SUN LAKES","st":"AZ","zip":"85248","proceeds to adj bpo value":"89.91%","prop_nonreo_sales_prc":"0","geo_score":0.827,"street address":"26014 S JARDIN DR","prop_stdz_adr_st_cd":"AZ","id":"abeogh029wks","geo_precision":"range"},"type":"Feature","geometry":{"type":"Point","coordinates":[-111.869381,33.210289]}},{"properties":{"city":"CHANDLER","st":"AZ","zip":"85249","proceeds to adj bpo value":"86.27%","prop_nonreo_sales_prc":"0","geo_score":0.902,"street address":"2295 E PALM BEACH DR","prop_stdz_adr_st_cd":"AZ","id":"abeoggxy1q88","geo_precision":"range"},"type":"Feature","geometry":{"type":"Point","coordinates":[-111.800219,33.206674]}},{"properties":{"city":"SCOTTSDALE","st":"AZ","zip":"85250","proceeds to adj bpo value":"105.17%","prop_nonreo_sales_prc":"0","geo_score":0.707,"street address":"5107 83RD STREET N","prop_stdz_adr_st_cd":"AZ","id":"abeogh90j62l","geo_precision":"range"},"type":"Feature","geometry":{"type":"Point","coordinates":[-111.902302,33.512493]}},{"properties":{"city":"SCOTTSDALE","st":"AZ","zip":"85251","proceeds to adj bpo value":"176.87%","prop_nonreo_sales_prc":"0","geo_score":0.415,"street address":"7835 E GLENROSA AVE. #10","prop_stdz_adr_st_cd":"AZ","id":"abeoggym9inh","geo_precision":"street"},"type":"Feature","geometry":{"type":"Point","coordinates":[-111.931542,33.499192]}},{"properties":{"city":"SCOTTSDALE","st":"AZ","zip":"85251","proceeds to adj bpo value":"59.46%","prop_nonreo_sales_prc":"0","geo_score":0.788,"street address":"7860 E CAMELBACK RD UNIT 212","prop_stdz_adr_st_cd":"AZ","id":"abeogh27z1gi","geo_precision":"range"},"type":"Feature","geometry":{"type":"Point","coordinates":[-111.910512,33.502217]}},{"properties":{"city":"SCOTTSDALE","st":"AZ","zip":"85255","proceeds to adj bpo value":"90.82%","prop_nonreo_sales_prc":"0","geo_score":0.415,"street address":"19777 NORTH 76TH STREET #2125","prop_stdz_adr_st_cd":"AZ","id":"abeogh1kjezc","geo_precision":"street"},"type":"Feature","geometry":{"type":"Point","coordinates":[-111.916386,33.664225]}},{"properties":{"city":"SCOTTSDALE","st":"AZ","zip":"85257","proceeds to adj bpo value":"93.80%","prop_nonreo_sales_prc":"0","geo_score":0.785,"street address":"8550 EAST PORTLAND UNIT 1050","prop_stdz_adr_st_cd":"AZ","id":"abeoghc3nd0z","geo_precision":"range"},"type":"Feature","geometry":{"type":"Point","coordinates":[-111.898454,33.460985]}},{"properties":{"city":"SCOTTSDALE","st":"AZ","zip":"85257","proceeds to adj bpo value":"68.12%","prop_nonreo_sales_prc":"0","geo_score":0.78,"street address":"8625 EAST BELLEVIEW PLACE UNIT 1022","prop_stdz_adr_st_cd":"AZ","id":"abeogh4abxjw","geo_precision":"range"},"type":"Feature","geometry":{"type":"Point","coordinates":[-111.896931,33.463566]}},{"properties":{"city":"SCOTTSDALE","st":"AZ","zip":"85258","proceeds to adj bpo value":"88.17%","prop_nonreo_sales_prc":"0","geo_score":0.415,"street address":"10055 EAST MOUNTAIN VIEW LAKE DRIVE #2061","prop_stdz_adr_st_cd":"AZ","id":"abeoghcnqmpt","geo_precision":"street"},"type":"Feature","geometry":{"type":"Point","coordinates":[-111.923909,33.574911]}},{"properties":{"city":"STANFIELD","st":"AZ","zip":"85272","proceeds to adj bpo value":"90.97%","prop_nonreo_sales_prc":"0","geo_score":0.902,"street address":"36651 WEST APACHE DRIVE","prop_stdz_adr_st_cd":"AZ","id":"abeogh20lo81","geo_precision":"range"},"type":"Feature","geometry":{"type":"Point","coordinates":[-111.961923,32.880473]}},{"properties":{"city":"TEMPE","st":"AZ","zip":"85281","proceeds to adj bpo value":"132.12%","prop_nonreo_sales_prc":"0","geo_score":0.829,"street address":"2402 E 5TH ST","prop_stdz_adr_st_cd":"AZ","id":"abeogh4k0q78","geo_precision":"range"},"type":"Feature","geometry":{"type":"Point","coordinates":[-111.88555,33.425719]}},{"properties":{"city":"TEMPE","st":"AZ","zip":"85281","proceeds to adj bpo value":"84.03%","prop_nonreo_sales_prc":"0","geo_score":0.902,"street address":"1429 EAST HUDSON DRIVE","prop_stdz_adr_st_cd":"AZ","id":"abeogh8r2mj8","geo_precision":"range"},"type":"Feature","geometry":{"type":"Point","coordinates":[-111.915024,33.413484]}},{"properties":{"city":"TEMPE","st":"AZ","zip":"85283","proceeds to adj bpo value":"110.19%","prop_nonreo_sales_prc":"0","geo_score":0.789,"street address":"5631 S BOUNTY CT UNIT D","prop_stdz_adr_st_cd":"AZ","id":"abeoghau2jmc","geo_precision":"range"},"type":"Feature","geometry":{"type":"Point","coordinates":[-111.920383,33.371448]}},{"properties":{"city":"TEMPE","st":"AZ","zip":"85283","proceeds to adj bpo value":"91.73%","prop_nonreo_sales_prc":"0","geo_score":0.902,"street address":"918 WEST JULIE DRIVE","prop_stdz_adr_st_cd":"AZ","id":"abeogh7fsb2o","geo_precision":"range"},"type":"Feature","geometry":{"type":"Point","coordinates":[-111.95283,33.367446]}},{"properties":{"city":"TEMPE","st":"AZ","zip":"85283","proceeds to adj bpo value":"92.40%","prop_nonreo_sales_prc":"0","geo_score":0.512,"street address":"2134 E BROADWAY RD # 2019","prop_stdz_adr_st_cd":"AZ","id":"abeoggz51ype","geo_precision":"range"},"type":"Feature","geometry":{"type":"Point","coordinates":[-111.78699,33.408047]}},{"properties":{"city":"GILBERT","st":"AZ","zip":"85295","proceeds to adj bpo value":"121.17%","prop_nonreo_sales_prc":"0","geo_score":0.0,"street address":"3838 E YEAGER DR","prop_stdz_adr_st_cd":"AZ","id":"abeogha1nuop","geo_precision":"unmatched"},"type":"Feature","geometry":null},{"properties":{"city":"GILBERT","st":"AZ","zip":"85296","proceeds to adj bpo value":"106.39%","prop_nonreo_sales_prc":"0","geo_score":0.902,"street address":"708 EAST REDONDO DRIVE","prop_stdz_adr_st_cd":"AZ","id":"abeoggzi4sbn","geo_precision":"range"},"type":"Feature","geometry":{"type":"Point","coordinates":[-111.776201,33.33493]}},{"properties":{"city":"GILBERT","st":"AZ","zip":"85296","proceeds to adj bpo value":"106.28%","prop_nonreo_sales_prc":"0","geo_score":0.902,"street address":"2102 E TEMPLE CT","prop_stdz_adr_st_cd":"AZ","id":"abeoggy03vzg","geo_precision":"range"},"type":"Feature","geometry":{"type":"Point","coordinates":[-111.742174,33.334169]}},{"properties":{"city":"GILBERT","st":"AZ","zip":"85296","proceeds to adj bpo value":"105.28%","prop_nonreo_sales_prc":"0","geo_score":0.708,"street address":"2620 SOUTH SOUTHWIND DRIVE","prop_stdz_adr_st_cd":"AZ","id":"abeogh9zdqfh","geo_precision":"street"},"type":"Feature","geometry":{"type":"Point","coordinates":[-111.766567,33.319749]}},{"properties":{"city":"GILBERT","st":"AZ","zip":"85297","proceeds to adj bpo value":"122.72%","prop_nonreo_sales_prc":"0","geo_score":0.708,"street address":"3860 EAST SANTA FE LANE","prop_stdz_adr_st_cd":"AZ","id":"abeogha4lfbv","geo_precision":"street"},"type":"Feature","geometry":{"type":"Point","coordinates":[-111.713743,33.278579]}},{"properties":{"city":"GILBERT","st":"AZ","zip":"85297","proceeds to adj bpo value":"90.43%","prop_nonreo_sales_prc":"0","geo_score":0.488,"street address":"22520 SOUTH RECKER ROAD","prop_stdz_adr_st_cd":"AZ","id":"abeoggyh0nm7","geo_precision":"zip"},"type":"Feature","geometry":{"type":"Point","coordinates":[-111.746321,33.310304]}},{"properties":{"city":"GILBERT","st":"AZ","zip":"85297","proceeds to adj bpo value":"127.56%","prop_nonreo_sales_prc":"0","geo_score":0.708,"street address":"3931 EAST BLUE SAGE ROAD","prop_stdz_adr_st_cd":"AZ","id":"abeogh53oqet","geo_precision":"street"},"type":"Feature","geometry":{"type":"Point","coordinates":[-111.719765,33.280977]}},{"properties":{"city":"GLENDALE","st":"AZ","zip":"85301","proceeds to adj bpo value":"84.89%","prop_nonreo_sales_prc":"0","geo_score":0.837,"street address":"5848 NORTH 48TH DRIVE","prop_stdz_adr_st_cd":"AZ","id":"abeogh2k6c2d","geo_precision":"range"},"type":"Feature","geometry":{"type":"Point","coordinates":[-112.163346,33.52271]}},{"properties":{"city":"GLENDALE","st":"AZ","zip":"85302","proceeds to adj bpo value":"52.01%","prop_nonreo_sales_prc":"0","geo_score":0.714,"street address":"5017 W. ONYX AVE","prop_stdz_adr_st_cd":"AZ","id":"abeoghb1rc6x","geo_precision":"zip"},"type":"Feature","geometry":{"type":"Point","coordinates":[-112.18717,33.276539]}},{"properties":{"city":"GLENDALE","st":"AZ","zip":"85303","proceeds to adj bpo value":"137.60%","prop_nonreo_sales_prc":"0","geo_score":0.902,"street address":"6981 W MIDWAY AVE","prop_stdz_adr_st_cd":"AZ","id":"abeoghdbcj9j","geo_precision":"range"},"type":"Feature","geometry":{"type":"Point","coordinates":[-112.209285,33.541248]}},{"properties":{"city":"GLENDALE","st":"AZ","zip":"85303","proceeds to adj bpo value":"134.63%","prop_nonreo_sales_prc":"0","geo_score":0.837,"street address":"5412 NORTH 76TH LANE","prop_stdz_adr_st_cd":"AZ","id":"abeoghbmkafv","geo_precision":"range"},"type":"Feature","geometry":{"type":"Point","coordinates":[-112.224347,33.514478]}},{"properties":{"city":"GLENDALE","st":"AZ","zip":"85303","proceeds to adj bpo value":"115.03%","prop_nonreo_sales_prc":"0","geo_score":0.844,"street address":"7114 N 77TH AVE","prop_stdz_adr_st_cd":"AZ","id":"abeogh247v33","geo_precision":"range"},"type":"Feature","geometry":{"type":"Point","coordinates":[-112.224334,33.539435]}},{"properties":{"city":"GLENDALE","st":"AZ","zip":"85303","proceeds to adj bpo value":"106.20%","prop_nonreo_sales_prc":"0","geo_score":0.844,"street address":"7214 N 72ND AVE","prop_stdz_adr_st_cd":"AZ","id":"abeoghe4dn1h","geo_precision":"range"},"type":"Feature","geometry":{"type":"Point","coordinates":[-112.213516,33.54061]}},{"properties":{"city":"GLENDALE","st":"AZ","zip":"85304","proceeds to adj bpo value":"150.79%","prop_nonreo_sales_prc":"0","geo_score":0.902,"street address":"5649 WEST SUNNYSIDE DRIVE","prop_stdz_adr_st_cd":"AZ","id":"abeogh6eq8lc","geo_precision":"range"},"type":"Feature","geometry":{"type":"Point","coordinates":[-112.180502,33.592656]}},{"properties":{"city":"GLENDALE","st":"AZ","zip":"85304","proceeds to adj bpo value":"150.02%","prop_nonreo_sales_prc":"0","geo_score":0.763,"street address":"5757 W EUGIE AVE UNIT 2117","prop_stdz_adr_st_cd":"AZ","id":"abeoggyz04kg","geo_precision":"range"},"type":"Feature","geometry":{"type":"Point","coordinates":[-112.184078,33.608745]}},{"properties":{"city":"GLENDALE","st":"AZ","zip":"85304","proceeds to adj bpo value":"129.90%","prop_nonreo_sales_prc":"0","geo_score":0.902,"street address":"5531 WEST ALTADENA AVE","prop_stdz_adr_st_cd":"AZ","id":"abeoghar8taj","geo_precision":"range"},"type":"Feature","geometry":{"type":"Point","coordinates":[-112.181147,33.591975]}},{"properties":{"city":"GLENDALE","st":"AZ","zip":"85304","proceeds to adj bpo value":"121.76%","prop_nonreo_sales_prc":"0","geo_score":0.902,"street address":"5333 W DESERT COVE AVE","prop_stdz_adr_st_cd":"AZ","id":"abeoghaymjai","geo_precision":"range"},"type":"Feature","geometry":{"type":"Point","coordinates":[-112.175846,33.585454]}},{"properties":{"city":"GLENDALE","st":"AZ","zip":"85304","proceeds to adj bpo value":"110.38%","prop_nonreo_sales_prc":"0","geo_score":0.883,"street address":"4735 WEST SHANGRI LA ROAD","prop_stdz_adr_st_cd":"AZ","id":"abeogh1i3v8r","geo_precision":"range"},"type":"Feature","geometry":{"type":"Point","coordinates":[-112.16394,33.586896]}},{"properties":{"city":"GLENDALE","st":"AZ","zip":"85304","proceeds to adj bpo value":"107.70%","prop_nonreo_sales_prc":"0","geo_score":0.902,"street address":"6122 W CORTEZ ST","prop_stdz_adr_st_cd":"AZ","id":"abeoggxyqxqk","geo_precision":"range"},"type":"Feature","geometry":{"type":"Point","coordinates":[-112.191957,33.590776]}},{"properties":{"city":"GLENDALE","st":"AZ","zip":"85304","proceeds to adj bpo value":"105.60%","prop_nonreo_sales_prc":"0","geo_score":0.537,"street address":"6431 WEST CHRISTY DRIVE","prop_stdz_adr_st_cd":"AZ","id":"abeoghab0277","geo_precision":"street"},"type":"Feature","geometry":{"type":"Point","coordinates":[-112.407052,33.361866]}},{"properties":{"city":"GLENDALE","st":"AZ","zip":"85304","proceeds to adj bpo value":"90.32%","prop_nonreo_sales_prc":"0","geo_score":0.902,"street address":"5116 WEST ASTER DRIVE","prop_stdz_adr_st_cd":"AZ","id":"abeogh9qvwqj","geo_precision":"range"},"type":"Feature","geometry":{"type":"Point","coordinates":[-112.169544,33.602105]}},{"properties":{"city":"GLENDALE","st":"AZ","zip":"85304","proceeds to adj bpo value":"60.73%","prop_nonreo_sales_prc":"0","geo_score":0.488,"street address":"4721 WEST POINSETTIA DRIVE","prop_stdz_adr_st_cd":"AZ","id":"abeogh2xv9a8","geo_precision":"zip"},"type":"Feature","geometry":{"type":"Point","coordinates":[-112.18717,33.276539]}},{"properties":{"city":"GLENDALE","st":"AZ","zip":"85304","proceeds to adj bpo value":"86.70%","prop_nonreo_sales_prc":"0","geo_score":0.504,"street address":"4809 W BECKER LANE","prop_stdz_adr_st_cd":"AZ","id":"abeogh9ijd7s","geo_precision":"street"},"type":"Feature","geometry":{"type":"Point","coordinates":[-112.169787,33.396724]}},{"properties":{"city":"GLENDALE","st":"AZ","zip":"85305","proceeds to adj bpo value":"118.94%","prop_nonreo_sales_prc":"0","geo_score":0.397,"street address":"8733 WEST TUCKEY LANE","prop_stdz_adr_st_cd":"AZ","id":"abeogh51frm4","geo_precision":"street"},"type":"Feature","geometry":{"type":"Point","coordinates":[-114.23154,33.683411]}},{"properties":{"city":"GLENDALE","st":"AZ","zip":"85306","proceeds to adj bpo value":"158.18%","prop_nonreo_sales_prc":"0","geo_score":0.902,"street address":"6027 W CAROL ANN WAY","prop_stdz_adr_st_cd":"AZ","id":"abeogh3i273w","geo_precision":"range"},"type":"Feature","geometry":{"type":"Point","coordinates":[-112.189463,33.627895]}},{"properties":{"city":"GLENDALE","st":"AZ","zip":"85306","proceeds to adj bpo value":"112.57%","prop_nonreo_sales_prc":"0","geo_score":0.902,"street address":"6413 W MONTE CRISTO AVE","prop_stdz_adr_st_cd":"AZ","id":"abeoggzov69q","geo_precision":"range"},"type":"Feature","geometry":{"type":"Point","coordinates":[-112.196987,33.630979]}},{"properties":{"city":"GLENDALE","st":"AZ","zip":"85306","proceeds to adj bpo value":"98.23%","prop_nonreo_sales_prc":"0","geo_score":0.476,"street address":"5227 W. MAUI LANE","prop_stdz_adr_st_cd":"AZ","id":"abeogh6s8rw4","geo_precision":"street"},"type":"Feature","geometry":{"type":"Point","coordinates":[-112.169191,33.621686]}},{"properties":{"city":"PHOENIX","st":"AZ","zip":"85307","proceeds to adj bpo value":"128.10%","prop_nonreo_sales_prc":"0","geo_score":0.505,"street address":"8520 W PALM LN 1101","prop_stdz_adr_st_cd":"AZ","id":"abeoggyzala5","geo_precision":"street"},"type":"Feature","geometry":{"type":"Point","coordinates":[-112.284512,33.469226]}},{"properties":{"city":"GLENDALE","st":"AZ","zip":"85308","proceeds to adj bpo value":"118.36%","prop_nonreo_sales_prc":"0","geo_score":0.844,"street address":"18834 NORTH 42ND AVENUE","prop_stdz_adr_st_cd":"AZ","id":"abeogh36s0qm","geo_precision":"range"},"type":"Feature","geometry":{"type":"Point","coordinates":[-112.14931,33.657454]}},{"properties":{"city":"GLENDALE","st":"AZ","zip":"85308","proceeds to adj bpo value":"101.37%","prop_nonreo_sales_prc":"0","geo_score":0.902,"street address":"7002 WEST WESCOTT DRIVE","prop_stdz_adr_st_cd":"AZ","id":"abeoggzmuh7d","geo_precision":"range"},"type":"Feature","geometry":{"type":"Point","coordinates":[-112.209495,33.657891]}},{"properties":{"city":"GLENDALE","st":"AZ","zip":"85308","proceeds to adj bpo value":"93.69%","prop_nonreo_sales_prc":"0","geo_score":0.837,"street address":"19661 NORTH 48TH LANE","prop_stdz_adr_st_cd":"AZ","id":"abeogh7fzj5i","geo_precision":"range"},"type":"Feature","geometry":{"type":"Point","coordinates":[-112.16433,33.663949]}},{"properties":{"city":"GLENDALE","st":"AZ","zip":"85308","proceeds to adj bpo value":"99.80%","prop_nonreo_sales_prc":"0","geo_score":0.902,"street address":"5562W WEST SAINT JOHN ROAD","prop_stdz_adr_st_cd":"AZ","id":"abeoghbqy9nb","geo_precision":"range"},"type":"Feature","geometry":{"type":"Point","coordinates":[-112.179311,33.646325]}},{"properties":{"city":"GLENDALE","st":"AZ","zip":"85308","proceeds to adj bpo value":"108.96%","prop_nonreo_sales_prc":"0","geo_score":0.902,"street address":"5741 WEST JOHN CABOT ROAD","prop_stdz_adr_st_cd":"AZ","id":"abeogh2zd5z7","geo_precision":"range"},"type":"Feature","geometry":{"type":"Point","coordinates":[-112.185239,33.649211]}},{"properties":{"city":"GLENDALE","st":"AZ","zip":"85308","proceeds to adj bpo value":"102.51%","prop_nonreo_sales_prc":"0","geo_score":0.902,"street address":"3720 WEST TONOPAH DRIVE","prop_stdz_adr_st_cd":"AZ","id":"abeogharskmk","geo_precision":"range"},"type":"Feature","geometry":{"type":"Point","coordinates":[-112.142522,33.671577]}},{"properties":{"city":"AVONDALE","st":"AZ","zip":"85323","proceeds to adj bpo value":"144.57%","prop_nonreo_sales_prc":"0","geo_score":0.805,"street address":"2402 NORTH 109TH AVENUE","prop_stdz_adr_st_cd":"AZ","id":"abeogh3uia36","geo_precision":"range"},"type":"Feature","geometry":{"type":"Point","coordinates":[-112.294872,33.473949]}},{"properties":{"city":"AVONDALE","st":"AZ","zip":"85323","proceeds to adj bpo value":"125.44%","prop_nonreo_sales_prc":"0","geo_score":0.645,"street address":"10534 WEST EDGEMONT DRIVE","prop_stdz_adr_st_cd":"AZ","id":"abeogh7fsyh5","geo_precision":"street"},"type":"Feature","geometry":{"type":"Point","coordinates":[-112.299343,33.477793]}},{"properties":{"city":"AVONDALE","st":"AZ","zip":"85323","proceeds to adj bpo value":"125.28%","prop_nonreo_sales_prc":"0","geo_score":0.666,"street address":"11605 WEST RIO VISTA LANE","prop_stdz_adr_st_cd":"AZ","id":"abeogh3fohuh","geo_precision":"street"},"type":"Feature","geometry":{"type":"Point","coordinates":[-112.297364,33.422467]}},{"properties":{"city":"AVONDALE","st":"AZ","zip":"85323","proceeds to adj bpo value":"109.54%","prop_nonreo_sales_prc":"0","geo_score":0.829,"street address":"709 NORTH 4TH STREET","prop_stdz_adr_st_cd":"AZ","id":"abeoghdem2ty","geo_precision":"range"},"type":"Feature","geometry":{"type":"Point","coordinates":[-112.345981,33.441523]}},{"properties":{"city":"AVONDALE","st":"AZ","zip":"85323","proceeds to adj bpo value":"98.40%","prop_nonreo_sales_prc":"0","geo_score":0.61,"street address":"12533 WEST WINSLOW AVENUE","prop_stdz_adr_st_cd":"AZ","id":"abeoghd11tpj","geo_precision":"street"},"type":"Feature","geometry":{"type":"Point","coordinates":[-112.301824,33.418948]}},{"properties":{"city":"AVONDALE","st":"AZ","zip":"85323","proceeds to adj bpo value":"52.34%","prop_nonreo_sales_prc":"0","geo_score":0.683,"street address":"10918 WEST BERMUDA DRIVE","prop_stdz_adr_st_cd":"AZ","id":"abeoghaas1h3","geo_precision":"street"},"type":"Feature","geometry":{"type":"Point","coordinates":[-112.295179,33.48012]}},{"properties":{"city":"BUCKEYE","st":"AZ","zip":"85326","proceeds to adj bpo value":"135.27%","prop_nonreo_sales_prc":"0","geo_score":0.902,"street address":"22674 WEST PIMA STREET","prop_stdz_adr_st_cd":"AZ","id":"abeogh1ztroi","geo_precision":"range"},"type":"Feature","geometry":{"type":"Point","coordinates":[-112.538396,33.43324]}},{"properties":{"city":"BUCKEYE","st":"AZ","zip":"85326","proceeds to adj bpo value":"130.15%","prop_nonreo_sales_prc":"0","geo_score":0.902,"street address":"22814 WEST CANTILEVER STREET","prop_stdz_adr_st_cd":"AZ","id":"abeogh7zafwm","geo_precision":"range"},"type":"Feature","geometry":{"type":"Point","coordinates":[-112.54137,33.447623]}},{"properties":{"city":"BUCKEYE","st":"AZ","zip":"85326","proceeds to adj bpo value":"119.66%","prop_nonreo_sales_prc":"0","geo_score":0.708,"street address":"2347 SOUTH 257TH DRIVE","prop_stdz_adr_st_cd":"AZ","id":"abeogh5nx9j1","geo_precision":"street"},"type":"Feature","geometry":{"type":"Point","coordinates":[-112.604293,33.426715]}},{"properties":{"city":"BUCKEYE","st":"AZ","zip":"85326","proceeds to adj bpo value":"112.69%","prop_nonreo_sales_prc":"0","geo_score":0.45,"street address":"5679 SOUTH 237 LANE","prop_stdz_adr_st_cd":"AZ","id":"abeoghdqpsb2","geo_precision":"street"},"type":"Feature","geometry":{"type":"Point","coordinates":[-112.570167,33.726153]}},{"properties":{"city":"BUCKEYE","st":"AZ","zip":"85326","proceeds to adj bpo value":"103.86%","prop_nonreo_sales_prc":"0","geo_score":0.902,"street address":"7164 SOUTH SKYLARK LANE","prop_stdz_adr_st_cd":"AZ","id":"abeogh2hh4uq","geo_precision":"range"},"type":"Feature","geometry":{"type":"Point","coordinates":[-112.603774,33.381513]}},{"properties":{"city":"BUCKEYE","st":"AZ","zip":"85326","proceeds to adj bpo value":"102.60%","prop_nonreo_sales_prc":"0","geo_score":0.902,"street address":"6945 S MORNING DEW LN","prop_stdz_adr_st_cd":"AZ","id":"abeogh77qtj4","geo_precision":"range"},"type":"Feature","geometry":{"type":"Point","coordinates":[-112.601304,33.383236]}},{"properties":{"city":"BUCKEYE","st":"AZ","zip":"85326","proceeds to adj bpo value":"96.22%","prop_nonreo_sales_prc":"0","geo_score":0.824,"street address":"25842 WEST NORTH STAR PLACE","prop_stdz_adr_st_cd":"AZ","id":"abeogh5jaaw2","geo_precision":"range"},"type":"Feature","geometry":{"type":"Point","coordinates":[-112.60643,33.380239]}},{"properties":{"city":"BUCKEYE","st":"AZ","zip":"85326","proceeds to adj bpo value":"94.73%","prop_nonreo_sales_prc":"0","geo_score":0.902,"street address":"721 SOUTH 223RD DRIVE","prop_stdz_adr_st_cd":"AZ","id":"abeogh1034fi","geo_precision":"range"},"type":"Feature","geometry":{"type":"Point","coordinates":[-112.53076,33.440246]}},{"properties":{"city":"EL MIRAGE","st":"AZ","zip":"85335","proceeds to adj bpo value":"126.46%","prop_nonreo_sales_prc":"0","geo_score":0.902,"street address":"12646 WEST SURREY AVENUE","prop_stdz_adr_st_cd":"AZ","id":"abeoghdortc7","geo_precision":"range"},"type":"Feature","geometry":{"type":"Point","coordinates":[-112.330853,33.605778]}},{"properties":{"city":"EL MIRAGE","st":"AZ","zip":"85335","proceeds to adj bpo value":"109.16%","prop_nonreo_sales_prc":"0","geo_score":0.902,"street address":"12826 WEST CHERRY HILLS DRIVE","prop_stdz_adr_st_cd":"AZ","id":"abeoghdsvk6r","geo_precision":"range"},"type":"Feature","geometry":{"type":"Point","coordinates":[-112.335346,33.592271]}},{"properties":{"city":"EL MIRAGE","st":"AZ","zip":"85335","proceeds to adj bpo value":"107.50%","prop_nonreo_sales_prc":"0","geo_score":0.902,"street address":"12030 WEST CORRINE DRIVE","prop_stdz_adr_st_cd":"AZ","id":"abeogh4pa36j","geo_precision":"range"},"type":"Feature","geometry":{"type":"Point","coordinates":[-112.318891,33.601002]}},{"properties":{"city":"GOODYEAR","st":"AZ","zip":"85338","proceeds to adj bpo value":"101.13%","prop_nonreo_sales_prc":"0","geo_score":0.902,"street address":"16258 W WASHINGTON ST","prop_stdz_adr_st_cd":"AZ","id":"abeogh8xufnn","geo_precision":"range"},"type":"Feature","geometry":{"type":"Point","coordinates":[-112.408442,33.447249]}},{"properties":{"city":"LAVEEN","st":"AZ","zip":"85339","proceeds to adj bpo value":"125.69%","prop_nonreo_sales_prc":"0","geo_score":0.902,"street address":"5113 WEST FRAKTUR ROAD","prop_stdz_adr_st_cd":"AZ","id":"abeoghczy6z9","geo_precision":"range"},"type":"Feature","geometry":{"type":"Point","coordinates":[-112.169637,33.395157]}},{"properties":{"city":"LAVEEN","st":"AZ","zip":"85339","proceeds to adj bpo value":"123.24%","prop_nonreo_sales_prc":"0","geo_score":0.902,"street address":"4935 W BEAUTIFUL LANE","prop_stdz_adr_st_cd":"AZ","id":"abeogh6en0r8","geo_precision":"range"},"type":"Feature","geometry":{"type":"Point","coordinates":[-112.165382,33.375435]}},{"properties":{"city":"LAVEEN","st":"AZ","zip":"85339","proceeds to adj bpo value":"122.80%","prop_nonreo_sales_prc":"0","geo_score":0.902,"street address":"6412 WEST FAWN DRIVE","prop_stdz_adr_st_cd":"AZ","id":"abeoggynas46","geo_precision":"range"},"type":"Feature","geometry":{"type":"Point","coordinates":[-112.197469,33.374646]}},{"properties":{"city":"LAVEEN","st":"AZ","zip":"85339","proceeds to adj bpo value":"122.76%","prop_nonreo_sales_prc":"0","geo_score":0.902,"street address":"6429 W VALENCIA DR","prop_stdz_adr_st_cd":"AZ","id":"abeoghbyuu1j","geo_precision":"range"},"type":"Feature","geometry":{"type":"Point","coordinates":[-112.19786,33.376164]}},{"properties":{"city":"LAVEEN","st":"AZ","zip":"85339","proceeds to adj bpo value":"120.45%","prop_nonreo_sales_prc":"0","geo_score":0.902,"street address":"5115 W PECAN RD","prop_stdz_adr_st_cd":"AZ","id":"abeogh30ee8e","geo_precision":"range"},"type":"Feature","geometry":{"type":"Point","coordinates":[-112.170149,33.394391]}},{"properties":{"city":"LAVEEN","st":"AZ","zip":"85339","proceeds to adj bpo value":"113.04%","prop_nonreo_sales_prc":"0","geo_score":0.655,"street address":"6636 SOUTH 45TH GLEN","prop_stdz_adr_st_cd":"AZ","id":"abeoghbf1sdw","geo_precision":"street"},"type":"Feature","geometry":{"type":"Point","coordinates":[-112.156611,33.390642]}},{"properties":{"city":"LAVEEN","st":"AZ","zip":"85339","proceeds to adj bpo value":"112.49%","prop_nonreo_sales_prc":"0","geo_score":0.837,"street address":"6103 S 43RD LN","prop_stdz_adr_st_cd":"AZ","id":"abeogh1nzjke","geo_precision":"range"},"type":"Feature","geometry":{"type":"Point","coordinates":[-112.152715,33.391097]}},{"properties":{"city":"PEORIA","st":"AZ","zip":"85345","proceeds to adj bpo value":"120.97%","prop_nonreo_sales_prc":"0","geo_score":0.649,"street address":"9541 N 82ND AVE","prop_stdz_adr_st_cd":"AZ","id":"abeoghc1pyhg","geo_precision":"street"},"type":"Feature","geometry":{"type":"Point","coordinates":[-112.235375,33.578403]}},{"properties":{"city":"PEORIA","st":"AZ","zip":"85345","proceeds to adj bpo value":"95.87%","prop_nonreo_sales_prc":"0","geo_score":0.805,"street address":"7608 W MESCAL ST","prop_stdz_adr_st_cd":"AZ","id":"abeogh2w9l21","geo_precision":"street"},"type":"Feature","geometry":{"type":"Point","coordinates":[-112.224536,33.587015]}},{"properties":{"city":"PEORIA","st":"AZ","zip":"85345","proceeds to adj bpo value":"95.49%","prop_nonreo_sales_prc":"0","geo_score":0.902,"street address":"8748 WEST CAROL AVENUE","prop_stdz_adr_st_cd":"AZ","id":"abeogh9eqy3u","geo_precision":"range"},"type":"Feature","geometry":{"type":"Point","coordinates":[-112.248093,33.570898]}},{"properties":{"city":"PEORIA","st":"AZ","zip":"85345","proceeds to adj bpo value":"91.70%","prop_nonreo_sales_prc":"0","geo_score":0.902,"street address":"8542 W MONROE ST","prop_stdz_adr_st_cd":"AZ","id":"abeogh2f2j93","geo_precision":"range"},"type":"Feature","geometry":{"type":"Point","coordinates":[-112.243422,33.577407]}},{"properties":{"city":"SUN CITY","st":"AZ","zip":"85351","proceeds to adj bpo value":"81.52%","prop_nonreo_sales_prc":"0","geo_score":0.902,"street address":"9724 W PINECREST DR","prop_stdz_adr_st_cd":"AZ","id":"abeoggzvnwq5","geo_precision":"range"},"type":"Feature","geometry":{"type":"Point","coordinates":[-112.271439,33.632746]}},{"properties":{"city":"TOLLESON","st":"AZ","zip":"85353","proceeds to adj bpo value":"148.79%","prop_nonreo_sales_prc":"0","geo_score":0.708,"street address":"10025 W CROWN KING RD","prop_stdz_adr_st_cd":"AZ","id":"abeoggz3p3ld","geo_precision":"street"},"type":"Feature","geometry":{"type":"Point","coordinates":[-112.271803,33.418199]}},{"properties":{"city":"TOLLESON","st":"AZ","zip":"85353","proceeds to adj bpo value":"113.14%","prop_nonreo_sales_prc":"0","geo_score":0.902,"street address":"8849 WEST CORDES ROAD","prop_stdz_adr_st_cd":"AZ","id":"abeogh6xachx","geo_precision":"range"},"type":"Feature","geometry":{"type":"Point","coordinates":[-112.251064,33.42009]}},{"properties":{"city":"WADDELL","st":"AZ","zip":"85355","proceeds to adj bpo value":"127.39%","prop_nonreo_sales_prc":"0","geo_score":0.61,"street address":"18062 WEST CAROL AVENUE","prop_stdz_adr_st_cd":"AZ","id":"abeogh9dshn7","geo_precision":"street"},"type":"Feature","geometry":{"type":"Point","coordinates":[-112.268464,33.570752]}},{"properties":{"city":"YOUNGTOWN","st":"AZ","zip":"85363","proceeds to adj bpo value":"84.20%","prop_nonreo_sales_prc":"0","geo_score":0.902,"street address":"12606 NORTH 111TH DRIVE","prop_stdz_adr_st_cd":"AZ","id":"abeogha03mz9","geo_precision":"range"},"type":"Feature","geometry":{"type":"Point","coordinates":[-112.29973,33.597599]}},{"properties":{"city":"SUN CITY","st":"AZ","zip":"85373","proceeds to adj bpo value":"89.97%","prop_nonreo_sales_prc":"0","geo_score":0.78,"street address":"22272 N 108TH AVENUE","prop_stdz_adr_st_cd":"AZ","id":"abeogh5clw2u","geo_precision":"range"},"type":"Feature","geometry":{"type":"Point","coordinates":[-112.291608,33.68537]}},{"properties":{"city":"SUN CITY","st":"AZ","zip":"85373","proceeds to adj bpo value":"86.02%","prop_nonreo_sales_prc":"0","geo_score":0.902,"street address":"10605 WEST GRANADA DRIVE","prop_stdz_adr_st_cd":"AZ","id":"abeogh6kd3hz","geo_precision":"range"},"type":"Feature","geometry":{"type":"Point","coordinates":[-112.286152,33.638607]}},{"properties":{"city":"SURPRISE","st":"AZ","zip":"85374","proceeds to adj bpo value":"123.48%","prop_nonreo_sales_prc":"0","geo_score":0.902,"street address":"17407 N LARKSPUR LANE","prop_stdz_adr_st_cd":"AZ","id":"abeogh95v62m","geo_precision":"range"},"type":"Feature","geometry":{"type":"Point","coordinates":[-112.378993,33.645381]}},{"properties":{"city":"SURPRISE","st":"AZ","zip":"85374","proceeds to adj bpo value":"111.14%","prop_nonreo_sales_prc":"0","geo_score":0.849,"street address":"16421 NORTH CUMBIE LANE","prop_stdz_adr_st_cd":"AZ","id":"abeogh3w6gqy","geo_precision":"range"},"type":"Feature","geometry":{"type":"Point","coordinates":[-112.334437,33.633119]}},{"properties":{"city":"SURPRISE","st":"AZ","zip":"85374","proceeds to adj bpo value":"98.57%","prop_nonreo_sales_prc":"0","geo_score":0.902,"street address":"18522 WEST LEGEND DRIVE","prop_stdz_adr_st_cd":"AZ","id":"abeoghcdszpc","geo_precision":"range"},"type":"Feature","geometry":{"type":"Point","coordinates":[-112.457625,33.639134]}},{"properties":{"city":"SURPRISE","st":"AZ","zip":"85374","proceeds to adj bpo value":"93.20%","prop_nonreo_sales_prc":"0","geo_score":0.902,"street address":"13602 W TARA LANE","prop_stdz_adr_st_cd":"AZ","id":"abeogh1yqzqe","geo_precision":"range"},"type":"Feature","geometry":{"type":"Point","coordinates":[-112.353184,33.627183]}},{"properties":{"city":"SURPRISE","st":"AZ","zip":"85379","proceeds to adj bpo value":"140.86%","prop_nonreo_sales_prc":"0","geo_score":0.902,"street address":"16130 W CARIBBEAN LANE","prop_stdz_adr_st_cd":"AZ","id":"abeoghb57v72","geo_precision":"range"},"type":"Feature","geometry":{"type":"Point","coordinates":[-112.407209,33.623688]}},{"properties":{"city":"SURPRISE","st":"AZ","zip":"85379","proceeds to adj bpo value":"116.63%","prop_nonreo_sales_prc":"0","geo_score":0.902,"street address":"16260 W DESERT MIRAGE DR","prop_stdz_adr_st_cd":"AZ","id":"abeoggy6kmb3","geo_precision":"range"},"type":"Feature","geometry":{"type":"Point","coordinates":[-112.408309,33.584699]}},{"properties":{"city":"SURPRISE","st":"AZ","zip":"85379","proceeds to adj bpo value":"108.24%","prop_nonreo_sales_prc":"0","geo_score":0.902,"street address":"13241 W WATSON LN","prop_stdz_adr_st_cd":"AZ","id":"abeogh7uw4m1","geo_precision":"range"},"type":"Feature","geometry":{"type":"Point","coordinates":[-112.344319,33.613269]}},{"properties":{"city":"SURPRISE","st":"AZ","zip":"85379","proceeds to adj bpo value":"106.03%","prop_nonreo_sales_prc":"0","geo_score":0.707,"street address":"17644 WEST ACAPULCO LANE","prop_stdz_adr_st_cd":"AZ","id":"abeogh025ija","geo_precision":"street"},"type":"Feature","geometry":{"type":"Point","coordinates":[-112.407228,33.622882]}},{"properties":{"city":"SURPRISE","st":"AZ","zip":"85379","proceeds to adj bpo value":"103.95%","prop_nonreo_sales_prc":"0","geo_score":0.857,"street address":"15946W REDFIELD ROAD","prop_stdz_adr_st_cd":"AZ","id":"abeogh2wiu1c","geo_precision":"range"},"type":"Feature","geometry":{"type":"Point","coordinates":[-112.403734,33.611718]}},{"properties":{"city":"PEORIA","st":"AZ","zip":"85381","proceeds to adj bpo value":"86.80%","prop_nonreo_sales_prc":"0","geo_score":0.346,"street address":"7977 W WACKER RD UNIT 199","prop_stdz_adr_st_cd":"AZ","id":"abeoghb699w3","geo_precision":"street"},"type":"Feature","geometry":{"type":"Point","coordinates":[-112.488242,33.522374]}},{"properties":{"city":"SURPRISE","st":"AZ","zip":"85387","proceeds to adj bpo value":"125.50%","prop_nonreo_sales_prc":"0","geo_score":0.902,"street address":"16466 WEST REMUDA DRIVE","prop_stdz_adr_st_cd":"AZ","id":"abeogh7iogp8","geo_precision":"range"},"type":"Feature","geometry":{"type":"Point","coordinates":[-112.415119,33.721227]}},{"properties":{"city":"SURPRISE","st":"AZ","zip":"85388","proceeds to adj bpo value":"115.88%","prop_nonreo_sales_prc":"0","geo_score":0.0,"street address":"17585 WEST ANDORA STREET","prop_stdz_adr_st_cd":"AZ","id":"abeoghakn7g7","geo_precision":"unmatched"},"type":"Feature","geometry":null},{"properties":{"city":"SURPRISE","st":"AZ","zip":"85388","proceeds to adj bpo value":"98.66%","prop_nonreo_sales_prc":"0","geo_score":0.0,"street address":"16868 W POST DR","prop_stdz_adr_st_cd":"AZ","id":"abeogh3z15rw","geo_precision":"unmatched"},"type":"Feature","geometry":null},{"properties":{"city":"SAHUARITA","st":"AZ","zip":"85629","proceeds to adj bpo value":"95.28%","prop_nonreo_sales_prc":"0","geo_score":0.431,"street address":"938 EAST SHERIFFS DRAW LANE","prop_stdz_adr_st_cd":"AZ","id":"abeoghbkq889","geo_precision":"street"},"type":"Feature","geometry":{"type":"Point","coordinates":[-111.066678,31.60941]}},{"properties":{"city":"SAHUARITA","st":"AZ","zip":"85629","proceeds to adj bpo value":"93.55%","prop_nonreo_sales_prc":"0","geo_score":0.438,"street address":"18618 S AVENIDA DEL ENSUENO","prop_stdz_adr_st_cd":"AZ","id":"abeogh9apuei","geo_precision":"street"},"type":"Feature","geometry":{"type":"Point","coordinates":[-110.282886,31.46726]}},{"properties":{"city":"SAHUARITA","st":"AZ","zip":"85629","proceeds to adj bpo value":"95.64%","prop_nonreo_sales_prc":"0","geo_score":0.902,"street address":"14776 SOUTH CAMINO TIERRA ALEGRA","prop_stdz_adr_st_cd":"AZ","id":"abeoggz7tpbo","geo_precision":"range"},"type":"Feature","geometry":{"type":"Point","coordinates":[-110.973396,31.981517]}},{"properties":{"city":"VAIL","st":"AZ","zip":"85641","proceeds to adj bpo value":"90.80%","prop_nonreo_sales_prc":"0","geo_score":0.467,"street address":"12770 EAST HANNAH TRAIL","prop_stdz_adr_st_cd":"AZ","id":"abeogh38cajo","geo_precision":"street"},"type":"Feature","geometry":{"type":"Point","coordinates":[-111.232599,32.436101]}},{"properties":{"city":"AMADO","st":"AZ","zip":"85645","proceeds to adj bpo value":"84.37%","prop_nonreo_sales_prc":"0","geo_score":0.902,"street address":"4980 W SANTA MARIA DR","prop_stdz_adr_st_cd":"AZ","id":"abeoghd5qixe","geo_precision":"range"},"type":"Feature","geometry":{"type":"Point","coordinates":[-111.069671,31.730545]}},{"properties":{"city":"TUCSON","st":"AZ","zip":"85704","proceeds to adj bpo value":"87.06%","prop_nonreo_sales_prc":"0","geo_score":0.78,"street address":"6301 N BARCELONA CT UNIT 1011","prop_stdz_adr_st_cd":"AZ","id":"abeoghd02wem","geo_precision":"range"},"type":"Feature","geometry":{"type":"Point","coordinates":[-110.974717,32.321928]}},{"properties":{"city":"TUCSON","st":"AZ","zip":"85705","proceeds to adj bpo value":"89.44%","prop_nonreo_sales_prc":"0","geo_score":0.902,"street address":"401 E ALTURAS ST","prop_stdz_adr_st_cd":"AZ","id":"abeogh6753x0","geo_precision":"range"},"type":"Feature","geometry":{"type":"Point","coordinates":[-110.963247,32.252195]}},{"properties":{"city":"TUCSON","st":"AZ","zip":"85705","proceeds to adj bpo value":"89.28%","prop_nonreo_sales_prc":"0","geo_score":0.902,"street address":"4771 N WARNER TER","prop_stdz_adr_st_cd":"AZ","id":"abeoghc5lpnf","geo_precision":"range"},"type":"Feature","geometry":{"type":"Point","coordinates":[-111.006727,32.293293]}},{"properties":{"city":"TUCSON","st":"AZ","zip":"85706","proceeds to adj bpo value":"96.77%","prop_nonreo_sales_prc":"0","geo_score":0.464,"street address":"522 W. MOSSMAN ROAD","prop_stdz_adr_st_cd":"AZ","id":"abeogh68kii8","geo_precision":"street"},"type":"Feature","geometry":{"type":"Point","coordinates":[-110.969214,32.142739]}},{"properties":{"city":"TUCSON","st":"AZ","zip":"85706","proceeds to adj bpo value":"122.64%","prop_nonreo_sales_prc":"0","geo_score":0.902,"street address":"5457 S CANADA DR","prop_stdz_adr_st_cd":"AZ","id":"abeogha13z47","geo_precision":"range"},"type":"Feature","geometry":{"type":"Point","coordinates":[-110.981862,32.153144]}},{"properties":{"city":"TUCSON","st":"AZ","zip":"85706","proceeds to adj bpo value":"107.98%","prop_nonreo_sales_prc":"0","geo_score":0.468,"street address":"7626 E. SHADY BROOK","prop_stdz_adr_st_cd":"AZ","id":"abeogh0quzhl","geo_precision":"street"},"type":"Feature","geometry":{"type":"Point","coordinates":[-110.973244,32.157427]}},{"properties":{"city":"TUCSON","st":"AZ","zip":"85706","proceeds to adj bpo value":"96.45%","prop_nonreo_sales_prc":"0","geo_score":0.488,"street address":"7020 SOUTH BEAVERTAIL LANE","prop_stdz_adr_st_cd":"AZ","id":"abeogh0hv2ux","geo_precision":"zip"},"type":"Feature","geometry":{"type":"Point","coordinates":[-110.955924,32.141189]}},{"properties":{"city":"TUCSON","st":"AZ","zip":"85706","proceeds to adj bpo value":"90.76%","prop_nonreo_sales_prc":"0","geo_score":0.518,"street address":"7948 SOUTH BAJA STONE AVENUE","prop_stdz_adr_st_cd":"AZ","id":"abeoghbc10oz","geo_precision":"street"},"type":"Feature","geometry":{"type":"Point","coordinates":[-110.969296,32.212891]}},{"properties":{"city":"TUCSON","st":"AZ","zip":"85706","proceeds to adj bpo value":"88.55%","prop_nonreo_sales_prc":"0","geo_score":0.902,"street address":"7060 S CABOT PL","prop_stdz_adr_st_cd":"AZ","id":"abeogh81jrto","geo_precision":"range"},"type":"Feature","geometry":{"type":"Point","coordinates":[-110.978834,32.123737]}},{"properties":{"city":"TUCSON","st":"AZ","zip":"85706","proceeds to adj bpo value":"88.04%","prop_nonreo_sales_prc":"0","geo_score":0.487,"street address":"3728 EAST DREXEL MANOR STRAVENUE","prop_stdz_adr_st_cd":"AZ","id":"abeogh1p420i","geo_precision":"street"},"type":"Feature","geometry":{"type":"Point","coordinates":[-110.930995,32.19196]}},{"properties":{"city":"TUCSON","st":"AZ","zip":"85706","proceeds to adj bpo value":"84.42%","prop_nonreo_sales_prc":"0","geo_score":0.902,"street address":"5566 S HOLLADAY DR","prop_stdz_adr_st_cd":"AZ","id":"abeogh8hy8nf","geo_precision":"range"},"type":"Feature","geometry":{"type":"Point","coordinates":[-110.98105,32.150468]}},{"properties":{"city":"TUCSON","st":"AZ","zip":"85706","proceeds to adj bpo value":"79.55%","prop_nonreo_sales_prc":"0","geo_score":0.518,"street address":"7808 SOUTH BAJA STONE AVENUE","prop_stdz_adr_st_cd":"AZ","id":"abeogh4aq22r","geo_precision":"street"},"type":"Feature","geometry":{"type":"Point","coordinates":[-110.969296,32.212891]}},{"properties":{"city":"TUCSON","st":"AZ","zip":"85710","proceeds to adj bpo value":"90.79%","prop_nonreo_sales_prc":"0","geo_score":0.491,"street address":"7593 E OCOTILLO OVERLOOK DR","prop_stdz_adr_st_cd":"AZ","id":"abeogh8nlowg","geo_precision":"street"},"type":"Feature","geometry":{"type":"Point","coordinates":[-110.824235,32.301688]}},{"properties":{"city":"TUCSON","st":"AZ","zip":"85711","proceeds to adj bpo value":"133.21%","prop_nonreo_sales_prc":"0","geo_score":0.476,"street address":"4934 E. 17TH ST","prop_stdz_adr_st_cd":"AZ","id":"abeogha1x2lh","geo_precision":"street"},"type":"Feature","geometry":{"type":"Point","coordinates":[-110.908239,32.213187]}},{"properties":{"city":"TUCSON","st":"AZ","zip":"85711","proceeds to adj bpo value":"87.76%","prop_nonreo_sales_prc":"0","geo_score":0.837,"street address":"5617 E 21ST ST","prop_stdz_adr_st_cd":"AZ","id":"abeogh87jh1h","geo_precision":"range"},"type":"Feature","geometry":{"type":"Point","coordinates":[-110.870819,32.208166]}},{"properties":{"city":"TUCSON","st":"AZ","zip":"85711","proceeds to adj bpo value":"101.68%","prop_nonreo_sales_prc":"0","geo_score":0.837,"street address":"4610-4612 E 20TH ST","prop_stdz_adr_st_cd":"AZ","id":"abeoghb1hmao","geo_precision":"range"},"type":"Feature","geometry":{"type":"Point","coordinates":[-110.892512,32.209522]}},{"properties":{"city":"TUCSON","st":"AZ","zip":"85712","proceeds to adj bpo value":"90.46%","prop_nonreo_sales_prc":"0","geo_score":0.459,"street address":"2525 N ALVERNON WAY # A","prop_stdz_adr_st_cd":"AZ","id":"abeoghcqxgpb","geo_precision":"street"},"type":"Feature","geometry":{"type":"Point","coordinates":[-110.90968,32.236188]}},{"properties":{"city":"TUCSON","st":"AZ","zip":"85713","proceeds to adj bpo value":"85.78%","prop_nonreo_sales_prc":"0","geo_score":0.902,"street address":"2808 WEST JENNIE LANE","prop_stdz_adr_st_cd":"AZ","id":"abeogh9y5gaa","geo_precision":"range"},"type":"Feature","geometry":{"type":"Point","coordinates":[-111.026868,32.206589]}},{"properties":{"city":"TUCSON","st":"AZ","zip":"85713","proceeds to adj bpo value":"84.82%","prop_nonreo_sales_prc":"0","geo_score":0.488,"street address":"2150 E HANCOCK VIS","prop_stdz_adr_st_cd":"AZ","id":"abeogh13il5z","geo_precision":"zip"},"type":"Feature","geometry":{"type":"Point","coordinates":[-110.968425,32.199521]}},{"properties":{"city":"TUCSON","st":"AZ","zip":"85713","proceeds to adj bpo value":"96.15%","prop_nonreo_sales_prc":"0","geo_score":0.837,"street address":"3150 EAST 26TH STREET","prop_stdz_adr_st_cd":"AZ","id":"abeoghb65q9n","geo_precision":"range"},"type":"Feature","geometry":{"type":"Point","coordinates":[-110.925505,32.203589]}},{"properties":{"city":"TUCSON","st":"AZ","zip":"85716","proceeds to adj bpo value":"85.36%","prop_nonreo_sales_prc":"0","geo_score":0.902,"street address":"2534 N TREAT AVE","prop_stdz_adr_st_cd":"AZ","id":"abeoghedktpw","geo_precision":"range"},"type":"Feature","geometry":{"type":"Point","coordinates":[-110.931104,32.253237]}},{"properties":{"city":"TUCSON","st":"AZ","zip":"85730","proceeds to adj bpo value":"140.39%","prop_nonreo_sales_prc":"0","geo_score":0.902,"street address":"6742 E BROOKS DR","prop_stdz_adr_st_cd":"AZ","id":"abeoggz0se8a","geo_precision":"range"},"type":"Feature","geometry":{"type":"Point","coordinates":[-110.847874,32.185416]}},{"properties":{"city":"TUCSON","st":"AZ","zip":"85730","proceeds to adj bpo value":"93.00%","prop_nonreo_sales_prc":"0","geo_score":0.488,"street address":"8095 EAST CABINET STREET","prop_stdz_adr_st_cd":"AZ","id":"abeoghbfuext","geo_precision":"zip"},"type":"Feature","geometry":{"type":"Point","coordinates":[-110.772728,32.159829]}},{"properties":{"city":"TUCSON","st":"AZ","zip":"85730","proceeds to adj bpo value":"88.17%","prop_nonreo_sales_prc":"0","geo_score":0.488,"street address":"8042 EAST CABINET STREET","prop_stdz_adr_st_cd":"AZ","id":"abeoggz2y9jm","geo_precision":"zip"},"type":"Feature","geometry":{"type":"Point","coordinates":[-110.772728,32.159829]}},{"properties":{"city":"TUCSON","st":"AZ","zip":"85730","proceeds to adj bpo value":"87.92%","prop_nonreo_sales_prc":"0","geo_score":0.488,"street address":"8044 EAST JUDICIAL STREET","prop_stdz_adr_st_cd":"AZ","id":"abeoggyeb58k","geo_precision":"zip"},"type":"Feature","geometry":{"type":"Point","coordinates":[-110.772728,32.159829]}},{"properties":{"city":"TUCSON","st":"AZ","zip":"85730","proceeds to adj bpo value":"77.01%","prop_nonreo_sales_prc":"0","geo_score":0.902,"street address":"6998 EAST CASEY PLACE","prop_stdz_adr_st_cd":"AZ","id":"abeogh4jxh10","geo_precision":"range"},"type":"Feature","geometry":{"type":"Point","coordinates":[-110.843639,32.18295]}},{"properties":{"city":"TUCSON","st":"AZ","zip":"85730","proceeds to adj bpo value":"113.74%","prop_nonreo_sales_prc":"0","geo_score":0.902,"street address":"7101 E TAMARA DR","prop_stdz_adr_st_cd":"AZ","id":"abeoghdxpd8v","geo_precision":"range"},"type":"Feature","geometry":{"type":"Point","coordinates":[-110.839684,32.187149]}},{"properties":{"city":"TUCSON","st":"AZ","zip":"85735","proceeds to adj bpo value":"78.89%","prop_nonreo_sales_prc":"0","geo_score":0.462,"street address":"3841 S. LEONARD AVENUE","prop_stdz_adr_st_cd":"AZ","id":"abeogh142a9e","geo_precision":"street"},"type":"Feature","geometry":{"type":"Point","coordinates":[-111.161458,32.177185]}},{"properties":{"city":"TUCSON","st":"AZ","zip":"85737","proceeds to adj bpo value":"91.84%","prop_nonreo_sales_prc":"0","geo_score":0.902,"street address":"11637 NORTH COPPER CREEK DRIVE","prop_stdz_adr_st_cd":"AZ","id":"abeoggy11rn4","geo_precision":"range"},"type":"Feature","geometry":{"type":"Point","coordinates":[-110.993761,32.417657]}},{"properties":{"city":"TUCSON","st":"AZ","zip":"85741","proceeds to adj bpo value":"89.96%","prop_nonreo_sales_prc":"0","geo_score":0.488,"street address":"7383 N DICKINSON PL","prop_stdz_adr_st_cd":"AZ","id":"abeoghbddc9s","geo_precision":"zip"},"type":"Feature","geometry":{"type":"Point","coordinates":[-111.058754,32.340073]}},{"properties":{"city":"TUCSON","st":"AZ","zip":"85746","proceeds to adj bpo value":"119.62%","prop_nonreo_sales_prc":"0","geo_score":0.488,"street address":"3001 W KIT FOX PL","prop_stdz_adr_st_cd":"AZ","id":"abeogh5ovuyh","geo_precision":"street"},"type":"Feature","geometry":{"type":"Point","coordinates":[-110.980657,32.394253]}},{"properties":{"city":"TUCSON","st":"AZ","zip":"85746","proceeds to adj bpo value":"103.07%","prop_nonreo_sales_prc":"0","geo_score":0.488,"street address":"3192 W ALEXANDERWOOD DR","prop_stdz_adr_st_cd":"AZ","id":"abeogh351tq3","geo_precision":"zip"},"type":"Feature","geometry":{"type":"Point","coordinates":[-111.890713,31.970131]}},{"properties":{"city":"TUCSON","st":"AZ","zip":"85746","proceeds to adj bpo value":"89.44%","prop_nonreo_sales_prc":"0","geo_score":0.885,"street address":"6160 SOUTH SPRING BROOK DRIVE","prop_stdz_adr_st_cd":"AZ","id":"abeogh8khw37","geo_precision":"range"},"type":"Feature","geometry":{"type":"Point","coordinates":[-111.00997,32.140641]}},{"properties":{"city":"TUCSON","st":"AZ","zip":"85746","proceeds to adj bpo value":"86.00%","prop_nonreo_sales_prc":"0","geo_score":0.482,"street address":"3400 W. PLACITA DE LA BAJADA","prop_stdz_adr_st_cd":"AZ","id":"abeoggz0gzpg","geo_precision":"street"},"type":"Feature","geometry":{"type":"Point","coordinates":[-110.996436,32.139212]}},{"properties":{"city":"TUCSON","st":"AZ","zip":"85746","proceeds to adj bpo value":"75.73%","prop_nonreo_sales_prc":"0","geo_score":0.902,"street address":"3025 WEST AVENIDA ISABEL","prop_stdz_adr_st_cd":"AZ","id":"abeoghefjiyx","geo_precision":"range"},"type":"Feature","geometry":{"type":"Point","coordinates":[-111.031686,32.121509]}},{"properties":{"city":"TUCSON","st":"AZ","zip":"85756","proceeds to adj bpo value":"120.47%","prop_nonreo_sales_prc":"0","geo_score":0.0,"street address":"6975 S GOSHAWK DR","prop_stdz_adr_st_cd":"AZ","id":"abeogh05ee6n","geo_precision":"unmatched"},"type":"Feature","geometry":null},{"properties":{"city":"TUCSON","st":"AZ","zip":"85757","proceeds to adj bpo value":"92.60%","prop_nonreo_sales_prc":"0","geo_score":0.0,"street address":"8276 W RAZORBILL DR","prop_stdz_adr_st_cd":"AZ","id":"abeogh66nqs6","geo_precision":"unmatched"},"type":"Feature","geometry":null}],"is_temporal":false,"author":{"url":"","metadata":"","contact_name":"","contact_address":"","source":"","contact_phone":""},"source":"","pagination":{"sort":null,"start":0,"total":323,"limit":1000000},"state":"complete","tags":"","published":"2014-08-16T13:59:55-04:00","id":310819}