{"type":"FeatureCollection","data_type":"Dataset","url_type":null,"permissions":[{"permissions":{"download":true,"view":true},"group_id":"everyone"}],"classification":null,"title":"sgvcc all routes","count":163,"stream_id":312035,"contributor":{"url":"http://geocommons.com/users/59337","name":"tommymtom"},"data_attributes":null,"calculation_params":null,"icon_link":null,"link":"http://geocommons.com/overlays/312035.json","extent":[-119.382,33.7501,-117.284,35.888],"geometry_types":["point"],"unique_name":null,"name":"sgvcc all routes","feature_count":163,"description":"","next_feature":null,"is_raster":false,"short_classification":"Y","stats":{"daynum":{"count":23,"counts_by_value":{"Tue C":4,"Fri c":7,"a":1,"Fri d":6,"Tue D":5,"Thu a":7,"Thu b":7,"Thu c":5,"Wed a":4,"Wed A":2,"Mon a":4,"Mon A":3,"Wed b":5,"Mon b":5,"Wed c":3,"Fri":1,"Mon c":5,"Fri a":5,"Fri b":7,"Mon d":2,"Tue A":4,"Tue a":3,"Tue B":4},"list":["Mon b","Thu b","Mon a","Mon A","a","Mon c","Wed b","Fri b","Mon d","Tue A","Tue a","Tue B","Tue C","Fri d","Tue D","Wed a","Wed A","Wed c","Thu a","Thu c","Fri c","Fri a","Fri"]},"id":{"max":875,"mean":124.852760736196,"variance":30869.188063319,"stdev":175.696294961843,"min":13,"median":90}},"features":[{"properties":{"city":"Duarte","name":"Roadhouse &amp; Tavern","zip":"91010","daynum":"Mon b","geo_score":0.6,"id":"abj51qki8dnl","day":"Mon","num":"b","address":"1846 E.Huntington","geo_precision":"street","state":"CA"},"type":"Feature","geometry":{"type":"Point","coordinates":[-117.998505,34.140398]}},{"properties":{"city":"Duarte","name":"Roadhouse &amp; Tavern","zip":"91010","daynum":"Thu b","geo_score":0.6,"id":"abj51qtps4hl","day":"Thu","num":"b","address":"1846 E.Huntington","geo_precision":"street","state":"CA"},"type":"Feature","geometry":{"type":"Point","coordinates":[-117.998505,34.140398]}},{"properties":{"city":"Duarte","name":"Rancho Duarte Golf","zip":"91010","daynum":"Mon a","geo_score":1.0,"id":"abj51qqysawa","day":"Mon","num":"a","address":"1000 Las Lomas Rd","geo_precision":"range","state":"CA"},"type":"Feature","geometry":{"type":"Point","coordinates":[-117.94685,34.140589]}},{"properties":{"city":"Duarte","name":"Cabreras Duarte","zip":"91010","daynum":"Mon A","geo_score":0.6,"id":"abj51qpnnrsx","day":"Mon","num":"A","address":"1856 E.Huntington Dr","geo_precision":"street","state":"CA"},"type":"Feature","geometry":{"type":"Point","coordinates":[-117.998505,34.140398]}},{"properties":{"city":"Pasadena","name":"Pasadena City College","zip":"91106","daynum":null,"geo_score":0.6,"id":"abj51qx4o38r","day":null,"num":null,"address":"1570 E. Colorado Blvd","geo_precision":"street","state":"CA"},"type":"Feature","geometry":{"type":"Point","coordinates":[-118.149697,34.145778]}},{"properties":{"city":"Arcadia","name":"Rusnak Mcds Benz","zip":"91007","daynum":"Mon a","geo_score":0.6,"id":"abj51qhwq0sr","day":"Mon","num":"a","address":"55 W.Huntington Dr","geo_precision":"street","state":"CA"},"type":"Feature","geometry":{"type":"Point","coordinates":[-118.033475,34.140028]}},{"properties":{"city":"Arcadia","name":"Rusnak Mcds Benz","zip":"91007","daynum":"Thu b","geo_score":0.6,"id":"abj51qovv6uv","day":"Thu","num":"b","address":"55 W.Huntington Dr","geo_precision":"street","state":"CA"},"type":"Feature","geometry":{"type":"Point","coordinates":[-118.033475,34.140028]}},{"properties":{"city":"Azusa","name":"Applebees","zip":"91702","daynum":"a","geo_score":0.607,"id":"abj51qn7x30b","day":null,"num":"a","address":"377 N.Citrus Ave","geo_precision":"street","state":"CA"},"type":"Feature","geometry":{"type":"Point","coordinates":[-117.890145,34.121497]}},{"properties":{"city":"Whittier","name":"Red Oak","zip":"90602","daynum":"Mon b","geo_score":1.0,"id":"abj51qo8k9f0","day":"Mon","num":"b","address":"7051 Greenleaf Ave","geo_precision":"range","state":"CA"},"type":"Feature","geometry":{"type":"Point","coordinates":[-118.037398,33.977724]}},{"properties":{"city":"Whittier","name":"Vinatero Wine","zip":"90601","daynum":"Mon b","geo_score":1.0,"id":"abj51qx9a1ar","day":"Mon","num":"b","address":"6531 Greenleaf Ave","geo_precision":"range","state":"CA"},"type":"Feature","geometry":{"type":"Point","coordinates":[-118.037395,33.981167]}},{"properties":{"city":"Covina","name":"Social Model Recovery","zip":"91723","daynum":"Mon a","geo_score":0.607,"id":"abj51qq1oz3h","day":"Mon","num":"a","address":"223 E.Rowland St","geo_precision":"street","state":"CA"},"type":"Feature","geometry":{"type":"Point","coordinates":[-117.890049,34.07893]}},{"properties":{"city":"El Monte","name":"Hope House","zip":"91731","daynum":null,"geo_score":0.286,"id":"abj51qnz7r35","day":null,"num":null,"address":"4215 N. Peck Rd","geo_precision":"street","state":"CA"},"type":"Feature","geometry":{"type":"Point","coordinates":[-117.793342,34.005044]}},{"properties":{"city":"El Monte","name":"Cedar House","zip":"91732","daynum":null,"geo_score":0.571,"id":"abj51qsv96mn","day":null,"num":null,"address":"4317 N. Cedar Ave","geo_precision":"street","state":"CA"},"type":"Feature","geometry":{"type":"Point","coordinates":[-118.024757,34.082426]}},{"properties":{"city":"El Monte","name":"Park House","zip":"91732","daynum":null,"geo_score":0.92,"id":"abj51qx1czc8","day":null,"num":null,"address":"4414 Elrovia St.","geo_precision":"range","state":"CA"},"type":"Feature","geometry":{"type":"Point","coordinates":[-118.018176,34.086087]}},{"properties":{"city":"El Monte","name":"Ranchito House","zip":"91732","daynum":null,"geo_score":0.927,"id":"abj51qx0fcow","day":null,"num":null,"address":"11338 Ranchito Ave","geo_precision":"range","state":"CA"},"type":"Feature","geometry":{"type":"Point","coordinates":[-118.020618,34.089943]}},{"properties":{"city":"El Monte","name":"Schmidt House","zip":"91732","daynum":null,"geo_score":1.0,"id":"abj51qm7u3qq","day":null,"num":null,"address":"5121 Buffington Rd","geo_precision":"range","state":"CA"},"type":"Feature","geometry":{"type":"Point","coordinates":[-118.007781,34.09529]}},{"properties":{"city":"El Monte","name":"Holiday House","zip":"91732","daynum":null,"geo_score":0.585,"id":"abj51qoj153w","day":null,"num":null,"address":"11854 Hemlock St","geo_precision":"zip","state":"CA"},"type":"Feature","geometry":{"type":"Point","coordinates":[-118.298662,33.786594]}},{"properties":{"city":"El Monte","name":"Longo Toyota","zip":"91731","daynum":"Mon c","geo_score":0.484,"id":"abj51qnu1mui","day":"Mon","num":"c","address":"3534 Peck Rd.","geo_precision":"street","state":"CA"},"type":"Feature","geometry":{"type":"Point","coordinates":[-117.79431,34.005272]}},{"properties":{"city":"El Monte","name":"Longo Toyota","zip":"91731","daynum":"Wed b","geo_score":0.484,"id":"abj51qr52h2y","day":"Wed","num":"b","address":"3534 Peck Rd.","geo_precision":"street","state":"CA"},"type":"Feature","geometry":{"type":"Point","coordinates":[-117.79431,34.005272]}},{"properties":{"city":"El Monte","name":"Longo Toyota","zip":"91731","daynum":"Fri b","geo_score":0.484,"id":"abj51qmkesfj","day":"Fri","num":"b","address":"3534 Peck Rd.","geo_precision":"street","state":"CA"},"type":"Feature","geometry":{"type":"Point","coordinates":[-117.79431,34.005272]}},{"properties":{"city":"El Monte","name":"Community Hope","zip":"91731","daynum":"Mon c","geo_score":0.484,"id":"abj51qqhp9ws","day":"Mon","num":"c","address":"3041 Peck Rd","geo_precision":"street","state":"CA"},"type":"Feature","geometry":{"type":"Point","coordinates":[-117.79431,34.005272]}},{"properties":{"city":"Bellflower","name":"Hollywood Sports Paint","zip":"90706","daynum":null,"geo_score":1.0,"id":"abj51qt5izv7","day":null,"num":null,"address":"9030 Somerset Blvd","geo_precision":"range","state":"CA"},"type":"Feature","geometry":{"type":"Point","coordinates":[-118.140785,33.89653]}},{"properties":{"city":"Los Angeles","name":"Obregon Park","zip":"90063","daynum":"Mon d","geo_score":0.625,"id":"abj51qonyxd4","day":"Mon","num":"d","address":"4021 E.1st St","geo_precision":"street","state":"CA"},"type":"Feature","geometry":{"type":"Point","coordinates":[-118.202378,34.040431]}},{"properties":{"city":"Los Angeles","name":"Salazar Park","zip":"90023","daynum":"Mon d","geo_score":1.0,"id":"abj51qwft9n7","day":"Mon","num":"d","address":"3864 Whittier Blvd","geo_precision":"range","state":"CA"},"type":"Feature","geometry":{"type":"Point","coordinates":[-118.189306,34.02385]}},{"properties":{"city":"Los Angeles","name":"La fitness Macy's Plaza","zip":"90017","daynum":null,"geo_score":0.61,"id":"abj51qig2cvx","day":null,"num":null,"address":"700 S. Flower","geo_precision":"street","state":"CA"},"type":"Feature","geometry":{"type":"Point","coordinates":[-118.251945,34.055188]}},{"properties":{"city":"Culver City","name":"La fitness Culver City","zip":"90232","daynum":"Mon c","geo_score":1.0,"id":"abj51qoz9p2s","day":"Mon","num":"c","address":"3827 Overland Ave","geo_precision":"range","state":"CA"},"type":"Feature","geometry":{"type":"Point","coordinates":[-118.406083,34.017519]}},{"properties":{"city":"Los Angeles","name":"La fitness West Los Angeles","zip":"90025","daynum":"Mon c","geo_score":0.614,"id":"abj51qrmh6vr","day":"Mon","num":"c","address":"1914 S.Bundy Dr","geo_precision":"street","state":"CA"},"type":"Feature","geometry":{"type":"Point","coordinates":[-118.466095,34.042928]}},{"properties":{"city":"Encino","name":"La fitness Encino","zip":"91316","daynum":"Mon c","geo_score":1.0,"id":"abj51qqremtl","day":"Mon","num":"c","address":"17401 Ventura Blvd","geo_precision":"range","state":"CA"},"type":"Feature","geometry":{"type":"Point","coordinates":[-118.514171,34.161494]}},{"properties":{"city":"Rosemead","name":"Seidner's Collision Rosemead","zip":"91770","daynum":"Tue A","geo_score":0.571,"id":"abj51qi6fwii","day":"Tue","num":"A","address":"4500 N.Rosemead Blvd","geo_precision":"street","state":"CA"},"type":"Feature","geometry":{"type":"Point","coordinates":[-118.073238,34.06387]}},{"properties":{"city":"Alhambra","name":"Seidner's Collision","zip":"91081","daynum":null,"geo_score":0.476,"id":"abj51qtrlck3","day":null,"num":null,"address":"15 N. Curtis Ave","geo_precision":"street","state":"CA"},"type":"Feature","geometry":{"type":"Point","coordinates":[-118.137312,34.083098]}},{"properties":{"city":"El Monte","name":"Mid Valley Recovery Ctr","zip":"91731","daynum":"Tue A","geo_score":0.571,"id":"abj51qt23xzi","day":"Tue","num":"A","address":"4610 Santa Anita Ave #D","geo_precision":"street","state":"CA"},"type":"Feature","geometry":{"type":"Point","coordinates":[-118.042192,34.068688]}},{"properties":{"city":"El Monte","name":"Cornel Companies 1/2 way house","zip":"91731","daynum":"Tue A","geo_score":0.806,"id":"abj51quumclc","day":"Tue","num":"A","address":"11750 Ramona Blvd","geo_precision":"street","state":"CA"},"type":"Feature","geometry":{"type":"Point","coordinates":[-118.022943,34.07404]}},{"properties":{"city":"El Monte","name":"El Monte Court House","zip":"91731","daynum":"Tue A","geo_score":1.0,"id":"abj51qukzy0v","day":"Tue","num":"A","address":"11225 Valley Blvd","geo_precision":"range","state":"CA"},"type":"Feature","geometry":{"type":"Point","coordinates":[-118.032235,34.072321]}},{"properties":{"city":"El Monte","name":"La Primaria Elementary","zip":"91732","daynum":"Tue a","geo_score":1.0,"id":"abj51qj0jy30","day":"Tue","num":"a","address":"4220 Gilman Rd","geo_precision":"range","state":"CA"},"type":"Feature","geometry":{"type":"Point","coordinates":[-118.002475,34.076282]}},{"properties":{"city":"Oxnard","name":"La fitness Oxnard","zip":"93030","daynum":"Tue B","geo_score":0.602,"id":"abj51qncd1gh","day":"Tue","num":"B","address":"451 W.Esplanade Dr","geo_precision":"street","state":"CA"},"type":"Feature","geometry":{"type":"Point","coordinates":[-119.174653,34.230002]}},{"properties":{"city":"Thousand Oaks","name":"Rusnak BMW","zip":"91362","daynum":"Tue B","geo_score":1.0,"id":"abj51qom5d3c","day":"Tue","num":"B","address":"3645 Auto Mall Dr","geo_precision":"range","state":"CA"},"type":"Feature","geometry":{"type":"Point","coordinates":[-118.83115,34.162448]}},{"properties":{"city":"Thousand Oaks","name":"Rusnak Porsche Audi","zip":"91362","daynum":"Tue B","geo_score":1.0,"id":"abj51qjm5kae","day":"Tue","num":"B","address":"3645 Auto Mall Dr","geo_precision":"range","state":"CA"},"type":"Feature","geometry":{"type":"Point","coordinates":[-118.83115,34.162448]}},{"properties":{"city":"Chino","name":"Assembly Office Norma Torres","zip":"91710","daynum":null,"geo_score":0.902,"id":"abj51qhp7co9","day":null,"num":null,"address":"13160 7th St","geo_precision":"range","state":"CA"},"type":"Feature","geometry":{"type":"Point","coordinates":[-117.690627,34.013881]}},{"properties":{"city":"Glendale","name":"La fitness Glendale","zip":"91204","daynum":"Tue C","geo_score":0.604,"id":"abj51qwr0z2z","day":"Tue","num":"C","address":"623 S. Central","geo_precision":"street","state":"CA"},"type":"Feature","geometry":{"type":"Point","coordinates":[-118.257891,34.14586]}},{"properties":{"city":"Chatsworth","name":"La fitness Chatsworth","zip":"91311","daynum":"Tue C","geo_score":0.973,"id":"abj51qwpw03o","day":"Tue","num":"C","address":"9143 DeSoto Ave","geo_precision":"range","state":"CA"},"type":"Feature","geometry":{"type":"Point","coordinates":[-118.588608,34.235902]}},{"properties":{"city":"Northridge","name":"La fitness Northridge","zip":"91324","daynum":null,"geo_score":1.0,"id":"abj51qwx26l5","day":null,"num":null,"address":"8948 Corbin Ave","geo_precision":"range","state":"CA"},"type":"Feature","geometry":{"type":"Point","coordinates":[-118.562307,34.23405]}},{"properties":{"city":"North Hollywood","name":"La fitness North Hollywood","zip":"91606","daynum":"Tue C","geo_score":1.0,"id":"abj51qsihv09","day":"Tue","num":"C","address":"13069 Victory Blvd","geo_precision":"range","state":"CA"},"type":"Feature","geometry":{"type":"Point","coordinates":[-118.416789,34.186749]}},{"properties":{"city":"Studio City","name":"La fitness Studio City","zip":"91604","daynum":"Tue C","geo_score":1.0,"id":"abj51qk9nc2c","day":"Tue","num":"C","address":"11315 Ventura Blvd","geo_precision":"range","state":"CA"},"type":"Feature","geometry":{"type":"Point","coordinates":[-118.376984,34.140341]}},{"properties":{"city":"Hollywood","name":"La fitness Hollywood","zip":"90028","daynum":"Fri d","geo_score":0.6,"id":"abj51qwg8b8c","day":"Fri","num":"d","address":"1628 N. El Centro Ave","geo_precision":"street","state":"CA"},"type":"Feature","geometry":{"type":"Point","coordinates":[-118.324084,34.095288]}},{"properties":{"city":"La Puente","name":"Bassett Park","zip":"91746","daynum":"Tue D","geo_score":0.607,"id":"abj51qxcgf0m","day":"Tue","num":"D","address":"510 N. Vineland Ave","geo_precision":"street","state":"CA"},"type":"Feature","geometry":{"type":"Point","coordinates":[-117.992343,34.048041]}},{"properties":{"city":"Covina","name":"Charter Oak Park","zip":"91723","daynum":"Tue D","geo_score":0.319,"id":"abj51qnn1r0j","day":"Tue","num":"D","address":"20261 E. Covina Blvd","geo_precision":"street","state":"CA"},"type":"Feature","geometry":{"type":"Point","coordinates":[-117.79674,34.106655]}},{"properties":{"city":"Azusa","name":"Valleydale Park","zip":"91702","daynum":"Tue D","geo_score":0.602,"id":"abj51qt4261w","day":"Tue","num":"D","address":"5525 N. Lark Ellen","geo_precision":"street","state":"CA"},"type":"Feature","geometry":{"type":"Point","coordinates":[-117.916453,34.110792]}},{"properties":{"city":"Duarte","name":"Pamela Park","zip":"91010","daynum":"Tue D","geo_score":1.0,"id":"abj51quq3uo6","day":"Tue","num":"D","address":"2236 Goodall Ave","geo_precision":"range","state":"CA"},"type":"Feature","geometry":{"type":"Point","coordinates":[-117.993386,34.12454]}},{"properties":{"city":"Arcadia","name":"Arcadia Park","zip":"91006","daynum":"Tue D","geo_score":0.6,"id":"abj51qoad3ny","day":"Tue","num":"D","address":"405 S.Santa Anita Ave","geo_precision":"street","state":"CA"},"type":"Feature","geometry":{"type":"Point","coordinates":[-118.031424,34.140048]}},{"properties":{"city":"Fullerton","name":"La fitness Fullerton","zip":"92832","daynum":"Wed a","geo_score":0.595,"id":"abj51qj8lf4h","day":"Wed","num":"a","address":"246 E.Orangethrope","geo_precision":"street","state":"CA"},"type":"Feature","geometry":{"type":"Point","coordinates":[-117.92867,33.85944]}},{"properties":{"city":"Cerritos","name":"La fitness Cerritos","zip":"90703","daynum":"Wed a","geo_score":0.958,"id":"abj51qxlfyfv","day":"Wed","num":"a","address":"11881 East Del Amo Blvd","geo_precision":"range","state":"CA"},"type":"Feature","geometry":{"type":"Point","coordinates":[-118.078704,33.846031]}},{"properties":{"city":"Brea","name":"Lascari's Grill (Brea)","zip":"92821","daynum":"Mon A","geo_score":0.607,"id":"abj51qvx4n5e","day":"Mon","num":"A","address":"1060 E.Imperial Hwy","geo_precision":"street","state":"CA"},"type":"Feature","geometry":{"type":"Point","coordinates":[-117.89981,33.91627]}},{"properties":{"city":"Whittier","name":"Lascari's Grill (Whittier)","zip":"90603","daynum":"Wed A","geo_score":0.604,"id":"abj51qk4kdj9","day":"Wed","num":"A","address":"16255 E. Whittier Blvd","geo_precision":"street","state":"CA"},"type":"Feature","geometry":{"type":"Point","coordinates":[-118.006487,33.948719]}},{"properties":{"city":"Whittier","name":"Lascari's Grill (Lambert)","zip":"90605","daynum":"Wed A","geo_score":0.614,"id":"abj51qkgxdan","day":"Wed","num":"A","address":"14404 E. Lambert Rd","geo_precision":"street","state":"CA"},"type":"Feature","geometry":{"type":"Point","coordinates":[-118.037837,33.958169]}},{"properties":{"city":"Norwalk","name":"La fitness Norwalk","zip":"90650","daynum":"Wed a","geo_score":0.604,"id":"abj51qxwc2w9","day":"Wed","num":"a","address":"11703 E. Rosecrans","geo_precision":"street","state":"CA"},"type":"Feature","geometry":{"type":"Point","coordinates":[-118.106557,33.902023]}},{"properties":{"city":"Downey","name":"La fitness Downey","zip":"90242","daynum":null,"geo_score":0.902,"id":"abj51qsles28","day":null,"num":null,"address":"12074 Lakewood Blvd","geo_precision":"range","state":"CA"},"type":"Feature","geometry":{"type":"Point","coordinates":[-118.131188,33.925697]}},{"properties":{"city":"Cerritos","name":"Benito Juarez Elementary","zip":"90703","daynum":"Wed a","geo_score":1.0,"id":"abj51qlhw92m","day":"Wed","num":"a","address":"11939 Aclare St","geo_precision":"range","state":"CA"},"type":"Feature","geometry":{"type":"Point","coordinates":[-118.07881,33.874506]}},{"properties":{"city":"Pasadena","name":"La fitness Pasadena","zip":"91105","daynum":null,"geo_score":0.604,"id":"abj51quzhasz","day":null,"num":null,"address":"45 S.Arroyo Parkway","geo_precision":"street","state":"CA"},"type":"Feature","geometry":{"type":"Point","coordinates":[-118.165114,34.144509]}},{"properties":{"city":"Azusa","name":"CHACHA's (Azusa)","zip":"91702","daynum":null,"geo_score":0.6,"id":"abj51qqxnrru","day":null,"num":null,"address":"248 W. Foothill Blvd","geo_precision":"street","state":"CA"},"type":"Feature","geometry":{"type":"Point","coordinates":[-117.907525,34.133477]}},{"properties":{"city":"Riverside","name":"Path of Life","zip":"92501","daynum":null,"geo_score":0.452,"id":"abj51qsiy92i","day":null,"num":null,"address":"4495 Magnolia Ave.","geo_precision":"street","state":"CA"},"type":"Feature","geometry":{"type":"Point","coordinates":[-117.292929,33.87204]}},{"properties":{"city":"El Monte","name":"Vons Credit Union","zip":"91731","daynum":"Wed b","geo_score":1.0,"id":"abj51qkplfks","day":"Wed","num":"b","address":"4455 Arden Dr.","geo_precision":"range","state":"CA"},"type":"Feature","geometry":{"type":"Point","coordinates":[-118.043544,34.086246]}},{"properties":{"city":"South El Monte","name":"Ramada Inn","zip":"91733","daynum":"Wed b","geo_score":1.0,"id":"abj51qhyok6c","day":"Wed","num":"b","address":"1089 Santa Anita Ave","geo_precision":"range","state":"CA"},"type":"Feature","geometry":{"type":"Point","coordinates":[-118.050389,34.040697]}},{"properties":{"city":"Palos Verdes","name":"La fitness Rancho Palos Verdes","zip":"90275","daynum":null,"geo_score":0.558,"id":"abj51qicrtus","day":null,"num":null,"address":"28901 S. Western Ave","geo_precision":"street","state":"CA"},"type":"Feature","geometry":{"type":"Point","coordinates":[-118.309202,33.750052]}},{"properties":{"city":"Torrance","name":"La fitness Torrance","zip":"90503","daynum":null,"geo_score":0.979,"id":"abj51qn1n34l","day":null,"num":null,"address":"20040 Hawthrone Blvd","geo_precision":"range","state":"CA"},"type":"Feature","geometry":{"type":"Point","coordinates":[-118.353521,33.85127]}},{"properties":{"city":"Hawthrone","name":"La fitness South Bay","zip":"90250","daynum":"Wed c","geo_score":0.366,"id":"abj51qtthmdx","day":"Wed","num":"c","address":"5001 Segundo Blvd","geo_precision":"street","state":"CA"},"type":"Feature","geometry":{"type":"Point","coordinates":[-118.38662,33.798401]}},{"properties":{"city":"Inglewood","name":"La fitness Inglewood","zip":"90303","daynum":null,"geo_score":0.602,"id":"abj51qsodnw5","day":null,"num":null,"address":"3531 W. Century Blvd","geo_precision":"street","state":"CA"},"type":"Feature","geometry":{"type":"Point","coordinates":[-118.3188,33.945471]}},{"properties":{"city":"Huntington Park","name":"La fitness Huntington Park","zip":"90255","daynum":"Wed c","geo_score":0.604,"id":"abj51qwh5ndj","day":"Wed","num":"c","address":"3081 E. Slauson","geo_precision":"street","state":"CA"},"type":"Feature","geometry":{"type":"Point","coordinates":[-118.23652,33.989219]}},{"properties":{"city":"Covina","name":"Berts Mega Mall","zip":"91722","daynum":"Thu a","geo_score":0.61,"id":"abj51quw2tka","day":"Thu","num":"a","address":"1151 N. Azusa Ave","geo_precision":"street","state":"CA"},"type":"Feature","geometry":{"type":"Point","coordinates":[-117.907657,34.095725]}},{"properties":{"city":"West Covina","name":"La fitness West Covina","zip":"91791","daynum":"Thu a","geo_score":0.61,"id":"abj51qozw9b8","day":"Thu","num":"a","address":"441 N. Azusa Ave","geo_precision":"street","state":"CA"},"type":"Feature","geometry":{"type":"Point","coordinates":[-117.907521,34.072337]}},{"properties":{"city":"West Covina","name":"Seidner's West Covina","zip":"91790","daynum":null,"geo_score":0.604,"id":"abj51qrg4vnq","day":null,"num":null,"address":"2525 W. Workman Ave","geo_precision":"street","state":"CA"},"type":"Feature","geometry":{"type":"Point","coordinates":[-117.925283,34.075486]}},{"properties":{"city":"West Covina","name":"West Covina Audi","zip":"91791","daynum":"Thu a","geo_score":1.0,"id":"abj51qu1asjs","day":"Thu","num":"a","address":"2016 E Garvey Avenue South","geo_precision":"range","state":"CA"},"type":"Feature","geometry":{"type":"Point","coordinates":[-117.903051,34.071699]}},{"properties":{"city":"West Covina","name":"West Covina Toyota","zip":"91791","daynum":null,"geo_score":0.607,"id":"abj51qur1vfe","day":null,"num":null,"address":"1800 E. Garvey Ave","geo_precision":"street","state":"CA"},"type":"Feature","geometry":{"type":"Point","coordinates":[-117.872238,34.072176]}},{"properties":{"city":"West Covina","name":"ITT Tech West Covina","zip":"91790","daynum":"Thu a","geo_score":0.604,"id":"abj51qid8dhv","day":"Thu","num":"a","address":"1530 W. Cameron Ave","geo_precision":"street","state":"CA"},"type":"Feature","geometry":{"type":"Point","coordinates":[-117.946353,34.072583]}},{"properties":{"city":"West Covina","name":"Penske Mercedes","zip":"91791","daynum":"Thu a","geo_score":0.607,"id":"abj51qm2l5cl","day":"Thu","num":"a","address":"1829 E. Garvey Ave N","geo_precision":"street","state":"CA"},"type":"Feature","geometry":{"type":"Point","coordinates":[-117.872238,34.072176]}},{"properties":{"city":"Glendora","name":"La fitness Glendora","zip":"91740","daynum":null,"geo_score":0.854,"id":"abj51qvd0kpf","day":null,"num":null,"address":"750 Route 66","geo_precision":"range","state":"CA"},"type":"Feature","geometry":{"type":"Point","coordinates":[-117.877789,34.128576]}},{"properties":{"city":"Glendora","name":"Tae Kwan Do","zip":"91740","daynum":"Thu a","geo_score":0.347,"id":"abj51qhf18y3","day":"Thu","num":"a","address":"1331 S.Lonehill Ave. Suite 150","geo_precision":"street","state":"CA"},"type":"Feature","geometry":{"type":"Point","coordinates":[-117.784035,34.064327]}},{"properties":{"city":"Pasadena","name":"Rusnak PJ&amp;B","zip":"91117","daynum":"Thu b","geo_score":0.314,"id":"abj51qpw1l18","day":"Thu","num":"b","address":"267 W.Colorado Blvd","geo_precision":"street","state":"CA"},"type":"Feature","geometry":{"type":"Point","coordinates":[-118.15141,34.145766]}},{"properties":{"city":"Arcadia","name":"Rusnak Mcds Benz","zip":"91007","daynum":null,"geo_score":0.571,"id":"abj51qlqklt7","day":null,"num":null,"address":"55W.Huntington Dr.","geo_precision":"street","state":"CA"},"type":"Feature","geometry":{"type":"Point","coordinates":[-118.033475,34.140028]}},{"properties":{"city":"Pasadena","name":"Rusnak Volvo","zip":"91107","daynum":"Thu b","geo_score":0.6,"id":"abj51qqg0m81","day":"Thu","num":"b","address":"2025 E.Colorado Blvd.","geo_precision":"street","state":"CA"},"type":"Feature","geometry":{"type":"Point","coordinates":[-118.115728,34.146001]}},{"properties":{"city":"Pasadena","name":"Rusnak Pasadena Auto","zip":"91107","daynum":"Thu b","geo_score":0.6,"id":"abj51qjnall3","day":"Thu","num":"b","address":"2965 E.Colorado Blvd","geo_precision":"street","state":"CA"},"type":"Feature","geometry":{"type":"Point","coordinates":[-118.115728,34.146001]}},{"properties":{"city":"Duarte","name":"Roadhouse &amp; Tavern","zip":"91010","daynum":null,"geo_score":0.6,"id":"abj51qj6jw70","day":null,"num":null,"address":"1846 E.Huntington Dr.","geo_precision":"street","state":"CA"},"type":"Feature","geometry":{"type":"Point","coordinates":[-117.998505,34.140398]}},{"properties":{"city":"Irwindale","name":"Grainger","zip":"91706","daynum":"Thu b","geo_score":0.585,"id":"abj51qtcyvic","day":"Thu","num":"b","address":"12780 Schabarum Ave","geo_precision":"zip","state":"CA"},"type":"Feature","geometry":{"type":"Point","coordinates":[-118.298662,33.786594]}},{"properties":{"city":"El Monte","name":"Madrid Middle School","zip":"91732","daynum":"Thu a","geo_score":0.935,"id":"abj51qusasez","day":"Thu","num":"a","address":"3300 Gilman St","geo_precision":"range","state":"CA"},"type":"Feature","geometry":{"type":"Point","coordinates":[-118.010178,34.061192]}},{"properties":{"city":"Duarte","name":"Northview Intermediate","zip":"91010","daynum":null,"geo_score":0.585,"id":"abj51qot4lv5","day":null,"num":null,"address":"1401 Highland Ave","geo_precision":"zip","state":"CA"},"type":"Feature","geometry":{"type":"Point","coordinates":[-118.298662,33.786594]}},{"properties":{"city":"San Bernardino","name":"La fitness San Bernardino","zip":"92408","daynum":"Thu c","geo_score":0.598,"id":"abj51qtdz1zp","day":"Thu","num":"c","address":"784 E.Hospitality Lane","geo_precision":"street","state":"CA"},"type":"Feature","geometry":{"type":"Point","coordinates":[-117.284367,34.065839]}},{"properties":{"city":"Riverside","name":"La fitness Riverside","zip":"92504","daynum":"Thu c","geo_score":1.0,"id":"abj51qlzh0ff","day":"Thu","num":"c","address":"3940 Madison St","geo_precision":"range","state":"CA"},"type":"Feature","geometry":{"type":"Point","coordinates":[-117.410807,33.942902]}},{"properties":{"city":"Rancho Cucamonga","name":"La fitness Rancho Cucamonga","zip":"91730","daynum":"Thu c","geo_score":1.0,"id":"abj51qu5yom3","day":"Thu","num":"c","address":"10848 Foothill Blvd","geo_precision":"range","state":"CA"},"type":"Feature","geometry":{"type":"Point","coordinates":[-117.569866,34.106573]}},{"properties":{"city":"Fontana","name":"Genesis Logistics","zip":"92337","daynum":null,"geo_score":1.0,"id":"abj51qo5jocc","day":null,"num":null,"address":"13405 Marlay Ave","geo_precision":"range","state":"CA"},"type":"Feature","geometry":{"type":"Point","coordinates":[-117.511696,34.040737]}},{"properties":{"city":"Pomona","name":"Kellogg Elementary","zip":"91767","daynum":"Fri c","geo_score":0.805,"id":"abj51qslbuqr","day":"Fri","num":"c","address":"610 Medina St.","geo_precision":"range","state":"CA"},"type":"Feature","geometry":{"type":"Point","coordinates":[-117.808888,34.05698]}},{"properties":{"city":"Montclair","name":"La FItness Montclair","zip":"91763","daynum":"Thu c","geo_score":0.48,"id":"abj51qkzgzif","day":"Thu","num":"c","address":"9385 Monte Vista","geo_precision":"street","state":"CA"},"type":"Feature","geometry":{"type":"Point","coordinates":[-117.68872,33.959255]}},{"properties":{"city":"San Bernardino","name":"Menlo Industries","zip":"92407","daynum":"Thu c","geo_score":0.619,"id":"abj51qjbejw0","day":"Thu","num":"c","address":"7010 N. Cajon Blvd","geo_precision":"street","state":"CA"},"type":"Feature","geometry":{"type":"Point","coordinates":[-117.347487,34.18561]}},{"properties":{"city":"Pomona","name":"Lincoln Elementary","zip":"91768","daynum":"Fri c","geo_score":0.619,"id":"abj51qxdb3z2","day":"Fri","num":"c","address":"1200 N. Gordon St.","geo_precision":"street","state":"CA"},"type":"Feature","geometry":{"type":"Point","coordinates":[-117.753555,34.073853]}},{"properties":{"city":"El Monte","name":"Kranz Elementary","zip":"91732","daynum":"Tue a","geo_score":1.0,"id":"abj51qxkq1of","day":"Tue","num":"a","address":"12460 Fineview St.","geo_precision":"range","state":"CA"},"type":"Feature","geometry":{"type":"Point","coordinates":[-118.023637,34.0456]}},{"properties":{"city":"El Monte","name":"Maxson School","zip":"91732","daynum":null,"geo_score":1.0,"id":"abj51qjx0586","day":null,"num":null,"address":"12380 Felipe St","geo_precision":"range","state":"CA"},"type":"Feature","geometry":{"type":"Point","coordinates":[-118.020266,34.050513]}},{"properties":{"city":"Pasadena","name":"Child Development Ctr.","zip":"91106","daynum":"Fri a","geo_score":0.805,"id":"abj51quuzpks","day":"Fri","num":"a","address":"1324 East Green St.","geo_precision":"range","state":"CA"},"type":"Feature","geometry":{"type":"Point","coordinates":[-118.124036,34.144537]}},{"properties":{"city":"Pasadena","name":"St. Phillips Elementary","zip":"91106","daynum":"Fri a","geo_score":1.0,"id":"abj51qvrbck8","day":"Fri","num":"a","address":"1363 Cordova St","geo_precision":"range","state":"CA"},"type":"Feature","geometry":{"type":"Point","coordinates":[-118.121761,34.142724]}},{"properties":{"city":"Pasadena","name":"Pasadena Council ADD","zip":"91106","daynum":"Fri a","geo_score":1.0,"id":"abj51qlhmb58","day":"Fri","num":"a","address":"1245 E Walnut St","geo_precision":"range","state":"CA"},"type":"Feature","geometry":{"type":"Point","coordinates":[-118.124958,34.149678]}},{"properties":{"city":"Pasadena","name":"Pasadena Education Ctr.","zip":"91107","daynum":null,"geo_score":0.6,"id":"abj51qoriisl","day":null,"num":null,"address":"3035 E. Foothill Blvd","geo_precision":"street","state":"CA"},"type":"Feature","geometry":{"type":"Point","coordinates":[-118.110717,34.149578]}},{"properties":{"city":"West Covina","name":"Foothill Transit","zip":"91790","daynum":"Fri b","geo_score":0.604,"id":"abj51qlau1jb","day":"Fri","num":"b","address":"100 S. Vincent Ave","geo_precision":"street","state":"CA"},"type":"Feature","geometry":{"type":"Point","coordinates":[-117.926601,34.072206]}},{"properties":{"city":"Irwindale","name":"LA Works","zip":"91706","daynum":null,"geo_score":1.0,"id":"abj51qsmn39n","day":null,"num":null,"address":"5200 Irwindale Ave","geo_precision":"range","state":"CA"},"type":"Feature","geometry":{"type":"Point","coordinates":[-117.934048,34.10872]}},{"properties":{"city":"La Puente","name":"Fairgrove Academy","zip":"91744","daynum":"Fri b","geo_score":1.0,"id":"abj51qugvzt9","day":"Fri","num":"b","address":"15540 Fairgrove Ave","geo_precision":"range","state":"CA"},"type":"Feature","geometry":{"type":"Point","coordinates":[-117.947835,34.041913]}},{"properties":{"city":"La Puente","name":"Baldwin Academy","zip":"91744","daynum":"Fri b","geo_score":0.878,"id":"abj51qksenpj","day":"Fri","num":"b","address":"1616 Griffith Ave","geo_precision":"range","state":"CA"},"type":"Feature","geometry":{"type":"Point","coordinates":[-117.943109,34.048321]}},{"properties":{"city":"Diamond Bar","name":"Insperity","zip":"91765","daynum":"Fri c","geo_score":0.819,"id":"abj51qvftpv8","day":"Fri","num":"c","address":"1440 Bridge Gate Drive Suite 100","geo_precision":"range","state":"CA"},"type":"Feature","geometry":{"type":"Point","coordinates":[-117.832752,33.998912]}},{"properties":{"city":"Hacienda Heights","name":"Kwiss Elementary","zip":"91745","daynum":"Fri b","geo_score":0.614,"id":"abj51qs4d619","day":"Fri","num":"b","address":"1925 S. Kwis Ave","geo_precision":"street","state":"CA"},"type":"Feature","geometry":{"type":"Point","coordinates":[-117.97006,34.011563]}},{"properties":{"city":"Industry","name":"La fitness Puente Hills","zip":"91748","daynum":null,"geo_score":0.915,"id":"abj51qtaeoge","day":null,"num":null,"address":"1545 Hanover Road","geo_precision":"range","state":"CA"},"type":"Feature","geometry":{"type":"Point","coordinates":[-117.920411,33.992907]}},{"properties":{"city":"Industry","name":"Sunbelt Rental (Industry)","zip":"91746","daynum":"Fri c","geo_score":0.485,"id":"abj51qkzlvlb","day":"Fri","num":"c","address":"13628 E.Valley Blvd","geo_precision":"street","state":"CA"},"type":"Feature","geometry":{"type":"Point","coordinates":[-118.002248,34.053172]}},{"properties":{"city":"La Puente","name":"Twin Palms Recovery","zip":"91744","daynum":"Fri c","geo_score":0.854,"id":"abj51qklgeat","day":"Fri","num":"c","address":"218 N Glendora","geo_precision":"range","state":"CA"},"type":"Feature","geometry":{"type":"Point","coordinates":[-117.952731,34.022752]}},{"properties":{"city":"Hacienda Heights","name":"Los Altos Elementary","zip":"91745","daynum":"Fri b","geo_score":0.958,"id":"abj51qqvko65","day":"Fri","num":"b","address":"15565 Los Altos Dr","geo_precision":"range","state":"CA"},"type":"Feature","geometry":{"type":"Point","coordinates":[-117.976115,33.987664]}},{"properties":{"city":"Montebello","name":"La fitness Montebello","zip":"90640","daynum":"Fri d","geo_score":1.0,"id":"abj51qvy90z7","day":"Fri","num":"d","address":"2222 West Beverly Blvd","geo_precision":"range","state":"CA"},"type":"Feature","geometry":{"type":"Point","coordinates":[-118.124587,34.021123]}},{"properties":{"city":"Rosemead","name":"La fitness Rosemead","zip":"91770","daynum":"Fri d","geo_score":1.0,"id":"abj51qw8gu1c","day":"Fri","num":"d","address":"3508 Rosemead Blvd","geo_precision":"range","state":"CA"},"type":"Feature","geometry":{"type":"Point","coordinates":[-118.072877,34.073747]}},{"properties":{"city":"Rosemead","name":"UFC Gym","zip":"91770","daynum":"Fri d","geo_score":1.0,"id":"abj51qnl49i4","day":"Fri","num":"d","address":"8920 Glendon Way","geo_precision":"range","state":"CA"},"type":"Feature","geometry":{"type":"Point","coordinates":[-118.073577,34.073995]}},{"properties":{"city":"Los Angeles","name":"USC Hospital","zip":"90033","daynum":"Fri d","geo_score":1.0,"id":"abj51qn4f0yj","day":"Fri","num":"d","address":"2051 Marengo St","geo_precision":"range","state":"CA"},"type":"Feature","geometry":{"type":"Point","coordinates":[-118.206281,34.056238]}},{"properties":{"city":"Los Angeles","name":"LA County Coroner","zip":"90033","daynum":"Fri d","geo_score":0.329,"id":"abj51qm12fm9","day":"Fri","num":"d","address":"1104 N. Mission Rd.","geo_precision":"street","state":"CA"},"type":"Feature","geometry":{"type":"Point","coordinates":[-118.191,34.139779]}},{"properties":{"city":"El Monte","name":"Miramonte Elementary","zip":"91733","daynum":"Tue a","geo_score":0.585,"id":"abj51qlu06h6","day":"Tue","num":"a","address":"10620 Schmidt Rd","geo_precision":"zip","state":"CA"},"type":"Feature","geometry":{"type":"Point","coordinates":[-118.298662,33.786594]}},{"properties":{"city":"El Monte","name":"Firestation 167 B","zip":"91732","daynum":null,"geo_score":1.0,"id":"abj51qxe9q8r","day":null,"num":null,"address":"11537 Bryant Rd","geo_precision":"range","state":"CA"},"type":"Feature","geometry":{"type":"Point","coordinates":[-118.022747,34.079225]}},{"properties":{"city":"Montebello","name":"Century 21","zip":"90640","daynum":null,"geo_score":0.286,"id":"abj51qv9oez7","day":null,"num":null,"address":"830 N. Wilcox Ave","geo_precision":"street","state":"CA"},"type":"Feature","geometry":{"type":"Point","coordinates":[-118.082556,33.966068]}},{"properties":{"city":"Pomona","name":"Philadelphia Elementary","zip":"91767","daynum":"Fri c","geo_score":0.805,"id":"abj51qxk3lb9","day":"Fri","num":"c","address":"600 Philadelphia St.","geo_precision":"range","state":"CA"},"type":"Feature","geometry":{"type":"Point","coordinates":[-117.743349,34.033376]}},{"properties":{"city":"Pomona","name":"Garey High School","zip":"91766","daynum":null,"geo_score":0.857,"id":"abj51qx4iust","day":null,"num":null,"address":"321 W. Lexington Ave.","geo_precision":"zip","state":"CA"},"type":"Feature","geometry":{"type":"Point","coordinates":[-119.382338,35.888009]}},{"properties":{"city":"Industry","name":"Mergence Tech Inc","zip":"91789","daynum":null,"geo_score":0.479,"id":"abj51qu76jvw","day":null,"num":null,"address":"20480 E. Business Parkway","geo_precision":"street","state":"CA"},"type":"Feature","geometry":{"type":"Point","coordinates":[-117.866143,34.000395]}},{"properties":{"city":"El Monte","name":"S.G.V.C.C on site","zip":"91731","daynum":null,"geo_score":1.0,"id":"abj51qwaqb40","day":null,"num":null,"address":"3629 Cypress Ave","geo_precision":"range","state":"CA"},"type":"Feature","geometry":{"type":"Point","coordinates":[-118.030219,34.07464]}},{"properties":{"city":"San Dimas","name":"Ranging Waters","zip":"91773","daynum":null,"geo_score":0.438,"id":"abj51qo67nmr","day":null,"num":null,"address":"111 Ranging Waters Dr.","geo_precision":"street","state":"CA"},"type":"Feature","geometry":{"type":"Point","coordinates":[-117.76149,34.049369]}},{"properties":{"city":"Pomona","name":"School of Arts Entreprise (SAE)","zip":"91767","daynum":null,"geo_score":0.633,"id":"abj51qigparp","day":null,"num":null,"address":"295 N.Garey Ave","geo_precision":"street","state":"CA"},"type":"Feature","geometry":{"type":"Point","coordinates":[-117.750618,34.088169]}},{"properties":{"city":"South El Monte","name":"Lucky Fashion Warehouse","zip":"91733","daynum":null,"geo_score":0.977,"id":"abj51qvj205x","day":null,"num":null,"address":"1727 Flordale Ave.","geo_precision":"range","state":"CA"},"type":"Feature","geometry":{"type":"Point","coordinates":[-118.038819,34.047564]}},{"properties":{"city":"West Covina","name":"Westcove Elementary","zip":"91790","daynum":null,"geo_score":1.0,"id":"abj51qsi9ler","day":null,"num":null,"address":"1010 West Vine Ave.","geo_precision":"range","state":"CA"},"type":"Feature","geometry":{"type":"Point","coordinates":[-117.940635,34.060599]}},{"properties":{"city":"West Covina","name":"Merced Elementary","zip":"91790","daynum":null,"geo_score":0.806,"id":"abj51qsi4mm9","day":null,"num":null,"address":"1545 East Merced Ave.","geo_precision":"street","state":"CA"},"type":"Feature","geometry":{"type":"Point","coordinates":[-117.920543,34.053951]}},{"properties":{"city":"West Covina","name":"Orangewood Elementary","zip":"91790","daynum":null,"geo_score":1.0,"id":"abj51qvy98kc","day":null,"num":null,"address":"1440 South Orange Ave.","geo_precision":"range","state":"CA"},"type":"Feature","geometry":{"type":"Point","coordinates":[-117.954084,34.061782]}},{"properties":{"city":"West Covina","name":"Cameron Elementary","zip":"91790","daynum":null,"geo_score":0.604,"id":"abj51qq4503l","day":null,"num":null,"address":"1225 E. Cameron Ave.","geo_precision":"street","state":"CA"},"type":"Feature","geometry":{"type":"Point","coordinates":[-117.946353,34.072583]}},{"properties":{"city":"West Covina","name":"Merlinda Elementary","zip":"91790","daynum":null,"geo_score":0.604,"id":"abj51qhwhxml","day":null,"num":null,"address":"1120 S. Valinda Ave.","geo_precision":"street","state":"CA"},"type":"Feature","geometry":{"type":"Point","coordinates":[-117.925366,34.066511]}},{"properties":{"city":"West Covina","name":"California Elementary","zip":"91790","daynum":null,"geo_score":0.805,"id":"abj51qqdm8y5","day":null,"num":null,"address":"112 Bainbridge Ave.","geo_precision":"street","state":"CA"},"type":"Feature","geometry":{"type":"Point","coordinates":[-117.945673,34.053813]}},{"properties":{"city":"West Covina","name":"Monte Vista Elementary","zip":"91790","daynum":null,"geo_score":0.607,"id":"abj51qwqkl26","day":null,"num":null,"address":"1615 W. Eldred Ave.","geo_precision":"street","state":"CA"},"type":"Feature","geometry":{"type":"Point","coordinates":[-117.938575,34.081388]}},{"properties":{"city":"Irwindale","name":"Irwindale Speedway","zip":"91706","daynum":null,"geo_score":0.585,"id":"abj51qrbh2v8","day":null,"num":null,"address":"500 Speedway Drive","geo_precision":"zip","state":"CA"},"type":"Feature","geometry":{"type":"Point","coordinates":[-118.298662,33.786594]}},{"properties":{"city":"Baldwin Park","name":"New Beginnings Church","zip":"91706","daynum":null,"geo_score":1.0,"id":"abj51qth88vf","day":null,"num":null,"address":"13020 Francisquito Ave.","geo_precision":"range","state":"CA"},"type":"Feature","geometry":{"type":"Point","coordinates":[-117.98803,34.078744]}},{"properties":{"city":"Los Angeles","name":"Regional Planning","zip":"90012","daynum":null,"geo_score":0.61,"id":"abj51qvakbfp","day":null,"num":null,"address":"320 W Temple St. Rm1361","geo_precision":"street","state":"CA"},"type":"Feature","geometry":{"type":"Point","coordinates":[-118.241654,34.054079]}},{"properties":{"city":"San Bernardino","name":"66ers Baseball","zip":"92404","daynum":null,"geo_score":0.429,"id":"abj51ql06e26","day":null,"num":null,"address":"280 South E.Street","geo_precision":"street","state":"CA"},"type":"Feature","geometry":{"type":"Point","coordinates":[-117.294156,34.105522]}},{"properties":{"city":"Baldwin Park","name":"Parks &amp; Recreation","zip":"91706","daynum":null,"geo_score":1.0,"id":"abj51qq1xart","day":null,"num":null,"address":"265 Cloverleaf Dr","geo_precision":"range","state":"CA"},"type":"Feature","geometry":{"type":"Point","coordinates":[-118.002434,34.061356]}},{"properties":{"city":"Montebello","name":"La Merced Intermediate","zip":"90640","daynum":"Fri","geo_score":0.984,"id":"abj51qnw7edi","day":"Fri","num":null,"address":"215 E Avenida de La Merced","geo_precision":"range","state":"CA"},"type":"Feature","geometry":{"type":"Point","coordinates":[-118.091784,34.024131]}},{"properties":{"city":"El Monte","name":"Mariscos la Bucana","zip":"91731","daynum":null,"geo_score":1.0,"id":"abj51qxcpduj","day":null,"num":null,"address":"11016 Concert St.","geo_precision":"range","state":"CA"},"type":"Feature","geometry":{"type":"Point","coordinates":[-118.034037,34.063729]}},{"properties":{"city":"Alhambra","name":"The County of Los Angeles","zip":"91803","daynum":null,"geo_score":0.625,"id":"abj51qr7pmky","day":null,"num":null,"address":"900 S. Fremont Ave 3rd Floor","geo_precision":"street","state":"CA"},"type":"Feature","geometry":{"type":"Point","coordinates":[-118.125545,34.07843]}},{"properties":{"city":"Pasadena","name":"Michillinda Park","zip":"91107","daynum":null,"geo_score":0.963,"id":"abj51qxndfyc","day":null,"num":null,"address":"3800 Michillinda Dr.","geo_precision":"range","state":"CA"},"type":"Feature","geometry":{"type":"Point","coordinates":[-118.069388,34.130989]}},{"properties":{"city":"Monrovia","name":"Bradoaks Elementary","zip":"91016","daynum":null,"geo_score":1.0,"id":"abj51qhq6nwc","day":null,"num":null,"address":"930 East Lemon Ave","geo_precision":"range","state":"CA"},"type":"Feature","geometry":{"type":"Point","coordinates":[-117.984056,34.146804]}},{"properties":{"city":"Pasadena","name":"Rusnak Auto Group PJ &amp; B","zip":"91117","daynum":null,"geo_score":0.805,"id":"abj51qvyke0o","day":null,"num":null,"address":"267 W Colorado Blvd","geo_precision":"range","state":"CA"},"type":"Feature","geometry":{"type":"Point","coordinates":[-118.15762,34.145737]}},{"properties":{"city":"South El Monte","name":"Cielito Lindo","zip":"91731","daynum":null,"geo_score":0.763,"id":"abj51qvtbpki","day":null,"num":null,"address":"1612 Santa Anita Ave","geo_precision":"street","state":"CA"},"type":"Feature","geometry":{"type":"Point","coordinates":[-118.042168,34.068856]}},{"properties":{"city":"Montclair","name":"Dolce Caf","zip":"91763","daynum":null,"geo_score":1.0,"id":"abj51qrm0k1n","day":null,"num":null,"address":"8821 Central Ave.","geo_precision":"range","state":"CA"},"type":"Feature","geometry":{"type":"Point","coordinates":[-117.689533,34.092647]}},{"properties":{"city":"Chino","name":"Honolulu Harry's","zip":"91710","daynum":null,"geo_score":1.0,"id":"abj51ql5zl0y","day":null,"num":null,"address":"12206 Central Ave.","geo_precision":"range","state":"CA"},"type":"Feature","geometry":{"type":"Point","coordinates":[-117.689373,34.032923]}},{"properties":{"city":"Whittier","name":"Marinellos School of Beauty","zip":"90601","daynum":null,"geo_score":1.0,"id":"abj51qsakhnw","day":null,"num":null,"address":"6538 Greenleaf Ave","geo_precision":"range","state":"CA"},"type":"Feature","geometry":{"type":"Point","coordinates":[-118.037244,33.981239]}},{"properties":{"city":"Baldwin Park","name":"Terry Muse Family Center","zip":"91706","daynum":null,"geo_score":1.0,"id":"abj51qtzxin5","day":null,"num":null,"address":"4100 Baldwin Park Blvd.","geo_precision":"range","state":"CA"},"type":"Feature","geometry":{"type":"Point","coordinates":[-117.964833,34.087522]}},{"properties":{"city":"Whittier","name":"The Bottle Room","zip":"90601","daynum":null,"geo_score":1.0,"id":"abj51qrx5k2m","day":null,"num":null,"address":"6741 Greenleaf Ave.","geo_precision":"range","state":"CA"},"type":"Feature","geometry":{"type":"Point","coordinates":[-118.037405,33.97934]}},{"properties":{"city":"Rancho Cucamonga","name":"Toyota Training Facilities","zip":"91730","daynum":null,"geo_score":1.0,"id":"abj51qqetnzb","day":null,"num":null,"address":"9494 Haven Ave","geo_precision":"range","state":"CA"},"type":"Feature","geometry":{"type":"Point","coordinates":[-117.57579,34.080367]}},{"properties":{"city":"Pomona","name":"Flava Flav","zip":null,"daynum":null,"geo_score":0.796,"id":"abj51qhlzm2h","day":null,"num":null,"address":"505 South Garey","geo_precision":"range","state":"CA"},"type":"Feature","geometry":{"type":"Point","coordinates":[-117.75009,34.054238]}},{"properties":{"city":"Pasadena","name":"Cabrera's Pasadena","zip":null,"daynum":"Mon A","geo_score":0.471,"id":"abj51qq7fqyl","day":"Mon","num":"A","address":"655 N. Lake Ave.","geo_precision":"street","state":"CA"},"type":"Feature","geometry":{"type":"Point","coordinates":[-118.132353,34.1459]}},{"properties":{"city":"Pasadena","name":"Cabrera's Pasadena","zip":null,"daynum":"Fri a","geo_score":0.471,"id":"abj51qlg5eb6","day":"Fri","num":"a","address":"655 N. Lake Ave.","geo_precision":"street","state":"CA"},"type":"Feature","geometry":{"type":"Point","coordinates":[-118.132353,34.1459]}},{"properties":{"city":"Whittier","name":"Franco Tratorria","zip":null,"daynum":"Mon b","geo_score":0.902,"id":"abj51qrkwps2","day":"Mon","num":"b","address":"6717 Greenleaf Ave.","geo_precision":"range","state":"CA"},"type":"Feature","geometry":{"type":"Point","coordinates":[-118.037406,33.979196]}},{"properties":{"city":"Long Beach","name":"Long Beach Court House","zip":"90802","daynum":"Wed c","geo_score":0.607,"id":"abj51qj731mh","day":"Wed","num":"c","address":"415 W. Ocean Blvd","geo_precision":"street","state":"CA"},"type":"Feature","geometry":{"type":"Point","coordinates":[-118.193035,33.767111]}},{"properties":{"city":"Azusa","name":"Miss J Swet","zip":"91702","daynum":null,"geo_score":0.592,"id":"abj51qndhztz","day":null,"num":null,"address":"3629 Cypress Ave.","geo_precision":"street","state":"CA"},"type":"Feature","geometry":{"type":"Point","coordinates":[-117.910279,34.154643]}},{"properties":{"city":"Arcadia","name":"Cabreras Arcadia","zip":"91006","daynum":"Mon a","geo_score":1.0,"id":"abj51qvsz881","day":"Mon","num":"a","address":"625 East Live Oak Ave.","geo_precision":"range","state":"CA"},"type":"Feature","geometry":{"type":"Point","coordinates":[-118.017282,34.109323]}},{"properties":{"city":"Century City","name":"Bloomingdales","zip":null,"daynum":"Tue B","geo_score":0.902,"id":"abj51qv8mndv","day":"Tue","num":"B","address":"10250 Santa Monica Blvd.","geo_precision":"range","state":"CA"},"type":"Feature","geometry":{"type":"Point","coordinates":[-118.421042,34.059196]}},{"properties":{"city":"Pasadena","name":"Hamilton elementary","zip":null,"daynum":"Thu b","geo_score":0.892,"id":"abj51qk0gvht","day":"Thu","num":"b","address":"2089 rose villa street","geo_precision":"range","state":"CA"},"type":"Feature","geometry":{"type":"Point","coordinates":[-118.108296,34.140806]}},{"properties":{"city":"chino","name":"Ramona jr high","zip":null,"daynum":"Fri c","geo_score":0.707,"id":"abj51ql6o2jh","day":"Fri","num":"c","address":"4575 Ramona ave","geo_precision":"street","state":"CA"},"type":"Feature","geometry":{"type":"Point","coordinates":[-117.707015,34.044982]}},{"properties":{"city":"Whittier","name":"Rio Hondo College","zip":"90601","daynum":"Mon b","geo_score":0.989,"id":"abj51qhvp6gl","day":"Mon","num":"b","address":"3600 workman mill rd","geo_precision":"range","state":"CA"},"type":"Feature","geometry":{"type":"Point","coordinates":[-118.040223,34.017716]}},{"properties":{"city":"Whittier","name":"Rio Hondo College","zip":"90601","daynum":"Fri a","geo_score":0.989,"id":"abj51quu67ad","day":"Fri","num":"a","address":"3600 workman mill rd","geo_precision":"range","state":"CA"},"type":"Feature","geometry":{"type":"Point","coordinates":[-118.040223,34.017716]}},{"properties":{"city":"La Puente","name":"Sparks middle school","zip":null,"daynum":"Fri b","geo_score":0.709,"id":"abj51qs59djw","day":"Fri","num":"b","address":"15100 Giordano st","geo_precision":"street","state":"CA"},"type":"Feature","geometry":{"type":"Point","coordinates":[-117.955463,34.03482]}},{"properties":{"city":"El Monte","name":"Cha Cafe","zip":null,"daynum":"Wed b","geo_score":0.844,"id":"abj51qjfn4iv","day":"Wed","num":"b","address":"10308 Lower Azusa ave","geo_precision":"range","state":"CA"},"type":"Feature","geometry":{"type":"Point","coordinates":[-118.04233,34.091562]}},{"properties":{"city":"San Gabriel","name":"Eric Luke","zip":null,"daynum":"Wed b","geo_score":0.836,"id":"abj51qw6m5y2","day":"Wed","num":"b","address":"6931 n vista st","geo_precision":"range","state":"CA"},"type":"Feature","geometry":{"type":"Point","coordinates":[-118.085959,34.126131]}}],"is_temporal":false,"author":{"url":"","metadata":"","contact_name":"","contact_address":"","source":"","contact_phone":""},"source":"","pagination":{"sort":null,"start":0,"total":163,"limit":1000000},"state":"complete","tags":"","published":"2014-08-16T15:27:18-04:00","id":312035}