{"type":"FeatureCollection","data_type":"Dataset","url_type":null,"permissions":[{"permissions":{"download":true,"view":true},"group_id":"everyone"}],"classification":null,"title":"Copy_of_IPTV-Vaughnsville-Jan-16-2013_-_Copy","count":141,"stream_id":312391,"contributor":{"url":"http://geocommons.com/users/59404","name":"KatieEtgen"},"data_attributes":null,"calculation_params":null,"icon_link":null,"link":"http://geocommons.com/overlays/312391.json","extent":[-84.5794,40.6937,-83.7866,41.0533],"geometry_types":["point"],"unique_name":null,"name":"Copy_of_IPTV-Vaughnsville-Jan-16-2013_-_Copy","feature_count":141,"description":"","next_feature":null,"is_raster":false,"short_classification":"Y","stats":{"stbs allowed":{"max":20,"mean":2.72340425531915,"variance":5.33009118541033,"stdev":2.30869902443136,"median":2,"min":1},"phone":{"max":4196463898,"mean":4196434314.30496,"variance":121164143990.956,"stdev":348086.403053834,"median":4196463653,"min":4192330332},"customer id":{"max":4196463898,"mean":285749106.77037,"variance":1.10055899213709e+18,"stdev":1049075303.3682,"median":6463656,"min":3397},"password":{"max":6463898,"mean":6341817.4,"variance":708369257911.076,"stdev":841646.753639005,"median":6463649,"min":3887},"pin":{"max":1234,"mean":1234.0,"variance":0.0,"stdev":0.0,"median":1234,"min":1234}},"features":[{"properties":{"city":"columbus grove","status":"Active","ppv":"Yes","zip":"45830","region":"Vaughnsville","service packages":"supreme/hd/hbo/cinemax/showtime/tmc/flix","township":null,"last":"aguirre","stbs allowed":2,"geo_score":0.745,"first":"charles","ppv limit":"Unlimited","customer id":6463501,"phone":4196463501,"whdvr":"No","id":"abjw6vm6oqnn","address":"15331 sr 189","login":"aguirre","password":6463501,"geo_precision":"range","state":"OH","pin":1234},"type":"Feature","geometry":{"type":"Point","coordinates":[-84.156514,40.881475]}},{"properties":{"city":"vaughnsville","status":"Active","ppv":"Yes","zip":"45893","region":"Vaughnsville","service packages":"i-pro select,i-pro standard","township":null,"last":"aller","stbs allowed":2,"geo_score":0.854,"first":"kenneth","ppv limit":"Unlimited","customer id":6463881,"phone":4196463881,"whdvr":"No","id":"abjw6vgfqb9l","address":"162 w charles st","login":null,"password":null,"geo_precision":"range","state":"OH","pin":null},"type":"Feature","geometry":{"type":"Point","coordinates":[-84.148572,40.880244]}},{"properties":{"city":"columbus grove","status":"Active","ppv":"Yes","zip":"45830","region":"Vaughnsville","service packages":"supreme/hd/hbo/cinemax/starz/encore","township":null,"last":"anderson","stbs allowed":1,"geo_score":0.829,"first":"brad","ppv limit":"Unlimited","customer id":6463366,"phone":4196463366,"whdvr":"No","id":"abjw6vddiijf","address":"14954 rd s","login":"anderson","password":6463366,"geo_precision":"range","state":"OH","pin":1234},"type":"Feature","geometry":{"type":"Point","coordinates":[-84.14187,40.956109]}},{"properties":{"city":"vaughnsville","status":"Active","ppv":"Yes","zip":"45893","region":"Vaughnsville","service packages":"i-pro select","township":null,"last":"ayers","stbs allowed":1,"geo_score":0.619,"first":"gary","ppv limit":"Unlimited","customer id":6463808,"phone":4196463808,"whdvr":"No","id":"abjw6v7mwtsq","address":"114 A e findlay","login":"ayers","password":6463808,"geo_precision":"range","state":"OH","pin":1234},"type":"Feature","geometry":{"type":"Point","coordinates":[-84.145129,40.881575]}},{"properties":{"city":"Vaughnsville","status":"Active","ppv":"Yes","zip":"45813","region":"Vaughnsville","service packages":"i-pro supreme,supreme/hd","township":null,"last":"Bachman","stbs allowed":4,"geo_score":0.756,"first":"Elvin","ppv limit":"Unlimited","customer id":null,"phone":4196463895,"whdvr":"No","id":"abjw6vgia8o1","address":"15875 Old SR 12","login":"4196433895","password":6463895,"geo_precision":"range","state":"OH","pin":1234},"type":"Feature","geometry":{"type":"Point","coordinates":[-84.163718,40.870197]}},{"properties":{"city":"columbus grove","status":"Active","ppv":"Yes","zip":"45830","region":"Vaughnsville","service packages":"select/cinemax","township":null,"last":"bair","stbs allowed":6,"geo_score":0.756,"first":"neil","ppv limit":"Unlimited","customer id":6463727,"phone":4196463727,"whdvr":"No","id":"abjw6v8gjlkf","address":"15951 old sr 12","login":"bair","password":6463727,"geo_precision":"range","state":"OH","pin":1234},"type":"Feature","geometry":{"type":"Point","coordinates":[-84.161495,40.870834]}},{"properties":{"city":"Vaugnsville","status":"Active","ppv":"Yes","zip":"45893","region":"Vaughnsville","service packages":"i-pro select","township":null,"last":"Basil","stbs allowed":3,"geo_score":0.756,"first":"Mackenzie","ppv limit":"Unlimited","customer id":6463861,"phone":4196463861,"whdvr":"No","id":"abjw6vm6vz5w","address":"223 South St.","login":"basil","password":6463861,"geo_precision":"range","state":"OH","pin":1234},"type":"Feature","geometry":{"type":"Point","coordinates":[-84.301633,41.053265]}},{"properties":{"city":"columbus grove","status":"Inactive","ppv":"Yes","zip":"45830","region":"Vaughnsville","service packages":"i-pro standard","township":null,"last":"bates","stbs allowed":1,"geo_score":0.812,"first":"orville","ppv limit":"Unlimited","customer id":6463843,"phone":4196463843,"whdvr":"No","id":"abjw6v92856n","address":"18932 st rt 115","login":"bates","password":6463843,"geo_precision":"range","state":"OH","pin":1234},"type":"Feature","geometry":{"type":"Point","coordinates":[-84.158084,40.905535]}},{"properties":{"city":"vaughnsville","status":"Active","ppv":"Yes","zip":"45893","region":"Vaughnsville","service packages":"select/hd","township":null,"last":"baxter","stbs allowed":2,"geo_score":0.756,"first":"chris","ppv limit":"Unlimited","customer id":6463825,"phone":4196463825,"whdvr":"No","id":"abjw6vii2pgq","address":"115 e charles st","login":"baxter","password":6463825,"geo_precision":"range","state":"OH","pin":1234},"type":"Feature","geometry":{"type":"Point","coordinates":[-84.147919,40.880269]}},{"properties":{"city":"columbus grove","status":"Active","ppv":"Yes","zip":"45830","region":"Vaughnsville","service packages":"select/hbo/cinemax","township":null,"last":"benroth","stbs allowed":1,"geo_score":0.745,"first":"carl","ppv limit":"Unlimited","customer id":6463646,"phone":4196463646,"whdvr":"No","id":"abjw6v91bm0e","address":"19620 sr 115","login":"benroth","password":6463646,"geo_precision":"range","state":"OH","pin":1234},"type":"Feature","geometry":{"type":"Point","coordinates":[-84.157356,40.894321]}},{"properties":{"city":"Columbus Grove","status":"Active","ppv":"Yes","zip":"45830","region":"Vaughnsville","service packages":"i-pro supreme,supreme/hd","township":null,"last":"Benroth","stbs allowed":6,"geo_score":0.482,"first":"Brock","ppv limit":"Unlimited","customer id":6463320,"phone":4196463320,"whdvr":"No","id":"abjw6vj53gfs","address":"15846 County Rd. S","login":"6433320","password":6463320,"geo_precision":"street","state":"OH","pin":1234},"type":"Feature","geometry":{"type":"Point","coordinates":[-83.786605,40.69367]}},{"properties":{"city":"vaughnsville","status":"Active","ppv":"Yes","zip":"45893","region":"Vaughnsville","service packages":"select/hd","township":null,"last":"bishop","stbs allowed":2,"geo_score":0.717,"first":"florita","ppv limit":"Unlimited","customer id":6463748,"phone":4196463748,"whdvr":"No","id":"abjw6vigy57i","address":"312 findlay","login":"bishop","password":6463748,"geo_precision":"street","state":"OH","pin":1234},"type":"Feature","geometry":{"type":"Point","coordinates":[-84.14933,40.881602]}},{"properties":{"city":"columbus grove","status":"Active","ppv":"Yes","zip":"45830","region":"Vaughnsville","service packages":"i-pro supreme","township":null,"last":"boyed","stbs allowed":1,"geo_score":0.756,"first":"paul","ppv limit":"Unlimited","customer id":6463378,"phone":4196463378,"whdvr":"No","id":"abjw6velo1c2","address":"15689 old sr 12","login":"boyed","password":6463378,"geo_precision":"range","state":"OH","pin":1234},"type":"Feature","geometry":{"type":"Point","coordinates":[-84.159841,40.871368]}},{"properties":{"city":"Vaughnville","status":"Inactive","ppv":"Yes","zip":"45893","region":"Vaughnsville","service packages":"i-pro select","township":null,"last":"Brown","stbs allowed":2,"geo_score":0.65,"first":"Megan","ppv limit":"Unlimited","customer id":6463886,"phone":4196463886,"whdvr":"No","id":"abjw6va62b7l","address":"353 W Findlay","login":"brown","password":6463886,"geo_precision":"range","state":"OH","pin":1234},"type":"Feature","geometry":{"type":"Point","coordinates":[-84.150071,40.881514]}},{"properties":{"city":"columbus grove","status":"Active","ppv":"Yes","zip":"45830","region":"Vaughnsville","service packages":"i-pro select","township":null,"last":"bryan","stbs allowed":1,"geo_score":0.812,"first":"chad","ppv limit":"Unlimited","customer id":6463451,"phone":4196463451,"whdvr":"No","id":"abjw6vdd4du2","address":"17094 st rt 115","login":"bryan","password":6463451,"geo_precision":"range","state":"OH","pin":1234},"type":"Feature","geometry":{"type":"Point","coordinates":[-84.158466,40.932622]}},{"properties":{"city":"Columbus Grove","status":"Active","ppv":"Yes","zip":"45830","region":"Vaughnsville","service packages":"i-pro standard","township":null,"last":"Bryan","stbs allowed":3,"geo_score":0.902,"first":"Nick","ppv limit":"Unlimited","customer id":null,"phone":4196463877,"whdvr":"No","id":"abjw6vm31m9s","address":"21094 Hofferbert Rd.","login":"4196463877","password":6463877,"geo_precision":"range","state":"OH","pin":1234},"type":"Feature","geometry":{"type":"Point","coordinates":[-84.109765,40.868219]}},{"properties":{"city":"vaughnsville","status":"Active","ppv":"Yes","zip":"45893","region":"Vaughnsville","service packages":"i-pro standard","township":null,"last":"buckland","stbs allowed":2,"geo_score":0.805,"first":"bob","ppv limit":"Unlimited","customer id":6463802,"phone":4196463802,"whdvr":"No","id":"abjw6v7rkp92","address":"237 center st","login":"buckland","password":6463802,"geo_precision":"range","state":"OH","pin":1234},"type":"Feature","geometry":{"type":"Point","coordinates":[-84.149971,40.882788]}},{"properties":{"city":"columbus grove","status":"Active","ppv":"Yes","zip":"45830","region":"Vaughnsville","service packages":"i-pro select","township":null,"last":"burkholder","stbs allowed":2,"geo_score":0.756,"first":"steve","ppv limit":"Unlimited","customer id":6463438,"phone":4196463438,"whdvr":"No","id":"abjw6vkbx6cl","address":"15580 old sr 12","login":"burkholder","password":6463438,"geo_precision":"range","state":"OH","pin":1234},"type":"Feature","geometry":{"type":"Point","coordinates":[-84.154805,40.873315]}},{"properties":{"city":"columbus grove","status":"Active","ppv":"Yes","zip":"45830","region":"Vaughnsville","service packages":"supreme/hd","township":null,"last":"calvelage","stbs allowed":2,"geo_score":0.902,"first":"virgil","ppv limit":"Unlimited","customer id":6463604,"phone":4196463604,"whdvr":"No","id":"abjw6vai8h1n","address":"19382 rd 13-s","login":"calvelage","password":6463604,"geo_precision":"range","state":"OH","pin":1234},"type":"Feature","geometry":{"type":"Point","coordinates":[-84.119491,40.899543]}},{"properties":{"city":"columbus grove","status":"Active","ppv":"Yes","zip":"45830","region":"Vaughnsville","service packages":"i-pro select,select/hd","township":null,"last":"cartwright","stbs allowed":2,"geo_score":0.634,"first":"travis","ppv limit":"Unlimited","customer id":6463867,"phone":4196463867,"whdvr":"No","id":"abjw6vfqmvaq","address":"51894 road s","login":"cartwright","password":6463867,"geo_precision":"street","state":"OH","pin":1234},"type":"Feature","geometry":{"type":"Point","coordinates":[-84.188561,40.972146]}},{"properties":{"city":"vaughnsville","status":"Active","ppv":"Yes","zip":"45893","region":"Vaughnsville","service packages":"i-pro select","township":null,"last":"caton","stbs allowed":1,"geo_score":0.756,"first":"wilda","ppv limit":"Unlimited","customer id":6463462,"phone":4196463462,"whdvr":"No","id":"abjw6vfhb8g8","address":"143 w charles st","login":"caton","password":6463462,"geo_precision":"range","state":"OH","pin":1234},"type":"Feature","geometry":{"type":"Point","coordinates":[-84.148594,40.880082]}},{"properties":{"city":"columbus grove","status":"Active","ppv":"Yes","zip":"45830","region":"Vaughnsville","service packages":"select/cinemax","township":null,"last":"caton","stbs allowed":1,"geo_score":0.902,"first":"wayne","ppv limit":"Unlimited","customer id":6463515,"phone":4196463515,"whdvr":"No","id":"abjw6vh9cmct","address":"19211 rd 13-s","login":"caton","password":6463515,"geo_precision":"range","state":"OH","pin":1234},"type":"Feature","geometry":{"type":"Point","coordinates":[-84.119358,40.902012]}},{"properties":{"city":"columbus grove","status":"Active","ppv":"Yes","zip":"45830","region":"Vaughnsville","service packages":"i-pro select","township":null,"last":"clevenger","stbs allowed":1,"geo_score":0.829,"first":"jay","ppv limit":"Unlimited","customer id":6463495,"phone":4196463495,"whdvr":"No","id":"abjw6vct2yet","address":"14999 rd s","login":"clevenger","password":6463495,"geo_precision":"range","state":"OH","pin":1234},"type":"Feature","geometry":{"type":"Point","coordinates":[-84.140966,40.955559]}},{"properties":{"city":"Columbus Grove","status":"Active","ppv":"Yes","zip":"45830","region":"Vaughnsville","service packages":"i-pro select","township":null,"last":"Clevenger","stbs allowed":3,"geo_score":0.902,"first":"Paul","ppv limit":"Unlimited","customer id":null,"phone":4196463476,"whdvr":"No","id":"abjw6vedrpy4","address":"9252 Hofferbert Rd","login":"4196463476","password":6463476,"geo_precision":"range","state":"OH","pin":1234},"type":"Feature","geometry":{"type":"Point","coordinates":[-84.109635,40.870075]}},{"properties":{"city":"columbus grove","status":"Active","ppv":"Yes","zip":"45830","region":"Vaughnsville","service packages":"i-pro supreme","township":null,"last":"collar","stbs allowed":2,"geo_score":0.745,"first":"jim","ppv limit":"Unlimited","customer id":6463673,"phone":4196463673,"whdvr":"No","id":"abjw6vdikr81","address":"16241 sr 189","login":"collar","password":6463673,"geo_precision":"range","state":"OH","pin":1234},"type":"Feature","geometry":{"type":"Point","coordinates":[-84.171527,40.881303]}},{"properties":{"city":"columbus grove","status":"Active","ppv":"Yes","zip":"45830","region":"Vaughnsville","service packages":"i-pro select","township":null,"last":"collar","stbs allowed":2,"geo_score":0.745,"first":"cliff","ppv limit":"Unlimited","customer id":6463649,"phone":4196463649,"whdvr":"No","id":"abjw6v9u0gso","address":"16484 sr 189","login":"collar","password":6463649,"geo_precision":"range","state":"OH","pin":1234},"type":"Feature","geometry":{"type":"Point","coordinates":[-84.176541,40.881366]}},{"properties":{"city":"columbus grove","status":"Inactive","ppv":"Yes","zip":"45830","region":"Vaughnsville","service packages":"i-pro select","township":null,"last":"collar","stbs allowed":1,"geo_score":0.812,"first":"oliver","ppv limit":"Unlimited","customer id":6463714,"phone":4196463714,"whdvr":"No","id":"abjw6vcfmg9z","address":"15671 st rt 189","login":"collar","password":6463714,"geo_precision":"range","state":"OH","pin":1234},"type":"Feature","geometry":{"type":"Point","coordinates":[-84.162766,40.881422]}},{"properties":{"city":"columbus grove","status":"Inactive","ppv":"Yes","zip":"45830","region":"Vaughnsville","service packages":"i-pro select","township":null,"last":"donaldson","stbs allowed":2,"geo_score":0.745,"first":"joe","ppv limit":"Unlimited","customer id":6463684,"phone":4196463684,"whdvr":"No","id":"abjw6vd3o1aa","address":"19398 sr 115","login":"donaldson","password":6463684,"geo_precision":"range","state":"OH","pin":1234},"type":"Feature","geometry":{"type":"Point","coordinates":[-84.157479,40.898004]}},{"properties":{"city":"vaughnsville","status":"Active","ppv":"Yes","zip":"45893","region":"Vaughnsville","service packages":"i-pro select","township":null,"last":"dotson","stbs allowed":1,"geo_score":0.815,"first":"ken","ppv limit":"Unlimited","customer id":6463442,"phone":4196463442,"whdvr":"No","id":"abjw6vikxozo","address":"142 charles","login":"DOTSON","password":6463442,"geo_precision":"range","state":"OH","pin":1234},"type":"Feature","geometry":{"type":"Point","coordinates":[-84.147779,40.880463]}},{"properties":{"city":"columbus grove","status":"Active","ppv":"Yes","zip":"45830","region":"Vaughnsville","service packages":"i-pro select","township":null,"last":"dotson","stbs allowed":1,"geo_score":0.756,"first":"rose","ppv limit":"Unlimited","customer id":6463827,"phone":4196463827,"whdvr":"No","id":"abjw6vkfeo88","address":"15087 old sr 12","login":"dotson","password":6463827,"geo_precision":"range","state":"OH","pin":1234},"type":"Feature","geometry":{"type":"Point","coordinates":[-84.147364,40.876361]}},{"properties":{"city":"vaughnsville","status":"Active","ppv":"Yes","zip":"45893","region":"Vaughnsville","service packages":"i-pro select","township":null,"last":"doyle","stbs allowed":3,"geo_score":0.844,"first":"jennifer","ppv limit":"Unlimited","customer id":6463839,"phone":4196463839,"whdvr":"No","id":"abjw6vll9r62","address":"149 s water st","login":"doyle","password":6463839,"geo_precision":"range","state":"OH","pin":1234},"type":"Feature","geometry":{"type":"Point","coordinates":[-84.150401,40.881588]}},{"properties":{"city":"columbus grove","status":"Active","ppv":"Yes","zip":"45830","region":"Vaughnsville","service packages":"i-pro select,select/hd","township":null,"last":"duling","stbs allowed":5,"geo_score":0.745,"first":"james","ppv limit":"Unlimited","customer id":6463733,"phone":4196463733,"whdvr":"No","id":"abjw6vhqm37b","address":"19497 sr 115","login":"duling","password":6463733,"geo_precision":"range","state":"OH","pin":1234},"type":"Feature","geometry":{"type":"Point","coordinates":[-84.157311,40.896379]}},{"properties":{"city":"elida","status":"Active","ppv":"Yes","zip":"45807","region":"Vaughnsville","service packages":"i-pro supreme","township":null,"last":"erickson","stbs allowed":3,"geo_score":0.805,"first":"ruby","ppv limit":"Unlimited","customer id":6463720,"phone":4196463720,"whdvr":"No","id":"abjw6vdljou0","address":"8225 n west st","login":"erickson","password":6463720,"geo_precision":"range","state":"OH","pin":1234},"type":"Feature","geometry":{"type":"Point","coordinates":[-84.137918,40.854226]}},{"properties":{"city":"columbus grove","status":"Active","ppv":"Yes","zip":"45830","region":"Vaughnsville","service packages":"i-pro standard","township":null,"last":"fisher","stbs allowed":1,"geo_score":0.745,"first":"john","ppv limit":"Unlimited","customer id":6463636,"phone":4196463636,"whdvr":"No","id":"abjw6vfkcje2","address":"16719 sr 189","login":"fisher","password":6463636,"geo_precision":"range","state":"OH","pin":1234},"type":"Feature","geometry":{"type":"Point","coordinates":[-84.181455,40.881132]}},{"properties":{"city":"Columbus Grove","status":"Active","ppv":"Yes","zip":"45830","region":"Vaughnsville","service packages":"i-pro select,select/hd","township":null,"last":"Fortman","stbs allowed":5,"geo_score":0.415,"first":"Rhonda","ppv limit":"Unlimited","customer id":3397,"phone":4196463397,"whdvr":"No","id":"abjw6vjuba2i","address":"14741 St. Rt. 12","login":"4196463397","password":6463397,"geo_precision":"street","state":"OH","pin":1234},"type":"Feature","geometry":{"type":"Point","coordinates":[-84.129302,40.904706]}},{"properties":{"city":"columbus grove","status":"Active","ppv":"Yes","zip":"45830","region":"Vaughnsville","service packages":"i-pro select","township":null,"last":"graham","stbs allowed":1,"geo_score":0.812,"first":"keith","ppv limit":"Unlimited","customer id":6463870,"phone":4196463870,"whdvr":"No","id":"abjw6vemry6c","address":"19909 st rt 115","login":"graham","password":6463870,"geo_precision":"range","state":"OH","pin":1234},"type":"Feature","geometry":{"type":"Point","coordinates":[-84.157173,40.889706]}},{"properties":{"city":"columbus grove","status":"Active","ppv":"Yes","zip":"45830","region":"Vaughnsville","service packages":"i-pro select","township":null,"last":"griffith","stbs allowed":1,"geo_score":0.745,"first":"herb","ppv limit":"Unlimited","customer id":6463780,"phone":4196463780,"whdvr":"No","id":"abjw6vms1utl","address":"20651 sr 115","login":"griffith","password":6463780,"geo_precision":"range","state":"OH","pin":1234},"type":"Feature","geometry":{"type":"Point","coordinates":[-84.148431,40.87921]}},{"properties":{"city":"columbus grove","status":"Active","ppv":"Yes","zip":"45830","region":"Vaughnsville","service packages":"select/hd","township":null,"last":"griffith","stbs allowed":3,"geo_score":0.756,"first":"john","ppv limit":"Unlimited","customer id":6463705,"phone":4196463705,"whdvr":"No","id":"abjw6ved0f8l","address":"15707 old sr 12","login":"4196463705","password":6463705,"geo_precision":"range","state":"OH","pin":1234},"type":"Feature","geometry":{"type":"Point","coordinates":[-84.1594,40.871524]}},{"properties":{"city":"columbus grove","status":"Active","ppv":"Yes","zip":"45830","region":"Vaughnsville","service packages":"i-pro supreme","township":null,"last":"grigsby","stbs allowed":3,"geo_score":0.756,"first":"james","ppv limit":"Unlimited","customer id":6463755,"phone":4196463755,"whdvr":"No","id":"abjw6vcfiw7e","address":"15753 old sr 12","login":"grigsby","password":6463755,"geo_precision":"range","state":"OH","pin":1234},"type":"Feature","geometry":{"type":"Point","coordinates":[-84.160215,40.87127]}},{"properties":{"city":"columbus grove","status":"Active","ppv":"Yes","zip":"45830","region":"Vaughnsville","service packages":"i-pro select","township":null,"last":"grigsby","stbs allowed":15,"geo_score":0.745,"first":"tim","ppv limit":"Unlimited","customer id":6463367,"phone":4196463367,"whdvr":"No","id":"abjw6vhkquqw","address":"21936 sr 115","login":"grigsby","password":6463367,"geo_precision":"range","state":"OH","pin":1234},"type":"Feature","geometry":{"type":"Point","coordinates":[-84.138511,40.861211]}},{"properties":{"city":"columbus grove","status":"Inactive","ppv":"Yes","zip":"45830","region":"Vaughnsville","service packages":"select/hbo","township":null,"last":"groch","stbs allowed":2,"geo_score":0.488,"first":"james","ppv limit":"Unlimited","customer id":6463652,"phone":4196463652,"whdvr":"No","id":"abjw6vjsg52f","address":"13389 road u-13","login":"groch","password":6463652,"geo_precision":"zip","state":"OH","pin":1234},"type":"Feature","geometry":{"type":"Point","coordinates":[-84.211337,40.884495]}},{"properties":{"city":"elida","status":"Active","ppv":"Yes","zip":"45807","region":"Vaughnsville","service packages":"i-pro supreme","township":null,"last":"hamilton","stbs allowed":2,"geo_score":0.805,"first":"cheryl","ppv limit":"Unlimited","customer id":6463514,"phone":4196463514,"whdvr":"No","id":"abjw6vmc861k","address":"7903 n west st","login":"hamilton","password":6463514,"geo_precision":"range","state":"OH","pin":1234},"type":"Feature","geometry":{"type":"Point","coordinates":[-84.137921,40.852834]}},{"properties":{"city":"columbus grove","status":"Active","ppv":"Yes","zip":"45830","region":"Vaughnsville","service packages":"select/hd","township":null,"last":"hardeman","stbs allowed":3,"geo_score":0.488,"first":"jeremy","ppv limit":"Unlimited","customer id":6463381,"phone":4196463381,"whdvr":"No","id":"abjw6velp6qv","address":"13446 rd t-13","login":"hardeman","password":6463381,"geo_precision":"zip","state":"OH","pin":1234},"type":"Feature","geometry":{"type":"Point","coordinates":[-84.211337,40.884495]}},{"properties":{"city":"columbus grove","status":"Active","ppv":"Yes","zip":"45830","region":"Vaughnsville","service packages":"i-pro select","township":null,"last":"hartman","stbs allowed":1,"geo_score":0.59,"first":"david","ppv limit":"Unlimited","customer id":6463694,"phone":4196463694,"whdvr":"No","id":"abjw6vjuncj7","address":"13721 sr 12","login":"hartman","password":6463694,"geo_precision":"street","state":"OH","pin":1234},"type":"Feature","geometry":{"type":"Point","coordinates":[-84.091268,40.948342]}},{"properties":{"city":"vaughnsville","status":"Active","ppv":"Yes","zip":"45893","region":"Vaughnsville","service packages":"i-pro select","township":null,"last":"heilman","stbs allowed":4,"geo_score":0.659,"first":"bill","ppv limit":"Unlimited","customer id":6463655,"phone":4196463655,"whdvr":"No","id":"abjw6vi6cb49","address":"253 w findlay","login":"heilman","password":6463655,"geo_precision":"street","state":"OH","pin":1234},"type":"Feature","geometry":{"type":"Point","coordinates":[-84.145587,40.881502]}},{"properties":{"city":"columbus grove","status":"Active","ppv":"Yes","zip":"45830","region":"Vaughnsville","service packages":"supreme/hd","township":null,"last":"hermon","stbs allowed":3,"geo_score":0.756,"first":"robert","ppv limit":"Unlimited","customer id":6463619,"phone":4196463619,"whdvr":"No","id":"abjw6v9y7z6l","address":"15534 old sr 12","login":"hermon","password":6463619,"geo_precision":"range","state":"OH","pin":1234},"type":"Feature","geometry":{"type":"Point","coordinates":[-84.156003,40.872844]}},{"properties":{"city":"columbus grove","status":"Active","ppv":"Yes","zip":"45830","region":"Vaughnsville","service packages":"supreme/hd","township":null,"last":"herr","stbs allowed":3,"geo_score":0.756,"first":"olan","ppv limit":"Unlimited","customer id":6463387,"phone":4196463387,"whdvr":"No","id":"abjw6vie3j3u","address":"15053 old sr 12","login":"herr","password":6463387,"geo_precision":"range","state":"OH","pin":1234},"type":"Feature","geometry":{"type":"Point","coordinates":[-84.147242,40.876438]}},{"properties":{"city":"vaughnsville","status":"Active","ppv":"Yes","zip":"45893","region":"Vaughnsville","service packages":"i-pro supreme,supreme/hd","township":null,"last":"hill","stbs allowed":6,"geo_score":0.488,"first":"bill","ppv limit":"Unlimited","customer id":6463370,"phone":4196463370,"whdvr":"No","id":"abjw6vl7jg1i","address":"147 hickory","login":"hill","password":6463370,"geo_precision":"zip","state":"OH","pin":1234},"type":"Feature","geometry":{"type":"Point","coordinates":[-84.148028,40.882077]}},{"properties":{"city":"columbus grove","status":"Active","ppv":"Yes","zip":"45830","region":"Vaughnsville","service packages":"i-pro select","township":null,"last":"hitchcock","stbs allowed":2,"geo_score":0.902,"first":"renee","ppv limit":"Unlimited","customer id":6463533,"phone":4196463533,"whdvr":"No","id":"abjw6vi4qlcr","address":"19567 rd 14","login":"hitchcock","password":6463533,"geo_precision":"range","state":"OH","pin":1234},"type":"Feature","geometry":{"type":"Point","coordinates":[-84.128702,40.896328]}},{"properties":{"city":"columbus grove","status":"Active","ppv":"Yes","zip":"45830","region":"Vaughnsville","service packages":"select/hd","township":null,"last":"hitchcock","stbs allowed":3,"geo_score":0.805,"first":"dan","ppv limit":"Unlimited","customer id":6463847,"phone":4196463847,"whdvr":"No","id":"abjw6vlv521w","address":"14038 st rt 12","login":"hitchcock","password":6463847,"geo_precision":"range","state":"OH","pin":1234},"type":"Feature","geometry":{"type":"Point","coordinates":[-84.12921,40.886821]}},{"properties":{"city":"vaughnsville","status":"Active","ppv":"Yes","zip":"45893","region":"Vaughnsville","service packages":"i-pro supreme","township":null,"last":"hoskins","stbs allowed":2,"geo_score":0.777,"first":"george","ppv limit":"Unlimited","customer id":6463377,"phone":4196463377,"whdvr":"No","id":"abjw6vbsi27f","address":"136 vine","login":"hoskins","password":6463377,"geo_precision":"range","state":"OH","pin":1234},"type":"Feature","geometry":{"type":"Point","coordinates":[-84.579359,41.01907]}},{"properties":{"city":"vaughnsville","status":"Active","ppv":"Yes","zip":"45893","region":"Vaughnsville","service packages":"select/hd","township":null,"last":"hughes","stbs allowed":1,"geo_score":0.793,"first":"don","ppv limit":"Unlimited","customer id":6463447,"phone":4196463447,"whdvr":"No","id":"abjw6vi2rxgz","address":"167 water","login":"hughes","password":6463447,"geo_precision":"range","state":"OH","pin":1234},"type":"Feature","geometry":{"type":"Point","coordinates":[-84.152063,40.883271]}},{"properties":{"city":"columbus grove","status":"Active","ppv":"Yes","zip":"45830","region":"Vaughnsville","service packages":"select/hd","township":null,"last":"hughes","stbs allowed":3,"geo_score":0.812,"first":"kacey","ppv limit":"Unlimited","customer id":6463845,"phone":4196463845,"whdvr":"No","id":"abjw6vjooix1","address":"20896 st rt 115","login":"hughes","password":6463845,"geo_precision":"range","state":"OH","pin":1234},"type":"Feature","geometry":{"type":"Point","coordinates":[-84.146526,40.875418]}},{"properties":{"city":"elida","status":"Active","ppv":"Yes","zip":"45807","region":"Vaughnsville","service packages":"select/hd","township":null,"last":"hughes","stbs allowed":2,"geo_score":0.902,"first":"mike","ppv limit":"Unlimited","customer id":6463858,"phone":4196463858,"whdvr":"No","id":"abjw6vfyerws","address":"2284 tudor rd","login":"hughes","password":6463858,"geo_precision":"range","state":"OH","pin":1234},"type":"Feature","geometry":{"type":"Point","coordinates":[-84.147022,40.852968]}},{"properties":{"city":"elida","status":"Active","ppv":"Yes","zip":"45807","region":"Vaughnsville","service packages":"i-pro standard","township":null,"last":"hughes","stbs allowed":1,"geo_score":0.902,"first":"debbie","ppv limit":"Unlimited","customer id":6463879,"phone":4196463879,"whdvr":"No","id":"abjw6vkunntd","address":"2284 tudor rd","login":"hughes","password":6463879,"geo_precision":"range","state":"OH","pin":1234},"type":"Feature","geometry":{"type":"Point","coordinates":[-84.147022,40.852968]}},{"properties":{"city":"columbus grove","status":"Active","ppv":"Yes","zip":"45830","region":"Vaughnsville","service packages":"i-pro supreme","township":null,"last":"jameson","stbs allowed":1,"geo_score":0.498,"first":"andy","ppv limit":"Unlimited","customer id":6463691,"phone":4196463691,"whdvr":"No","id":"abjw6vekb3wj","address":"20095 sr115","login":"jameson","password":6463691,"geo_precision":"street","state":"OH","pin":1234},"type":"Feature","geometry":{"type":"Point","coordinates":[-83.888798,40.885985]}},{"properties":{"city":"elida","status":"Active","ppv":"Yes","zip":"45807","region":"Vaughnsville","service packages":"supreme/starz/encore","township":null,"last":"jordan","stbs allowed":4,"geo_score":0.805,"first":"keith","ppv limit":"Unlimited","customer id":6463372,"phone":4196463372,"whdvr":"No","id":"abjw6v6gk7la","address":"7601 n west st","login":"jordan","password":6463372,"geo_precision":"range","state":"OH","pin":1234},"type":"Feature","geometry":{"type":"Point","coordinates":[-84.137928,40.849847]}},{"properties":{"city":"columbus grove","status":"Active","ppv":"Yes","zip":"45830","region":"Vaughnsville","service packages":"supreme/hd,supreme/starz/encore","township":null,"last":"kaplan","stbs allowed":4,"geo_score":0.902,"first":"martha","ppv limit":"Unlimited","customer id":6463360,"phone":4196463360,"whdvr":"No","id":"abjw6vg6o6mi","address":"9170 hofferbert rd","login":"kaplan","password":6463360,"geo_precision":"range","state":"OH","pin":1234},"type":"Feature","geometry":{"type":"Point","coordinates":[-84.10964,40.87131]}},{"properties":{"city":"vaughnsville","status":"Active","ppv":"Yes","zip":"45893","region":"Vaughnsville","service packages":"i-pro supreme","township":null,"last":"lawrence","stbs allowed":1,"geo_score":0.707,"first":"donna","ppv limit":"Unlimited","customer id":6463314,"phone":4196463314,"whdvr":"No","id":"abjw6vb98cxx","address":"146 center","login":"lawrence","password":6463314,"geo_precision":"range","state":"OH","pin":1234},"type":"Feature","geometry":{"type":"Point","coordinates":[-84.149971,40.882788]}},{"properties":{"city":"vaughnsville","status":"Active","ppv":"Yes","zip":"45893","region":"Vaughnsville","service packages":"i-pro supreme","township":null,"last":"lawrence","stbs allowed":1,"geo_score":0.671,"first":"jessica","ppv limit":"Unlimited","customer id":6463544,"phone":4196463544,"whdvr":"No","id":"abjw6vdy3ift","address":"148 water","login":"lawrence","password":6463544,"geo_precision":"street","state":"OH","pin":1234},"type":"Feature","geometry":{"type":"Point","coordinates":[-84.150401,40.881588]}},{"properties":{"city":"columbus grove","status":"Active","ppv":"Yes","zip":"45830","region":"Vaughnsville","service packages":"i-pro supreme","township":null,"last":"litten","stbs allowed":1,"geo_score":0.707,"first":"mike","ppv limit":"Unlimited","customer id":6463661,"phone":4196463661,"whdvr":"No","id":"abjw6vmeovcv","address":"14314 rd u13","login":"litten","password":6463661,"geo_precision":"street","state":"OH","pin":1234},"type":"Feature","geometry":{"type":"Point","coordinates":[-84.198289,40.87392]}},{"properties":{"city":"Columbus Grove","status":"Active","ppv":"Yes","zip":"45830","region":"Vaughnsville","service packages":"i-pro standard","township":null,"last":"Litten","stbs allowed":4,"geo_score":0.415,"first":"Jenni","ppv limit":"Unlimited","customer id":4196463898,"phone":4196463898,"whdvr":"No","id":"abjw6vk0p8ns","address":"21380 St.Rt.115","login":"4196463898","password":6463898,"geo_precision":"street","state":"OH","pin":1234},"type":"Feature","geometry":{"type":"Point","coordinates":[-84.129302,40.904706]}},{"properties":{"city":"columbus grove","status":"Active","ppv":"Yes","zip":"45830","region":"Vaughnsville","service packages":"select/hd","township":null,"last":"may","stbs allowed":4,"geo_score":0.498,"first":"craig","ppv limit":"Unlimited","customer id":6463666,"phone":4196463666,"whdvr":"No","id":"abjw6v9j9lhf","address":"15461 sr189","login":"4196463666","password":6463666,"geo_precision":"street","state":"OH","pin":1234},"type":"Feature","geometry":{"type":"Point","coordinates":[-83.888798,40.885985]}},{"properties":{"city":"vaughnsville","status":"Active","ppv":"Yes","zip":"45893","region":"Vaughnsville","service packages":"i-pro select","township":null,"last":"mayberry","stbs allowed":1,"geo_score":0.756,"first":"john","ppv limit":"Unlimited","customer id":6463653,"phone":4196463653,"whdvr":"No","id":"abjw6vln7l1g","address":"295 e findlay st","login":"4196463653","password":6463653,"geo_precision":"street","state":"OH","pin":1234},"type":"Feature","geometry":{"type":"Point","coordinates":[-84.147417,40.881507]}},{"properties":{"city":"columbus grove","status":"Active","ppv":"Yes","zip":"45830","region":"Vaughnsville","service packages":"i-pro select","township":null,"last":"mccauley","stbs allowed":5,"geo_score":0.488,"first":"matt","ppv limit":"Unlimited","customer id":6463569,"phone":4196463569,"whdvr":"No","id":"abjw6vm6wn1w","address":"13998 rd t-13","login":"mccauley","password":6463569,"geo_precision":"zip","state":"OH","pin":1234},"type":"Feature","geometry":{"type":"Point","coordinates":[-84.211337,40.884495]}},{"properties":{"city":"vaughnsville","status":"Active","ppv":"Yes","zip":"45893","region":"Vaughnsville","service packages":"select/music","township":null,"last":"mcclure","stbs allowed":2,"geo_score":0.657,"first":"jerry","ppv limit":"Unlimited","customer id":6463792,"phone":4196463792,"whdvr":"No","id":"abjw6v8byysw","address":"199 s water st","login":"mcclure","password":6463792,"geo_precision":"street","state":"OH","pin":1234},"type":"Feature","geometry":{"type":"Point","coordinates":[-84.152063,40.883271]}},{"properties":{"city":"columbus grove","status":"Active","ppv":"Yes","zip":"45830","region":"Vaughnsville","service packages":"i-pro select","township":null,"last":"mcclurg","stbs allowed":1,"geo_score":0.745,"first":"bryan","ppv limit":"Unlimited","customer id":6463498,"phone":4196463498,"whdvr":"No","id":"abjw6vg388u4","address":"21694 sr 115","login":"mcclurg","password":6463498,"geo_precision":"range","state":"OH","pin":1234},"type":"Feature","geometry":{"type":"Point","coordinates":[-84.140742,40.865495]}},{"properties":{"city":"columbus grove","status":"Active","ppv":"Yes","zip":"45830","region":"Vaughnsville","service packages":"select/showtime","township":null,"last":"mckee","stbs allowed":2,"geo_score":0.745,"first":"matt","ppv limit":"Unlimited","customer id":6463840,"phone":4196463840,"whdvr":"No","id":"abjw6v6mkr76","address":"18526 sr 115","login":"mckee","password":6463840,"geo_precision":"range","state":"OH","pin":1234},"type":"Feature","geometry":{"type":"Point","coordinates":[-84.15824,40.911321]}},{"properties":{"city":"Vaughnsville","status":"Active","ppv":"Yes","zip":"45893","region":"Vaughnsville","service packages":"i-pro select,i-pro supreme","township":null,"last":"McKee","stbs allowed":3,"geo_score":0.415,"first":"Soneda","ppv limit":"Unlimited","customer id":4196463842,"phone":4196463842,"whdvr":"No","id":"abjw6vblnpp6","address":"18576 St. Rt. 115","login":"4196463842","password":6463842,"geo_precision":"street","state":"OH","pin":1234},"type":"Feature","geometry":{"type":"Point","coordinates":[-84.126091,40.694038]}},{"properties":{"city":"vaughnsville","status":"Active","ppv":"Yes","zip":"45893","region":"Vaughnsville","service packages":"supreme/hd","township":null,"last":"merricle","stbs allowed":2,"geo_score":0.717,"first":"donald","ppv limit":"Unlimited","customer id":6463488,"phone":4196463488,"whdvr":"No","id":"abjw6vgz4i9n","address":"105 charles","login":"merricle","password":6463488,"geo_precision":"range","state":"OH","pin":1234},"type":"Feature","geometry":{"type":"Point","coordinates":[-84.147677,40.880336]}},{"properties":{"city":"columbus grove","status":"Active","ppv":"Yes","zip":"45830","region":"Vaughnsville","service packages":"supreme/cinemax/starz/encore","township":null,"last":"mershman","stbs allowed":6,"geo_score":0.745,"first":"john","ppv limit":"Unlimited","customer id":6463810,"phone":4196463810,"whdvr":"No","id":"abjw6vdir7pk","address":"16634 sr 189","login":"mershman","password":6463810,"geo_precision":"range","state":"OH","pin":1234},"type":"Feature","geometry":{"type":"Point","coordinates":[-84.178912,40.881311]}},{"properties":{"city":"Vaughnsville","status":"Active","ppv":"Yes","zip":"45813","region":"Vaughnsville","service packages":"supreme/cinemax/starz/encore","township":null,"last":"mershmantv","stbs allowed":2,"geo_score":0.415,"first":"john","ppv limit":"Unlimited","customer id":null,"phone":4192330332,"whdvr":"No","id":"abjw6vb5trpf","address":"15897 St. Rt. 189","login":"4192330332","password":2330332,"geo_precision":"street","state":"OH","pin":1234},"type":"Feature","geometry":{"type":"Point","coordinates":[-84.126091,40.694038]}},{"properties":{"city":"columbus grove","status":"Active","ppv":"Yes","zip":"45830","region":"Vaughnsville","service packages":"select/encore","township":null,"last":"morman","stbs allowed":2,"geo_score":0.902,"first":"joe","ppv limit":"Unlimited","customer id":6463418,"phone":4196463418,"whdvr":"No","id":"abjw6vi3u9xe","address":"19487 rd 14","login":"morman","password":6463418,"geo_precision":"range","state":"OH","pin":1234},"type":"Feature","geometry":{"type":"Point","coordinates":[-84.128728,40.897516]}},{"properties":{"city":"vaughnsville","status":"Active","ppv":"Yes","zip":"45893","region":"Vaughnsville","service packages":"i-pro select","township":null,"last":"mull","stbs allowed":4,"geo_score":0.659,"first":"don","ppv limit":"Unlimited","customer id":6463623,"phone":4196463623,"whdvr":"No","id":"abjw6v7rukbw","address":"242 w findlay","login":"mull","password":6463623,"geo_precision":"range","state":"OH","pin":1234},"type":"Feature","geometry":{"type":"Point","coordinates":[-84.143788,40.881574]}},{"properties":{"city":"columbus grove","status":"Active","ppv":"Yes","zip":"45830","region":"Vaughnsville","service packages":"select/hbo/cinemax","township":null,"last":"mull","stbs allowed":2,"geo_score":0.745,"first":"jeff","ppv limit":"Unlimited","customer id":6463657,"phone":4196463657,"whdvr":"No","id":"abjw6vga5ym4","address":"21746 sr 115","login":"mull","password":6463657,"geo_precision":"range","state":"OH","pin":1234},"type":"Feature","geometry":{"type":"Point","coordinates":[-84.140022,40.864599]}},{"properties":{"city":"columbus grove","status":"Inactive","ppv":"Yes","zip":"45830","region":"Vaughnsville","service packages":"select/hd/encore","township":null,"last":"mull","stbs allowed":2,"geo_score":0.902,"first":"mike","ppv limit":"Unlimited","customer id":6463675,"phone":4196463675,"whdvr":"No","id":"abjw6vip8xqi","address":"20500 rd 14","login":"mull","password":6463675,"geo_precision":"range","state":"OH","pin":1234},"type":"Feature","geometry":{"type":"Point","coordinates":[-84.12872,40.881662]}},{"properties":{"city":"vaughnsville","status":"Active","ppv":"Yes","zip":"45893","region":"Vaughnsville","service packages":"i-pro select","township":null,"last":"nartker","stbs allowed":2,"geo_score":0.805,"first":"laurie","ppv limit":"Unlimited","customer id":6463354,"phone":4196463354,"whdvr":"No","id":"abjw6vdn9owo","address":"207 center st","login":"nartker","password":6463354,"geo_precision":"street","state":"OH","pin":1234},"type":"Feature","geometry":{"type":"Point","coordinates":[-84.150872,40.883587]}},{"properties":{"city":"vaughnsville","status":"Active","ppv":"Yes","zip":"45893","region":"Vaughnsville","service packages":"i-pro supreme","township":null,"last":"newland","stbs allowed":3,"geo_score":0.805,"first":"rick","ppv limit":"Unlimited","customer id":6463448,"phone":4196463448,"whdvr":"No","id":"abjw6v91b91z","address":"226  center","login":"newland","password":6463448,"geo_precision":"range","state":"OH","pin":1234},"type":"Feature","geometry":{"type":"Point","coordinates":[-84.150872,40.883587]}},{"properties":{"city":"elida","status":"Active","ppv":"Yes","zip":"45807","region":"Vaughnsville","service packages":"supreme/hd","township":null,"last":"nusbaum","stbs allowed":6,"geo_score":0.805,"first":"david","ppv limit":"Unlimited","customer id":6463420,"phone":4196463420,"whdvr":"No","id":"abjw6vbujm4t","address":"8058 n west st","login":"nusbaum","password":6463420,"geo_precision":"range","state":"OH","pin":1234},"type":"Feature","geometry":{"type":"Point","coordinates":[-84.137776,40.856633]}},{"properties":{"city":"elida","status":"Active","ppv":"Yes","zip":"45807","region":"Vaughnsville","service packages":"select/hd","township":null,"last":"nusbaum","stbs allowed":3,"geo_score":0.805,"first":"will","ppv limit":"Unlimited","customer id":6463471,"phone":4196463471,"whdvr":"No","id":"abjw6vfci1us","address":"8090 n west st","login":"nusbaum","password":6463471,"geo_precision":"range","state":"OH","pin":1234},"type":"Feature","geometry":{"type":"Point","coordinates":[-84.137774,40.856169]}},{"properties":{"city":"elida","status":"Active","ppv":"Yes","zip":"45807","region":"Vaughnsville","service packages":"i-pro supreme","township":null,"last":"osting","stbs allowed":1,"geo_score":0.902,"first":"john","ppv limit":"Unlimited","customer id":6463736,"phone":4196463736,"whdvr":"No","id":"abjw6vkhti2w","address":"2298 tudor rd","login":"osting","password":6463736,"geo_precision":"range","state":"OH","pin":1234},"type":"Feature","geometry":{"type":"Point","coordinates":[-84.147225,40.852965]}},{"properties":{"city":"vaughnsville","status":"Active","ppv":"Yes","zip":"45893","region":"Vaughnsville","service packages":"i-pro supreme","township":null,"last":"otto","stbs allowed":4,"geo_score":0.528,"first":"dale","ppv limit":"Unlimited","customer id":6463574,"phone":4196463574,"whdvr":"No","id":"abjw6vc84rmz","address":"303 b cross","login":"otto","password":6463574,"geo_precision":"street","state":"OH","pin":1234},"type":"Feature","geometry":{"type":"Point","coordinates":[-84.150576,40.882227]}},{"properties":{"city":"Columbus Grove","status":"Active","ppv":"Yes","zip":"45830","region":"Vaughnsville","service packages":"i-pro supreme,select/hd","township":null,"last":"Patton","stbs allowed":5,"geo_score":0.536,"first":"Chad","ppv limit":"Unlimited","customer id":4196463884,"phone":4196463884,"whdvr":"No","id":"abjw6vcplfsb","address":"13303 Rd. U13","login":"4196463884","password":6463884,"geo_precision":"street","state":"OH","pin":1234},"type":"Feature","geometry":{"type":"Point","coordinates":[-84.198289,40.87392]}},{"properties":{"city":"vaughnsville","status":"Active","ppv":"Yes","zip":"45893","region":"Vaughnsville","service packages":"i-pro select","township":null,"last":"pitney","stbs allowed":1,"geo_score":0.707,"first":"doug","ppv limit":"Unlimited","customer id":6463745,"phone":4196463745,"whdvr":"No","id":"abjw6v72bu03","address":"176 center","login":"pitney","password":6463745,"geo_precision":"range","state":"OH","pin":1234},"type":"Feature","geometry":{"type":"Point","coordinates":[-84.149971,40.882788]}},{"properties":{"city":"Vaughnsville","status":"Active","ppv":"Yes","zip":"45893","region":"Vaughnsville","service packages":"i-pro supreme","township":null,"last":"Rader","stbs allowed":3,"geo_score":0.805,"first":"Tricia","ppv limit":"Unlimited","customer id":4196463889,"phone":4196463889,"whdvr":"No","id":"abjw6vclqrvx","address":"147 Water Street","login":"4196463889","password":3889,"geo_precision":"range","state":"OH","pin":1234},"type":"Feature","geometry":{"type":"Point","coordinates":[-84.150421,40.88168]}},{"properties":{"city":"columbus grove","status":"Active","ppv":"Yes","zip":"45830","region":"Vaughnsville","service packages":"i-pro supreme","township":null,"last":"ralston","stbs allowed":1,"geo_score":0.488,"first":"karen","ppv limit":"Unlimited","customer id":6463459,"phone":4196463459,"whdvr":"No","id":"abjw6vlr1uoy","address":"14133 rd u-13","login":"ralston","password":6463459,"geo_precision":"zip","state":"OH","pin":1234},"type":"Feature","geometry":{"type":"Point","coordinates":[-84.211337,40.884495]}},{"properties":{"city":"elida","status":"Active","ppv":"Yes","zip":"45807","region":"Vaughnsville","service packages":"select/hbo/cinemax,supreme/starz/encore","township":null,"last":"renner","stbs allowed":2,"geo_score":0.805,"first":"john","ppv limit":"Unlimited","customer id":6463769,"phone":4196463769,"whdvr":"No","id":"abjw6vgdceyy","address":"7740 n west st","login":"renner","password":6463769,"geo_precision":"range","state":"OH","pin":1234},"type":"Feature","geometry":{"type":"Point","coordinates":[-84.137779,40.847833]}},{"properties":{"city":"elida","status":"Active","ppv":"Yes","zip":"45807","region":"Vaughnsville","service packages":"i-pro select","township":null,"last":"rice","stbs allowed":2,"geo_score":0.805,"first":"david","ppv limit":"Unlimited","customer id":6463768,"phone":4196463768,"whdvr":"No","id":"abjw6vln48xc","address":"8010 n west st","login":"rice","password":6463768,"geo_precision":"range","state":"OH","pin":1234},"type":"Feature","geometry":{"type":"Point","coordinates":[-84.137787,40.857329]}},{"properties":{"city":"elida","status":"Active","ppv":"Yes","zip":"45807","region":"Vaughnsville","service packages":"supreme/hd","township":null,"last":"richards","stbs allowed":3,"geo_score":0.902,"first":"mike","ppv limit":"Unlimited","customer id":6463362,"phone":4196463362,"whdvr":"No","id":"abjw6vja2ckx","address":"2040 tudor rd","login":"richards","password":6463362,"geo_precision":"range","state":"OH","pin":1234},"type":"Feature","geometry":{"type":"Point","coordinates":[-84.14244,40.852922]}},{"properties":{"city":"columbus grove","status":"Active","ppv":"Yes","zip":"45830","region":"Vaughnsville","service packages":"select/hd/hbo/cinemax","township":null,"last":"ridenour","stbs allowed":2,"geo_score":0.59,"first":"gordon","ppv limit":"Unlimited","customer id":6463628,"phone":4196463628,"whdvr":"No","id":"abjw6vh5jltb","address":"14651 sr 12","login":"ridenour","password":6463628,"geo_precision":"street","state":"OH","pin":1234},"type":"Feature","geometry":{"type":"Point","coordinates":[-84.091268,40.948342]}},{"properties":{"city":"columbus grove","status":"Active","ppv":"Yes","zip":"45830","region":"Vaughnsville","service packages":"select/hd/hbo/cinemax","township":null,"last":"ridenour","stbs allowed":2,"geo_score":0.745,"first":"bob","ppv limit":"Unlimited","customer id":6463770,"phone":4196463770,"whdvr":"No","id":"abjw6v7czfuv","address":"19728 sr 115","login":"ridenour","password":6463770,"geo_precision":"range","state":"OH","pin":1234},"type":"Feature","geometry":{"type":"Point","coordinates":[-84.157398,40.892563]}},{"properties":{"city":"columbus grove","status":"Active","ppv":"Yes","zip":"45830","region":"Vaughnsville","service packages":"i-pro supreme","township":null,"last":"rieman","stbs allowed":2,"geo_score":0.812,"first":"emily","ppv limit":"Unlimited","customer id":6463873,"phone":4196463873,"whdvr":"No","id":"abjw6v9e5xb5","address":"21496 st rt 115","login":"rieman","password":6463873,"geo_precision":"range","state":"OH","pin":1234},"type":"Feature","geometry":{"type":"Point","coordinates":[-84.142056,40.868444]}},{"properties":{"city":"Vaugnsville","status":"Active","ppv":"Yes","zip":"45893","region":"Vaughnsville","service packages":"select/hd","township":null,"last":"Rigg","stbs allowed":3,"geo_score":0.65,"first":"Russel","ppv limit":"Unlimited","customer id":6463373,"phone":4196463373,"whdvr":"No","id":"abjw6vhdq068","address":"405 E Findlay","login":"rigg","password":6463373,"geo_precision":"range","state":"OH","pin":1234},"type":"Feature","geometry":{"type":"Point","coordinates":[-84.146327,40.881585]}},{"properties":{"city":"columbus grove","status":"Active","ppv":"Yes","zip":"45830","region":"Vaughnsville","service packages":"i-pro select","township":null,"last":"rimer","stbs allowed":1,"geo_score":0.745,"first":"ruby","ppv limit":"Unlimited","customer id":6463393,"phone":4196463393,"whdvr":"No","id":"abjw6vc1igff","address":"21244 sr 115","login":"rimer","password":6463393,"geo_precision":"range","state":"OH","pin":1234},"type":"Feature","geometry":{"type":"Point","coordinates":[-84.143844,40.871425]}},{"properties":{"city":"columbus grove","status":"Active","ppv":"Yes","zip":"45830","region":"Vaughnsville","service packages":"i-pro select","township":null,"last":"roberts","stbs allowed":4,"geo_score":0.745,"first":"ron","ppv limit":"Unlimited","customer id":6463885,"phone":4196463885,"whdvr":"No","id":"abjw6vjoctov","address":"19099 sr 115","login":"4196463885","password":6463885,"geo_precision":"range","state":"OH","pin":1234},"type":"Feature","geometry":{"type":"Point","coordinates":[-84.157421,40.902974]}},{"properties":{"city":"Columbus Grove","status":"Active","ppv":"Yes","zip":"45830","region":"Vaughnsville","service packages":"i-pro select","township":null,"last":"Roof","stbs allowed":4,"geo_score":0.902,"first":"April","ppv limit":"Unlimited","customer id":4196463545,"phone":4196463545,"whdvr":"No","id":"abjw6v7gzegz","address":"9460 Hofferbert Rd","login":"4196463545","password":6463545,"geo_precision":"range","state":"OH","pin":1234},"type":"Feature","geometry":{"type":"Point","coordinates":[-84.109755,40.87542]}},{"properties":{"city":"columbus grove","status":"Active","ppv":"Yes","zip":"45830","region":"Vaughnsville","service packages":"i-pro select","township":null,"last":"roose","stbs allowed":1,"geo_score":0.745,"first":"james","ppv limit":"Unlimited","customer id":6463779,"phone":4196463779,"whdvr":"No","id":"abjw6vmctl5c","address":"16933 sr 189","login":"roose","password":6463779,"geo_precision":"range","state":"OH","pin":1234},"type":"Feature","geometry":{"type":"Point","coordinates":[-84.185361,40.881074]}},{"properties":{"city":"columbus grove","status":"Active","ppv":"Yes","zip":"45830","region":"Vaughnsville","service packages":"supreme/hd/hbo/cinemax","township":null,"last":"schmidt","stbs allowed":4,"geo_score":0.902,"first":"joe","ppv limit":"Unlimited","customer id":6463468,"phone":4196463468,"whdvr":"No","id":"abjw6vafde09","address":"21669 rd 16","login":"schmidt","password":6463468,"geo_precision":"range","state":"OH","pin":1234},"type":"Feature","geometry":{"type":"Point","coordinates":[-84.166541,40.859922]}},{"properties":{"city":"columbus grove","status":"Active","ppv":"Yes","zip":"45830","region":"Vaughnsville","service packages":"select/hd","township":null,"last":"schroeder","stbs allowed":4,"geo_score":0.59,"first":"greg","ppv limit":"Unlimited","customer id":6463427,"phone":4196463427,"whdvr":"No","id":"abjw6v7gjbo9","address":"13419 sr 12","login":"schroeder","password":6463427,"geo_precision":"street","state":"OH","pin":1234},"type":"Feature","geometry":{"type":"Point","coordinates":[-84.091268,40.948342]}},{"properties":{"city":"vaughnsville","status":"Active","ppv":"Yes","zip":"45893","region":"Vaughnsville","service packages":"select/hd","township":null,"last":"schroeder","stbs allowed":3,"geo_score":0.756,"first":"louis","ppv limit":"Unlimited","customer id":6463556,"phone":4196463556,"whdvr":"No","id":"abjw6vl1xef7","address":"113 w charles st","login":"schroeder","password":6463556,"geo_precision":"range","state":"OH","pin":1234},"type":"Feature","geometry":{"type":"Point","coordinates":[-84.14787,40.880283]}},{"properties":{"city":"columbus grove","status":"Inactive","ppv":"Yes","zip":"45830","region":"Vaughnsville","service packages":"i-pro select","township":null,"last":"schumacher","stbs allowed":1,"geo_score":0.805,"first":"martin","ppv limit":"Unlimited","customer id":6463735,"phone":4196463735,"whdvr":"No","id":"abjw6v86l77a","address":"13517 st rt 12","login":"schumacher","password":6463735,"geo_precision":"range","state":"OH","pin":1234},"type":"Feature","geometry":{"type":"Point","coordinates":[-84.119542,40.890424]}},{"properties":{"city":"columbus grove","status":"Active","ppv":"Yes","zip":"45830","region":"Vaughnsville","service packages":"select/hd","township":null,"last":"schumacher","stbs allowed":4,"geo_score":0.805,"first":"joe","ppv limit":"Unlimited","customer id":6463352,"phone":4196463352,"whdvr":"No","id":"abjw6vcfvgun","address":"13599 st rt 12","login":"schumacher","password":6463352,"geo_precision":"range","state":"OH","pin":1234},"type":"Feature","geometry":{"type":"Point","coordinates":[-84.1211,40.88982]}},{"properties":{"city":"columbus grove","status":"Active","ppv":"Yes","zip":"45830","region":"Vaughnsville","service packages":"select/hd","township":null,"last":"schumacher","stbs allowed":2,"geo_score":0.902,"first":"alvin","ppv limit":"Unlimited","customer id":6463463,"phone":4196463463,"whdvr":"No","id":"abjw6vhq0bjf","address":"19530 rd 13-s","login":"schumacher","password":6463463,"geo_precision":"range","state":"OH","pin":1234},"type":"Feature","geometry":{"type":"Point","coordinates":[-84.119486,40.897422]}},{"properties":{"city":"vaughnsville","status":"Active","ppv":"No","zip":"45893","region":"Vaughnsville","service packages":"i-pro supreme","township":null,"last":"schwartz","stbs allowed":1,"geo_score":0.717,"first":"joe","ppv limit":"Unlimited","customer id":6463656,"phone":4196463656,"whdvr":"No","id":"abjw6vj0cji4","address":"133 charles","login":"schwartz","password":6463656,"geo_precision":"range","state":"OH","pin":1234},"type":"Feature","geometry":{"type":"Point","coordinates":[-84.148353,40.880149]}},{"properties":{"city":"columbus grove","status":"Active","ppv":"Yes","zip":"45830","region":"Vaughnsville","service packages":"i-pro supreme","township":null,"last":"siefker","stbs allowed":3,"geo_score":0.498,"first":"brian","ppv limit":"Unlimited","customer id":6463531,"phone":4196463531,"whdvr":"No","id":"abjw6vlezr58","address":"13850 sr12","login":"siefker","password":6463531,"geo_precision":"street","state":"OH","pin":1234},"type":"Feature","geometry":{"type":"Point","coordinates":[-83.888798,40.885985]}},{"properties":{"city":"vaughnsville","status":"Active","ppv":"Yes","zip":"45893","region":"Vaughnsville","service packages":"i-pro select","township":null,"last":"siefker","stbs allowed":3,"geo_score":0.659,"first":"susan","ppv limit":"Unlimited","customer id":6463807,"phone":4196463807,"whdvr":"No","id":"abjw6vkkqacv","address":"114 e findlay","login":"siefker","password":6463807,"geo_precision":"range","state":"OH","pin":1234},"type":"Feature","geometry":{"type":"Point","coordinates":[-84.145129,40.881575]}},{"properties":{"city":"columbus grove","status":"Active","ppv":"Yes","zip":"45830","region":"Vaughnsville","service packages":"supreme/hd","township":null,"last":"siefker","stbs allowed":2,"geo_score":0.59,"first":"dennis","ppv limit":"Unlimited","customer id":6463430,"phone":4196463430,"whdvr":"No","id":"abjw6vdebixm","address":"13903 sr 12","login":"siefker","password":6463430,"geo_precision":"street","state":"OH","pin":1234},"type":"Feature","geometry":{"type":"Point","coordinates":[-84.091268,40.948342]}},{"properties":{"city":"columbus grove","status":"Active","ppv":"Yes","zip":"45830","region":"Vaughnsville","service packages":"i-pro select","township":null,"last":"skinner","stbs allowed":2,"geo_score":0.745,"first":"bob","ppv limit":"Unlimited","customer id":6463353,"phone":4196463353,"whdvr":"No","id":"abjw6vb3ep2j","address":"21021 sr 115","login":"skinner","password":6463353,"geo_precision":"range","state":"OH","pin":1234},"type":"Feature","geometry":{"type":"Point","coordinates":[-84.145504,40.874062]}},{"properties":{"city":"vaughnsville","status":"Active","ppv":"Yes","zip":"45893","region":"Vaughnsville","service packages":"select/hd","township":null,"last":"slusser","stbs allowed":1,"geo_score":0.666,"first":"scott","ppv limit":"Unlimited","customer id":6463761,"phone":4196463761,"whdvr":"No","id":"abjw6vetno0n","address":"112 w charles st","login":"slusser","password":6463761,"geo_precision":"street","state":"OH","pin":1234},"type":"Feature","geometry":{"type":"Point","coordinates":[-84.147601,40.880435]}},{"properties":{"city":"columbus grove","status":"Active","ppv":"Yes","zip":"45830","region":"Vaughnsville","service packages":"i-pro supreme,supreme/hbo","township":null,"last":"slusser","stbs allowed":4,"geo_score":0.756,"first":"camden","ppv limit":"Unlimited","customer id":6463871,"phone":4196463871,"whdvr":"No","id":"abjw6veya3oq","address":"15011 old sr 12","login":"4196463871","password":6463871,"geo_precision":"range","state":"OH","pin":1234},"type":"Feature","geometry":{"type":"Point","coordinates":[-84.147054,40.876548]}},{"properties":{"city":"Columbus Grove","status":"Active","ppv":"Yes","zip":"45830","region":"Vaughnsville","service packages":"i-pro supreme,supreme/hd","township":null,"last":"Slusser","stbs allowed":3,"geo_score":0.463,"first":"Ted","ppv limit":"Unlimited","customer id":4196463634,"phone":4196463634,"whdvr":"No","id":"abjw6v9fn2bo","address":"19978 Rd. 16 S","login":"4196463634","password":6463634,"geo_precision":"street","state":"OH","pin":1234},"type":"Feature","geometry":{"type":"Point","coordinates":[-84.129302,40.904706]}},{"properties":{"city":"columbus grove","status":"Active","ppv":"Yes","zip":"45830","region":"Vaughnsville","service packages":"supreme/hd","township":null,"last":"smith","stbs allowed":3,"geo_score":0.745,"first":"glenn","ppv limit":"Unlimited","customer id":6463699,"phone":4196463699,"whdvr":"No","id":"abjw6vdf5mgm","address":"18657 sr 115","login":"smith","password":6463699,"geo_precision":"range","state":"OH","pin":1234},"type":"Feature","geometry":{"type":"Point","coordinates":[-84.158072,40.909494]}},{"properties":{"city":"vaughnsville","status":"Active","ppv":"Yes","zip":"45893","region":"Vaughnsville","service packages":"i-pro supreme","township":null,"last":"smith","stbs allowed":3,"geo_score":0.756,"first":"bob","ppv limit":"Unlimited","customer id":6463868,"phone":4196463868,"whdvr":"No","id":"abjw6vgkexxc","address":"382 w findlay st","login":"smith","password":6463868,"geo_precision":"street","state":"OH","pin":1234},"type":"Feature","geometry":{"type":"Point","coordinates":[-84.149968,40.881666]}},{"properties":{"city":"Vaughnsville","status":"Active","ppv":"Yes","zip":"45893","region":"Vaughnsville","service packages":"i-pro select,i-pro standard","township":null,"last":"Smith","stbs allowed":3,"geo_score":0.476,"first":"Shawn","ppv limit":"Unlimited","customer id":4196463887,"phone":4196463887,"whdvr":"No","id":"abjw6vmp2uyd","address":"232 N. Center Street","login":"6463887","password":3887,"geo_precision":"street","state":"OH","pin":1234},"type":"Feature","geometry":{"type":"Point","coordinates":[-84.148879,40.881607]}},{"properties":{"city":"vaughnsville","status":"Inactive","ppv":"Yes","zip":"45893","region":"Vaughnsville","service packages":"select/hbo","township":null,"last":"spencer","stbs allowed":2,"geo_score":0.902,"first":"matt","ppv limit":"Unlimited","customer id":6463539,"phone":4196463539,"whdvr":"No","id":"abjw6vfwmss1","address":"167 center st","login":"spencer","password":6463539,"geo_precision":"range","state":"OH","pin":1234},"type":"Feature","geometry":{"type":"Point","coordinates":[-84.149741,40.882639]}},{"properties":{"city":"vaughnsville","status":"Inactive","ppv":"Yes","zip":"45893","region":"Vaughnsville","service packages":"i-pro standard","township":null,"last":"stephens","stbs allowed":1,"geo_score":0.707,"first":"ruth","ppv limit":"Unlimited","customer id":6463790,"phone":4196463790,"whdvr":"No","id":"abjw6v8nbphg","address":"166 center","login":"stephens","password":6463790,"geo_precision":"range","state":"OH","pin":1234},"type":"Feature","geometry":{"type":"Point","coordinates":[-84.149971,40.882788]}},{"properties":{"city":"Columbus Grove","status":"Active","ppv":"Yes","zip":"45830","region":"Vaughnsville","service packages":"i-pro select,i-pro standard,i-pro supreme","township":null,"last":"Stephens","stbs allowed":4,"geo_score":0.745,"first":"Matt","ppv limit":"Unlimited","customer id":4196463892,"phone":4196463892,"whdvr":"No","id":"abjw6vgwezhx","address":"15824 SR 189","login":"6463892","password":6463892,"geo_precision":"range","state":"OH","pin":1234},"type":"Feature","geometry":{"type":"Point","coordinates":[-84.165687,40.88155]}},{"properties":{"city":"vaughnsville","status":"Active","ppv":"Yes","zip":"45893","region":"Vaughnsville","service packages":"i-pro select","township":null,"last":"sunderhaus","stbs allowed":3,"geo_score":0.659,"first":"brian","ppv limit":"Unlimited","customer id":6463693,"phone":4196463693,"whdvr":"No","id":"abjw6v8xduyv","address":"235 e findlay","login":"sunderhaus","password":6463693,"geo_precision":"street","state":"OH","pin":1234},"type":"Feature","geometry":{"type":"Point","coordinates":[-84.146163,40.881508]}},{"properties":{"city":"vaughnsville","status":"Active","ppv":"Yes","zip":"45893","region":"Vaughnsville","service packages":"i-pro supreme","township":null,"last":"sybert","stbs allowed":4,"geo_score":0.805,"first":"bruce","ppv limit":"Unlimited","customer id":6463390,"phone":4196463390,"whdvr":"No","id":"abjw6ve1l9r3","address":"176 walnut st","login":"sybert","password":6463390,"geo_precision":"street","state":"OH","pin":1234},"type":"Feature","geometry":{"type":"Point","coordinates":[-84.14632,40.882884]}},{"properties":{"city":"elida","status":"Active","ppv":"Yes","zip":"45807","region":"Vaughnsville","service packages":"supreme/hd","township":null,"last":"sybert","stbs allowed":3,"geo_score":0.793,"first":"clint","ppv limit":"Unlimited","customer id":6463407,"phone":4196463407,"whdvr":"No","id":"abjw6vk0dp1h","address":"2555 tudor","login":"sybert","password":6463407,"geo_precision":"range","state":"OH","pin":1234},"type":"Feature","geometry":{"type":"Point","coordinates":[-84.15204,40.852782]}},{"properties":{"city":"vaughnsville","status":"Active","ppv":"Yes","zip":"45893","region":"Vaughnsville","service packages":"i-pro select","township":null,"last":"sybert","stbs allowed":1,"geo_score":0.902,"first":"mary","ppv limit":"Unlimited","customer id":6463667,"phone":4196463667,"whdvr":"No","id":"abjw6vdo8m1l","address":"244 center st","login":"sybert","password":6463667,"geo_precision":"range","state":"OH","pin":1234},"type":"Feature","geometry":{"type":"Point","coordinates":[-84.150872,40.883587]}},{"properties":{"city":"vaughnsville","status":"Active","ppv":"Yes","zip":"45893","region":"Vaughnsville","service packages":"i-pro supreme","township":null,"last":"sybert","stbs allowed":4,"geo_score":0.488,"first":"paul","ppv limit":"Unlimited","customer id":6463658,"phone":4196463658,"whdvr":"No","id":"abjw6vcjk1b3","address":"146 hickory st","login":"sybert","password":6463658,"geo_precision":"zip","state":"OH","pin":1234},"type":"Feature","geometry":{"type":"Point","coordinates":[-84.148028,40.882077]}},{"properties":{"city":"vaughnsville","status":"Active","ppv":"Yes","zip":"45893","region":"Vaughnsville","service packages":"i-pro select,i-pro supreme,all,select/hd","township":null,"last":"telco","stbs allowed":20,"geo_score":0.622,"first":"vaughn","ppv limit":"Unlimited","customer id":6463431,"phone":4196463431,"whdvr":"Yes","id":"abjw6vgeutd2","address":"187 n water","login":"telco","password":6463431,"geo_precision":"range","state":"OH","pin":1234},"type":"Feature","geometry":{"type":"Point","coordinates":[-84.15145,40.882719]}},{"properties":{"city":"Vaughnsville","status":"Active","ppv":"Yes","zip":"45813","region":"Vaughnsville","service packages":"i-pro supreme,supreme/all movies,select/hd","township":null,"last":"test","stbs allowed":10,"geo_score":0.471,"first":"vvtelcotest","ppv limit":"Unlimited","customer id":null,"phone":4196463435,"whdvr":"No","id":"abjw6vg2md92","address":"187 N. Water St","login":"4196463435","password":6463435,"geo_precision":"street","state":"OH","pin":1234},"type":"Feature","geometry":{"type":"Point","coordinates":[-84.298201,40.903769]}},{"properties":{"city":"columbus grove","status":"Active","ppv":"Yes","zip":"45830","region":"Vaughnsville","service packages":"select/music","township":null,"last":"treadway","stbs allowed":1,"geo_score":0.756,"first":"larry","ppv limit":"Unlimited","customer id":6463613,"phone":4196463613,"whdvr":"No","id":"abjw6vcmkumj","address":"15696 old sr 12","login":"treadway","password":6463613,"geo_precision":"range","state":"OH","pin":1234},"type":"Feature","geometry":{"type":"Point","coordinates":[-84.159743,40.871575]}},{"properties":{"city":"Vaughnsville","status":"Active","ppv":"Yes","zip":"45893","region":"Vaughnsville","service packages":"i-pro select","township":null,"last":"Trucking","stbs allowed":4,"geo_score":0.482,"first":"Youngs","ppv limit":"Unlimited","customer id":null,"phone":4196463888,"whdvr":"No","id":"abjw6vk5wszx","address":"15378 County Rd. S","login":"4196463888","password":6463888,"geo_precision":"street","state":"OH","pin":1234},"type":"Feature","geometry":{"type":"Point","coordinates":[-83.786605,40.69367]}},{"properties":{"city":"columbus grove","status":"Active","ppv":"Yes","zip":"45830","region":"Vaughnsville","service packages":"i-pro select","township":null,"last":"tudor","stbs allowed":3,"geo_score":0.745,"first":"willis","ppv limit":"Unlimited","customer id":6463793,"phone":4196463793,"whdvr":"No","id":"abjw6vdadjjn","address":"21893 sr 115","login":"tudor","password":6463793,"geo_precision":"range","state":"OH","pin":1234},"type":"Feature","geometry":{"type":"Point","coordinates":[-84.138861,40.862049]}},{"properties":{"city":"columbus grove","status":"Active","ppv":"Yes","zip":"45830","region":"Vaughnsville","service packages":"i-pro select","township":null,"last":"van pelt","stbs allowed":2,"geo_score":0.59,"first":"allison","ppv limit":"Unlimited","customer id":6463805,"phone":4196463805,"whdvr":"No","id":"abjw6vj6gg0y","address":"14750 sr 12","login":"van pelt","password":6463805,"geo_precision":"street","state":"OH","pin":1234},"type":"Feature","geometry":{"type":"Point","coordinates":[-84.091268,40.948342]}},{"properties":{"city":"vaughnsville","status":"Active","ppv":"Yes","zip":"45893","region":"Vaughnsville","service packages":"i-pro select","township":null,"last":"vance","stbs allowed":1,"geo_score":0.902,"first":"edgar","ppv limit":"Unlimited","customer id":6463364,"phone":4196463364,"whdvr":"No","id":"abjw6vaddnfx","address":"188 jefferson st","login":"vance","password":6463364,"geo_precision":"range","state":"OH","pin":1234},"type":"Feature","geometry":{"type":"Point","coordinates":[-84.147623,40.880931]}},{"properties":{"city":"Columbus Grove","status":"Active","ppv":"Yes","zip":"45830","region":"Vaughnsville","service packages":"i-pro supreme,supreme/encore","township":null,"last":"Verhoff","stbs allowed":4,"geo_score":0.416,"first":"Patti","ppv limit":"Unlimited","customer id":6463579,"phone":4196463579,"whdvr":"No","id":"abjw6vao0m8j","address":"19567 Rd. 16S","login":"4196463579","password":6463579,"geo_precision":"street","state":"OH","pin":1234},"type":"Feature","geometry":{"type":"Point","coordinates":[-84.183443,40.984732]}},{"properties":{"city":"columbus grove","status":"Active","ppv":"Yes","zip":"45830","region":"Vaughnsville","service packages":"i-pro select","township":null,"last":"welch","stbs allowed":2,"geo_score":0.756,"first":"jim","ppv limit":"Unlimited","customer id":6463419,"phone":4196463419,"whdvr":"No","id":"abjw6vjmudtl","address":"15573 old sr 12","login":"welch","password":6463419,"geo_precision":"range","state":"OH","pin":1234},"type":"Feature","geometry":{"type":"Point","coordinates":[-84.154906,40.8731]}},{"properties":{"city":"columbus grove","status":"Active","ppv":"Yes","zip":"45830","region":"Vaughnsville","service packages":"i-pro select","township":null,"last":"willeke","stbs allowed":1,"geo_score":0.902,"first":"cathy","ppv limit":"Unlimited","customer id":6463546,"phone":4196463546,"whdvr":"No","id":"abjw6vhx7hhe","address":"19861 rd 14-s","login":"willeke","password":6463546,"geo_precision":"range","state":"OH","pin":1234},"type":"Feature","geometry":{"type":"Point","coordinates":[-84.138119,40.89154]}},{"properties":{"city":"columbus grove","status":"Active","ppv":"Yes","zip":"45830","region":"Vaughnsville","service packages":"i-pro select,select/hd","township":null,"last":"williams","stbs allowed":2,"geo_score":0.745,"first":"paula","ppv limit":"Unlimited","customer id":6463319,"phone":4196463319,"whdvr":"No","id":"abjw6v8e0hnw","address":"21981 sr 115","login":"williams","password":6463319,"geo_precision":"range","state":"OH","pin":1234},"type":"Feature","geometry":{"type":"Point","coordinates":[-84.138014,40.860445]}},{"properties":{"city":"columbus grove","status":"Active","ppv":"Yes","zip":"45830","region":"Vaughnsville","service packages":"i-pro supreme","township":null,"last":"williams","stbs allowed":2,"geo_score":0.745,"first":"gene","ppv limit":"Unlimited","customer id":6463791,"phone":4196463791,"whdvr":"No","id":"abjw6vehrpcu","address":"21974 sr 115","login":"williams","password":6463791,"geo_precision":"range","state":"OH","pin":1234},"type":"Feature","geometry":{"type":"Point","coordinates":[-84.138156,40.860552]}},{"properties":{"city":"vaughnsville","status":"Active","ppv":"Yes","zip":"45893","region":"Vaughnsville","service packages":"i-pro select","township":null,"last":"williams","stbs allowed":3,"geo_score":0.805,"first":"diane","ppv limit":"Unlimited","customer id":6463458,"phone":4196463458,"whdvr":"No","id":"abjw6vbsnf1b","address":"187 center st","login":"williams","password":6463458,"geo_precision":"range","state":"OH","pin":1234},"type":"Feature","geometry":{"type":"Point","coordinates":[-84.148879,40.881607]}},{"properties":{"city":"columbus grove","status":"Active","ppv":"Yes","zip":"45830","region":"Vaughnsville","service packages":"select/encore","township":null,"last":"young","stbs allowed":1,"geo_score":0.745,"first":"dan","ppv limit":"Unlimited","customer id":6463540,"phone":4196463540,"whdvr":"No","id":"abjw6vatmgvx","address":"18951 sr 115","login":"young","password":6463540,"geo_precision":"range","state":"OH","pin":1234},"type":"Feature","geometry":{"type":"Point","coordinates":[-84.157878,40.905306]}},{"properties":{"city":"columbus grove","status":"Active","ppv":"Yes","zip":"45830","region":"Vaughnsville","service packages":"supreme/encore/hd","township":null,"last":"young","stbs allowed":3,"geo_score":0.829,"first":"bill","ppv limit":"Unlimited","customer id":6463704,"phone":4196463704,"whdvr":"No","id":"abjw6va9y5o0","address":"15378 rd s","login":"young","password":6463704,"geo_precision":"range","state":"OH","pin":1234},"type":"Feature","geometry":{"type":"Point","coordinates":[-84.163579,40.965392]}},{"properties":{"city":"columbus grove ohio","status":"Active","ppv":"Yes","zip":"45830","region":"Vaughnsville","service packages":"i-pro select","township":null,"last":"young","stbs allowed":1,"geo_score":0.877,"first":"david","ppv limit":"Unlimited","customer id":6463740,"phone":4196463740,"whdvr":"No","id":"abjw6vaq08jf","address":"19222 rd 14","login":"young","password":6463740,"geo_precision":"range","state":"OH","pin":1234},"type":"Feature","geometry":{"type":"Point","coordinates":[-84.128891,40.901411]}},{"properties":{"city":"columbus grove","status":"Active","ppv":"Yes","zip":"45830","region":"Vaughnsville","service packages":"i-pro select","township":null,"last":"young","stbs allowed":2,"geo_score":0.902,"first":"mark","ppv limit":"Unlimited","customer id":6463775,"phone":4196463775,"whdvr":"No","id":"abjw6vlsvznb","address":"19280 rd 14","login":"young","password":6463775,"geo_precision":"range","state":"OH","pin":1234},"type":"Feature","geometry":{"type":"Point","coordinates":[-84.12889,40.900559]}},{"properties":{"city":"Vaughnsville","status":"Active","ppv":"Yes","zip":"45893","region":"Vaughnsville","service packages":"i-pro select","township":null,"last":"Young","stbs allowed":3,"geo_score":0.286,"first":"Billy","ppv limit":"Unlimited","customer id":4196463891,"phone":4196463891,"whdvr":"No","id":"abjw6vk6vho0","address":"212 W. Findlay St.","login":"4196463891","password":6463891,"geo_precision":"street","state":"OH","pin":1234},"type":"Feature","geometry":{"type":"Point","coordinates":[-84.146327,40.881585]}},{"properties":{"city":"columbus grove","status":"Active","ppv":"Yes","zip":"45830","region":"Vaughnsville","service packages":"select/hd","township":null,"last":"zerkel","stbs allowed":3,"geo_score":0.488,"first":"jim","ppv limit":"Unlimited","customer id":6463343,"phone":4196463343,"whdvr":"No","id":"abjw6vd1jdec","address":"13250 rd u-13","login":"zerkel","password":6463343,"geo_precision":"zip","state":"OH","pin":1234},"type":"Feature","geometry":{"type":"Point","coordinates":[-84.211337,40.884495]}}],"is_temporal":false,"author":{"url":"","metadata":null,"contact_name":null,"contact_address":null,"source":null,"contact_phone":null},"source":"","pagination":{"sort":null,"start":0,"total":141,"limit":1000000},"state":"complete","tags":"","published":"2014-08-16T16:01:28-04:00","id":312391}