{"type":"FeatureCollection","data_type":"Dataset","url_type":null,"permissions":[{"permissions":{"download":true,"view":true},"group_id":"everyone"}],"classification":null,"title":"Mobile Pantries","count":6,"stream_id":312397,"contributor":{"url":"http://geocommons.com/users/53425","name":"annanelsonNIFB"},"data_attributes":null,"calculation_params":null,"icon_link":null,"link":"http://geocommons.com/overlays/312397.json","extent":[-89.0659,41.9433,-88.0805,42.3122],"geometry_types":["point"],"unique_name":null,"name":"Mobile Pantries","feature_count":6,"description":"","next_feature":null,"is_raster":false,"short_classification":"Y","stats":{"co fip":{"max":201,"mean":103.666666666667,"variance":2770.66666666667,"stdev":52.6371225150717,"median":89,"min":43}},"features":[{"properties":{"city":"Glendale Heights","code":"AGENCY","co fip":43,"type":"MOBILE PAN","geo_score":0.588,"zip code":"60108","site":"Neighborhood FP at Family in Faith","id":"abjw7dz29uja","address":"1480 Bloomingdale Road","geo_precision":"street"},"type":"Feature","geometry":{"type":"Point","coordinates":[-88.08052,41.943278]}},{"properties":{"city":"Hoffman Estates","code":"AGENCY","co fip":89,"type":"MOBILE PAN","geo_score":0.61,"zip code":"60195","site":"Life Changers Int'L Church","id":"abjw7dqjxwh8","address":"2500 Beverly Road","geo_precision":"street"},"type":"Feature","geometry":{"type":"Point","coordinates":[-88.223613,42.073828]}},{"properties":{"city":"Hoffman Estates","code":"AGENCY","co fip":89,"type":"MOBILE PAN","geo_score":0.61,"zip code":"60195","site":"Life Changers Int'L Church","id":"abjw7dttoxm6","address":"2500 Beverly Road","geo_precision":"street"},"type":"Feature","geometry":{"type":"Point","coordinates":[-88.223613,42.073828]}},{"properties":{"city":"Hoffman Estates","code":"AGENCY","co fip":89,"type":"MOBILE PAN","geo_score":0.61,"zip code":"60195","site":"Life Changers Int'L Church","id":"abjw7dzbfsvp","address":"2500 Beverly Road","geo_precision":"street"},"type":"Feature","geometry":{"type":"Point","coordinates":[-88.223613,42.073828]}},{"properties":{"city":"Crystal Lake","code":"AGENCY","co fip":111,"type":"MOBILE PAN","geo_score":0.745,"zip code":"60014","site":"Loaves + Fishes - Crystal Lake","id":"abjw7do1bpr9","address":"5650 Northwest Hwy","geo_precision":"range"},"type":"Feature","geometry":{"type":"Point","coordinates":[-88.301052,42.22627]}},{"properties":{"city":"Loves Park","code":"AGENCY","co fip":201,"type":"MOBILE PAN","geo_score":0.902,"zip code":"61111","site":"Grace Lutheran Church (MP)","id":"abjw7dsmjnwi","address":"343 Grand Ave.","geo_precision":"range"},"type":"Feature","geometry":{"type":"Point","coordinates":[-89.065913,42.312242]}}],"is_temporal":false,"author":{"url":"","metadata":"","contact_name":"","contact_address":"","source":"","contact_phone":""},"source":"","pagination":{"sort":null,"start":0,"total":6,"limit":1000000},"state":"complete","tags":"","published":"2014-08-16T16:01:59-04:00","id":312397}