{"type":"FeatureCollection","data_type":"Dataset","url_type":null,"permissions":[{"permissions":{"download":true,"view":true},"group_id":"everyone"}],"classification":null,"title":"Copy_of_IPTV-Glandorf-Jan-16-2013_-_Copy","count":335,"stream_id":312378,"contributor":{"url":"http://geocommons.com/users/59404","name":"KatieEtgen"},"data_attributes":null,"calculation_params":null,"icon_link":null,"link":"http://geocommons.com/overlays/312378.json","extent":[-88.6394,40.3197,-83.7175,44.3297],"geometry_types":["point"],"unique_name":null,"name":"Copy_of_IPTV-Glandorf-Jan-16-2013_-_Copy","feature_count":335,"description":"","next_feature":null,"is_raster":false,"short_classification":"Y","stats":{"stbs allowed":{"max":11,"mean":3.8089552238806,"variance":1.40051836625257,"stdev":1.18343498606919,"median":4,"min":2},"phone":{"max":4195387500,"mean":4195386583.86567,"variance":129674.601662347,"stdev":360.103598513465,"median":4195386564,"min":4195386003},"customer id":{"max":137600,"mean":7930.375,"variance":505164840.190113,"stdev":22475.8724010907,"median":825,"min":7},"password":{"max":6987,"mean":1263.34029850746,"variance":147971.255107693,"stdev":384.670320024425,"median":1234,"min":1234},"pin":{"max":5310,"mean":1246.1671641791,"variance":49593.3611940298,"stdev":222.695669455043,"median":1234,"min":1234}},"features":[{"properties":{"city":"Ottawa","status":"Active","ppv":"Yes","zip":"45875","region":"Glandorf","service packages":"Basic Contract,HD Optic","township":"Ottawa Township","last":"Annesser","stbs allowed":5,"geo_score":0.468,"first":"Ryan","ppv limit":"Unlimited","customer id":177,"phone":4195386188,"whdvr":"No","id":"abjw5cxl6pgp","address":"9910 Rd I-9","login":"Glandorf","password":1234,"geo_precision":"street","state":"OH","pin":1234},"type":"Feature","geometry":{"type":"Point","coordinates":[-84.050924,41.006978]}},{"properties":{"city":"Ottawa","status":"Active","ppv":"Yes","zip":"45875","region":"Glandorf","service packages":"Basic Contract,HD Optic","township":"Ottawa Township","last":"Annesser","stbs allowed":4,"geo_score":0.707,"first":"Bob","ppv limit":"Unlimited","customer id":375,"phone":4195386432,"whdvr":"No","id":"abjw5cxz5bkc","address":"10065 Rd I9","login":"Glandorf","password":1234,"geo_precision":"street","state":"OH","pin":1234},"type":"Feature","geometry":{"type":"Point","coordinates":[-84.116447,41.050199]}},{"properties":{"city":"Ottawa","status":"Active","ppv":"Yes","zip":"45875","region":"Glandorf","service packages":"Basic Contract,HD Copper","township":"Ottawa Township","last":"Ansley","stbs allowed":4,"geo_score":0.861,"first":"Scott","ppv limit":"Unlimited","customer id":1885,"phone":4195386197,"whdvr":"No","id":"abjw5cstreyz","address":"12175 Rd 11J","login":"Glandorf","password":1234,"geo_precision":"range","state":"OH","pin":1234},"type":"Feature","geometry":{"type":"Point","coordinates":[-84.082507,41.004251]}},{"properties":{"city":"Ottawa","status":"Active","ppv":"Yes","zip":"45875","region":"Glandorf","service packages":"Basic Contract,HD Optic","township":null,"last":"Averesch","stbs allowed":5,"geo_score":0.902,"first":"Jeffery","ppv limit":"Unlimited","customer id":1708,"phone":4195387257,"whdvr":"No","id":"abjw5cu7mlpo","address":"12629 RD J","login":"Glandorf","password":1234,"geo_precision":"range","state":"OH","pin":1234},"type":"Feature","geometry":{"type":"Point","coordinates":[-84.104429,41.035651]}},{"properties":{"city":"Ottawa","status":"Active","ppv":"Yes","zip":"45875","region":"Glandorf","service packages":"Expanded basic Contract,Expanded HD Copper","township":"Pleasant Township","last":"Averesch","stbs allowed":4,"geo_score":0.861,"first":"Alphonse","ppv limit":"Unlimited","customer id":675,"phone":4195386763,"whdvr":"No","id":"abjw5cvlri25","address":"14290 Road 11J","login":"Glandorf","password":1234,"geo_precision":"range","state":"OH","pin":1234},"type":"Feature","geometry":{"type":"Point","coordinates":[-84.082132,40.972945]}},{"properties":{"city":"Ottawa","status":"Active","ppv":"Yes","zip":"45875","region":"Glandorf","service packages":"Basic Contract","township":"Pleasant Township","last":"Averesch","stbs allowed":3,"geo_score":0.861,"first":"Scott","ppv limit":"Unlimited","customer id":277,"phone":4195386319,"whdvr":"No","id":"abjw5cjqzvq2","address":"14274 Rd 11J","login":"Glandorf","password":1234,"geo_precision":"range","state":"OH","pin":1234},"type":"Feature","geometry":{"type":"Point","coordinates":[-84.082136,40.973162]}},{"properties":{"city":"Ottawa","status":"Active","ppv":"Yes","zip":"45875","region":"Glandorf","service packages":"Basic Contract,HD Copper","township":"Ottawa Township","last":"Averesch","stbs allowed":3,"geo_score":0.659,"first":"JoAnn","ppv limit":"Unlimited","customer id":10900,"phone":4195386110,"whdvr":"No","id":"abjw5cv9opst","address":"12537 Rd 10L","login":"Glandorf","password":1234,"geo_precision":"street","state":"OH","pin":1234},"type":"Feature","geometry":{"type":"Point","coordinates":[-84.053058,40.962968]}},{"properties":{"city":"Ottawa","status":"Active","ppv":"Yes","zip":"45875","region":"Glandorf","service packages":"Basic Contract","township":null,"last":"Balbaugh","stbs allowed":4,"geo_score":0.902,"first":"Shawn","ppv limit":"Unlimited","customer id":1170,"phone":4195387293,"whdvr":"No","id":"abjw5cmbd7yi","address":"10030 Rd 13","login":"Glandorf","password":1234,"geo_precision":"range","state":"OH","pin":1234},"type":"Feature","geometry":{"type":"Point","coordinates":[-84.111619,41.035196]}},{"properties":{"city":"Ottawa","status":"Active","ppv":"Yes","zip":"45875","region":"Glandorf","service packages":"Expanded basic Contract,Expanded HD Copper","township":null,"last":"Balbaugh","stbs allowed":4,"geo_score":0.812,"first":"Thomas","ppv limit":"Unlimited","customer id":723,"phone":4195386813,"whdvr":"No","id":"abjw5cm2p5h4","address":"12192 St Rt 694","login":"Glandorf","password":1234,"geo_precision":"range","state":"OH","pin":1234},"type":"Feature","geometry":{"type":"Point","coordinates":[-84.096033,41.028904]}},{"properties":{"city":"Glandorf","status":"Active","ppv":"Yes","zip":"45848","region":"Glandorf","service packages":"Basic Contract,HD Optic","township":null,"last":"Becker","stbs allowed":4,"geo_score":0.686,"first":"Mike","ppv limit":"Unlimited","customer id":1945,"phone":4195386073,"whdvr":"No","id":"abjw5cmctfyx","address":"PO Box 165","login":"Glandorf","password":1234,"geo_precision":"street","state":"OH","pin":1234},"type":"Feature","geometry":{"type":"Point","coordinates":[-84.437861,40.990207]}},{"properties":{"city":"Ottawa","status":"Active","ppv":"Yes","zip":"45875","region":"Glandorf","service packages":"Basic Contract,HD Copper","township":null,"last":"Bellman","stbs allowed":3,"geo_score":0.78,"first":"Mike","ppv limit":"Unlimited","customer id":382,"phone":4195386439,"whdvr":"No","id":"abjw5ciq8vty","address":"12770 Rd 12","login":"Glandorf","password":1234,"geo_precision":"range","state":"OH","pin":1234},"type":"Feature","geometry":{"type":"Point","coordinates":[-84.092118,40.995859]}},{"properties":{"city":"Ottawa","status":"Active","ppv":"Yes","zip":"45875","region":"Glandorf","service packages":"Basic Contract,HD Copper","township":null,"last":"Bellman","stbs allowed":3,"geo_score":0.902,"first":"Nick","ppv limit":"Unlimited","customer id":1700,"phone":4195386016,"whdvr":"No","id":"abjw5cljh255","address":"102 Sunrise Ct","login":"Glandorf","password":1234,"geo_precision":"range","state":"OH","pin":1234},"type":"Feature","geometry":{"type":"Point","coordinates":[-84.074728,41.028077]}},{"properties":{"city":"Ottawa","status":"Active","ppv":"Yes","zip":"45875","region":"Glandorf","service packages":"Basic Contract","township":null,"last":"Bendele","stbs allowed":4,"geo_score":0.624,"first":"Marvin","ppv limit":"Unlimited","customer id":483,"phone":4195386552,"whdvr":"No","id":"abjw5cvkmncg","address":"11600 Rd 14-J","login":"Glandorf","password":1234,"geo_precision":"street","state":"OH","pin":1234},"type":"Feature","geometry":{"type":"Point","coordinates":[-84.130355,40.991897]}},{"properties":{"city":"Glandorf","status":"Active","ppv":"Yes","zip":"45848","region":"Glandorf","service packages":"Basic Contract","township":null,"last":"Bialecki","stbs allowed":3,"geo_score":0.902,"first":"Jean Ann","ppv limit":"Unlimited","customer id":1159,"phone":4195387282,"whdvr":"No","id":"abjw5cwdk6cp","address":"205 Hanover Court","login":"Glandorf","password":1234,"geo_precision":"range","state":"OH","pin":1234},"type":"Feature","geometry":{"type":"Point","coordinates":[-84.069997,41.024591]}},{"properties":{"city":"Ottawa","status":"Active","ppv":"Yes","zip":"45875","region":"Glandorf","service packages":"Basic Contract,HD Copper","township":null,"last":"Bingley","stbs allowed":3,"geo_score":0.812,"first":"Kevin  Twig","ppv limit":"Unlimited","customer id":27,"phone":4195386024,"whdvr":"No","id":"abjw5cuo1x7a","address":"13772 St Rt 694","login":"Glandorf","password":1234,"geo_precision":"range","state":"OH","pin":1234},"type":"Feature","geometry":{"type":"Point","coordinates":[-84.126326,41.028492]}},{"properties":{"city":"Ottawa","status":"Active","ppv":"Yes","zip":"45875","region":"Glandorf","service packages":"Basic Contract","township":null,"last":"Birkemeier","stbs allowed":3,"geo_score":0.812,"first":"Scott Kellie","ppv limit":"Unlimited","customer id":1682,"phone":4195386296,"whdvr":"No","id":"abjw5cn44eyw","address":"13013 St Rt 694","login":"Glandorf","password":1234,"geo_precision":"range","state":"OH","pin":1234},"type":"Feature","geometry":{"type":"Point","coordinates":[-84.111709,41.028296]}},{"properties":{"city":"Ottawa","status":"Active","ppv":"Yes","zip":"45875","region":"Glandorf","service packages":"Basic Contract","township":null,"last":"Birkemeier","stbs allowed":3,"geo_score":0.861,"first":"Clete  Mary","ppv limit":"Unlimited","customer id":399,"phone":4195386458,"whdvr":"No","id":"abjw5ctiyks1","address":"12733 Rd 11J","login":"Glandorf","password":1234,"geo_precision":"range","state":"OH","pin":1234},"type":"Feature","geometry":{"type":"Point","coordinates":[-84.082481,40.996142]}},{"properties":{"city":"Ottawa","status":"Active","ppv":"Yes","zip":"45875","region":"Glandorf","service packages":"Basic Contract","township":null,"last":"Birkemeier","stbs allowed":4,"geo_score":0.707,"first":"Richard","ppv limit":"Unlimited","customer id":547,"phone":4195386623,"whdvr":"No","id":"abjw5cmgfefu","address":"10044 RD I9","login":"Glandorf","password":1234,"geo_precision":"street","state":"OH","pin":1234},"type":"Feature","geometry":{"type":"Point","coordinates":[-84.116447,41.050199]}},{"properties":{"city":"Ottawa","status":"Active","ppv":"No","zip":"45875","region":"Glandorf","service packages":"Basic Contract,HD Copper","township":null,"last":"Birkemeier","stbs allowed":5,"geo_score":0.815,"first":"Jeff","ppv limit":"Unlimited","customer id":100600,"phone":4195387136,"whdvr":"No","id":"abjw5crcqq0i","address":"12622 St Rt 224","login":"Glandorf","password":1234,"geo_precision":"range","state":"OH","pin":1234},"type":"Feature","geometry":{"type":"Point","coordinates":[-84.104217,41.012782]}},{"properties":{"city":"Glandorf","status":"Active","ppv":"Yes","zip":"45848","region":"Glandorf","service packages":"Basic Contract,HD Optic","township":null,"last":"Birkemeyer","stbs allowed":3,"geo_score":0.571,"first":"Norman","ppv limit":"Unlimited","customer id":687,"phone":4195386775,"whdvr":"No","id":"abjw5cpggs5e","address":"117 Taylor Street, PO Box49","login":"Glandorf","password":1234,"geo_precision":"street","state":"OH","pin":1234},"type":"Feature","geometry":{"type":"Point","coordinates":[-84.535946,40.839354]}},{"properties":{"city":"Ottawa","status":"Active","ppv":"Yes","zip":"45875","region":"Glandorf","service packages":"Basic Contract,HD Copper","township":null,"last":"Bockrath","stbs allowed":5,"geo_score":0.902,"first":"Daniel","ppv limit":"Unlimited","customer id":762,"phone":4195386853,"whdvr":"No","id":"abjw5cvrh000","address":"12433 Rd K","login":"Glandorf","password":1234,"geo_precision":"range","state":"OH","pin":1234},"type":"Feature","geometry":{"type":"Point","coordinates":[-84.100255,41.021173]}},{"properties":{"city":"Ottawa","status":"Active","ppv":"Yes","zip":"45875","region":"Glandorf","service packages":"Basic Contract","township":null,"last":"Bockrath","stbs allowed":3,"geo_score":0.812,"first":"William","ppv limit":"Unlimited","customer id":1359,"phone":4195386920,"whdvr":"No","id":"abjw5ckr7ygy","address":"14979 St Rt 694","login":"Glandorf","password":1234,"geo_precision":"range","state":"OH","pin":1234},"type":"Feature","geometry":{"type":"Point","coordinates":[-84.149281,41.028152]}},{"properties":{"city":"Ottawa","status":"Active","ppv":"Yes","zip":"45875","region":"Glandorf","service packages":"Expanded basic Contract,Expanded HD Copper","township":"Ottawa Township","last":"Bockrath","stbs allowed":5,"geo_score":0.902,"first":"Terri","ppv limit":"Unlimited","customer id":1380,"phone":4195386818,"whdvr":"No","id":"abjw5cpeqw0x","address":"12642 Rd 11","login":"Glandorf","password":1234,"geo_precision":"range","state":"OH","pin":1234},"type":"Feature","geometry":{"type":"Point","coordinates":[-84.073028,40.995599]}},{"properties":{"city":"Ottawa","status":"Active","ppv":"Yes","zip":"45875","region":"Glandorf","service packages":"Basic Contract,HD Copper","township":null,"last":"Bockrath","stbs allowed":3,"geo_score":0.902,"first":"Matt","ppv limit":"Unlimited","customer id":1826,"phone":4195386555,"whdvr":"No","id":"abjw5cxyenpf","address":"12701 Rd K","login":"Glandorf","password":1234,"geo_precision":"range","state":"OH","pin":1234},"type":"Feature","geometry":{"type":"Point","coordinates":[-84.105548,41.021141]}},{"properties":{"city":"Ottawa","status":"Active","ppv":"No","zip":"45875","region":"Glandorf","service packages":"Basic Contract,HD Copper","township":null,"last":"Bockrath","stbs allowed":3,"geo_score":0.861,"first":"Dale","ppv limit":"Unlimited","customer id":306,"phone":4195386352,"whdvr":"No","id":"abjw5cl6zvlx","address":"12555 Rd 11J","login":"Glandorf","password":1234,"geo_precision":"range","state":"OH","pin":1234},"type":"Feature","geometry":{"type":"Point","coordinates":[-84.082482,40.998714]}},{"properties":{"city":"Ottawa","status":"Active","ppv":"Yes","zip":"45875","region":"Glandorf","service packages":"Local","township":null,"last":"Bockrath","stbs allowed":4,"geo_score":0.902,"first":"Norbert","ppv limit":"Unlimited","customer id":738,"phone":4195386828,"whdvr":"No","id":"abjw5cjdklhd","address":"9332 Rd 15-I","login":"Glandorf","password":1234,"geo_precision":"range","state":"OH","pin":1234},"type":"Feature","geometry":{"type":"Point","coordinates":[-84.159922,41.043444]}},{"properties":{"city":"Ottawa","status":"Active","ppv":"Yes","zip":"45875","region":"Glandorf","service packages":"Basic Contract,HD Copper","township":null,"last":"Bockrath","stbs allowed":4,"geo_score":0.488,"first":"Nate","ppv limit":"Unlimited","customer id":1952,"phone":4195386377,"whdvr":"No","id":"abjw5cjvb018","address":"13123","login":"Glandorf","password":1234,"geo_precision":"zip","state":"OH","pin":1234},"type":"Feature","geometry":{"type":"Point","coordinates":[-84.169112,41.020884]}},{"properties":{"city":"Ottawa","status":"Active","ppv":"No","zip":"45875","region":"Glandorf","service packages":"Basic Contract,HD Copper","township":null,"last":"Bockrath","stbs allowed":3,"geo_score":0.902,"first":"Linus","ppv limit":"Unlimited","customer id":77500,"phone":4195386843,"whdvr":"No","id":"abjw5cjsl984","address":"12369 Rd K","login":"Glandorf","password":1234,"geo_precision":"range","state":"OH","pin":1234},"type":"Feature","geometry":{"type":"Point","coordinates":[-84.099324,41.021259]}},{"properties":{"city":"Ottawa","status":"Active","ppv":"Yes","zip":"45875","region":"Glandorf","service packages":"Basic Contract","township":null,"last":"Bogart","stbs allowed":3,"geo_score":0.902,"first":"Gabby","ppv limit":"Unlimited","customer id":15500,"phone":4195386158,"whdvr":"No","id":"abjw5crsgtit","address":"13121 Rd 13","login":"Glandorf","password":1234,"geo_precision":"range","state":"OH","pin":1234},"type":"Feature","geometry":{"type":"Point","coordinates":[-84.111336,40.990879]}},{"properties":{"city":"Ottawa","status":"Active","ppv":"Yes","zip":"45875","region":"Glandorf","service packages":"Basic Contract","township":null,"last":"Borgelt","stbs allowed":3,"geo_score":0.902,"first":"Arnold  Teresa","ppv limit":"Unlimited","customer id":768,"phone":4195386860,"whdvr":"No","id":"abjw5cubbsji","address":"13376 Rd M","login":"Glandorf","password":1234,"geo_precision":"range","state":"OH","pin":1234},"type":"Feature","geometry":{"type":"Point","coordinates":[-84.117757,40.992078]}},{"properties":{"city":"Ottawa","status":"Active","ppv":"Yes","zip":"45875","region":"Glandorf","service packages":"Basic Contract,HD Copper","township":null,"last":"Brickner","stbs allowed":3,"geo_score":0.902,"first":"Andrew","ppv limit":"Unlimited","customer id":1391,"phone":4195387126,"whdvr":"No","id":"abjw5cszph7b","address":"12096 Rd 12","login":"Glandorf","password":1234,"geo_precision":"range","state":"OH","pin":1234},"type":"Feature","geometry":{"type":"Point","coordinates":[-84.092287,41.007752]}},{"properties":{"city":"Glandorf","status":"Active","ppv":"Yes","zip":"45848","region":"Glandorf","service packages":"Basic Contract,HD Optic","township":null,"last":"Brinkman","stbs allowed":5,"geo_score":0.667,"first":"Marvin","ppv limit":"Unlimited","customer id":495,"phone":4195386564,"whdvr":"No","id":"abjw5cshwanv","address":"PO Box 53","login":"Glandorf","password":1234,"geo_precision":"street","state":"OH","pin":1234},"type":"Feature","geometry":{"type":"Point","coordinates":[-83.842264,41.147977]}},{"properties":{"city":"Ottawa","status":"Active","ppv":"Yes","zip":"45875","region":"Glandorf","service packages":"Basic Contract","township":null,"last":"Brinkman","stbs allowed":3,"geo_score":0.902,"first":"John J","ppv limit":"Unlimited","customer id":560,"phone":4195386636,"whdvr":"No","id":"abjw5cslr6ko","address":"9331 Rd 13-I","login":"Glandorf","password":1234,"geo_precision":"range","state":"OH","pin":1234},"type":"Feature","geometry":{"type":"Point","coordinates":[-84.125977,41.045443]}},{"properties":{"city":"Ottawa","status":"Active","ppv":"Yes","zip":"45875","region":"Glandorf","service packages":"Basic Contract,HD Copper","township":null,"last":"Brinkman","stbs allowed":6,"geo_score":0.902,"first":"William E","ppv limit":"Unlimited","customer id":null,"phone":4195386604,"whdvr":"No","id":"abjw5cxbk10e","address":"11982 Rd 12","login":"Glandorf","password":1234,"geo_precision":"range","state":"OH","pin":1234},"type":"Feature","geometry":{"type":"Point","coordinates":[-84.092284,41.008883]}},{"properties":{"city":"Ottawa","status":"Active","ppv":"Yes","zip":"45875","region":"Glandorf","service packages":"Basic Contract,HD Optic,NFL Red Zone,NFL RedZone HD","township":null,"last":"Brinkman","stbs allowed":5,"geo_score":0.683,"first":"Dean &amp; Allyson","ppv limit":"Unlimited","customer id":21700,"phone":4195386224,"whdvr":"No","id":"abjw5coo9jlb","address":"235 OG Road","login":"Glandorf","password":1234,"geo_precision":"range","state":"OH","pin":1234},"type":"Feature","geometry":{"type":"Point","coordinates":[-84.047128,41.021107]}},{"properties":{"city":"Ottawa","status":"Active","ppv":"Yes","zip":"45875","region":"Glandorf","service packages":"Basic Contract,HD Optic","township":null,"last":"Brinkman","stbs allowed":3,"geo_score":0.488,"first":"Greg","ppv limit":"Unlimited","customer id":null,"phone":4195386536,"whdvr":"No","id":"abjw5cow29yw","address":"169 Bismarck Dr","login":"Glandorf","password":1234,"geo_precision":"zip","state":"OH","pin":1234},"type":"Feature","geometry":{"type":"Point","coordinates":[-84.169112,41.020884]}},{"properties":{"city":"Ottawa","status":"Active","ppv":"Yes","zip":"45875","region":"Glandorf","service packages":"Basic Contract","township":null,"last":"Buddelmeyer","stbs allowed":3,"geo_score":0.902,"first":"Henry","ppv limit":"Unlimited","customer id":616,"phone":4195386698,"whdvr":"No","id":"abjw5cieecce","address":"9201 Rd 11","login":"Glandorf","password":1234,"geo_precision":"range","state":"OH","pin":1234},"type":"Feature","geometry":{"type":"Point","coordinates":[-84.082204,41.049017]}},{"properties":{"city":"Ottawa","status":"Active","ppv":"Yes","zip":"45875","region":"Glandorf","service packages":"Basic Contract,HD Copper","township":null,"last":"Buddelmeyer","stbs allowed":6,"geo_score":0.861,"first":"Cory","ppv limit":"Unlimited","customer id":1686,"phone":4195386656,"whdvr":"No","id":"abjw5cygja0g","address":"12300 Rd 12K","login":"Glandorf","password":1234,"geo_precision":"range","state":"OH","pin":1234},"type":"Feature","geometry":{"type":"Point","coordinates":[-84.101891,41.002046]}},{"properties":{"city":"Ottawa","status":"Active","ppv":"Yes","zip":"45875","region":"Glandorf","service packages":"Basic Contract","township":null,"last":"Buist","stbs allowed":5,"geo_score":0.815,"first":"Keith","ppv limit":"Unlimited","customer id":1094,"phone":4195386152,"whdvr":"No","id":"abjw5cxf1xz8","address":"11980 St Rt 224","login":"Glandorf","password":1234,"geo_precision":"range","state":"OH","pin":1234},"type":"Feature","geometry":{"type":"Point","coordinates":[-84.092002,41.016783]}},{"properties":{"city":"Ottawa","status":"Active","ppv":"Yes","zip":"45875","region":"Glandorf","service packages":"Basic Contract,HD Optic","township":null,"last":"Cavanaugh","stbs allowed":4,"geo_score":0.659,"first":"Dennis  Kris","ppv limit":"Unlimited","customer id":1480,"phone":4195386734,"whdvr":"No","id":"abjw5clrl92p","address":"11407 Rd 10K","login":"Glandorf","password":1234,"geo_precision":"street","state":"OH","pin":1234},"type":"Feature","geometry":{"type":"Point","coordinates":[-84.053666,41.066063]}},{"properties":{"city":"Ottawa","status":"Active","ppv":"Yes","zip":"45875","region":"Glandorf","service packages":"Basic Contract,HD Copper","township":null,"last":"Coleson","stbs allowed":3,"geo_score":0.78,"first":"Scott  Beth","ppv limit":"Unlimited","customer id":213,"phone":4195386238,"whdvr":"No","id":"abjw5cobgm9h","address":"12808 Rd 12","login":"Glandorf","password":1234,"geo_precision":"range","state":"OH","pin":1234},"type":"Feature","geometry":{"type":"Point","coordinates":[-84.092112,40.995252]}},{"properties":{"city":"Ottawa","status":"Active","ppv":"Yes","zip":"45875","region":"Glandorf","service packages":"Basic Contract,HD Copper","township":null,"last":"Dehnart","stbs allowed":3,"geo_score":0.861,"first":"Larry","ppv limit":"Unlimited","customer id":20,"phone":4195386017,"whdvr":"No","id":"abjw5ck6au82","address":"11676 Rd 12K","login":"Glandorf","password":1234,"geo_precision":"range","state":"OH","pin":1234},"type":"Feature","geometry":{"type":"Point","coordinates":[-84.101902,41.010931]}},{"properties":{"city":"Ottawa","status":"Active","ppv":"No","zip":"45875","region":"Glandorf","service packages":"Basic Contract,HD Copper","township":null,"last":"Deitering","stbs allowed":4,"geo_score":0.902,"first":"Doug","ppv limit":"Unlimited","customer id":566,"phone":4195386644,"whdvr":"No","id":"abjw5cm3ldg2","address":"13802 RD J","login":"Glandorf","password":5310,"geo_precision":"range","state":"OH","pin":5310},"type":"Feature","geometry":{"type":"Point","coordinates":[-84.128519,41.035787]}},{"properties":{"city":"Ottawa","status":"Active","ppv":"Yes","zip":"45875","region":"Glandorf","service packages":"Local","township":null,"last":"Deken","stbs allowed":3,"geo_score":0.902,"first":"Tammy","ppv limit":"Unlimited","customer id":137600,"phone":4195386705,"whdvr":"No","id":"abjw5cvhzii1","address":"200 Blanchard Ave","login":"Glandorf","password":1234,"geo_precision":"range","state":"OH","pin":1234},"type":"Feature","geometry":{"type":"Point","coordinates":[-84.078049,41.02896]}},{"properties":{"city":"Ottawa","status":"Active","ppv":"Yes","zip":"45875","region":"Glandorf","service packages":"Basic Contract,HD Optic","township":null,"last":"Deters","stbs allowed":3,"geo_score":0.666,"first":"Glenn","ppv limit":"Unlimited","customer id":682,"phone":4195386770,"whdvr":"No","id":"abjw5cuqsl09","address":"11206 RD 12K","login":"Glandorf","password":1234,"geo_precision":"street","state":"OH","pin":1234},"type":"Feature","geometry":{"type":"Point","coordinates":[-84.101837,41.013496]}},{"properties":{"city":"Glandorf","status":"Active","ppv":"Yes","zip":"45848","region":"Glandorf","service packages":"Expanded basic Contract","township":null,"last":"Diemer","stbs allowed":3,"geo_score":0.772,"first":"Alice","ppv limit":"Unlimited","customer id":541,"phone":4195386616,"whdvr":"No","id":"abjw5cjyyyrz","address":"171 S Main","login":"Glandorf","password":1234,"geo_precision":"range","state":"OH","pin":1234},"type":"Feature","geometry":{"type":"Point","coordinates":[-84.081589,41.032261]}},{"properties":{"city":"Ottawa","status":"Active","ppv":"Yes","zip":"45875","region":"Glandorf","service packages":"Basic Contract","township":null,"last":"Diller","stbs allowed":4,"geo_score":0.902,"first":"Robert","ppv limit":"Unlimited","customer id":280,"phone":4195386323,"whdvr":"No","id":"abjw5cwnumgy","address":"13884 Road 13","login":"Glandorf","password":1234,"geo_precision":"range","state":"OH","pin":1234},"type":"Feature","geometry":{"type":"Point","coordinates":[-84.11122,40.981261]}},{"properties":{"city":"Ottawa","status":"Active","ppv":"Yes","zip":"45875","region":"Glandorf","service packages":"Basic Contract","township":null,"last":"Duling","stbs allowed":4,"geo_score":0.902,"first":"Ronald","ppv limit":"Unlimited","customer id":283,"phone":4195386326,"whdvr":"No","id":"abjw5cq0dz4d","address":"12800 Rd 12-K","login":"Glandorf","password":1234,"geo_precision":"range","state":"OH","pin":1234},"type":"Feature","geometry":{"type":"Point","coordinates":[-84.101874,40.994934]}},{"properties":{"city":"Ottawa","status":"Active","ppv":"Yes","zip":"45875","region":"Glandorf","service packages":"Basic Contract","township":null,"last":"Duling","stbs allowed":4,"geo_score":0.659,"first":"Jeff  Brenda","ppv limit":"Unlimited","customer id":1634,"phone":4195386205,"whdvr":"No","id":"abjw5cxen7d1","address":"13079 RD 10L","login":"Glandorf","password":1234,"geo_precision":"street","state":"OH","pin":1234},"type":"Feature","geometry":{"type":"Point","coordinates":[-84.053058,40.962968]}},{"properties":{"city":"Ottawa","status":"Active","ppv":"No","zip":"45875","region":"Glandorf","service packages":"Expanded basic Contract,Expanded HD Copper","township":null,"last":"Duling","stbs allowed":4,"geo_score":0.902,"first":"Bob &amp; Cathy","ppv limit":"Unlimited","customer id":1561,"phone":4195387091,"whdvr":"No","id":"abjw5cukhx8m","address":"10435 RD M","login":"Glandorf","password":1234,"geo_precision":"range","state":"OH","pin":1234},"type":"Feature","geometry":{"type":"Point","coordinates":[-84.061807,40.992304]}},{"properties":{"city":"Ottawa","status":"Active","ppv":"No","zip":"45875","region":"Glandorf","service packages":"Basic Contract,HD Optic","township":null,"last":"Duling","stbs allowed":5,"geo_score":0.488,"first":"Kevin","ppv limit":"Unlimited","customer id":null,"phone":4195386372,"whdvr":"No","id":"abjw5cp89kla","address":"166 Bismarck Dr","login":"Glandorf","password":1234,"geo_precision":"zip","state":"OH","pin":1234},"type":"Feature","geometry":{"type":"Point","coordinates":[-84.169112,41.020884]}},{"properties":{"city":"Ottawa","status":"Active","ppv":"Yes","zip":"45875","region":"Glandorf","service packages":"Basic Contract,HD Optic","township":null,"last":"Dulle","stbs allowed":3,"geo_score":0.902,"first":"James &amp; Lynne","ppv limit":"Unlimited","customer id":1499,"phone":4195387333,"whdvr":"No","id":"abjw5cqz6h3t","address":"333 N Main st","login":"Glandorf","password":1234,"geo_precision":"range","state":"OH","pin":1234},"type":"Feature","geometry":{"type":"Point","coordinates":[-84.081784,41.032554]}},{"properties":{"city":"Ottawa","status":"Active","ppv":"Yes","zip":"45875","region":"Glandorf","service packages":"Expanded basic Contract,Expanded HD Copper","township":null,"last":"Ebbeskotte","stbs allowed":5,"geo_score":0.902,"first":"Randy","ppv limit":"Unlimited","customer id":696,"phone":4195386784,"whdvr":"No","id":"abjw5cj5x31j","address":"13492 Rd 14","login":"Glandorf","password":1234,"geo_precision":"range","state":"OH","pin":1234},"type":"Feature","geometry":{"type":"Point","coordinates":[-84.130181,40.982194]}},{"properties":{"city":"Ottawa","status":"Active","ppv":"Yes","zip":"45875","region":"Glandorf","service packages":"Basic Contract,HD Optic","township":null,"last":"Ebbeskotte","stbs allowed":5,"geo_score":0.902,"first":"Mike","ppv limit":"Unlimited","customer id":285,"phone":4195386328,"whdvr":"No","id":"abjw5cu3xxz7","address":"12437 Rd J","login":"Glandorf","password":1234,"geo_precision":"range","state":"OH","pin":1234},"type":"Feature","geometry":{"type":"Point","coordinates":[-84.100551,41.035692]}},{"properties":{"city":"Ottawa","status":"Active","ppv":"Yes","zip":"45875","region":"Glandorf","service packages":"Basic Contract,HD Optic","township":null,"last":"Ellerbrock","stbs allowed":6,"geo_score":0.902,"first":"Robert L.","ppv limit":"Unlimited","customer id":446,"phone":4195386510,"whdvr":"No","id":"abjw5cnugyih","address":"117 Carlings Ave","login":"Glandorf","password":1234,"geo_precision":"range","state":"OH","pin":1234},"type":"Feature","geometry":{"type":"Point","coordinates":[-84.086098,41.03591]}},{"properties":{"city":"Ottawa","status":"Active","ppv":"Yes","zip":"45875","region":"Glandorf","service packages":"Expanded basic Contract","township":null,"last":"Ellerbrock","stbs allowed":3,"geo_score":0.902,"first":"Irene","ppv limit":"Unlimited","customer id":626,"phone":4195386710,"whdvr":"No","id":"abjw5ciysnci","address":"12552 RD K","login":"Glandorf","password":1234,"geo_precision":"range","state":"OH","pin":1234},"type":"Feature","geometry":{"type":"Point","coordinates":[-84.102866,41.021306]}},{"properties":{"city":"Ottawa","status":"Active","ppv":"Yes","zip":"45875","region":"Glandorf","service packages":"Basic Contract,HD Copper","township":null,"last":"Ellerbrock","stbs allowed":6,"geo_score":0.902,"first":"Dustin P.","ppv limit":"Unlimited","customer id":1900,"phone":4195386242,"whdvr":"No","id":"abjw5cxwulmm","address":"10613 Road M","login":"Glandorf","password":1234,"geo_precision":"range","state":"OH","pin":1234},"type":"Feature","geometry":{"type":"Point","coordinates":[-84.064564,40.992299]}},{"properties":{"city":"Ottawa","status":"Active","ppv":"Yes","zip":"45875","region":"Glandorf","service packages":"Basic Contract,HD Copper","township":"Greensburg Township","last":"Ellerbrock","stbs allowed":3,"geo_score":0.902,"first":"Amanda","ppv limit":"Unlimited","customer id":132300,"phone":4195386714,"whdvr":"No","id":"abjw5cwajjxm","address":"14008 Rd I","login":"Glandorf","password":1234,"geo_precision":"range","state":"OH","pin":1234},"type":"Feature","geometry":{"type":"Point","coordinates":[-84.131211,41.05034]}},{"properties":{"city":"Ottawa","status":"Active","ppv":"Yes","zip":"45875","region":"Glandorf","service packages":"Basic Contract,HD Copper","township":null,"last":"Ellerbrock","stbs allowed":4,"geo_score":0.902,"first":"Amie","ppv limit":"Unlimited","customer id":1921,"phone":4195386244,"whdvr":"No","id":"abjw5cx0t84u","address":"10889 Rd M","login":"Glandorf","password":1234,"geo_precision":"range","state":"OH","pin":1234},"type":"Feature","geometry":{"type":"Point","coordinates":[-84.071766,40.992245]}},{"properties":{"city":"Ottawa","status":"Active","ppv":"Yes","zip":"45875","region":"Glandorf","service packages":"Basic Contract","township":null,"last":"Ellerbrock","stbs allowed":4,"geo_score":0.861,"first":"Eugene","ppv limit":"Unlimited","customer id":557,"phone":4195386633,"whdvr":"No","id":"abjw5ct9ky0b","address":"13928 Rd 11J","login":"Glandorf","password":1234,"geo_precision":"range","state":"OH","pin":1234},"type":"Feature","geometry":{"type":"Point","coordinates":[-84.082191,40.978134]}},{"properties":{"city":"ottawa","status":"Active","ppv":"No","zip":"45875","region":"Glandorf","service packages":"Expanded basic Contract,Expanded HD Fiber","township":null,"last":"Ellerbrock","stbs allowed":6,"geo_score":0.902,"first":"Roger &amp; Marilyn","ppv limit":"Unlimited","customer id":362,"phone":4195386418,"whdvr":"No","id":"abjw5cv4q91i","address":"424 E Blake St","login":"Glandorf","password":1234,"geo_precision":"range","state":"OH","pin":1234},"type":"Feature","geometry":{"type":"Point","coordinates":[-84.082971,41.035892]}},{"properties":{"city":"Ottawa","status":"Active","ppv":"Yes","zip":"45875","region":"Glandorf","service packages":"Basic Contract,HD Optic","township":null,"last":"Ellerbrock","stbs allowed":3,"geo_score":0.902,"first":"Gary L &amp; Kim","ppv limit":"Unlimited","customer id":60100,"phone":4195386641,"whdvr":"No","id":"abjw5cjkk9w2","address":"12305 Rd J","login":"Glandorf","password":1234,"geo_precision":"range","state":"OH","pin":1234},"type":"Feature","geometry":{"type":"Point","coordinates":[-84.098876,41.035713]}},{"properties":{"city":"Ottawa","status":"Active","ppv":"Yes","zip":"45875","region":"Glandorf","service packages":"Basic Contract,HD Copper","township":null,"last":"Ellerbrock","stbs allowed":3,"geo_score":0.902,"first":"Gerald W.","ppv limit":"Unlimited","customer id":229,"phone":4195386257,"whdvr":"No","id":"abjw5cjktdv6","address":"13868 Rd J","login":"Glandorf","password":1234,"geo_precision":"range","state":"OH","pin":1234},"type":"Feature","geometry":{"type":"Point","coordinates":[-84.129896,41.035786]}},{"properties":{"city":"OTTAWA","status":"Active","ppv":"Yes","zip":"45875","region":"Glandorf","service packages":"Local","township":null,"last":"Ellerbrock","stbs allowed":4,"geo_score":0.902,"first":"Karl","ppv limit":"Unlimited","customer id":608,"phone":4195386689,"whdvr":"No","id":"abjw5cs60jxh","address":"12806 Rd K","login":"Glandorf","password":1234,"geo_precision":"range","state":"OH","pin":1234},"type":"Feature","geometry":{"type":"Point","coordinates":[-84.107669,41.021273]}},{"properties":{"city":"Ottawa","status":"Active","ppv":"Yes","zip":"45875","region":"Glandorf","service packages":"Basic Contract,HD Optic","township":null,"last":"Ellerbrock","stbs allowed":3,"geo_score":0.524,"first":"James","ppv limit":"Unlimited","customer id":1051,"phone":4195387172,"whdvr":"No","id":"abjw5cpbs9fj","address":"241 O-G Rd","login":"Glandorf","password":1234,"geo_precision":"street","state":"OH","pin":1234},"type":"Feature","geometry":{"type":"Point","coordinates":[-84.092238,41.079133]}},{"properties":{"city":"Ottawa","status":"Active","ppv":"Yes","zip":"45875","region":"Glandorf","service packages":"Basic Contract,HD Copper","township":null,"last":"Ellerbrock","stbs allowed":4,"geo_score":0.659,"first":"Michael T","ppv limit":"Unlimited","customer id":67700,"phone":4195386727,"whdvr":"No","id":"abjw5cu7092r","address":"12845 Road 10L","login":"Glandorf","password":1234,"geo_precision":"street","state":"OH","pin":1234},"type":"Feature","geometry":{"type":"Point","coordinates":[-84.053058,40.962968]}},{"properties":{"city":"Ottawa","status":"Active","ppv":"Yes","zip":"45875","region":"Glandorf","service packages":"Basic Contract,HD Copper","township":null,"last":"Ellerbrock","stbs allowed":3,"geo_score":0.902,"first":"Dennis &amp; Kathy","ppv limit":"Unlimited","customer id":46400,"phone":4195386492,"whdvr":"No","id":"abjw5cnpvzvz","address":"11343 Rd L","login":"Glandorf","password":1234,"geo_precision":"range","state":"OH","pin":1234},"type":"Feature","geometry":{"type":"Point","coordinates":[-84.078607,41.00674]}},{"properties":{"city":"Ottawa","status":"Active","ppv":"Yes","zip":"45875","region":"Glandorf","service packages":"Basic Contract,HD Copper","township":null,"last":"Ellerbrock","stbs allowed":3,"geo_score":0.902,"first":"Jeff","ppv limit":"Unlimited","customer id":66500,"phone":4195386715,"whdvr":"No","id":"abjw5cnv0u90","address":"12568 Rd 11","login":"Glandorf","password":1234,"geo_precision":"range","state":"OH","pin":1234},"type":"Feature","geometry":{"type":"Point","coordinates":[-84.073024,40.996357]}},{"properties":{"city":"Glandorf","status":"Inactive","ppv":"No","zip":"45848","region":"Glandorf","service packages":"Bonifest","township":null,"last":"Fest","stbs allowed":6,"geo_score":0.805,"first":"Park","ppv limit":"Unlimited","customer id":850,"phone":4195386953,"whdvr":"No","id":"abjw5cyi4hon","address":"203 N Main","login":"Glandorf","password":1234,"geo_precision":"range","state":"OH","pin":1234},"type":"Feature","geometry":{"type":"Point","coordinates":[-84.081589,41.032261]}},{"properties":{"city":"Ottawa","status":"Active","ppv":"Yes","zip":"45875","region":"Glandorf","service packages":"Expanded basic Contract,Expanded HD Fiber","township":null,"last":"Font","stbs allowed":4,"geo_score":0.468,"first":"Janie","ppv limit":"Unlimited","customer id":310,"phone":4195386356,"whdvr":"No","id":"abjw5ckan319","address":"10020 Rd I-9","login":"Glandorf","password":1234,"geo_precision":"street","state":"OH","pin":1234},"type":"Feature","geometry":{"type":"Point","coordinates":[-84.050924,41.006978]}},{"properties":{"city":"Ottawa","status":"Active","ppv":"Yes","zip":"45875","region":"Glandorf","service packages":"Basic Contract,HD Copper","township":"Pleasant Township","last":"Foppe","stbs allowed":3,"geo_score":0.902,"first":"Dan","ppv limit":"Unlimited","customer id":17500,"phone":4195386178,"whdvr":"No","id":"abjw5cuy0s4n","address":"13293 Rd 12","login":"Glandorf","password":1234,"geo_precision":"range","state":"OH","pin":1234},"type":"Feature","geometry":{"type":"Point","coordinates":[-84.091767,40.988119]}},{"properties":{"city":"Ottawa","status":"Active","ppv":"Yes","zip":"45875","region":"Glandorf","service packages":"Local","township":null,"last":"Frankart","stbs allowed":3,"geo_score":0.707,"first":"Margie","ppv limit":"Unlimited","customer id":325,"phone":4195386376,"whdvr":"No","id":"abjw5cr473z6","address":"10508 Rd I9","login":"Glandorf","password":1234,"geo_precision":"street","state":"OH","pin":1234},"type":"Feature","geometry":{"type":"Point","coordinates":[-84.116447,41.050199]}},{"properties":{"city":"Ottawa","status":"Active","ppv":"Yes","zip":"45875","region":"Glandorf","service packages":"Basic Contract,HD Copper","township":"Pleasant Township","last":"Franz","stbs allowed":5,"geo_score":0.861,"first":"Victor &amp; Diane","ppv limit":"Unlimited","customer id":1954,"phone":4195386467,"whdvr":"No","id":"abjw5csuihrk","address":"13027 Rd 11J","login":"Glandorf","password":1234,"geo_precision":"range","state":"OH","pin":1234},"type":"Feature","geometry":{"type":"Point","coordinates":[-84.082149,40.991858]}},{"properties":{"city":"Glandorf","status":"Active","ppv":"Yes","zip":"45848","region":"Glandorf","service packages":"Expanded basic Contract","township":null,"last":"Gerding","stbs allowed":3,"geo_score":0.503,"first":"Mike","ppv limit":"Unlimited","customer id":149,"phone":4195386157,"whdvr":"No","id":"abjw5cuv4a6s","address":"117 Brockman","login":"Glandorf","password":1234,"geo_precision":"street","state":"OH","pin":1234},"type":"Feature","geometry":{"type":"Point","coordinates":[-84.504994,40.365465]}},{"properties":{"city":"Ottawa","status":"Active","ppv":"Yes","zip":"45875","region":"Glandorf","service packages":"Basic Contract","township":"Ottawa Township","last":"Gerding","stbs allowed":5,"geo_score":0.902,"first":"Jeff  Elaine","ppv limit":"Unlimited","customer id":298,"phone":4195387342,"whdvr":"No","id":"abjw5cmd9lrz","address":"12674 RD 11","login":"Glandorf","password":1234,"geo_precision":"range","state":"OH","pin":1234},"type":"Feature","geometry":{"type":"Point","coordinates":[-84.073045,40.995274]}},{"properties":{"city":"Ottawa","status":"Active","ppv":"Yes","zip":"45875","region":"Glandorf","service packages":"Expanded basic Contract,Expanded HD Copper","township":null,"last":"Gerding","stbs allowed":5,"geo_score":0.902,"first":"Dale","ppv limit":"Unlimited","customer id":421,"phone":4195386482,"whdvr":"No","id":"abjw5ct69ck9","address":"11089 Rd 12","login":"Glandorf","password":1234,"geo_precision":"range","state":"OH","pin":1234},"type":"Feature","geometry":{"type":"Point","coordinates":[-84.092266,41.020005]}},{"properties":{"city":"Ottawa","status":"Active","ppv":"Yes","zip":"45875","region":"Glandorf","service packages":"Basic Contract","township":null,"last":"Gerding","stbs allowed":3,"geo_score":0.902,"first":"Jeff","ppv limit":"Unlimited","customer id":1705,"phone":4195387214,"whdvr":"No","id":"abjw5ct9sqw7","address":"9899 Road M","login":"Glandorf","password":1234,"geo_precision":"range","state":"OH","pin":1234},"type":"Feature","geometry":{"type":"Point","coordinates":[-84.05238,40.992333]}},{"properties":{"city":"Ottawa","status":"Active","ppv":"Yes","zip":"45875","region":"Glandorf","service packages":"Basic Contract","township":null,"last":"Gerding","stbs allowed":3,"geo_score":0.659,"first":"Christopher","ppv limit":"Unlimited","customer id":null,"phone":4195386787,"whdvr":"No","id":"abjw5ckr8mw3","address":"11140 Rd 10K","login":"Glandorf","password":1234,"geo_precision":"street","state":"OH","pin":1234},"type":"Feature","geometry":{"type":"Point","coordinates":[-84.053666,41.066063]}},{"properties":{"city":"Ottawa","status":"Active","ppv":"Yes","zip":"45875","region":"Glandorf","service packages":"Basic Contract,HD Copper","township":null,"last":"German","stbs allowed":4,"geo_score":0.659,"first":"Rose Ann","ppv limit":"Unlimited","customer id":882,"phone":4195386986,"whdvr":"No","id":"abjw5cmlpn3h","address":"12425 Rd 10L","login":"Glandorf","password":1234,"geo_precision":"street","state":"OH","pin":1234},"type":"Feature","geometry":{"type":"Point","coordinates":[-84.053058,40.962968]}},{"properties":{"city":"Ottawa","status":"Active","ppv":"Yes","zip":"45875","region":"Glandorf","service packages":"Basic Contract","township":null,"last":"Giesige","stbs allowed":3,"geo_score":0.902,"first":"Doug &amp; Andrea","ppv limit":"Unlimited","customer id":1630,"phone":4195386627,"whdvr":"No","id":"abjw5cw5wfcg","address":"370 Lakeshore Dr.","login":"Glandorf","password":1234,"geo_precision":"range","state":"OH","pin":1234},"type":"Feature","geometry":{"type":"Point","coordinates":[-84.082569,41.029996]}},{"properties":{"city":"Ottawa","status":"Active","ppv":"Yes","zip":"45875","region":"Glandorf","service packages":"Basic Contract,HD Optic","township":null,"last":"Gillette","stbs allowed":4,"geo_score":0.87,"first":"Katie &amp; Jonathon","ppv limit":"Unlimited","customer id":null,"phone":4195386006,"whdvr":"No","id":"abjw5cp5k1bo","address":"266 S Main St.","login":"Glandorf","password":1234,"geo_precision":"range","state":"OH","pin":1234},"type":"Feature","geometry":{"type":"Point","coordinates":[-84.049787,41.019225]}},{"properties":{"city":"Glandorf","status":"Active","ppv":"Yes","zip":"45848","region":"Glandorf","service packages":"All","township":null,"last":"Glandorf Telephone","stbs allowed":11,"geo_score":0.476,"first":null,"ppv limit":"Unlimited","customer id":883,"phone":4195386987,"whdvr":"No","id":"abjw5co2xlua","address":"135 S. Main St.","login":"Glandorf","password":6987,"geo_precision":"street","state":"OH","pin":1234},"type":"Feature","geometry":{"type":"Point","coordinates":[-84.07978,41.029818]}},{"properties":{"city":"Ottawa","status":"Active","ppv":"Yes","zip":"45875","region":"Glandorf","service packages":"Basic Contract,HD Copper","township":null,"last":"Grime","stbs allowed":4,"geo_score":0.902,"first":"Brian","ppv limit":"Unlimited","customer id":1731,"phone":4195386830,"whdvr":"No","id":"abjw5cu94xlr","address":"12915 Rd 12","login":"Glandorf","password":1234,"geo_precision":"range","state":"OH","pin":1234},"type":"Feature","geometry":{"type":"Point","coordinates":[-84.092109,40.993542]}},{"properties":{"city":"Ottawa","status":"Active","ppv":"Yes","zip":"45875","region":"Glandorf","service packages":"Expanded basic Contract","township":null,"last":"Grote","stbs allowed":4,"geo_score":0.902,"first":"Joyce","ppv limit":"Unlimited","customer id":121,"phone":4195386128,"whdvr":"No","id":"abjw5csbbly5","address":"9655 Rd 15","login":"Glandorf","password":1234,"geo_precision":"range","state":"OH","pin":1234},"type":"Feature","geometry":{"type":"Point","coordinates":[-84.15002,41.040128]}},{"properties":{"city":"Ottawa","status":"Active","ppv":"Yes","zip":"45875","region":"Glandorf","service packages":"Local","township":null,"last":"Hageman","stbs allowed":3,"geo_score":0.678,"first":"Virgil","ppv limit":"Unlimited","customer id":570,"phone":4195386648,"whdvr":"No","id":"abjw5ckqkcaw","address":"13501 US Rt 224","login":"Glandorf","password":1234,"geo_precision":"street","state":"OH","pin":1234},"type":"Feature","geometry":{"type":"Point","coordinates":[-84.11147,41.010295]}},{"properties":{"city":"Glandorf","status":"Active","ppv":"No","zip":"45848","region":"Glandorf","service packages":"Basic Contract","township":null,"last":"Halker","stbs allowed":3,"geo_score":0.476,"first":"Louis","ppv limit":"Unlimited","customer id":685,"phone":4195386773,"whdvr":"No","id":"abjw5cklw158","address":"320 N. Main St., PO BOX 25","login":"Glandorf","password":1234,"geo_precision":"street","state":"OH","pin":1234},"type":"Feature","geometry":{"type":"Point","coordinates":[-84.07978,41.029818]}},{"properties":{"city":"Ottawa","status":"Active","ppv":"Yes","zip":"45875","region":"Glandorf","service packages":"Basic Contract","township":null,"last":"Hanneman","stbs allowed":3,"geo_score":0.823,"first":"Ken  Marge","ppv limit":"Unlimited","customer id":857,"phone":4195386960,"whdvr":"No","id":"abjw5ckqyh3q","address":"126 Eastwick","login":"Glandorf","password":1234,"geo_precision":"range","state":"OH","pin":1234},"type":"Feature","geometry":{"type":"Point","coordinates":[-84.072619,41.024922]}},{"properties":{"city":"Ottawa","status":"Active","ppv":"Yes","zip":"45875","region":"Glandorf","service packages":"Basic Contract","township":null,"last":"Hanneman","stbs allowed":2,"geo_score":0.902,"first":"Daniel","ppv limit":"Unlimited","customer id":796,"phone":4195386889,"whdvr":"No","id":"abjw5clb67w6","address":"260 Lakeshore Dr","login":"Glandorf","password":1234,"geo_precision":"range","state":"OH","pin":1234},"type":"Feature","geometry":{"type":"Point","coordinates":[-84.086465,41.033645]}},{"properties":{"city":"Ottawa","status":"Active","ppv":"Yes","zip":"45875","region":"Glandorf","service packages":"Expanded basic Contract,Encore,Starz","township":null,"last":"Heckman","stbs allowed":4,"geo_score":0.666,"first":"Kenneth","ppv limit":"Unlimited","customer id":569,"phone":4195386647,"whdvr":"No","id":"abjw5ck8g0lv","address":"12473 Rd 10-L","login":"Glandorf","password":1234,"geo_precision":"street","state":"OH","pin":1234},"type":"Feature","geometry":{"type":"Point","coordinates":[-84.061826,41.040995]}},{"properties":{"city":"Ottawa","status":"Active","ppv":"Yes","zip":"45875","region":"Glandorf","service packages":"Basic Contract,HD Optic","township":null,"last":"Heckman","stbs allowed":5,"geo_score":0.87,"first":"Andy","ppv limit":"Unlimited","customer id":25400,"phone":4195386262,"whdvr":"No","id":"abjw5cq6el83","address":"162 Bremen Dr.","login":"Glandorf","password":1234,"geo_precision":"range","state":"OH","pin":1234},"type":"Feature","geometry":{"type":"Point","coordinates":[-84.069588,41.025527]}},{"properties":{"city":"Ottawa","status":"Active","ppv":"Yes","zip":"45875","region":"Glandorf","service packages":"Basic Contract,HD Copper","township":null,"last":"Heffner","stbs allowed":3,"geo_score":0.902,"first":"Matthew &amp; Kristen","ppv limit":"Unlimited","customer id":null,"phone":4195386765,"whdvr":"No","id":"abjw5cmx0tcl","address":"315 N Main St","login":"Glandorf","password":1234,"geo_precision":"range","state":"OH","pin":1234},"type":"Feature","geometry":{"type":"Point","coordinates":[-84.081966,41.032884]}},{"properties":{"city":"Ottawa","status":"Active","ppv":"Yes","zip":"45875","region":"Glandorf","service packages":"Local","township":"Ottawa Township","last":"Hempfling","stbs allowed":4,"geo_score":0.707,"first":"Mark","ppv limit":"Unlimited","customer id":29,"phone":4195386026,"whdvr":"No","id":"abjw5cms54sz","address":"10100 Rd I9","login":"Glandorf","password":1234,"geo_precision":"street","state":"OH","pin":1234},"type":"Feature","geometry":{"type":"Point","coordinates":[-84.116447,41.050199]}},{"properties":{"city":"Ottawa","status":"Active","ppv":"Yes","zip":"45875","region":"Glandorf","service packages":"Basic Contract,HD Optic","township":"Ottawa Township","last":"Hempfling","stbs allowed":5,"geo_score":0.707,"first":"Keith &amp; Beth","ppv limit":"Unlimited","customer id":3000,"phone":4195386029,"whdvr":"No","id":"abjw5cndq50o","address":"10182 Rd I9","login":"Glandorf","password":1234,"geo_precision":"street","state":"OH","pin":1234},"type":"Feature","geometry":{"type":"Point","coordinates":[-84.116447,41.050199]}},{"properties":{"city":"Ottawa","status":"Active","ppv":"Yes","zip":"45875","region":"Glandorf","service packages":"Expanded basic Contract,Expanded HD Fiber","township":"Ottawa Township","last":"Hempfling","stbs allowed":4,"geo_score":0.468,"first":"Don &amp; Ann","ppv limit":"Unlimited","customer id":2600,"phone":4195386025,"whdvr":"No","id":"abjw5cx8mkqc","address":"10184 Rd I-9","login":"Glandorf","password":1234,"geo_precision":"street","state":"OH","pin":1234},"type":"Feature","geometry":{"type":"Point","coordinates":[-84.050924,41.006978]}},{"properties":{"city":"Ottawa","status":"Active","ppv":"Yes","zip":"45875","region":"Glandorf","service packages":"Basic Contract,HD Copper","township":null,"last":"Hermiller","stbs allowed":5,"geo_score":0.902,"first":"Jackie","ppv limit":"Unlimited","customer id":33,"phone":4195386030,"whdvr":"No","id":"abjw5clqbxrl","address":"9626 Rd 13-I","login":"Glandorf","password":1234,"geo_precision":"range","state":"OH","pin":1234},"type":"Feature","geometry":{"type":"Point","coordinates":[-84.126056,41.041133]}},{"properties":{"city":"Ottawa","status":"Active","ppv":"Yes","zip":"45875","region":"Glandorf","service packages":"Basic Contract,HD Copper","township":null,"last":"Hermiller","stbs allowed":3,"geo_score":0.902,"first":"Jordan","ppv limit":"Unlimited","customer id":null,"phone":4195386348,"whdvr":"No","id":"abjw5cyfh9tc","address":"11715 Rd M","login":"Glandorf","password":1234,"geo_precision":"range","state":"OH","pin":1234},"type":"Feature","geometry":{"type":"Point","coordinates":[-84.082545,40.992178]}},{"properties":{"city":"Glandorf","status":"Active","ppv":"Yes","zip":"45848","region":"Glandorf","service packages":"Basic Contract","township":null,"last":"Heuerman","stbs allowed":3,"geo_score":0.805,"first":"Virgil  Pat","ppv limit":"Unlimited","customer id":501,"phone":4195386570,"whdvr":"No","id":"abjw5cvudnlw","address":"280 N Main","login":"Glandorf","password":1234,"geo_precision":"range","state":"OH","pin":1234},"type":"Feature","geometry":{"type":"Point","coordinates":[-84.082469,41.033294]}},{"properties":{"city":"Ottawa","status":"Active","ppv":"Yes","zip":"45875","region":"Glandorf","service packages":"Local","township":null,"last":"Hoehn","stbs allowed":3,"geo_score":0.902,"first":"Tim &amp; Christine","ppv limit":"Unlimited","customer id":1632,"phone":4195387148,"whdvr":"No","id":"abjw5cxo0x43","address":"10147 Rd M","login":"Glandorf","password":1234,"geo_precision":"range","state":"OH","pin":1234},"type":"Feature","geometry":{"type":"Point","coordinates":[-84.056815,40.992318]}},{"properties":{"city":"Ottawa","status":"Active","ppv":"Yes","zip":"45875","region":"Glandorf","service packages":"Expanded basic Contract","township":null,"last":"Hoffman","stbs allowed":3,"geo_score":0.902,"first":"Tony Roseann","ppv limit":"Unlimited","customer id":1113,"phone":4195387235,"whdvr":"No","id":"abjw5cqv6lck","address":"10195 Rd 15","login":"Glandorf","password":1234,"geo_precision":"range","state":"OH","pin":1234},"type":"Feature","geometry":{"type":"Point","coordinates":[-84.149982,41.032667]}},{"properties":{"city":"Ottawa","status":"Active","ppv":"Yes","zip":"45875","region":"Glandorf","service packages":"Expanded basic Contract,Expanded HD Copper","township":"Greensburg Township","last":"Hoffman","stbs allowed":5,"geo_score":0.812,"first":"Greg","ppv limit":"Unlimited","customer id":28400,"phone":4195386297,"whdvr":"No","id":"abjw5covp4mk","address":"14752 St Rt 694","login":"Glandorf","password":1234,"geo_precision":"range","state":"OH","pin":1234},"type":"Feature","geometry":{"type":"Point","coordinates":[-84.14498,41.028342]}},{"properties":{"city":"Ottawa","status":"Active","ppv":"Yes","zip":"45875","region":"Glandorf","service packages":"Basic Contract,HD Copper","township":"Greensburg Township","last":"Hoffman","stbs allowed":3,"geo_score":0.902,"first":"Margie (George)","ppv limit":"Unlimited","customer id":8200,"phone":4195386082,"whdvr":"No","id":"abjw5cwkyiuw","address":"14862 Rd J","login":"Glandorf","password":1234,"geo_precision":"range","state":"OH","pin":1234},"type":"Feature","geometry":{"type":"Point","coordinates":[-84.147273,41.035604]}},{"properties":{"city":"Ottawa","status":"Active","ppv":"Yes","zip":"45875","region":"Glandorf","service packages":"Basic Contract,HD Copper","township":null,"last":"Hopkins","stbs allowed":6,"geo_score":0.902,"first":"Charles","ppv limit":"Unlimited","customer id":58,"phone":4195386056,"whdvr":"No","id":"abjw5con3xg3","address":"11949 Rd 11","login":"Glandorf","password":1234,"geo_precision":"range","state":"OH","pin":1234},"type":"Feature","geometry":{"type":"Point","coordinates":[-84.072926,41.003101]}},{"properties":{"city":"Ottawa","status":"Active","ppv":"Yes","zip":"45875","region":"Glandorf","service packages":"Expanded basic Contract,Expanded HD Fiber","township":null,"last":"Horstman","stbs allowed":3,"geo_score":0.659,"first":"Don","ppv limit":"Unlimited","customer id":1116,"phone":4195387238,"whdvr":"No","id":"abjw5ct3xm3l","address":"11201 Rd 10K","login":"Glandorf","password":1234,"geo_precision":"street","state":"OH","pin":1234},"type":"Feature","geometry":{"type":"Point","coordinates":[-84.053666,41.066063]}},{"properties":{"city":"Ottawa","status":"Active","ppv":"Yes","zip":"45875","region":"Glandorf","service packages":"Basic Contract,HD Copper","township":"Ottawa Township","last":"Horstman","stbs allowed":4,"geo_score":0.861,"first":"Ken","ppv limit":"Unlimited","customer id":1710,"phone":4195387258,"whdvr":"No","id":"abjw5cp81tyu","address":"11294 Rd 11J","login":"Glandorf","password":1234,"geo_precision":"range","state":"OH","pin":1234},"type":"Feature","geometry":{"type":"Point","coordinates":[-84.082683,41.018118]}},{"properties":{"city":"Ottawa","status":"Active","ppv":"Yes","zip":"45875","region":"Glandorf","service packages":"Basic Contract","township":null,"last":"Hovest","stbs allowed":3,"geo_score":0.902,"first":"Dale","ppv limit":"Unlimited","customer id":96,"phone":4195386098,"whdvr":"No","id":"abjw5cl645q0","address":"13748 Rd L","login":"Glandorf","password":1234,"geo_precision":"range","state":"OH","pin":1234},"type":"Feature","geometry":{"type":"Point","coordinates":[-84.125212,41.006595]}},{"properties":{"city":"Ottawa","status":"Active","ppv":"Yes","zip":"45875","region":"Glandorf","service packages":"Expanded basic Contract","township":null,"last":"Hovest","stbs allowed":2,"geo_score":0.488,"first":"Robert","ppv limit":"Unlimited","customer id":779,"phone":4195386871,"whdvr":"No","id":"abjw5cparw1x","address":"14271 Rd K-14","login":"Glandorf","password":1234,"geo_precision":"zip","state":"OH","pin":1234},"type":"Feature","geometry":{"type":"Point","coordinates":[-84.169112,41.020884]}},{"properties":{"city":"Ottawa","status":"Active","ppv":"Yes","zip":"45875","region":"Glandorf","service packages":"Expanded basic Contract,Expanded HD Copper","township":"Pleasant Township","last":"Hunt","stbs allowed":6,"geo_score":0.861,"first":"Dave  Dora","ppv limit":"Unlimited","customer id":112,"phone":4195386118,"whdvr":"No","id":"abjw5ck3flwv","address":"13642 Road 11J","login":"Glandorf","password":1234,"geo_precision":"range","state":"OH","pin":1234},"type":"Feature","geometry":{"type":"Point","coordinates":[-84.08223,40.982497]}},{"properties":{"city":"Ottawa","status":"Active","ppv":"No","zip":"45875","region":"Glandorf","service packages":"Expanded basic Contract,Expanded HD Copper","township":"Ottawa Township","last":"Hunt","stbs allowed":4,"geo_score":0.861,"first":"Brian","ppv limit":"Unlimited","customer id":1932,"phone":4195387239,"whdvr":"No","id":"abjw5cm9glch","address":"12674 Rd 11J","login":"Glandorf","password":1234,"geo_precision":"range","state":"OH","pin":1234},"type":"Feature","geometry":{"type":"Point","coordinates":[-84.082631,40.996989]}},{"properties":{"city":"Ottawa","status":"Active","ppv":"Yes","zip":"45875","region":"Glandorf","service packages":"Basic Contract","township":null,"last":"Imm","stbs allowed":4,"geo_score":0.659,"first":"Brian  Sara","ppv limit":"Unlimited","customer id":590,"phone":4195386669,"whdvr":"No","id":"abjw5cml9p67","address":"10796 Rd 14J","login":"Glandorf","password":1234,"geo_precision":"street","state":"OH","pin":1234},"type":"Feature","geometry":{"type":"Point","coordinates":[-84.130355,40.991897]}},{"properties":{"city":"Ottawa","status":"Active","ppv":"Yes","zip":"45875","region":"Glandorf","service packages":"Basic Contract,HD Copper","township":null,"last":"Imm","stbs allowed":3,"geo_score":0.815,"first":"William &amp; Janet","ppv limit":"Unlimited","customer id":1393,"phone":4195387119,"whdvr":"No","id":"abjw5cq5p3b7","address":"12201 St Rt 224","login":"Glandorf","password":1234,"geo_precision":"range","state":"OH","pin":1234},"type":"Feature","geometry":{"type":"Point","coordinates":[-84.095416,41.015315]}},{"properties":{"city":"Ottawa","status":"Active","ppv":"Yes","zip":"45875","region":"Glandorf","service packages":"Expanded basic Contract,HD Optic","township":null,"last":"Inkrott","stbs allowed":3,"geo_score":0.902,"first":"Ed","ppv limit":"Unlimited","customer id":867,"phone":4195386971,"whdvr":"No","id":"abjw5ctcfn5e","address":"284 S Main","login":"Glandorf","password":1234,"geo_precision":"range","state":"OH","pin":1234},"type":"Feature","geometry":{"type":"Point","coordinates":[-84.075226,41.023955]}},{"properties":{"city":"Ottawa","status":"Active","ppv":"Yes","zip":"45875","region":"Glandorf","service packages":"Basic Contract","township":null,"last":"Jordan","stbs allowed":4,"geo_score":0.902,"first":"Brian &amp; Taryn","ppv limit":"Unlimited","customer id":null,"phone":4195386202,"whdvr":"No","id":"abjw5cu89pbc","address":"12165 Rd M10","login":"Glandorf","password":1234,"geo_precision":"range","state":"OH","pin":1234},"type":"Feature","geometry":{"type":"Point","coordinates":[-84.086917,40.992135]}},{"properties":{"city":"Glandorf","status":"Active","ppv":"Yes","zip":"45848","region":"Glandorf","service packages":"Basic Contract,HD Optic","township":null,"last":"Kahle","stbs allowed":2,"geo_score":0.857,"first":"Jan","ppv limit":"Unlimited","customer id":null,"phone":4195386041,"whdvr":"No","id":"abjw5cmoind0","address":"120 N Main St, PO BOX 45","login":"Glandorf","password":1234,"geo_precision":"street","state":"OH","pin":1234},"type":"Feature","geometry":{"type":"Point","coordinates":[-84.07978,41.029818]}},{"properties":{"city":"Ottawa","status":"Active","ppv":"Yes","zip":"45875","region":"Glandorf","service packages":"Basic Contract","township":"Pleasant Township","last":"Karhoff","stbs allowed":3,"geo_score":0.902,"first":"Rosella","ppv limit":"Unlimited","customer id":414,"phone":4195386475,"whdvr":"No","id":"abjw5cvwsauw","address":"13335 Rd M","login":"Glandorf","password":1234,"geo_precision":"range","state":"OH","pin":1234},"type":"Feature","geometry":{"type":"Point","coordinates":[-84.117152,40.991934]}},{"properties":{"city":"Ottawa","status":"Active","ppv":"Yes","zip":"45875","region":"Glandorf","service packages":"Basic Contract,HD Optic","township":"Ottawa Township","last":"Karhoff","stbs allowed":3,"geo_score":0.902,"first":"Agnes","ppv limit":"Unlimited","customer id":163,"phone":4195386173,"whdvr":"No","id":"abjw5cwwn1ev","address":"12015 Rd J","login":"Glandorf","password":1234,"geo_precision":"range","state":"OH","pin":1234},"type":"Feature","geometry":{"type":"Point","coordinates":[-84.09572,41.035747]}},{"properties":{"city":"Ottawa","status":"Active","ppv":"Yes","zip":"45875","region":"Glandorf","service packages":"Basic Contract,HD Optic","township":null,"last":"Karhoff","stbs allowed":3,"geo_score":0.823,"first":"Larry","ppv limit":"Unlimited","customer id":41500,"phone":4195386443,"whdvr":"No","id":"abjw5cqe3yej","address":"448 Anthony Ave","login":"Glandorf","password":1234,"geo_precision":"range","state":"OH","pin":1234},"type":"Feature","geometry":{"type":"Point","coordinates":[-84.082927,41.036087]}},{"properties":{"city":"Ottawa","status":"Active","ppv":"Yes","zip":"45875","region":"Glandorf","service packages":"Basic Contract","township":null,"last":"Karl","stbs allowed":3,"geo_score":0.902,"first":"Joe  Maxine","ppv limit":"Unlimited","customer id":83,"phone":4195386084,"whdvr":"No","id":"abjw5ck6sp38","address":"340 Lakeshore Dr","login":"Glandorf","password":1234,"geo_precision":"range","state":"OH","pin":1234},"type":"Feature","geometry":{"type":"Point","coordinates":[-84.083533,41.031097]}},{"properties":{"city":"Ottawa","status":"Active","ppv":"Yes","zip":"45875","region":"Glandorf","service packages":"Basic Contract,HD Copper","township":null,"last":"Kaufman","stbs allowed":4,"geo_score":0.902,"first":"Mike","ppv limit":"Unlimited","customer id":353,"phone":4195386408,"whdvr":"No","id":"abjw5csuskh4","address":"13853 Rd J","login":"Glandorf","password":1234,"geo_precision":"range","state":"OH","pin":1234},"type":"Feature","geometry":{"type":"Point","coordinates":[-84.129714,41.035638]}},{"properties":{"city":"Ottawa","status":"Active","ppv":"Yes","zip":"45875","region":"Glandorf","service packages":"Basic Contract,HD Copper","township":null,"last":"Kaufman","stbs allowed":3,"geo_score":0.902,"first":"Dan","ppv limit":"Unlimited","customer id":null,"phone":4195386430,"whdvr":"No","id":"abjw5ctrwno1","address":"13497B Rd M","login":"Glandorf","password":1234,"geo_precision":"range","state":"OH","pin":1234},"type":"Feature","geometry":{"type":"Point","coordinates":[-84.120774,40.991912]}},{"properties":{"city":"Ottawa","status":"Active","ppv":"Yes","zip":"45875","region":"Glandorf","service packages":"Basic Contract,HD Copper","township":"Greensburg Township","last":"Kaufman","stbs allowed":4,"geo_score":0.624,"first":"Doug","ppv limit":"Unlimited","customer id":null,"phone":4195386642,"whdvr":"No","id":"abjw5coh5n85","address":"14722 Rd I-14","login":"Glandorf","password":1234,"geo_precision":"street","state":"OH","pin":1234},"type":"Feature","geometry":{"type":"Point","coordinates":[-84.130062,40.972697]}},{"properties":{"city":"Ottawa","status":"Active","ppv":"Yes","zip":"45875","region":"Glandorf","service packages":"Basic Contract,HD Copper","township":null,"last":"Kaufman","stbs allowed":6,"geo_score":0.902,"first":"Carl &amp; Lori","ppv limit":"Unlimited","customer id":267,"phone":4195386307,"whdvr":"No","id":"abjw5co78l3l","address":"14213 Rd M","login":"Glandorf","password":1234,"geo_precision":"range","state":"OH","pin":1234},"type":"Feature","geometry":{"type":"Point","coordinates":[-84.133186,40.991801]}},{"properties":{"city":"Ottawa","status":"Active","ppv":"Yes","zip":"45875","region":"Glandorf","service packages":"Basic Contract","township":"Ottawa Township","last":"Kersh","stbs allowed":3,"geo_score":0.902,"first":"Tim","ppv limit":"Unlimited","customer id":269,"phone":4195386309,"whdvr":"No","id":"abjw5cqo4pj7","address":"11854 Road 11","login":"Glandorf","password":1234,"geo_precision":"range","state":"OH","pin":1234},"type":"Feature","geometry":{"type":"Point","coordinates":[-84.073004,41.00685]}},{"properties":{"city":"Ottawa","status":"Active","ppv":"Yes","zip":"45875","region":"Glandorf","service packages":"Expanded basic Contract","township":null,"last":"Kettels","stbs allowed":5,"geo_score":0.707,"first":"John J","ppv limit":"Unlimited","customer id":129,"phone":4195386137,"whdvr":"No","id":"abjw5ctt356l","address":"9994 Rd I9","login":"Glandorf","password":1234,"geo_precision":"street","state":"OH","pin":1234},"type":"Feature","geometry":{"type":"Point","coordinates":[-84.116447,41.050199]}},{"properties":{"city":"Ottawa","status":"Active","ppv":"Yes","zip":"45875","region":"Glandorf","service packages":"Basic Contract,HD Optic","township":null,"last":"Kidd","stbs allowed":4,"geo_score":0.902,"first":"Chad","ppv limit":"Unlimited","customer id":1541,"phone":4195387147,"whdvr":"No","id":"abjw5cyl14tw","address":"105 Morman St","login":"Glandorf","password":1234,"geo_precision":"range","state":"OH","pin":1234},"type":"Feature","geometry":{"type":"Point","coordinates":[-84.082719,41.034115]}},{"properties":{"city":"Ottawa","status":"Active","ppv":"No","zip":"45875","region":"Glandorf","service packages":"Local","township":null,"last":"Kindle","stbs allowed":2,"geo_score":0.902,"first":"Eileen","ppv limit":"Unlimited","customer id":657,"phone":4195386744,"whdvr":"No","id":"abjw5cv2rhcp","address":"14204 Rd I","login":"Glandorf","password":1234,"geo_precision":"range","state":"OH","pin":1234},"type":"Feature","geometry":{"type":"Point","coordinates":[-84.135645,41.050138]}},{"properties":{"city":"Ottawa","status":"Active","ppv":"Yes","zip":"45875","region":"Glandorf","service packages":"Expanded basic Contract,Expanded HD Fiber","township":null,"last":"Klass","stbs allowed":6,"geo_score":0.488,"first":"Ken","ppv limit":"Unlimited","customer id":95600,"phone":4195387061,"whdvr":"No","id":"abjw5cxum8nj","address":"142 Bismarck Dr","login":"Glandorf","password":1234,"geo_precision":"zip","state":"OH","pin":1234},"type":"Feature","geometry":{"type":"Point","coordinates":[-84.169112,41.020884]}},{"properties":{"city":"Ottawa","status":"Active","ppv":"Yes","zip":"45875","region":"Glandorf","service packages":"Basic Contract,HD Optic","township":null,"last":"Klass","stbs allowed":6,"geo_score":0.902,"first":"Roy  Stacy","ppv limit":"Unlimited","customer id":1856,"phone":4195386303,"whdvr":"No","id":"abjw5cqrl8ma","address":"136 Washington St","login":"Glandorf","password":1234,"geo_precision":"range","state":"OH","pin":1234},"type":"Feature","geometry":{"type":"Point","coordinates":[-84.074343,41.023078]}},{"properties":{"city":"Ottawa","status":"Active","ppv":"Yes","zip":"45875","region":"Glandorf","service packages":"Basic Contract,HD Optic","township":null,"last":"Klass","stbs allowed":2,"geo_score":0.902,"first":"Terry","ppv limit":"Unlimited","customer id":null,"phone":4195386336,"whdvr":"No","id":"abjw5cke3vfu","address":"306 S Main","login":"Glandorf","password":1234,"geo_precision":"range","state":"OH","pin":1234},"type":"Feature","geometry":{"type":"Point","coordinates":[-84.075036,41.02367]}},{"properties":{"city":"Ottawa","status":"Active","ppv":"Yes","zip":"45875","region":"Glandorf","service packages":"Basic Contract,HD Copper","township":null,"last":"Klausing","stbs allowed":3,"geo_score":0.526,"first":"Mark","ppv limit":"Unlimited","customer id":142,"phone":4195386151,"whdvr":"No","id":"abjw5cu0wxsg","address":"13497-A Rd M","login":"Glandorf","password":1234,"geo_precision":"street","state":"OH","pin":1234},"type":"Feature","geometry":{"type":"Point","coordinates":[-88.639427,44.329673]}},{"properties":{"city":"Ottawa","status":"Active","ppv":"Yes","zip":"45875","region":"Glandorf","service packages":"Basic Contract","township":null,"last":"Klear","stbs allowed":4,"geo_score":0.902,"first":"Daniel","ppv limit":"Unlimited","customer id":837,"phone":4195386940,"whdvr":"No","id":"abjw5cs8bxl6","address":"9060 Rd 11","login":"Glandorf","password":1234,"geo_precision":"range","state":"OH","pin":1234},"type":"Feature","geometry":{"type":"Point","coordinates":[-84.081648,41.049848]}},{"properties":{"city":"Ottawa","status":"Active","ppv":"Yes","zip":"45875","region":"Glandorf","service packages":"Basic Contract,HD Copper","township":null,"last":"Klear","stbs allowed":4,"geo_score":0.902,"first":"Josh  Gwen","ppv limit":"Unlimited","customer id":49400,"phone":4195386524,"whdvr":"No","id":"abjw5cvc4nx0","address":"12369 RD K","login":"Glandorf","password":1234,"geo_precision":"range","state":"OH","pin":1234},"type":"Feature","geometry":{"type":"Point","coordinates":[-84.099324,41.021259]}},{"properties":{"city":"Ottawa","status":"Active","ppv":"No","zip":"45875","region":"Glandorf","service packages":"Expanded basic Contract,Expanded HD Fiber","township":null,"last":"Kleman","stbs allowed":3,"geo_score":0.902,"first":"Paul","ppv limit":"Unlimited","customer id":772,"phone":4195386864,"whdvr":"No","id":"abjw5cp4php8","address":"12124 Rd 11","login":"Glandorf","password":1234,"geo_precision":"range","state":"OH","pin":1234},"type":"Feature","geometry":{"type":"Point","coordinates":[-84.073067,41.000915]}},{"properties":{"city":"Ottawa","status":"Active","ppv":"Yes","zip":"45875","region":"Glandorf","service packages":"Basic Contract,HD Copper","township":null,"last":"Kleman","stbs allowed":3,"geo_score":0.902,"first":"Jeff","ppv limit":"Unlimited","customer id":1023,"phone":4195387144,"whdvr":"No","id":"abjw5cnvz6ji","address":"13753 Rd M13","login":"Glandorf","password":1234,"geo_precision":"range","state":"OH","pin":1234},"type":"Feature","geometry":{"type":"Point","coordinates":[-84.125488,40.991865]}},{"properties":{"city":"Ottawa","status":"Active","ppv":"Yes","zip":"45875","region":"Glandorf","service packages":"Expanded basic Contract,Expanded HD Fiber","township":null,"last":"Klemm","stbs allowed":6,"geo_score":0.857,"first":"Alan","ppv limit":"Unlimited","customer id":838,"phone":4195386941,"whdvr":"No","id":"abjw5col4mbw","address":"214 S Main (Glandorf)","login":"Glandorf","password":1234,"geo_precision":"street","state":"OH","pin":1234},"type":"Feature","geometry":{"type":"Point","coordinates":[-84.078746,41.028461]}},{"properties":{"city":"Ottawa","status":"Active","ppv":"Yes","zip":"45875","region":"Glandorf","service packages":"Basic Contract,HD Copper","township":null,"last":"Kline","stbs allowed":2,"geo_score":0.902,"first":"Cory &amp; Nicole","ppv limit":"Unlimited","customer id":null,"phone":4195386302,"whdvr":"No","id":"abjw5cuisd75","address":"12792 Rd K","login":"Glandorf","password":1234,"geo_precision":"range","state":"OH","pin":1234},"type":"Feature","geometry":{"type":"Point","coordinates":[-84.107465,41.021274]}},{"properties":{"city":"Glandorf","status":"Active","ppv":"No","zip":"45848","region":"Glandorf","service packages":"Basic Contract","township":null,"last":"Knapke","stbs allowed":3,"geo_score":0.725,"first":"Thomas","ppv limit":"Unlimited","customer id":847,"phone":4195386950,"whdvr":"No","id":"abjw5csnaaov","address":"279 Blanchard, PO BOX 92","login":"Glandorf","password":1234,"geo_precision":"street","state":"OH","pin":1234},"type":"Feature","geometry":{"type":"Point","coordinates":[-84.078049,41.02896]}},{"properties":{"city":"Ottawa","status":"Active","ppv":"Yes","zip":"45875","region":"Glandorf","service packages":"Basic Contract","township":null,"last":"Knott","stbs allowed":5,"geo_score":0.815,"first":"Mark A.","ppv limit":"Unlimited","customer id":1897,"phone":4195386226,"whdvr":"No","id":"abjw5crgmbgm","address":"12419 ST Rt 224","login":"Glandorf","password":1234,"geo_precision":"range","state":"OH","pin":1234},"type":"Feature","geometry":{"type":"Point","coordinates":[-84.100234,41.01394]}},{"properties":{"city":"Ottawa","status":"Active","ppv":"Yes","zip":"45875","region":"Glandorf","service packages":"Basic Contract,HD Copper","township":null,"last":"Knueven","stbs allowed":6,"geo_score":0.902,"first":"Gerard","ppv limit":"Unlimited","customer id":1726,"phone":4195386210,"whdvr":"No","id":"abjw5cpe3caa","address":"12296 Rd M10","login":"Glandorf","password":1234,"geo_precision":"range","state":"OH","pin":1234},"type":"Feature","geometry":{"type":"Point","coordinates":[-84.090826,40.992271]}},{"properties":{"city":"Ottawa","status":"Active","ppv":"Yes","zip":"45875","region":"Glandorf","service packages":"Basic Contract,HD Copper","township":null,"last":"Knueven","stbs allowed":3,"geo_score":0.902,"first":"Lucille","ppv limit":"Unlimited","customer id":45600,"phone":4195386484,"whdvr":"No","id":"abjw5cnvya0o","address":"224 Kennedy St","login":"Glandorf","password":1234,"geo_precision":"range","state":"OH","pin":1234},"type":"Feature","geometry":{"type":"Point","coordinates":[-84.070118,41.02222]}},{"properties":{"city":"Glandorf","status":"Active","ppv":"No","zip":"45848","region":"Glandorf","service packages":"Basic Contract,HD Optic","township":null,"last":"Koch","stbs allowed":7,"geo_score":0.643,"first":"Bill &amp; Rita","ppv limit":"Unlimited","customer id":85300,"phone":4195386938,"whdvr":"No","id":"abjw5cqknbpk","address":"126 Westwood Dr, PO BOX 119","login":"Glandorf","password":1234,"geo_precision":"street","state":"OH","pin":1234},"type":"Feature","geometry":{"type":"Point","coordinates":[-84.553322,41.164812]}},{"properties":{"city":"Ottawa","status":"Active","ppv":"Yes","zip":"45875","region":"Glandorf","service packages":"Basic Contract,HD Optic","township":null,"last":"Koenig","stbs allowed":4,"geo_score":0.902,"first":"Gary &amp; Leah","ppv limit":"Unlimited","customer id":716,"phone":4195386806,"whdvr":"No","id":"abjw5ct356jt","address":"142 Washington St","login":"Glandorf","password":1234,"geo_precision":"range","state":"OH","pin":1234},"type":"Feature","geometry":{"type":"Point","coordinates":[-84.072274,41.023171]}},{"properties":{"city":"Ottawa","status":"Active","ppv":"Yes","zip":"45875","region":"Glandorf","service packages":"Basic Contract,HD Copper","township":null,"last":"Koenig","stbs allowed":3,"geo_score":0.902,"first":"Troy","ppv limit":"Unlimited","customer id":1927,"phone":4195386435,"whdvr":"No","id":"abjw5cj8qshq","address":"10011 Rd 13-I","login":"Glandorf","password":1234,"geo_precision":"range","state":"OH","pin":1234},"type":"Feature","geometry":{"type":"Point","coordinates":[-84.125921,41.035554]}},{"properties":{"city":"Ottawa","status":"Active","ppv":"Yes","zip":"45875","region":"Glandorf","service packages":"Expanded basic Contract,HD Copper,Expanded HD Copper","township":null,"last":"Korte","stbs allowed":4,"geo_score":0.624,"first":"Sheila","ppv limit":"Unlimited","customer id":130500,"phone":4195386283,"whdvr":"No","id":"abjw5cwkgigi","address":"16256 Rd I-14","login":"Glandorf","password":1234,"geo_precision":"street","state":"OH","pin":1234},"type":"Feature","geometry":{"type":"Point","coordinates":[-84.130062,40.972697]}},{"properties":{"city":"Ottawa","status":"Active","ppv":"Yes","zip":"45875","region":"Glandorf","service packages":"Basic Contract,Encore,Starz,HD Copper","township":null,"last":"Kottenbrock","stbs allowed":5,"geo_score":0.861,"first":"Ronald","ppv limit":"Unlimited","customer id":438,"phone":4195386502,"whdvr":"No","id":"abjw5cs3bz5c","address":"11900 Road 12K","login":"Glandorf","password":1234,"geo_precision":"range","state":"OH","pin":1234},"type":"Feature","geometry":{"type":"Point","coordinates":[-84.101914,41.00776]}},{"properties":{"city":"Ottawa","status":"Active","ppv":"Yes","zip":"45875","region":"Glandorf","service packages":"HBO,Max,Expanded basic Contract,Expanded HD Fiber,HBO HD,Cinemax HD","township":null,"last":"Kreinbrink","stbs allowed":4,"geo_score":0.659,"first":"Eugene","ppv limit":"Unlimited","customer id":798,"phone":4195386892,"whdvr":"No","id":"abjw5cjocec3","address":"11244 Road 10K","login":"Glandorf","password":1234,"geo_precision":"street","state":"OH","pin":1234},"type":"Feature","geometry":{"type":"Point","coordinates":[-84.053666,41.066063]}},{"properties":{"city":"Ottawa","status":"Active","ppv":"Yes","zip":"45875","region":"Glandorf","service packages":"HBO,Max,Expanded basic Contract,Encore,Starz,Expanded HD Copper","township":null,"last":"Kreinbrink","stbs allowed":5,"geo_score":0.902,"first":"Chet","ppv limit":"Unlimited","customer id":1908,"phone":4195386774,"whdvr":"No","id":"abjw5crurelf","address":"11556 Road M","login":"Glandorf","password":1234,"geo_precision":"range","state":"OH","pin":1234},"type":"Feature","geometry":{"type":"Point","coordinates":[-84.080515,40.992347]}},{"properties":{"city":"Ottawa","status":"Active","ppv":"Yes","zip":"45875","region":"Glandorf","service packages":"Expanded basic Contract,Expanded HD Copper","township":null,"last":"Kreinbrink","stbs allowed":4,"geo_score":0.902,"first":"Brad","ppv limit":"Unlimited","customer id":1953,"phone":4195386895,"whdvr":"No","id":"abjw5ct3rh3r","address":"11646 Road 12","login":"Glandorf","password":1234,"geo_precision":"range","state":"OH","pin":1234},"type":"Feature","geometry":{"type":"Point","coordinates":[-84.092292,41.012197]}},{"properties":{"city":"Ottawa","status":"Active","ppv":"Yes","zip":"45875","region":"Glandorf","service packages":"Basic Contract,HD Optic","township":null,"last":"Kruse","stbs allowed":3,"geo_score":0.659,"first":"Dale Laura","ppv limit":"Unlimited","customer id":384,"phone":4195386442,"whdvr":"No","id":"abjw5cnst6sr","address":"11374 Rd 10K","login":"Glandorf","password":1234,"geo_precision":"street","state":"OH","pin":1234},"type":"Feature","geometry":{"type":"Point","coordinates":[-84.053666,41.066063]}},{"properties":{"city":"Ottawa","status":"Active","ppv":"Yes","zip":"45875","region":"Glandorf","service packages":"Basic Contract,Encore,Starz,HD Optic","township":"Ottawa Township","last":"Kuhlman","stbs allowed":4,"geo_score":0.902,"first":"Barry","ppv limit":"Unlimited","customer id":197,"phone":4195386216,"whdvr":"No","id":"abjw5cwvaojh","address":"11975 Road 11","login":"Glandorf","password":1234,"geo_precision":"range","state":"OH","pin":1234},"type":"Feature","geometry":{"type":"Point","coordinates":[-84.072925,41.002813]}},{"properties":{"city":"Ottawa","status":"Active","ppv":"Yes","zip":"45875","region":"Glandorf","service packages":"Expanded basic Contract,Expanded HD Fiber","township":"Ottawa Township","last":"Kuhlman","stbs allowed":7,"geo_score":0.902,"first":"Mark &amp; Laura","ppv limit":"Unlimited","customer id":1073,"phone":4195387194,"whdvr":"No","id":"abjw5cmkvqw2","address":"12502 Rd 11","login":"Glandorf","password":1234,"geo_precision":"range","state":"OH","pin":1234},"type":"Feature","geometry":{"type":"Point","coordinates":[-84.073026,40.997054]}},{"properties":{"city":"Ottawa","status":"Active","ppv":"Yes","zip":"45875","region":"Glandorf","service packages":"Basic Contract,HD Optic","township":null,"last":"Kuhlman","stbs allowed":4,"geo_score":0.659,"first":"Larry","ppv limit":"Unlimited","customer id":852,"phone":4195386955,"whdvr":"No","id":"abjw5cq0muf9","address":"11049 Road 10K","login":"Glandorf","password":1234,"geo_precision":"street","state":"OH","pin":1234},"type":"Feature","geometry":{"type":"Point","coordinates":[-84.053666,41.066063]}},{"properties":{"city":"Ottawa","status":"Active","ppv":"Yes","zip":"45875","region":"Glandorf","service packages":"Expanded basic Contract,Expanded HD Copper","township":null,"last":"Lammers","stbs allowed":4,"geo_score":0.861,"first":"Denny  Deb","ppv limit":"Unlimited","customer id":376,"phone":4195386433,"whdvr":"No","id":"abjw5cpxbmzu","address":"10020 RD 13I","login":"Glandorf","password":1234,"geo_precision":"range","state":"OH","pin":1234},"type":"Feature","geometry":{"type":"Point","coordinates":[-84.126069,41.035407]}},{"properties":{"city":"Ottawa","status":"Active","ppv":"Yes","zip":"45875","region":"Glandorf","service packages":"Expanded basic Contract,Expanded HD Fiber","township":null,"last":"Lammers","stbs allowed":5,"geo_score":0.902,"first":"Russ","ppv limit":"Unlimited","customer id":1056,"phone":4195387177,"whdvr":"No","id":"abjw5cl03x4m","address":"10232 Road 13","login":"Glandorf","password":1234,"geo_precision":"range","state":"OH","pin":1234},"type":"Feature","geometry":{"type":"Point","coordinates":[-84.11162,41.03225]}},{"properties":{"city":"Ottawa","status":"Active","ppv":"Yes","zip":"45875","region":"Glandorf","service packages":"Expanded basic Contract,Expanded HD Copper","township":null,"last":"Lammers","stbs allowed":4,"geo_score":0.902,"first":"Melvin","ppv limit":"Unlimited","customer id":735,"phone":4195386825,"whdvr":"No","id":"abjw5cnofufu","address":"171 German St","login":"Glandorf","password":1234,"geo_precision":"range","state":"OH","pin":1234},"type":"Feature","geometry":{"type":"Point","coordinates":[-84.082576,41.025644]}},{"properties":{"city":"Glandorf","status":"Active","ppv":"No","zip":"45848","region":"Glandorf","service packages":"Basic Contract","township":null,"last":"Lammers Chiropratic Care","stbs allowed":2,"geo_score":0.536,"first":null,"ppv limit":"Unlimited","customer id":1246,"phone":4195387500,"whdvr":"No","id":"abjw5co0sfqy","address":"108 Dr. thatye Dr, PO Box 132","login":"Glandorf","password":1234,"geo_precision":"street","state":"OH","pin":1234},"type":"Feature","geometry":{"type":"Point","coordinates":[-83.88175,40.949493]}},{"properties":{"city":"Ottawa","status":"Active","ppv":"Yes","zip":"45875","region":"Glandorf","service packages":"Basic Contract","township":null,"last":"Langhals","stbs allowed":5,"geo_score":0.902,"first":"Dan","ppv limit":"Unlimited","customer id":65,"phone":4195386064,"whdvr":"No","id":"abjw5cq5c1c9","address":"626 E Blake St","login":"Glandorf","password":1234,"geo_precision":"range","state":"OH","pin":1234},"type":"Feature","geometry":{"type":"Point","coordinates":[-84.079072,41.035854]}},{"properties":{"city":"Ottawa","status":"Active","ppv":"Yes","zip":"45875","region":"Glandorf","service packages":"Local","township":null,"last":"Langhals","stbs allowed":3,"geo_score":0.468,"first":"Rodney","ppv limit":"Unlimited","customer id":1878,"phone":4195386409,"whdvr":"No","id":"abjw5cr8h22v","address":"10559 Road I-9","login":"Glandorf","password":1234,"geo_precision":"street","state":"OH","pin":1234},"type":"Feature","geometry":{"type":"Point","coordinates":[-84.050924,41.006978]}},{"properties":{"city":"Glandorf","status":"Inactive","ppv":"Yes","zip":"45848","region":"Glandorf","service packages":"Basic Contract","township":null,"last":"Leach","stbs allowed":2,"geo_score":0.529,"first":"John","ppv limit":"Unlimited","customer id":958,"phone":4195387078,"whdvr":"No","id":"abjw5clp7t5i","address":"135 O-G Rd  PO Box 137","login":"Glandorf","password":1234,"geo_precision":"street","state":"OH","pin":1234},"type":"Feature","geometry":{"type":"Point","coordinates":[-83.717458,41.160441]}},{"properties":{"city":"Ottawa","status":"Inactive","ppv":"Yes","zip":"45875","region":"Glandorf","service packages":"Expanded basic Contract,Encore,Starz,Expanded HD Fiber,Encore HD,Starz HD","township":null,"last":"Lee","stbs allowed":4,"geo_score":0.902,"first":"Robert","ppv limit":"Unlimited","customer id":9500,"phone":4195386096,"whdvr":"No","id":"abjw5cuw80gk","address":"9020 Rd 11","login":"Glandorf","password":1234,"geo_precision":"range","state":"OH","pin":1234},"type":"Feature","geometry":{"type":"Point","coordinates":[-84.081159,41.050288]}},{"properties":{"city":"Ottawa","status":"Active","ppv":"Yes","zip":"45875","region":"Glandorf","service packages":"Basic Contract,HD Copper","township":null,"last":"Lehman","stbs allowed":5,"geo_score":0.902,"first":"Tim  Mary Ellen","ppv limit":"Unlimited","customer id":1374,"phone":4195386590,"whdvr":"No","id":"abjw5cvjlgr4","address":"11942 Road 12","login":"Glandorf","password":1234,"geo_precision":"range","state":"OH","pin":1234},"type":"Feature","geometry":{"type":"Point","coordinates":[-84.092283,41.009279]}},{"properties":{"city":"Ottawa","status":"Active","ppv":"Yes","zip":"45875","region":"Glandorf","service packages":"Basic Contract,HD Copper","township":null,"last":"Lehman","stbs allowed":4,"geo_score":0.902,"first":"Roger","ppv limit":"Unlimited","customer id":1914,"phone":4195386237,"whdvr":"No","id":"abjw5cwria2z","address":"13790 Road I","login":"Glandorf","password":1234,"geo_precision":"range","state":"OH","pin":1234},"type":"Feature","geometry":{"type":"Point","coordinates":[-84.126627,41.05035]}},{"properties":{"city":"Ottawa","status":"Active","ppv":"Yes","zip":"45875","region":"Glandorf","service packages":"Basic Contract,HD Copper","township":null,"last":"Leopold","stbs allowed":3,"geo_score":0.902,"first":"Ron","ppv limit":"Unlimited","customer id":746,"phone":4195386836,"whdvr":"No","id":"abjw5ci8h33c","address":"9464 Rd 11","login":"Glandorf","password":1234,"geo_precision":"range","state":"OH","pin":1234},"type":"Feature","geometry":{"type":"Point","coordinates":[-84.081875,41.04465]}},{"properties":{"city":"Ottawa","status":"Active","ppv":"Yes","zip":"45875","region":"Glandorf","service packages":"Local","township":null,"last":"Liebrecht","stbs allowed":3,"geo_score":0.812,"first":"Greg &amp; Chris","ppv limit":"Unlimited","customer id":null,"phone":4195386713,"whdvr":"No","id":"abjw5ct5klgl","address":"12327 ST Rt 694","login":"Glandorf","password":1234,"geo_precision":"range","state":"OH","pin":1234},"type":"Feature","geometry":{"type":"Point","coordinates":[-84.098574,41.028741]}},{"properties":{"city":"Ottawa","status":"Active","ppv":"Yes","zip":"45875","region":"Glandorf","service packages":"Basic Contract,HD Optic","township":null,"last":"Maag","stbs allowed":4,"geo_score":0.902,"first":"Tony","ppv limit":"Unlimited","customer id":231,"phone":4195386259,"whdvr":"No","id":"abjw5cw62jr2","address":"12331 Rd 11","login":"Glandorf","password":1234,"geo_precision":"range","state":"OH","pin":1234},"type":"Feature","geometry":{"type":"Point","coordinates":[-84.072889,40.998919]}},{"properties":{"city":"Ottawa","status":"Active","ppv":"Yes","zip":"45875","region":"Glandorf","service packages":"Basic Contract,HD Copper","township":null,"last":"Maag","stbs allowed":4,"geo_score":0.812,"first":"Mark  Cheryl","ppv limit":"Unlimited","customer id":537,"phone":4195386610,"whdvr":"No","id":"abjw5cmxku85","address":"13951 St Rt 694","login":"Glandorf","password":1234,"geo_precision":"range","state":"OH","pin":1234},"type":"Feature","geometry":{"type":"Point","coordinates":[-84.129801,41.028355]}},{"properties":{"city":"Ottawa","status":"Active","ppv":"Yes","zip":"45875","region":"Glandorf","service packages":"Expanded basic Contract","township":null,"last":"Maag","stbs allowed":3,"geo_score":0.902,"first":"Dean","ppv limit":"Unlimited","customer id":868,"phone":4195386972,"whdvr":"No","id":"abjw5clht2b3","address":"13832 Rd 12","login":"Glandorf","password":1234,"geo_precision":"range","state":"OH","pin":1234},"type":"Feature","geometry":{"type":"Point","coordinates":[-84.091896,40.980573]}},{"properties":{"city":"Ottawa","status":"Active","ppv":"Yes","zip":"45875","region":"Glandorf","service packages":"Basic Contract,Encore,Starz","township":null,"last":"Maag","stbs allowed":3,"geo_score":0.902,"first":"Robert &amp; Rita","ppv limit":"Unlimited","customer id":884,"phone":4195386988,"whdvr":"No","id":"abjw5cl0tktc","address":"12253 Road 11","login":"Glandorf","password":1234,"geo_precision":"range","state":"OH","pin":1234},"type":"Feature","geometry":{"type":"Point","coordinates":[-84.072899,40.999764]}},{"properties":{"city":"Ottawa","status":"Active","ppv":"Yes","zip":"45875","region":"Glandorf","service packages":"Expanded basic Contract,Expanded HD Copper","township":null,"last":"Maag","stbs allowed":4,"geo_score":0.447,"first":"Kevin","ppv limit":"Unlimited","customer id":327,"phone":4195386379,"whdvr":"No","id":"abjw5cmf5tn8","address":"11729 Rd M-10","login":"Glandorf","password":1234,"geo_precision":"street","state":"OH","pin":1234},"type":"Feature","geometry":{"type":"Point","coordinates":[-83.956582,40.658476]}},{"properties":{"city":"Ottawa","status":"Active","ppv":"Yes","zip":"45875","region":"Glandorf","service packages":"Basic Contract","township":null,"last":"Maag","stbs allowed":2,"geo_score":0.902,"first":"Kyle A","ppv limit":"Unlimited","customer id":1755,"phone":4195387158,"whdvr":"No","id":"abjw5ctt4opa","address":"14957 Rd L","login":"Glandorf","password":1234,"geo_precision":"range","state":"OH","pin":1234},"type":"Feature","geometry":{"type":"Point","coordinates":[-84.148951,41.006294]}},{"properties":{"city":"Ottawa","status":"Active","ppv":"Yes","zip":"45875","region":"Glandorf","service packages":"Basic Contract,HD Optic","township":null,"last":"Maag","stbs allowed":4,"geo_score":0.902,"first":"Thomas","ppv limit":"Unlimited","customer id":1955,"phone":4195386381,"whdvr":"No","id":"abjw5cxs1e27","address":"212 Washington St","login":"Glandorf","password":1234,"geo_precision":"range","state":"OH","pin":1234},"type":"Feature","geometry":{"type":"Point","coordinates":[-84.070409,41.023089]}},{"properties":{"city":"Ottawa","status":"Active","ppv":"Yes","zip":"45875","region":"Glandorf","service packages":"Basic Contract","township":null,"last":"Maag","stbs allowed":4,"geo_score":0.902,"first":"Mark L &amp; Shawn","ppv limit":"Unlimited","customer id":49,"phone":4195386047,"whdvr":"No","id":"abjw5cl51ymk","address":"14189 Rd M","login":"Glandorf","password":1234,"geo_precision":"range","state":"OH","pin":1234},"type":"Feature","geometry":{"type":"Point","coordinates":[-84.132921,40.991803]}},{"properties":{"city":"Ottawa","status":"Active","ppv":"Yes","zip":"45875","region":"Glandorf","service packages":"Basic Contract","township":null,"last":"Maag","stbs allowed":3,"geo_score":0.902,"first":"Ben &amp; Melissa","ppv limit":"Unlimited","customer id":1918,"phone":4195386179,"whdvr":"No","id":"abjw5cngebeq","address":"13950 Rd 12","login":"Glandorf","password":1234,"geo_precision":"range","state":"OH","pin":1234},"type":"Feature","geometry":{"type":"Point","coordinates":[-84.091885,40.978977]}},{"properties":{"city":"Ottawa","status":"Active","ppv":"Yes","zip":"45875","region":"Glandorf","service packages":"Basic Contract,HD Optic","township":null,"last":"Maag","stbs allowed":6,"geo_score":0.78,"first":"Bryan","ppv limit":"Unlimited","customer id":1301,"phone":4195386392,"whdvr":"No","id":"abjw5cpk7v2y","address":"211 Easthaven Dr","login":"Glandorf","password":1234,"geo_precision":"range","state":"OH","pin":1234},"type":"Feature","geometry":{"type":"Point","coordinates":[-84.068908,41.025576]}},{"properties":{"city":"Ottawa","status":"Active","ppv":"Yes","zip":"45875","region":"Glandorf","service packages":"Basic Contract,HD Copper","township":null,"last":"Maag","stbs allowed":4,"geo_score":0.902,"first":"Jeff &amp; Nichole","ppv limit":"Unlimited","customer id":1078,"phone":4195387199,"whdvr":"No","id":"abjw5cnv89c0","address":"215 Park St","login":"Glandorf","password":1234,"geo_precision":"range","state":"OH","pin":1234},"type":"Feature","geometry":{"type":"Point","coordinates":[-84.08257,41.028545]}},{"properties":{"city":"Ottawa","status":"Active","ppv":"Yes","zip":"45875","region":"Glandorf","service packages":"Basic Contract","township":null,"last":"Maag","stbs allowed":3,"geo_score":0.902,"first":"Matthew &amp; Jennifer","ppv limit":"Unlimited","customer id":null,"phone":4195386535,"whdvr":"No","id":"abjw5cx3kzjz","address":"13360 Rd 12","login":"Glandorf","password":1234,"geo_precision":"range","state":"OH","pin":1234},"type":"Feature","geometry":{"type":"Point","coordinates":[-84.09191,40.987168]}},{"properties":{"city":"OTTAWA","status":"Active","ppv":"Yes","zip":"45875","region":"Glandorf","service packages":"Basic Contract,HD Optic","township":null,"last":"Maag","stbs allowed":3,"geo_score":0.659,"first":"Robert L. &amp; Agnes","ppv limit":"Unlimited","customer id":61,"phone":4195386060,"whdvr":"No","id":"abjw5cr749x1","address":"11561 Rd 10K","login":"Glandorf","password":1234,"geo_precision":"street","state":"OH","pin":1234},"type":"Feature","geometry":{"type":"Point","coordinates":[-84.053058,40.962968]}},{"properties":{"city":"Ottawa","status":"Active","ppv":"Yes","zip":"45875","region":"Glandorf","service packages":"Basic Contract","township":null,"last":"Maag","stbs allowed":3,"geo_score":0.902,"first":"Adelbert","ppv limit":"Unlimited","customer id":552,"phone":4195386628,"whdvr":"No","id":"abjw5cxdbtus","address":"12483 Rd 11","login":"Glandorf","password":1234,"geo_precision":"range","state":"OH","pin":1234},"type":"Feature","geometry":{"type":"Point","coordinates":[-84.072877,40.997271]}},{"properties":{"city":"Ottawa","status":"Active","ppv":"Yes","zip":"45875","region":"Glandorf","service packages":"Basic Contract,HD Copper","township":"Pleasant Township","last":"Maag","stbs allowed":4,"geo_score":0.902,"first":"Brad","ppv limit":"Unlimited","customer id":1515,"phone":4195386124,"whdvr":"No","id":"abjw5cwjhp5v","address":"12633 Rd M","login":"Glandorf","password":1234,"geo_precision":"range","state":"OH","pin":1234},"type":"Feature","geometry":{"type":"Point","coordinates":[-84.100839,40.992047]}},{"properties":{"city":"Ottawa","status":"Active","ppv":"Yes","zip":"45875","region":"Glandorf","service packages":"Basic Contract","township":null,"last":"Macke","stbs allowed":3,"geo_score":0.902,"first":"Ben  Theresa","ppv limit":"Unlimited","customer id":1877,"phone":4195387049,"whdvr":"No","id":"abjw5cnnih5q","address":"12527 Road M","login":"Glandorf","password":1234,"geo_precision":"range","state":"OH","pin":1234},"type":"Feature","geometry":{"type":"Point","coordinates":[-84.097703,40.99207]}},{"properties":{"city":"Ottawa","status":"Active","ppv":"Yes","zip":"45875","region":"Glandorf","service packages":"Basic Contract","township":null,"last":"Mason","stbs allowed":3,"geo_score":0.873,"first":"Bryan  Julie","ppv limit":"Unlimited","customer id":992,"phone":4195387112,"whdvr":"No","id":"abjw5cx8p781","address":"11957 US RT 224","login":"Glandorf","password":1234,"geo_precision":"range","state":"OH","pin":1234},"type":"Feature","geometry":{"type":"Point","coordinates":[-84.091749,41.016812]}},{"properties":{"city":"Ottawa","status":"Active","ppv":"Yes","zip":"45875","region":"Glandorf","service packages":"Basic Contract","township":null,"last":"Meyer","stbs allowed":4,"geo_score":0.902,"first":"Jeff","ppv limit":"Unlimited","customer id":1215,"phone":4195387313,"whdvr":"No","id":"abjw5cogmhff","address":"11603 Rd 12-K","login":"Glandorf","password":1234,"geo_precision":"range","state":"OH","pin":1234},"type":"Feature","geometry":{"type":"Point","coordinates":[-84.101754,41.012005]}},{"properties":{"city":"Ottawa","status":"Active","ppv":"Yes","zip":"45875","region":"Glandorf","service packages":"Basic Contract,HD Copper","township":null,"last":"Meyer","stbs allowed":4,"geo_score":0.861,"first":"Thomas  Laurie","ppv limit":"Unlimited","customer id":1431,"phone":4195386271,"whdvr":"No","id":"abjw5cn9ebqe","address":"11629 Road 12K","login":"Glandorf","password":1234,"geo_precision":"range","state":"OH","pin":1234},"type":"Feature","geometry":{"type":"Point","coordinates":[-84.101753,41.011628]}},{"properties":{"city":"Glandorf","status":"Active","ppv":"Yes","zip":"45848","region":"Glandorf","service packages":"Basic Contract","township":null,"last":"Meyer","stbs allowed":3,"geo_score":0.471,"first":"Kathryn","ppv limit":"Unlimited","customer id":737,"phone":4195386827,"whdvr":"No","id":"abjw5cu2fl0w","address":"411 Anthony Ave, PO Box 104","login":"Glandorf","password":1234,"geo_precision":"street","state":"OH","pin":1234},"type":"Feature","geometry":{"type":"Point","coordinates":[-84.082971,41.035892]}},{"properties":{"city":"Ottawa","status":"Active","ppv":"Yes","zip":"45875","region":"Glandorf","service packages":"Basic Contract","township":null,"last":"Meyer","stbs allowed":3,"geo_score":0.861,"first":"Todd Laura","ppv limit":"Unlimited","customer id":225,"phone":4195386252,"whdvr":"No","id":"abjw5cwlwy3p","address":"12276 Rd 12K","login":"Glandorf","password":1234,"geo_precision":"range","state":"OH","pin":1234},"type":"Feature","geometry":{"type":"Point","coordinates":[-84.101895,41.002389]}},{"properties":{"city":"Ottawa","status":"Active","ppv":"Yes","zip":"45875","region":"Glandorf","service packages":"Basic Contract,HD Copper","township":null,"last":"Meyer","stbs allowed":3,"geo_score":0.902,"first":"Gary","ppv limit":"Unlimited","customer id":380,"phone":4195386437,"whdvr":"No","id":"abjw5cyq887n","address":"13590 Rd J","login":"Glandorf","password":1234,"geo_precision":"range","state":"OH","pin":1234},"type":"Feature","geometry":{"type":"Point","coordinates":[-84.117721,41.035732]}},{"properties":{"city":"Ottawa","status":"Active","ppv":"No","zip":"45875","region":"Glandorf","service packages":"Basic Contract,HD Copper","township":null,"last":"Meyer","stbs allowed":2,"geo_score":0.902,"first":"Helen","ppv limit":"Unlimited","customer id":23,"phone":4195386020,"whdvr":"No","id":"abjw5cmc393j","address":"13497 Rd M","login":"Glandorf","password":1234,"geo_precision":"range","state":"OH","pin":1234},"type":"Feature","geometry":{"type":"Point","coordinates":[-84.120774,40.991912]}},{"properties":{"city":"Glandorf","status":"Active","ppv":"No","zip":"45848","region":"Glandorf","service packages":"Basic Contract","township":null,"last":"Meyer's Auto Sales","stbs allowed":2,"geo_score":0.667,"first":null,"ppv limit":"Unlimited","customer id":822,"phone":4195386925,"whdvr":"No","id":"abjw5cj4c0c0","address":"100 S Main, PO BOX 110","login":"Glandorf","password":1234,"geo_precision":"street","state":"OH","pin":1234},"type":"Feature","geometry":{"type":"Point","coordinates":[-84.07978,41.029818]}},{"properties":{"city":"Ottawa","status":"Active","ppv":"No","zip":"45875","region":"Glandorf","service packages":"Expanded basic Contract","township":null,"last":"Meyerhoffer","stbs allowed":3,"geo_score":0.902,"first":"James","ppv limit":"Unlimited","customer id":320,"phone":4195386371,"whdvr":"No","id":"abjw5cvizeuj","address":"14167 Rd K14","login":"Glandorf","password":1234,"geo_precision":"range","state":"OH","pin":1234},"type":"Feature","geometry":{"type":"Point","coordinates":[-84.133861,41.02103]}},{"properties":{"city":"Ottawa","status":"Active","ppv":"Yes","zip":"45875","region":"Glandorf","service packages":"Expanded basic Contract,Expanded HD Copper","township":null,"last":"Meyerhoffer","stbs allowed":3,"geo_score":0.628,"first":"Jean","ppv limit":"Unlimited","customer id":603,"phone":4195386683,"whdvr":"No","id":"abjw5cvhm6d9","address":"14151 Rd K 14","login":"Glandorf","password":1234,"geo_precision":"street","state":"OH","pin":1234},"type":"Feature","geometry":{"type":"Point","coordinates":[-84.141296,41.066306]}},{"properties":{"city":"Ottawa","status":"Active","ppv":"Yes","zip":"45875","region":"Glandorf","service packages":"Basic Contract","township":null,"last":"Moening","stbs allowed":4,"geo_score":0.59,"first":"Mike  Jane","ppv limit":"Unlimited","customer id":312,"phone":4195386360,"whdvr":"No","id":"abjw5cvq9efn","address":"14158 US 224","login":"Glandorf","password":1234,"geo_precision":"street","state":"OH","pin":1234},"type":"Feature","geometry":{"type":"Point","coordinates":[-84.11147,41.010295]}},{"properties":{"city":"Ottawa","status":"Active","ppv":"Yes","zip":"45875","region":"Glandorf","service packages":"Basic Contract","township":null,"last":"Morman","stbs allowed":3,"geo_score":0.902,"first":"Rita  &amp; Doris","ppv limit":"Unlimited","customer id":613,"phone":4195386695,"whdvr":"No","id":"abjw5co4imen","address":"9406 Road 13","login":"Glandorf","password":1234,"geo_precision":"range","state":"OH","pin":1234},"type":"Feature","geometry":{"type":"Point","coordinates":[-84.111576,41.044292]}},{"properties":{"city":"Ottawa","status":"Active","ppv":"Yes","zip":"45875","region":"Glandorf","service packages":"Basic Contract","township":null,"last":"Morman","stbs allowed":6,"geo_score":0.902,"first":"John","ppv limit":"Unlimited","customer id":797,"phone":4195386891,"whdvr":"No","id":"abjw5cifqoyu","address":"13018 Rd J","login":"Glandorf","password":1234,"geo_precision":"range","state":"OH","pin":1234},"type":"Feature","geometry":{"type":"Point","coordinates":[-84.117291,41.035729]}},{"properties":{"city":"Ottawa","status":"Active","ppv":"Yes","zip":"45875","region":"Glandorf","service packages":"Basic Contract","township":null,"last":"Morman","stbs allowed":3,"geo_score":0.902,"first":"Jerry","ppv limit":"Unlimited","customer id":1567,"phone":4195387107,"whdvr":"No","id":"abjw5cva1hi1","address":"13218 Rd J","login":"Glandorf","password":1234,"geo_precision":"range","state":"OH","pin":1234},"type":"Feature","geometry":{"type":"Point","coordinates":[-84.112636,41.035709]}},{"properties":{"city":"Ottawa","status":"Active","ppv":"Yes","zip":"45875","region":"Glandorf","service packages":"Basic Contract,HD Copper","township":null,"last":"Morman","stbs allowed":3,"geo_score":0.861,"first":"Douglas","ppv limit":"Unlimited","customer id":1805,"phone":4195387036,"whdvr":"No","id":"abjw5cjzko8a","address":"9338 Rd 13I","login":"Glandorf","password":1234,"geo_precision":"range","state":"OH","pin":1234},"type":"Feature","geometry":{"type":"Point","coordinates":[-84.126052,41.045355]}},{"properties":{"city":"Ottawa","status":"Active","ppv":"Yes","zip":"45875","region":"Glandorf","service packages":"Basic Contract,HD Copper","township":null,"last":"Myers","stbs allowed":4,"geo_score":0.78,"first":"Steve","ppv limit":"Unlimited","customer id":1926,"phone":4195386199,"whdvr":"No","id":"abjw5cjllo5g","address":"9338 Rd 13","login":"Glandorf","password":1234,"geo_precision":"range","state":"OH","pin":1234},"type":"Feature","geometry":{"type":"Point","coordinates":[-84.1115,41.042592]}},{"properties":{"city":"Ottawa","status":"Active","ppv":"No","zip":"45875","region":"Glandorf","service packages":"Local","township":null,"last":"Nartker","stbs allowed":3,"geo_score":0.659,"first":"Mary","ppv limit":"Unlimited","customer id":863,"phone":4195386966,"whdvr":"No","id":"abjw5cwugnvf","address":"12376 Rd 10L","login":"Glandorf","password":1234,"geo_precision":"street","state":"OH","pin":1234},"type":"Feature","geometry":{"type":"Point","coordinates":[-84.053058,40.962968]}},{"properties":{"city":"Glandorf","status":"Active","ppv":"Yes","zip":"45848","region":"Glandorf","service packages":"Basic Contract,HD Copper","township":null,"last":"Nienberg","stbs allowed":4,"geo_score":0.81,"first":"Thomas A.","ppv limit":"Unlimited","customer id":1245,"phone":4195386149,"whdvr":"No","id":"abjw5csvfqbm","address":"141 S Main St, PO Box 172","login":"Glandorf","password":1234,"geo_precision":"street","state":"OH","pin":1234},"type":"Feature","geometry":{"type":"Point","coordinates":[-84.07978,41.029818]}},{"properties":{"city":"Glandorf","status":"Active","ppv":"Yes","zip":"45848","region":"Glandorf","service packages":"HBO,Expanded basic Contract,Expanded HD Copper,HBO HD","township":null,"last":"Nienberg","stbs allowed":6,"geo_score":0.857,"first":"Russ","ppv limit":"Unlimited","customer id":301,"phone":4195386346,"whdvr":"No","id":"abjw5cvm4ty3","address":"11878 Rd J, PO BOx 111","login":"Glandorf","password":1234,"geo_precision":"street","state":"OH","pin":1234},"type":"Feature","geometry":{"type":"Point","coordinates":[-83.894053,41.036721]}},{"properties":{"city":"Ottawa","status":"Active","ppv":"Yes","zip":"45875","region":"Glandorf","service packages":"Basic Contract,HD Optic","township":null,"last":"Nienberg","stbs allowed":5,"geo_score":0.659,"first":"Donald","ppv limit":"Unlimited","customer id":604,"phone":4195386685,"whdvr":"No","id":"abjw5cs5pb21","address":"11671 Rd 10K","login":"Glandorf","password":1234,"geo_precision":"street","state":"OH","pin":1234},"type":"Feature","geometry":{"type":"Point","coordinates":[-84.053058,40.962968]}},{"properties":{"city":"Glandorf","status":"Active","ppv":"Yes","zip":"45848","region":"Glandorf","service packages":"Basic Contract,HD Optic","township":null,"last":"Nienberg","stbs allowed":4,"geo_score":0.74,"first":"Melvin","ppv limit":"Unlimited","customer id":415,"phone":4195386476,"whdvr":"No","id":"abjw5csrdp7u","address":"138 Westwood, PO BOX 128","login":"Glandorf","password":1234,"geo_precision":"street","state":"OH","pin":1234},"type":"Feature","geometry":{"type":"Point","coordinates":[-84.076076,41.025142]}},{"properties":{"city":"Ottawa","status":"Active","ppv":"Yes","zip":"45875","region":"Glandorf","service packages":"Basic Contract,HD Copper","township":null,"last":"Niese","stbs allowed":3,"geo_score":0.861,"first":"John","ppv limit":"Unlimited","customer id":805,"phone":4195386903,"whdvr":"No","id":"abjw5cs9oc54","address":"12523 Rd 11J","login":"Glandorf","password":1234,"geo_precision":"range","state":"OH","pin":1234},"type":"Feature","geometry":{"type":"Point","coordinates":[-84.082485,40.99918]}},{"properties":{"city":"Ottawa","status":"Active","ppv":"Yes","zip":"45875","region":"Glandorf","service packages":"Basic Contract,HD Copper","township":null,"last":"Niese","stbs allowed":4,"geo_score":0.902,"first":"Doug","ppv limit":"Unlimited","customer id":90500,"phone":4195386997,"whdvr":"No","id":"abjw5cw20hro","address":"9976 Rd M","login":"Glandorf","password":1234,"geo_precision":"range","state":"OH","pin":1234},"type":"Feature","geometry":{"type":"Point","coordinates":[-84.053445,40.99248]}},{"properties":{"city":"Ottawa","status":"Active","ppv":"Yes","zip":"45875","region":"Glandorf","service packages":"Basic Contract,HD Copper","township":null,"last":"Okuley","stbs allowed":5,"geo_score":0.624,"first":"Chad","ppv limit":"Unlimited","customer id":224,"phone":4195386251,"whdvr":"No","id":"abjw5ctb1wxz","address":"14732 Rd I-14","login":"Glandorf","password":1234,"geo_precision":"street","state":"OH","pin":1234},"type":"Feature","geometry":{"type":"Point","coordinates":[-84.130062,40.972697]}},{"properties":{"city":"Ottawa","status":"Active","ppv":"Yes","zip":"45875","region":"Glandorf","service packages":"Basic Contract","township":null,"last":"Oliver","stbs allowed":3,"geo_score":0.624,"first":"Jeff  Danielle","ppv limit":"Unlimited","customer id":1657,"phone":4195387124,"whdvr":"No","id":"abjw5cpdjtgp","address":"10643 Rd 14-J","login":"Glandorf","password":1234,"geo_precision":"street","state":"OH","pin":1234},"type":"Feature","geometry":{"type":"Point","coordinates":[-84.130767,41.057573]}},{"properties":{"city":"Ottawa","status":"Active","ppv":"Yes","zip":"45875","region":"Glandorf","service packages":"Expanded basic Contract","township":null,"last":"Palte","stbs allowed":3,"geo_score":0.902,"first":"Evelyn","ppv limit":"Unlimited","customer id":59200,"phone":4195386632,"whdvr":"No","id":"abjw5cnkvvq7","address":"13986 Rd J","login":"Glandorf","password":1234,"geo_precision":"range","state":"OH","pin":1234},"type":"Feature","geometry":{"type":"Point","coordinates":[-84.131567,41.035773]}},{"properties":{"city":"Glandorf","status":"Active","ppv":"No","zip":"45848","region":"Glandorf","service packages":"Basic Contract","township":null,"last":"Parish","stbs allowed":6,"geo_score":0.902,"first":"St Johns","ppv limit":"Unlimited","customer id":825,"phone":4195386928,"whdvr":"No","id":"abjw5crn27bv","address":"109 N Main St","login":"Glandorf","password":1234,"geo_precision":"range","state":"OH","pin":1234},"type":"Feature","geometry":{"type":"Point","coordinates":[-84.07978,41.029818]}},{"properties":{"city":"Ottawa","status":"Active","ppv":"Yes","zip":"45875","region":"Glandorf","service packages":"Expanded basic Contract,Expanded HD Copper","township":null,"last":"Recker","stbs allowed":3,"geo_score":0.902,"first":"Ott","ppv limit":"Unlimited","customer id":276,"phone":4195386318,"whdvr":"No","id":"abjw5clh6buw","address":"13531 Rd 12","login":"Glandorf","password":1234,"geo_precision":"range","state":"OH","pin":1234},"type":"Feature","geometry":{"type":"Point","coordinates":[-84.091759,40.984794]}},{"properties":{"city":"Ottawa","status":"Active","ppv":"Yes","zip":"45875","region":"Glandorf","service packages":"Basic Contract,HD Copper","township":null,"last":"Recker","stbs allowed":3,"geo_score":0.902,"first":"Roger","ppv limit":"Unlimited","customer id":354,"phone":4195386410,"whdvr":"No","id":"abjw5cwubckk","address":"13016 Rd 12","login":"Glandorf","password":1234,"geo_precision":"range","state":"OH","pin":1234},"type":"Feature","geometry":{"type":"Point","coordinates":[-84.091861,40.991954]}},{"properties":{"city":"Ottawa","status":"Active","ppv":"No","zip":"45875","region":"Glandorf","service packages":"Basic Contract","township":null,"last":"Recker","stbs allowed":3,"geo_score":0.902,"first":"Gary","ppv limit":"Unlimited","customer id":672,"phone":4195386760,"whdvr":"No","id":"abjw5clh27rh","address":"12433 Rd 13","login":"Glandorf","password":1234,"geo_precision":"range","state":"OH","pin":1234},"type":"Feature","geometry":{"type":"Point","coordinates":[-84.111376,41.000117]}},{"properties":{"city":"Ottawa","status":"Active","ppv":"Yes","zip":"45875","region":"Glandorf","service packages":"Expanded basic Contract,Expanded HD Copper","township":null,"last":"Recker","stbs allowed":8,"geo_score":0.902,"first":"Jim","ppv limit":"Unlimited","customer id":683,"phone":4195386771,"whdvr":"No","id":"abjw5cru8dha","address":"12761 Rd K","login":"Glandorf","password":1234,"geo_precision":"range","state":"OH","pin":1234},"type":"Feature","geometry":{"type":"Point","coordinates":[-84.106709,41.021131]}},{"properties":{"city":"Ottawa","status":"Active","ppv":"Yes","zip":"45875","region":"Glandorf","service packages":"Basic Contract","township":null,"last":"Recker","stbs allowed":3,"geo_score":0.861,"first":"Kevin","ppv limit":"Unlimited","customer id":910,"phone":4195387024,"whdvr":"No","id":"abjw5cnpas3b","address":"11762 Rd 12 K","login":"Glandorf","password":1234,"geo_precision":"range","state":"OH","pin":1234},"type":"Feature","geometry":{"type":"Point","coordinates":[-84.101901,41.009684]}},{"properties":{"city":"Ottawa","status":"Active","ppv":"Yes","zip":"45875","region":"Glandorf","service packages":"Basic Contract","township":null,"last":"Recker","stbs allowed":3,"geo_score":0.902,"first":"Wayne","ppv limit":"Unlimited","customer id":1352,"phone":4195387009,"whdvr":"No","id":"abjw5cibdow4","address":"12888 Rd 12","login":"Glandorf","password":1234,"geo_precision":"range","state":"OH","pin":1234},"type":"Feature","geometry":{"type":"Point","coordinates":[-84.092257,40.99336]}},{"properties":{"city":"Ottawa","status":"Active","ppv":"No","zip":"45875","region":"Glandorf","service packages":"Basic Contract,HD Copper","township":null,"last":"Recker","stbs allowed":3,"geo_score":0.793,"first":"Bart","ppv limit":"Unlimited","customer id":1733,"phone":4195386419,"whdvr":"No","id":"abjw5ct2vuc2","address":"368 Park Ave","login":"Glandorf","password":1234,"geo_precision":"range","state":"OH","pin":1234},"type":"Feature","geometry":{"type":"Point","coordinates":[-84.083793,41.027095]}},{"properties":{"city":"Ottawa","status":"Active","ppv":"No","zip":"45875","region":"Glandorf","service packages":"Basic Contract,HD Copper","township":null,"last":"Recker","stbs allowed":3,"geo_score":0.78,"first":"Don","ppv limit":"Unlimited","customer id":453,"phone":4195386518,"whdvr":"No","id":"abjw5cq5v8gr","address":"12782 Rd 12","login":"Glandorf","password":1234,"geo_precision":"range","state":"OH","pin":1234},"type":"Feature","geometry":{"type":"Point","coordinates":[-84.092118,40.995667]}},{"properties":{"city":"Ottawa","status":"Active","ppv":"Yes","zip":"45875","region":"Glandorf","service packages":"Basic Contract,HD Copper","township":null,"last":"Recker","stbs allowed":5,"geo_score":0.902,"first":"Richard &amp; Margie","ppv limit":"Unlimited","customer id":308,"phone":4195386354,"whdvr":"No","id":"abjw5cpdl4yx","address":"11329 Rd L","login":"Glandorf","password":1234,"geo_precision":"range","state":"OH","pin":1234},"type":"Feature","geometry":{"type":"Point","coordinates":[-84.078415,41.006742]}},{"properties":{"city":"Ottawa","status":"Active","ppv":"Yes","zip":"45875","region":"Glandorf","service packages":"Expanded basic Contract,Expanded HD Copper","township":null,"last":"Recker","stbs allowed":3,"geo_score":0.902,"first":"Gerald &amp; Sue","ppv limit":"Unlimited","customer id":176,"phone":4195386187,"whdvr":"No","id":"abjw5ciqmd46","address":"12327 Rd M","login":"Glandorf","password":1234,"geo_precision":"range","state":"OH","pin":1234},"type":"Feature","geometry":{"type":"Point","coordinates":[-84.091605,40.992122]}},{"properties":{"city":"Ottawa","status":"Active","ppv":"Yes","zip":"45875","region":"Glandorf","service packages":"Basic Contract,HD Copper","township":null,"last":"Recker","stbs allowed":3,"geo_score":0.902,"first":"Matthew","ppv limit":"Unlimited","customer id":null,"phone":4195386756,"whdvr":"No","id":"abjw5cogbs6f","address":"16402 Rd J","login":"Glandorf","password":1234,"geo_precision":"range","state":"OH","pin":1234},"type":"Feature","geometry":{"type":"Point","coordinates":[-84.17693,41.035444]}},{"properties":{"city":"Ottawa","status":"Active","ppv":"Yes","zip":"45875","region":"Glandorf","service packages":"Basic Contract","township":null,"last":"Ricker","stbs allowed":4,"geo_score":0.902,"first":"Gary &amp; Linda","ppv limit":"Unlimited","customer id":1216,"phone":4195387314,"whdvr":"No","id":"abjw5comxece","address":"13622 Rd L","login":"Glandorf","password":1234,"geo_precision":"range","state":"OH","pin":1234},"type":"Feature","geometry":{"type":"Point","coordinates":[-84.121815,41.006624]}},{"properties":{"city":"Ottawa","status":"Active","ppv":"Yes","zip":"45875","region":"Glandorf","service packages":"Basic Contract","township":null,"last":"Ricker","stbs allowed":4,"geo_score":0.902,"first":"Scott","ppv limit":"Unlimited","customer id":1305,"phone":4195386455,"whdvr":"No","id":"abjw5cu0yfeq","address":"16331 Rd J","login":"Glandorf","password":1234,"geo_precision":"range","state":"OH","pin":1234},"type":"Feature","geometry":{"type":"Point","coordinates":[-84.17411,41.0353]}},{"properties":{"city":"Ottawa","status":"Active","ppv":"Yes","zip":"45875","region":"Glandorf","service packages":"Expanded basic Contract,Expanded HD Fiber","township":null,"last":"Ricker","stbs allowed":3,"geo_score":0.659,"first":"Mary Lou","ppv limit":"Unlimited","customer id":769,"phone":4195386861,"whdvr":"No","id":"abjw5cmw1za5","address":"11180 Rd 10K","login":"Glandorf","password":1234,"geo_precision":"street","state":"OH","pin":1234},"type":"Feature","geometry":{"type":"Point","coordinates":[-84.053666,41.066063]}},{"properties":{"city":"Ottawa","status":"Active","ppv":"Yes","zip":"45875","region":"Glandorf","service packages":"Basic Contract","township":null,"last":"Rieman","stbs allowed":3,"geo_score":0.812,"first":"Benjamin","ppv limit":"Unlimited","customer id":1888,"phone":4195386276,"whdvr":"No","id":"abjw5cseilep","address":"13109 St Rt 694","login":"Glandorf","password":1234,"geo_precision":"range","state":"OH","pin":1234},"type":"Feature","geometry":{"type":"Point","coordinates":[-84.113562,41.028299]}},{"properties":{"city":"Ottawa","status":"Active","ppv":"Yes","zip":"45875","region":"Glandorf","service packages":"Basic Contract,HD Optic","township":null,"last":"Rieman","stbs allowed":6,"geo_score":0.78,"first":"Paul","ppv limit":"Unlimited","customer id":1390,"phone":4195387031,"whdvr":"No","id":"abjw5crwgywn","address":"217 Easthaven Dr","login":"Glandorf","password":1234,"geo_precision":"street","state":"OH","pin":1234},"type":"Feature","geometry":{"type":"Point","coordinates":[-84.068958,41.025518]}},{"properties":{"city":"Glandorf","status":"Active","ppv":"Yes","zip":"45848","region":"Glandorf","service packages":"Basic Contract,HD Optic","township":null,"last":"Rieman","stbs allowed":6,"geo_score":0.667,"first":"Virgil","ppv limit":"Unlimited","customer id":644,"phone":4195386729,"whdvr":"No","id":"abjw5cwxruoj","address":"108 Westwood Dr. PO BOX 94","login":"Glandorf","password":1234,"geo_precision":"street","state":"OH","pin":1234},"type":"Feature","geometry":{"type":"Point","coordinates":[-84.390266,40.319705]}},{"properties":{"city":"Ottawa","status":"Active","ppv":"Yes","zip":"45875","region":"Glandorf","service packages":"Local","township":null,"last":"Riepenhoff","stbs allowed":3,"geo_score":0.902,"first":"Gilbert","ppv limit":"Unlimited","customer id":405,"phone":4195386465,"whdvr":"No","id":"abjw5cku6f7w","address":"8841 RD 15","login":"Glandorf","password":1234,"geo_precision":"range","state":"OH","pin":1234},"type":"Feature","geometry":{"type":"Point","coordinates":[-84.150154,41.053313]}},{"properties":{"city":"Ottawa","status":"Active","ppv":"Yes","zip":"45875","region":"Glandorf","service packages":"Basic Contract","township":null,"last":"Riepenhoff","stbs allowed":3,"geo_score":0.902,"first":"Alvin","ppv limit":"Unlimited","customer id":877,"phone":4195386981,"whdvr":"No","id":"abjw5cqqbzql","address":"10540 Rd 15","login":"Glandorf","password":1234,"geo_precision":"range","state":"OH","pin":1234},"type":"Feature","geometry":{"type":"Point","coordinates":[-84.150088,41.027636]}},{"properties":{"city":"Ottawa","status":"Active","ppv":"Yes","zip":"45875","region":"Glandorf","service packages":"Basic Contract","township":null,"last":"Riepenhoff","stbs allowed":3,"geo_score":0.902,"first":"Zac","ppv limit":"Unlimited","customer id":26800,"phone":4195386277,"whdvr":"No","id":"abjw5cyank4g","address":"8991 Rd 15","login":"Glandorf","password":1234,"geo_precision":"range","state":"OH","pin":1234},"type":"Feature","geometry":{"type":"Point","coordinates":[-84.150122,41.051222]}},{"properties":{"city":"Ottawa","status":"Active","ppv":"Yes","zip":"45875","region":"Glandorf","service packages":"Basic Contract,HD Optic","township":null,"last":"Romer","stbs allowed":5,"geo_score":0.805,"first":"Joan","ppv limit":"Unlimited","customer id":1850,"phone":4195386722,"whdvr":"No","id":"abjw5cxibnc9","address":"109 Walnut","login":"Glandorf","password":1234,"geo_precision":"range","state":"OH","pin":1234},"type":"Feature","geometry":{"type":"Point","coordinates":[-84.068654,41.029639]}},{"properties":{"city":"Glandorf","status":"Active","ppv":"Yes","zip":"45848","region":"Glandorf","service packages":"Basic Contract,HD Optic","township":null,"last":"Roof","stbs allowed":5,"geo_score":0.749,"first":"Kathy","ppv limit":"Unlimited","customer id":271,"phone":4195386311,"whdvr":"No","id":"abjw5ciprpwy","address":"223 Brunswick  PO Box 175","login":"Glandorf","password":1234,"geo_precision":"range","state":"OH","pin":1234},"type":"Feature","geometry":{"type":"Point","coordinates":[-84.072561,41.025362]}},{"properties":{"city":"Ottawa","status":"Active","ppv":"Yes","zip":"45875","region":"Glandorf","service packages":"Basic Contract,HD Copper","township":null,"last":"Roof","stbs allowed":3,"geo_score":0.902,"first":"Christoher &amp; Julie","ppv limit":"Unlimited","customer id":null,"phone":4195386292,"whdvr":"No","id":"abjw5cu5e2h9","address":"13478 Rd 14","login":"Glandorf","password":1234,"geo_precision":"range","state":"OH","pin":1234},"type":"Feature","geometry":{"type":"Point","coordinates":[-84.130267,40.982467]}},{"properties":{"city":"Ottawa","status":"Active","ppv":"Yes","zip":"45875","region":"Glandorf","service packages":"Expanded basic Contract","township":null,"last":"Ruhe","stbs allowed":3,"geo_score":0.902,"first":"Thomas","ppv limit":"Unlimited","customer id":31,"phone":4195386028,"whdvr":"No","id":"abjw5ckdedvv","address":"13632 Rd 12","login":"Glandorf","password":1234,"geo_precision":"range","state":"OH","pin":1234},"type":"Feature","geometry":{"type":"Point","coordinates":[-84.091903,40.983369]}},{"properties":{"city":"Ottawa","status":"Active","ppv":"Yes","zip":"45875","region":"Glandorf","service packages":"Expanded basic Contract,Expanded HD Copper","township":null,"last":"Ruhe","stbs allowed":4,"geo_score":0.902,"first":"Greg","ppv limit":"Unlimited","customer id":396,"phone":4195386454,"whdvr":"No","id":"abjw5cp5lc85","address":"13560 Rd 12","login":"Glandorf","password":1234,"geo_precision":"range","state":"OH","pin":1234},"type":"Feature","geometry":{"type":"Point","coordinates":[-84.091906,40.984373]}},{"properties":{"city":"Ottawa","status":"Active","ppv":"Yes","zip":"45875","region":"Glandorf","service packages":"Basic Contract,HD Copper","township":null,"last":"Sager","stbs allowed":3,"geo_score":0.447,"first":"Ken","ppv limit":"Unlimited","customer id":775,"phone":4195386867,"whdvr":"No","id":"abjw5cnrjjz4","address":"12386 Rd M-10","login":"Glandorf","password":1234,"geo_precision":"street","state":"OH","pin":1234},"type":"Feature","geometry":{"type":"Point","coordinates":[-83.956582,40.658476]}},{"properties":{"city":"Glandorf","status":"Active","ppv":"No","zip":"45848","region":"Glandorf","service packages":"Basic Contract","township":null,"last":"Sager","stbs allowed":3,"geo_score":0.429,"first":"Leon","ppv limit":"Unlimited","customer id":18,"phone":4195386014,"whdvr":"No","id":"abjw5cjc4rpi","address":"222 Brunswick Dr, PO BOX 157","login":"Glandorf","password":1234,"geo_precision":"street","state":"OH","pin":1234},"type":"Feature","geometry":{"type":"Point","coordinates":[-84.072488,41.024995]}},{"properties":{"city":"Ottawa","status":"Active","ppv":"Yes","zip":"45875","region":"Glandorf","service packages":"Basic Contract,HD Copper","township":null,"last":"Schey","stbs allowed":3,"geo_score":0.902,"first":"Kevin  Lisa","ppv limit":"Unlimited","customer id":1712,"phone":4195386112,"whdvr":"No","id":"abjw5cp4bfek","address":"108 Sunrise Ct","login":"Glandorf","password":1234,"geo_precision":"range","state":"OH","pin":1234},"type":"Feature","geometry":{"type":"Point","coordinates":[-84.074646,41.028077]}},{"properties":{"city":"Ottawa","status":"Active","ppv":"No","zip":"45875","region":"Glandorf","service packages":"Basic Contract","township":null,"last":"Schierloh","stbs allowed":3,"geo_score":0.902,"first":"Marcella (Sally)","ppv limit":"Unlimited","customer id":558,"phone":4195386634,"whdvr":"No","id":"abjw5cuop235","address":"12176 Rd K","login":"Glandorf","password":1234,"geo_precision":"range","state":"OH","pin":1234},"type":"Feature","geometry":{"type":"Point","coordinates":[-84.095633,41.021341]}},{"properties":{"city":"Ottawa","status":"Active","ppv":"No","zip":"45875","region":"Glandorf","service packages":"Expanded basic Contract","township":null,"last":"Schierloh","stbs allowed":4,"geo_score":0.902,"first":"Carl","ppv limit":"Unlimited","customer id":40,"phone":4195386038,"whdvr":"No","id":"abjw5cxvn72r","address":"12332 Rd K","login":"Glandorf","password":1234,"geo_precision":"range","state":"OH","pin":1234},"type":"Feature","geometry":{"type":"Point","coordinates":[-84.098633,41.021331]}},{"properties":{"city":"Ottawa","status":"Active","ppv":"Yes","zip":"45875","region":"Glandorf","service packages":"Expanded basic Contract","township":null,"last":"Schimmoeller","stbs allowed":3,"geo_score":0.659,"first":"Paul","ppv limit":"Unlimited","customer id":548,"phone":4195386624,"whdvr":"No","id":"abjw5cweg1q3","address":"11690 Rd 14J","login":"Glandorf","password":1234,"geo_precision":"street","state":"OH","pin":1234},"type":"Feature","geometry":{"type":"Point","coordinates":[-84.130355,40.991897]}},{"properties":{"city":"Glandorf","status":"Active","ppv":"Yes","zip":"45848","region":"Glandorf","service packages":"Basic Contract","township":null,"last":"Schimmoeller","stbs allowed":3,"geo_score":0.857,"first":"Margaret M","ppv limit":"Unlimited","customer id":12900,"phone":4195386131,"whdvr":"No","id":"abjw5ckvm012","address":"269 N Main St, PO BOX 176","login":"Glandorf","password":1234,"geo_precision":"street","state":"OH","pin":1234},"type":"Feature","geometry":{"type":"Point","coordinates":[-84.07978,41.029818]}},{"properties":{"city":"Ottawa","status":"Active","ppv":"Yes","zip":"45875","region":"Glandorf","service packages":"Expanded basic Contract,Expanded HD Fiber","township":null,"last":"Schmersal","stbs allowed":4,"geo_score":0.902,"first":"Robert","ppv limit":"Unlimited","customer id":460,"phone":4195386526,"whdvr":"No","id":"abjw5cs322dp","address":"16275 Rd J","login":"Glandorf","password":1234,"geo_precision":"range","state":"OH","pin":1234},"type":"Feature","geometry":{"type":"Point","coordinates":[-84.173299,41.035304]}},{"properties":{"city":"Ottawa","status":"Inactive","ppv":"Yes","zip":"45875","region":"Glandorf","service packages":"Basic Contract","township":null,"last":"Schmitz","stbs allowed":3,"geo_score":0.902,"first":"Gertrude","ppv limit":"Unlimited","customer id":65500,"phone":4195386701,"whdvr":"No","id":"abjw5cplqlgx","address":"12377 Rd 12","login":"Glandorf","password":1234,"geo_precision":"range","state":"OH","pin":1234},"type":"Feature","geometry":{"type":"Point","coordinates":[-84.09214,41.002458]}},{"properties":{"city":"Ottawa","status":"Active","ppv":"Yes","zip":"45875","region":"Glandorf","service packages":"Expanded basic Contract,Encore,Starz,Expanded HD Copper","township":null,"last":"Schmitz","stbs allowed":5,"geo_score":0.861,"first":"Ronald","ppv limit":"Unlimited","customer id":77400,"phone":4195386842,"whdvr":"No","id":"abjw5crw3hhf","address":"13457 RD 11J","login":"Glandorf","password":1234,"geo_precision":"range","state":"OH","pin":1234},"type":"Feature","geometry":{"type":"Point","coordinates":[-84.082105,40.985298]}},{"properties":{"city":"OTTAWA","status":"Active","ppv":"No","zip":"45875","region":"Glandorf","service packages":"Expanded basic Contract,Expanded HD Copper","township":null,"last":"Schmitz","stbs allowed":4,"geo_score":0.902,"first":"Tom &amp; Gretchen","ppv limit":"Unlimited","customer id":1745,"phone":4195387090,"whdvr":"No","id":"abjw5cyk3ev3","address":"12012 Rd 12","login":"Glandorf","password":1234,"geo_precision":"range","state":"OH","pin":1234},"type":"Feature","geometry":{"type":"Point","coordinates":[-84.092285,41.008585]}},{"properties":{"city":"Ottawa","status":"Active","ppv":"Yes","zip":"45875","region":"Glandorf","service packages":"Basic Contract","township":null,"last":"Schmitz","stbs allowed":7,"geo_score":0.902,"first":"Mike","ppv limit":"Unlimited","customer id":72300,"phone":4195386781,"whdvr":"No","id":"abjw5ctnw55x","address":"339 N Main St","login":"Glandorf","password":1234,"geo_precision":"range","state":"OH","pin":1234},"type":"Feature","geometry":{"type":"Point","coordinates":[-84.081648,41.032444]}},{"properties":{"city":"Ottawa","status":"Active","ppv":"Yes","zip":"45875","region":"Glandorf","service packages":"Basic Contract,HD Copper","township":null,"last":"Schmitz","stbs allowed":3,"geo_score":0.902,"first":"Craig","ppv limit":"Unlimited","customer id":null,"phone":4195386704,"whdvr":"No","id":"abjw5co20wg9","address":"16532 Rd J","login":"Glandorf","password":1234,"geo_precision":"range","state":"OH","pin":1234},"type":"Feature","geometry":{"type":"Point","coordinates":[-84.179423,41.035435]}},{"properties":{"city":"Ottawa","status":"Active","ppv":"Yes","zip":"45875","region":"Glandorf","service packages":"Basic Contract","township":null,"last":"Schneeg","stbs allowed":3,"geo_score":0.526,"first":"Mike","ppv limit":"Unlimited","customer id":690,"phone":4195386778,"whdvr":"No","id":"abjw5cv1e44c","address":"13497-D Road M","login":"Glandorf","password":1234,"geo_precision":"street","state":"OH","pin":1234},"type":"Feature","geometry":{"type":"Point","coordinates":[-88.639427,44.329673]}},{"properties":{"city":"Ottawa","status":"Active","ppv":"Yes","zip":"45875","region":"Glandorf","service packages":"Basic Contract","township":"Ottawa Township","last":"Schnipke","stbs allowed":3,"geo_score":0.815,"first":"Dan","ppv limit":"Unlimited","customer id":44100,"phone":4195386469,"whdvr":"No","id":"abjw5cx3kgxr","address":"12899 St Rt 224","login":"Glandorf","password":1234,"geo_precision":"range","state":"OH","pin":1234},"type":"Feature","geometry":{"type":"Point","coordinates":[-84.109521,41.010849]}},{"properties":{"city":"Glandorf","status":"Active","ppv":"No","zip":"45848","region":"Glandorf","service packages":"Basic Contract,HD Optic","township":null,"last":"Schnipke","stbs allowed":3,"geo_score":0.74,"first":"Oscar","ppv limit":"Unlimited","customer id":21,"phone":4195386018,"whdvr":"No","id":"abjw5cqii9ss","address":"120 Westwood, PO Box 96","login":"Glandorf","password":1234,"geo_precision":"street","state":"OH","pin":1234},"type":"Feature","geometry":{"type":"Point","coordinates":[-84.076076,41.025142]}},{"properties":{"city":"Ottawa","status":"Active","ppv":"Yes","zip":"45875","region":"Glandorf","service packages":"Basic Contract,HD Copper","township":null,"last":"Schram","stbs allowed":3,"geo_score":0.812,"first":"Jeffery","ppv limit":"Unlimited","customer id":778,"phone":4195386870,"whdvr":"No","id":"abjw5ctlf5iv","address":"14517 ST Rt 694","login":"Glandorf","password":1234,"geo_precision":"range","state":"OH","pin":1234},"type":"Feature","geometry":{"type":"Point","coordinates":[-84.140282,41.028241]}},{"properties":{"city":"Ottawa","status":"Active","ppv":"Yes","zip":"45875","region":"Glandorf","service packages":"Basic Contract","township":null,"last":"Schram","stbs allowed":3,"geo_score":0.902,"first":"Eugene","ppv limit":"Unlimited","customer id":null,"phone":4195386539,"whdvr":"No","id":"abjw5cq40c9f","address":"10472 Office Dr","login":"Glandorf","password":1234,"geo_precision":"range","state":"OH","pin":1234},"type":"Feature","geometry":{"type":"Point","coordinates":[-84.06291,41.040278]}},{"properties":{"city":"Ottawa","status":"Active","ppv":"Yes","zip":"45875","region":"Glandorf","service packages":"Expanded basic Contract,Expanded HD Copper","township":null,"last":"Schroeder","stbs allowed":4,"geo_score":0.902,"first":"John","ppv limit":"Unlimited","customer id":87,"phone":4195386089,"whdvr":"No","id":"abjw5ckpqlu1","address":"14024 RD J","login":"Glandorf","password":1234,"geo_precision":"range","state":"OH","pin":1234},"type":"Feature","geometry":{"type":"Point","coordinates":[-84.131996,41.035769]}},{"properties":{"city":"Ottawa","status":"Active","ppv":"Yes","zip":"45875","region":"Glandorf","service packages":"Basic Contract,HD Copper","township":null,"last":"Schroeder","stbs allowed":4,"geo_score":0.902,"first":"David","ppv limit":"Unlimited","customer id":279,"phone":4195386322,"whdvr":"No","id":"abjw5cmx0sth","address":"13973 Rd I","login":"Glandorf","password":1234,"geo_precision":"range","state":"OH","pin":1234},"type":"Feature","geometry":{"type":"Point","coordinates":[-84.13063,41.050209]}},{"properties":{"city":"Ottawa","status":"Active","ppv":"Yes","zip":"45875","region":"Glandorf","service packages":"Expanded basic Contract,Encore,Expanded HD Copper","township":null,"last":"Schroeder","stbs allowed":4,"geo_score":0.902,"first":"Charles","ppv limit":"Unlimited","customer id":367,"phone":4195386424,"whdvr":"No","id":"abjw5cs069lc","address":"14274 RD J","login":"Glandorf","password":1234,"geo_precision":"range","state":"OH","pin":1234},"type":"Feature","geometry":{"type":"Point","coordinates":[-84.136171,41.035737]}},{"properties":{"city":"Ottawa","status":"Active","ppv":"Yes","zip":"45875","region":"Glandorf","service packages":"Basic Contract","township":null,"last":"Schroeder","stbs allowed":3,"geo_score":0.902,"first":"Carl","ppv limit":"Unlimited","customer id":401,"phone":4195386460,"whdvr":"No","id":"abjw5cy58oq6","address":"14118 Road L","login":"Glandorf","password":1234,"geo_precision":"range","state":"OH","pin":1234},"type":"Feature","geometry":{"type":"Point","coordinates":[-84.134969,41.006541]}},{"properties":{"city":"Ottawa","status":"Active","ppv":"Yes","zip":"45875","region":"Glandorf","service packages":"Expanded basic Contract,Expanded HD Fiber","township":null,"last":"Schroeder","stbs allowed":4,"geo_score":0.468,"first":"Fred/Mary Margaret","ppv limit":"Unlimited","customer id":586,"phone":4195386665,"whdvr":"No","id":"abjw5cxl6a34","address":"10746 Rd I-9","login":"Glandorf","password":1234,"geo_precision":"street","state":"OH","pin":1234},"type":"Feature","geometry":{"type":"Point","coordinates":[-84.050924,41.006978]}},{"properties":{"city":"Ottawa","status":"Active","ppv":"Yes","zip":"45875","region":"Glandorf","service packages":"Expanded basic Contract","township":null,"last":"Schroeder","stbs allowed":3,"geo_score":0.902,"first":"Lucille","ppv limit":"Unlimited","customer id":646,"phone":4195386731,"whdvr":"No","id":"abjw5cvtgcjb","address":"13710 Rd I","login":"Glandorf","password":1234,"geo_precision":"range","state":"OH","pin":1234},"type":"Feature","geometry":{"type":"Point","coordinates":[-84.125719,41.050343]}},{"properties":{"city":"Ottawa","status":"Active","ppv":"Yes","zip":"45875","region":"Glandorf","service packages":"Basic Contract,HD Copper","township":null,"last":"Schroeder","stbs allowed":3,"geo_score":0.861,"first":"Donald","ppv limit":"Unlimited","customer id":719,"phone":4195386809,"whdvr":"No","id":"abjw5cwpq5sq","address":"11092 Road 11J","login":"Glandorf","password":1234,"geo_precision":"range","state":"OH","pin":1234},"type":"Feature","geometry":{"type":"Point","coordinates":[-84.082686,41.019548]}},{"properties":{"city":"Ottawa","status":"Active","ppv":"Yes","zip":"45875","region":"Glandorf","service packages":"Expanded basic Contract","township":null,"last":"Schroeder","stbs allowed":3,"geo_score":0.659,"first":"Rodney","ppv limit":"Unlimited","customer id":745,"phone":4195386835,"whdvr":"No","id":"abjw5cs35j8z","address":"9353 Rd 14I","login":"Glandorf","password":1234,"geo_precision":"street","state":"OH","pin":1234},"type":"Feature","geometry":{"type":"Point","coordinates":[-84.130767,41.057573]}},{"properties":{"city":"Ottawa","status":"Active","ppv":"Yes","zip":"45875","region":"Glandorf","service packages":"HBO,Max,Expanded basic Contract,Encore,Starz","township":null,"last":"Schroeder","stbs allowed":4,"geo_score":0.624,"first":"Cindy","ppv limit":"Unlimited","customer id":751,"phone":4195386841,"whdvr":"No","id":"abjw5cyeaeyl","address":"9478 Road 14-I","login":"Glandorf","password":1234,"geo_precision":"street","state":"OH","pin":1234},"type":"Feature","geometry":{"type":"Point","coordinates":[-84.130767,41.057573]}},{"properties":{"city":"Glandorf","status":"Active","ppv":"No","zip":"45848","region":"Glandorf","service packages":"Basic Contract","township":null,"last":"Schroeder","stbs allowed":2,"geo_score":0.6,"first":"Earl","ppv limit":"Unlimited","customer id":821,"phone":4195386924,"whdvr":"No","id":"abjw5cp94dlr","address":"Barber Shop, PO BOX 38","login":"Glandorf","password":1234,"geo_precision":"street","state":"OH","pin":1234},"type":"Feature","geometry":{"type":"Point","coordinates":[-84.55191,40.756913]}},{"properties":{"city":"Ottawa","status":"Active","ppv":"Yes","zip":"45875","region":"Glandorf","service packages":"Basic Contract,HD Copper","township":null,"last":"Schroeder","stbs allowed":4,"geo_score":0.902,"first":"Virgil  Pat","ppv limit":"Unlimited","customer id":824,"phone":4195386927,"whdvr":"No","id":"abjw5cpu16ud","address":"13795 Rd I","login":"Glandorf","password":1234,"geo_precision":"range","state":"OH","pin":1234},"type":"Feature","geometry":{"type":"Point","coordinates":[-84.126692,41.0502]}},{"properties":{"city":"Ottawa","status":"Active","ppv":"Yes","zip":"45875","region":"Glandorf","service packages":"Basic Contract,HD Copper","township":null,"last":"Schroeder","stbs allowed":4,"geo_score":0.659,"first":"Katie  Mike","ppv limit":"Unlimited","customer id":876,"phone":4195386980,"whdvr":"No","id":"abjw5cly6khj","address":"9604 Road 14I","login":"Glandorf","password":1234,"geo_precision":"street","state":"OH","pin":1234},"type":"Feature","geometry":{"type":"Point","coordinates":[-84.130767,41.057573]}},{"properties":{"city":"Ottawa","status":"Active","ppv":"Yes","zip":"45875","region":"Glandorf","service packages":"Basic Contract,HD Copper","township":null,"last":"Schroeder","stbs allowed":5,"geo_score":0.861,"first":"Joe","ppv limit":"Unlimited","customer id":880,"phone":4195386984,"whdvr":"No","id":"abjw5clz9mpg","address":"9490 Rd 13I","login":"Glandorf","password":1234,"geo_precision":"range","state":"OH","pin":1234},"type":"Feature","geometry":{"type":"Point","coordinates":[-84.126041,41.043127]}},{"properties":{"city":"Ottawa","status":"Active","ppv":"Yes","zip":"45875","region":"Glandorf","service packages":"Expanded basic Contract,Expanded HD Copper","township":null,"last":"Schroeder","stbs allowed":3,"geo_score":0.902,"first":"James","ppv limit":"Unlimited","customer id":885,"phone":4195386989,"whdvr":"No","id":"abjw5cvbqfff","address":"13562 Rd J","login":"Glandorf","password":1234,"geo_precision":"range","state":"OH","pin":1234},"type":"Feature","geometry":{"type":"Point","coordinates":[-84.118319,41.035738]}},{"properties":{"city":"Ottawa","status":"Active","ppv":"Yes","zip":"45875","region":"Glandorf","service packages":"Expanded basic Contract,Expanded HD Copper","township":null,"last":"Schroeder","stbs allowed":5,"geo_score":0.812,"first":"Jay","ppv limit":"Unlimited","customer id":922,"phone":4195387039,"whdvr":"No","id":"abjw5cv27kk8","address":"13394 St Rt 694","login":"Glandorf","password":1234,"geo_precision":"range","state":"OH","pin":1234},"type":"Feature","geometry":{"type":"Point","coordinates":[-84.119028,41.028462]}},{"properties":{"city":"Ottawa","status":"Active","ppv":"Yes","zip":"45875","region":"Glandorf","service packages":"Expanded basic Contract,Expanded HD Copper","township":null,"last":"Schroeder","stbs allowed":5,"geo_score":0.861,"first":"Nathan &amp; Robin","ppv limit":"Unlimited","customer id":1377,"phone":4195387153,"whdvr":"No","id":"abjw5cmztq83","address":"9400 Rd 13I","login":"Glandorf","password":1234,"geo_precision":"range","state":"OH","pin":1234},"type":"Feature","geometry":{"type":"Point","coordinates":[-84.126047,41.044445]}},{"properties":{"city":"Ottawa","status":"Active","ppv":"Yes","zip":"45875","region":"Glandorf","service packages":"Basic Contract,HD Copper","township":null,"last":"Schroeder","stbs allowed":3,"geo_score":0.812,"first":"Phil &amp; Jodi","ppv limit":"Unlimited","customer id":1544,"phone":4195386817,"whdvr":"No","id":"abjw5cl86qdn","address":"12176 St Rt 694","login":"Glandorf","password":1234,"geo_precision":"range","state":"OH","pin":1234},"type":"Feature","geometry":{"type":"Point","coordinates":[-84.095629,41.028904]}},{"properties":{"city":"Ottawa","status":"Active","ppv":"Yes","zip":"45875","region":"Glandorf","service packages":"Basic Contract,HBO,HD Copper","township":null,"last":"Schroeder","stbs allowed":3,"geo_score":0.62,"first":"Jared","ppv limit":"Unlimited","customer id":1699,"phone":4195386102,"whdvr":"No","id":"abjw5cy2opa3","address":"14215 St Rt 224","login":"Glandorf","password":1234,"geo_precision":"street","state":"OH","pin":1234},"type":"Feature","geometry":{"type":"Point","coordinates":[-84.11147,41.010295]}},{"properties":{"city":"Ottawa","status":"Active","ppv":"Yes","zip":"45875","region":"Glandorf","service packages":"Basic Contract,HD Copper","township":null,"last":"Schroeder","stbs allowed":4,"geo_score":0.861,"first":"Dean","ppv limit":"Unlimited","customer id":1716,"phone":4195386123,"whdvr":"No","id":"abjw5cu8xncz","address":"9278 Rd 13I","login":"Glandorf","password":1234,"geo_precision":"range","state":"OH","pin":1234},"type":"Feature","geometry":{"type":"Point","coordinates":[-84.126051,41.046204]}},{"properties":{"city":"Ottawa","status":"Active","ppv":"Yes","zip":"45875","region":"Glandorf","service packages":"Basic Contract,HD Copper","township":null,"last":"Schroeder","stbs allowed":5,"geo_score":0.902,"first":"Andrew","ppv limit":"Unlimited","customer id":1761,"phone":4195386422,"whdvr":"No","id":"abjw5cydtcfu","address":"9481 Rd 13","login":"Glandorf","password":1234,"geo_precision":"range","state":"OH","pin":1234},"type":"Feature","geometry":{"type":"Point","coordinates":[-84.111491,41.041044]}},{"properties":{"city":"Ottawa","status":"Active","ppv":"No","zip":"45875","region":"Glandorf","service packages":"Basic Contract,HD Copper","township":null,"last":"Schroeder","stbs allowed":3,"geo_score":0.902,"first":"Brian","ppv limit":"Unlimited","customer id":1088,"phone":4195387210,"whdvr":"No","id":"abjw5co3p9ik","address":"13934 Rd K","login":"Glandorf","password":1234,"geo_precision":"range","state":"OH","pin":1234},"type":"Feature","geometry":{"type":"Point","coordinates":[-84.129322,41.021225]}},{"properties":{"city":"Ottawa","status":"Active","ppv":"Yes","zip":"45875","region":"Glandorf","service packages":"Basic Contract,HD Copper","township":null,"last":"Schroeder","stbs allowed":5,"geo_score":0.902,"first":"Mark L. &amp; Tamara A.","ppv limit":"Unlimited","customer id":5000,"phone":4195386050,"whdvr":"No","id":"abjw5cjl4iah","address":"13884 Rd I","login":"Glandorf","password":1234,"geo_precision":"range","state":"OH","pin":1234},"type":"Feature","geometry":{"type":"Point","coordinates":[-84.128753,41.05036]}},{"properties":{"city":"Ottawa","status":"Active","ppv":"Yes","zip":"45875","region":"Glandorf","service packages":"Basic Contract,HD Optic","township":null,"last":"Schroeder","stbs allowed":4,"geo_score":0.902,"first":"Mark &amp; Jodi","ppv limit":"Unlimited","customer id":23200,"phone":4195386239,"whdvr":"No","id":"abjw5cm6tnqo","address":"11092 Rd 12","login":"Glandorf","password":1234,"geo_precision":"range","state":"OH","pin":1234},"type":"Feature","geometry":{"type":"Point","coordinates":[-84.092266,41.020005]}},{"properties":{"city":"Ottawa","status":"Active","ppv":"Yes","zip":"45875","region":"Glandorf","service packages":"Expanded basic Contract,Encore","township":null,"last":"Schroeder","stbs allowed":4,"geo_score":0.902,"first":"Richard &amp; Susan","ppv limit":"Unlimited","customer id":529,"phone":4195386602,"whdvr":"No","id":"abjw5cugp943","address":"13514 Road I","login":"Glandorf","password":1234,"geo_precision":"range","state":"OH","pin":1234},"type":"Feature","geometry":{"type":"Point","coordinates":[-84.119968,41.050291]}},{"properties":{"city":"Ottawa","status":"Active","ppv":"Yes","zip":"45875","region":"Glandorf","service packages":"Basic Contract,HD Copper","township":null,"last":"Schroeder","stbs allowed":3,"geo_score":0.861,"first":"Gerald","ppv limit":"Unlimited","customer id":426,"phone":4195386487,"whdvr":"No","id":"abjw5ckzlau3","address":"9088 Rd 13I","login":"Glandorf","password":1234,"geo_precision":"range","state":"OH","pin":1234},"type":"Feature","geometry":{"type":"Point","coordinates":[-84.12606,41.048984]}},{"properties":{"city":"Ottawa","status":"Active","ppv":"Yes","zip":"45875","region":"Glandorf","service packages":"Basic Contract,HD Optic","township":null,"last":"Schroeder","stbs allowed":3,"geo_score":0.902,"first":"Elton &amp; Jeanette","ppv limit":"Unlimited","customer id":1917,"phone":4195386740,"whdvr":"No","id":"abjw5cv7hqq3","address":"620 E Blake St.","login":"Glandorf","password":1234,"geo_precision":"range","state":"OH","pin":1234},"type":"Feature","geometry":{"type":"Point","coordinates":[-84.078906,41.03585]}},{"properties":{"city":"Ottawa","status":"Active","ppv":"Yes","zip":"45875","region":"Glandorf","service packages":"Expanded basic Contract,Encore,Expanded HD Copper,Encore HD","township":null,"last":"Schroeder","stbs allowed":3,"geo_score":0.902,"first":"Daniel A &amp; Jean","ppv limit":"Unlimited","customer id":30,"phone":4195386027,"whdvr":"No","id":"abjw5cr0a6ps","address":"13204 Rd I","login":"Glandorf","password":1234,"geo_precision":"range","state":"OH","pin":1234},"type":"Feature","geometry":{"type":"Point","coordinates":[-84.112471,41.050248]}},{"properties":{"city":"Ottawa","status":"Active","ppv":"Yes","zip":"45875","region":"Glandorf","service packages":"Basic Contract,HD Copper","township":null,"last":"Schroeder","stbs allowed":7,"geo_score":0.902,"first":"Doug","ppv limit":"Unlimited","customer id":742,"phone":4195386832,"whdvr":"No","id":"abjw5ck54m9r","address":"11678 Rd M","login":"Glandorf","password":1234,"geo_precision":"range","state":"OH","pin":1234},"type":"Feature","geometry":{"type":"Point","coordinates":[-84.081844,40.992335]}},{"properties":{"city":"OTTAWA","status":"Active","ppv":"Yes","zip":"45848","region":"Glandorf","service packages":"Basic Contract,HD Optic","township":null,"last":"Schroeder","stbs allowed":3,"geo_score":0.707,"first":"Randy L","ppv limit":"Unlimited","customer id":1937,"phone":4195386534,"whdvr":"No","id":"abjw5cqhxgzf","address":"131 W Blake St","login":"Glandorf","password":1234,"geo_precision":"street","state":"OH","pin":1234},"type":"Feature","geometry":{"type":"Point","coordinates":[-84.083968,41.035464]}},{"properties":{"city":"Ottawa","status":"Active","ppv":"Yes","zip":"45875","region":"Glandorf","service packages":"Expanded basic Contract,Expanded HD Copper","township":null,"last":"Schroeder","stbs allowed":3,"geo_score":0.902,"first":"Dennis J","ppv limit":"Unlimited","customer id":1946,"phone":4195386275,"whdvr":"No","id":"abjw5cp3jf0i","address":"16606 RD J","login":"Glandorf","password":1234,"geo_precision":"range","state":"OH","pin":1234},"type":"Feature","geometry":{"type":"Point","coordinates":[-84.180469,41.035432]}},{"properties":{"city":"Ottawa","status":"Active","ppv":"Yes","zip":"45875","region":"Glandorf","service packages":"Expanded basic Contract,Expanded HD Copper","township":null,"last":"Schroeder","stbs allowed":5,"geo_score":0.812,"first":"Joe","ppv limit":"Unlimited","customer id":102600,"phone":4195387192,"whdvr":"No","id":"abjw5cl681yw","address":"12907 St Rt 694","login":"Glandorf","password":1234,"geo_precision":"range","state":"OH","pin":1234},"type":"Feature","geometry":{"type":"Point","coordinates":[-84.109443,41.028312]}},{"properties":{"city":"Ottawa","status":"Active","ppv":"No","zip":"45875","region":"Glandorf","service packages":"Basic Contract,HD Optic","township":null,"last":"Schroeder","stbs allowed":5,"geo_score":0.902,"first":"Scott &amp; Barb","ppv limit":"Unlimited","customer id":null,"phone":4195386736,"whdvr":"No","id":"abjw5cy0j6ls","address":"11764 Rd J","login":"Glandorf","password":1234,"geo_precision":"range","state":"OH","pin":1234},"type":"Feature","geometry":{"type":"Point","coordinates":[-84.093991,41.03585]}},{"properties":{"city":"Ottawa","status":"Active","ppv":"Yes","zip":"45875","region":"Glandorf","service packages":"Expanded basic Contract,Expanded HD Copper","township":null,"last":"Schulte","stbs allowed":5,"geo_score":0.902,"first":"Paul  Linda","ppv limit":"Unlimited","customer id":85,"phone":4195386087,"whdvr":"No","id":"abjw5cyc7a9k","address":"16732 RD J","login":"Glandorf","password":1234,"geo_precision":"range","state":"OH","pin":1234},"type":"Feature","geometry":{"type":"Point","coordinates":[-84.183168,41.035432]}},{"properties":{"city":"Ottawa","status":"Active","ppv":"Yes","zip":"45875","region":"Glandorf","service packages":"Basic Contract","township":null,"last":"Schulte","stbs allowed":3,"geo_score":0.659,"first":"Matthew","ppv limit":"Unlimited","customer id":null,"phone":4195386290,"whdvr":"No","id":"abjw5cy016i6","address":"12276 Rd 10L","login":"Glandorf","password":1234,"geo_precision":"street","state":"OH","pin":1234},"type":"Feature","geometry":{"type":"Point","coordinates":[-84.053058,40.962968]}},{"properties":{"city":"Ottawa","status":"Active","ppv":"Yes","zip":"45875","region":"Glandorf","service packages":"Basic Contract,HD Copper","township":"Union Township","last":"Schumaker","stbs allowed":5,"geo_score":0.659,"first":"James","ppv limit":"Unlimited","customer id":33700,"phone":4195386357,"whdvr":"No","id":"abjw5covdxem","address":"12055 Rd 14J","login":"Glandorf","password":1234,"geo_precision":"street","state":"OH","pin":1234},"type":"Feature","geometry":{"type":"Point","coordinates":[-84.130355,40.991897]}},{"properties":{"city":"Ottawa","status":"Active","ppv":"Yes","zip":"45875","region":"Glandorf","service packages":"Expanded basic Contract,Expanded HD Copper","township":"Ottawa Township","last":"Schumaker","stbs allowed":4,"geo_score":0.815,"first":"Louise","ppv limit":"Unlimited","customer id":42300,"phone":4195386451,"whdvr":"No","id":"abjw5cvd2i3q","address":"12863 St Rt 224","login":"Glandorf","password":1234,"geo_precision":"range","state":"OH","pin":1234},"type":"Feature","geometry":{"type":"Point","coordinates":[-84.108242,41.011068]}},{"properties":{"city":"Ottawa","status":"Active","ppv":"Yes","zip":"45875","region":"Glandorf","service packages":"Basic Contract,HD Copper","township":null,"last":"Schumaker","stbs allowed":4,"geo_score":0.902,"first":"Brad &amp; Angie","ppv limit":"Unlimited","customer id":15600,"phone":4195386159,"whdvr":"No","id":"abjw5cts91du","address":"13655 Rd K","login":"Glandorf","password":1234,"geo_precision":"range","state":"OH","pin":1234},"type":"Feature","geometry":{"type":"Point","coordinates":[-84.123941,41.021103]}},{"properties":{"city":"Ottawa","status":"Active","ppv":"Yes","zip":"45875","region":"Glandorf","service packages":"Expanded basic Contract,Expanded HD Fiber","township":null,"last":"Selhorst","stbs allowed":3,"geo_score":0.488,"first":"Kevin","ppv limit":"Unlimited","customer id":106900,"phone":4195387278,"whdvr":"No","id":"abjw5cv0opob","address":"366 Bucktown Rd","login":"Glandorf","password":1234,"geo_precision":"zip","state":"OH","pin":1234},"type":"Feature","geometry":{"type":"Point","coordinates":[-84.169112,41.020884]}},{"properties":{"city":"Ottawa","status":"Active","ppv":"Yes","zip":"45875","region":"Glandorf","service packages":"Basic Contract","township":null,"last":"Seymore","stbs allowed":3,"geo_score":0.902,"first":"Brady","ppv limit":"Unlimited","customer id":1580,"phone":4195386579,"whdvr":"No","id":"abjw5cx5j37t","address":"11505 Road 12","login":"Glandorf","password":1234,"geo_precision":"range","state":"OH","pin":1234},"type":"Feature","geometry":{"type":"Point","coordinates":[-84.092146,41.013619]}},{"properties":{"city":"Ottawa","status":"Active","ppv":"Yes","zip":"45875","region":"Glandorf","service packages":"Basic Contract,HD Copper","township":null,"last":"Siefker","stbs allowed":3,"geo_score":0.902,"first":"Carl","ppv limit":"Unlimited","customer id":307,"phone":4195386353,"whdvr":"No","id":"abjw5cpncdjc","address":"11754 Rd 12","login":"Glandorf","password":1234,"geo_precision":"range","state":"OH","pin":1234},"type":"Feature","geometry":{"type":"Point","coordinates":[-84.092294,41.011144]}},{"properties":{"city":"Ottawa","status":"Active","ppv":"Yes","zip":"45875","region":"Glandorf","service packages":"Expanded basic Contract,Expanded HD Copper","township":null,"last":"Siefker","stbs allowed":4,"geo_score":0.902,"first":"Richard","ppv limit":"Unlimited","customer id":714,"phone":4195386804,"whdvr":"No","id":"abjw5cycvr4z","address":"13768 Road K","login":"Glandorf","password":1234,"geo_precision":"range","state":"OH","pin":1234},"type":"Feature","geometry":{"type":"Point","coordinates":[-84.126075,41.021242]}},{"properties":{"city":"Ottawa","status":"Active","ppv":"Yes","zip":"45875","region":"Glandorf","service packages":"Basic Contract","township":null,"last":"Siefker","stbs allowed":3,"geo_score":0.812,"first":"Brian","ppv limit":"Unlimited","customer id":1273,"phone":4195386272,"whdvr":"No","id":"abjw5ci7y5rh","address":"13458 St Rt 694","login":"Glandorf","password":1234,"geo_precision":"range","state":"OH","pin":1234},"type":"Feature","geometry":{"type":"Point","coordinates":[-84.120348,41.028467]}},{"properties":{"city":"Ottawa","status":"Active","ppv":"Yes","zip":"45875","region":"Glandorf","service packages":"Expanded basic Contract","township":null,"last":"Siefker","stbs allowed":3,"geo_score":0.659,"first":"Kevin","ppv limit":"Unlimited","customer id":1565,"phone":4195387226,"whdvr":"No","id":"abjw5cpdjzy0","address":"10531 Road 14J","login":"Glandorf","password":1234,"geo_precision":"street","state":"OH","pin":1234},"type":"Feature","geometry":{"type":"Point","coordinates":[-84.130767,41.057573]}},{"properties":{"city":"Ottawa","status":"Active","ppv":"Yes","zip":"45875","region":"Glandorf","service packages":"Basic Contract,HD Copper","township":null,"last":"Siefker","stbs allowed":4,"geo_score":0.861,"first":"Larry &amp; Lisa","ppv limit":"Unlimited","customer id":303,"phone":4195386349,"whdvr":"No","id":"abjw5cksiyi7","address":"11467 Rd 11J","login":"Glandorf","password":1234,"geo_precision":"range","state":"OH","pin":1234},"type":"Feature","geometry":{"type":"Point","coordinates":[-84.08253,41.016714]}},{"properties":{"city":"O","status":"Active","ppv":"Yes","zip":"45875","region":"Glandorf","service packages":"Basic Contract,Encore,Starz,HD Copper","township":null,"last":"Siefker","stbs allowed":3,"geo_score":0.577,"first":"Ronald Lee","ppv limit":"Unlimited","customer id":388,"phone":4195386446,"whdvr":"No","id":"abjw5ct722ep","address":"12823 Rd 10L","login":"Glandorf","password":1234,"geo_precision":"street","state":"OH","pin":1234},"type":"Feature","geometry":{"type":"Point","coordinates":[-84.053058,40.962968]}},{"properties":{"city":"Ottawa","status":"Active","ppv":"Yes","zip":"45875","region":"Glandorf","service packages":"Basic Contract,HD Copper","township":null,"last":"Siefker","stbs allowed":3,"geo_score":0.62,"first":"Dustin","ppv limit":"Unlimited","customer id":1931,"phone":4195386175,"whdvr":"No","id":"abjw5crd74fb","address":"13531 St Rt 224","login":"Glandorf","password":1234,"geo_precision":"street","state":"OH","pin":1234},"type":"Feature","geometry":{"type":"Point","coordinates":[-84.11147,41.010295]}},{"properties":{"city":"Ottawa","status":"Active","ppv":"No","zip":"45875","region":"Glandorf","service packages":"Expanded basic Contract","township":null,"last":"Siefker","stbs allowed":2,"geo_score":0.902,"first":"Margaret","ppv limit":"Unlimited","customer id":4000,"phone":4195386039,"whdvr":"No","id":"abjw5coexe45","address":"12972 Rd K","login":"1234","password":1234,"geo_precision":"range","state":"OH","pin":1234},"type":"Feature","geometry":{"type":"Point","coordinates":[-84.110708,41.021229]}},{"properties":{"city":"Ottawa","status":"Active","ppv":"Yes","zip":"45875","region":"Glandorf","service packages":"Local","township":null,"last":"Siefker","stbs allowed":3,"geo_score":0.68,"first":"Rosemary","ppv limit":"Unlimited","customer id":5200,"phone":4195386052,"whdvr":"No","id":"abjw5cyfi2zc","address":"13116 US Rt 224","login":"Glandorf","password":1234,"geo_precision":"street","state":"OH","pin":1234},"type":"Feature","geometry":{"type":"Point","coordinates":[-84.11147,41.010295]}},{"properties":{"city":"Ottawa","status":"Active","ppv":"Yes","zip":"45875","region":"Glandorf","service packages":"Basic Contract","township":null,"last":"Smith","stbs allowed":3,"geo_score":0.854,"first":"Kristina","ppv limit":"Unlimited","customer id":196,"phone":4195386215,"whdvr":"No","id":"abjw5colm6ea","address":"293 N Main","login":"Glandorf","password":1234,"geo_precision":"range","state":"OH","pin":1234},"type":"Feature","geometry":{"type":"Point","coordinates":[-84.073433,41.021699]}},{"properties":{"city":"Ottawa","status":"Active","ppv":"Yes","zip":"45875","region":"Glandorf","service packages":"Expanded basic Contract,Expanded HD Copper","township":null,"last":"Smith","stbs allowed":4,"geo_score":0.659,"first":"Mike  Sue","ppv limit":"Unlimited","customer id":581,"phone":4195386660,"whdvr":"No","id":"abjw5cy7oy3i","address":"13249 Rd 11M","login":"Glandorf","password":1234,"geo_precision":"street","state":"OH","pin":1234},"type":"Feature","geometry":{"type":"Point","coordinates":[-84.07495,40.992297]}},{"properties":{"city":"Ottawa","status":"Active","ppv":"Yes","zip":"45875","region":"Glandorf","service packages":"Basic Contract,HD Copper","township":null,"last":"Stechschulte","stbs allowed":3,"geo_score":0.812,"first":"Donald","ppv limit":"Unlimited","customer id":691,"phone":4195386779,"whdvr":"No","id":"abjw5cr7t4cp","address":"13266 St Rt 694","login":"Glandorf","password":1234,"geo_precision":"range","state":"OH","pin":1234},"type":"Feature","geometry":{"type":"Point","coordinates":[-84.116213,41.028447]}},{"properties":{"city":"Ottawa","status":"Active","ppv":"Yes","zip":"45875","region":"Glandorf","service packages":"Basic Contract,HD Copper","township":null,"last":"Stechschulte","stbs allowed":4,"geo_score":0.902,"first":"Shane  Anita","ppv limit":"Unlimited","customer id":1831,"phone":4195386369,"whdvr":"No","id":"abjw5cqwr05q","address":"10741 RD M","login":"Glandorf","password":1234,"geo_precision":"range","state":"OH","pin":1234},"type":"Feature","geometry":{"type":"Point","coordinates":[-84.067326,40.992271]}},{"properties":{"city":"Ottawa","status":"Active","ppv":"Yes","zip":"45875","region":"Glandorf","service packages":"Basic Contract,HD Copper","township":null,"last":"Stechschulte","stbs allowed":4,"geo_score":0.902,"first":"Michael","ppv limit":"Unlimited","customer id":1879,"phone":4195386155,"whdvr":"No","id":"abjw5cyl4e4f","address":"14513 Rd K","login":"Glandorf","password":1234,"geo_precision":"range","state":"OH","pin":1234},"type":"Feature","geometry":{"type":"Point","coordinates":[-84.13983,41.020954]}},{"properties":{"city":"Ottawa","status":"Active","ppv":"Yes","zip":"45875","region":"Glandorf","service packages":"Basic Contract","township":null,"last":"Stechschulte","stbs allowed":3,"geo_score":0.861,"first":"Al","ppv limit":"Unlimited","customer id":406,"phone":4195386466,"whdvr":"No","id":"abjw5cin5gpa","address":"12705 Rd 11J","login":"Glandorf","password":1234,"geo_precision":"range","state":"OH","pin":1234},"type":"Feature","geometry":{"type":"Point","coordinates":[-84.082478,40.996551]}},{"properties":{"city":"Ottawa","status":"Active","ppv":"Yes","zip":"45875","region":"Glandorf","service packages":"Basic Contract,HD Copper","township":null,"last":"Stechschulte","stbs allowed":5,"geo_score":0.666,"first":"Kyle","ppv limit":"Unlimited","customer id":null,"phone":4195386662,"whdvr":"No","id":"abjw5clxpryz","address":"12472 Rd 10-L","login":"Glandorf","password":1234,"geo_precision":"street","state":"OH","pin":1234},"type":"Feature","geometry":{"type":"Point","coordinates":[-84.061826,41.040995]}},{"properties":{"city":"Glandorf","status":"Active","ppv":"No","zip":"45848","region":"Glandorf","service packages":"Local","township":null,"last":"Stefanek","stbs allowed":4,"geo_score":0.667,"first":"Dr. Dale","ppv limit":"Unlimited","customer id":1291,"phone":4195387400,"whdvr":"No","id":"abjw5cjl503r","address":"112 Dr thatye Dr. PO BOX 46","login":"Glandorf","password":1234,"geo_precision":"street","state":"OH","pin":1234},"type":"Feature","geometry":{"type":"Point","coordinates":[-84.43999,40.414836]}},{"properties":{"city":"Ottawa","status":"Active","ppv":"Yes","zip":"45875","region":"Glandorf","service packages":"HBO,Max,Expanded basic Contract,Encore,Starz,Expanded HD Fiber,Encore HD,Starz HD,HBO HD,Cinemax HD","township":null,"last":"Steffes","stbs allowed":4,"geo_score":0.902,"first":"Dave &amp; Audrey","ppv limit":"Unlimited","customer id":848,"phone":4195386951,"whdvr":"No","id":"abjw5cso4590","address":"261 Blanchard Ave.","login":"Glandorf","password":1234,"geo_precision":"range","state":"OH","pin":1234},"type":"Feature","geometry":{"type":"Point","coordinates":[-84.077503,41.029058]}},{"properties":{"city":"Ottawa","status":"Active","ppv":"Yes","zip":"45875","region":"Glandorf","service packages":"Basic Contract,HD Optic","township":null,"last":"Strauer","stbs allowed":3,"geo_score":0.707,"first":"Rob","ppv limit":"Unlimited","customer id":null,"phone":4195386767,"whdvr":"No","id":"abjw5cjiphup","address":"10384 Rd I9","login":"Glandorf","password":1234,"geo_precision":"street","state":"OH","pin":1234},"type":"Feature","geometry":{"type":"Point","coordinates":[-84.116447,41.050199]}},{"properties":{"city":"Glandorf","status":"Active","ppv":"No","zip":"45848","region":"Glandorf","service packages":"Local","township":null,"last":"Styling Salon","stbs allowed":2,"geo_score":0.667,"first":null,"ppv limit":"Unlimited","customer id":471,"phone":4195386540,"whdvr":"No","id":"abjw5cmx40yv","address":"136 S Main, PO Box 60","login":"Glandorf","password":1234,"geo_precision":"street","state":"OH","pin":1234},"type":"Feature","geometry":{"type":"Point","coordinates":[-84.07978,41.029818]}},{"properties":{"city":"Ottawa","status":"Active","ppv":"Yes","zip":"45875","region":"Glandorf","service packages":"Expanded basic Contract,Encore,Expanded HD Copper","township":null,"last":"Sullivan","stbs allowed":4,"geo_score":0.812,"first":"Kirk","ppv limit":"Unlimited","customer id":205,"phone":4195386227,"whdvr":"No","id":"abjw5cvyt7uh","address":"13417 St rt 694","login":"Glandorf","password":1234,"geo_precision":"range","state":"OH","pin":1234},"type":"Feature","geometry":{"type":"Point","coordinates":[-84.119347,41.028314]}},{"properties":{"city":"Glandorf","status":"Active","ppv":"Yes","zip":"45848","region":"Glandorf","service packages":"HBO,Max,Encore,Starz,All,HD package,Encore HD,Cinemax HD,NFL Red Zone","township":null,"last":"Team Glandorf","stbs allowed":10,"geo_score":0.476,"first":null,"ppv limit":"Unlimited","customer id":811,"phone":4195386910,"whdvr":"No","id":"abjw5cw03ccx","address":"117 N. Main St.","login":"Glandorf","password":1234,"geo_precision":"street","state":"OH","pin":1234},"type":"Feature","geometry":{"type":"Point","coordinates":[-84.07978,41.029818]}},{"properties":{"city":"Glandorf","status":"Active","ppv":"No","zip":"45848","region":"Glandorf","service packages":"Basic Contract,HD Optic","township":null,"last":"Touches from the Heart","stbs allowed":2,"geo_score":0.667,"first":null,"ppv limit":"Unlimited","customer id":721,"phone":4195386811,"whdvr":"No","id":"abjw5cjj91p1","address":"136 S Main, PO Box 1","login":"Glandorf","password":1234,"geo_precision":"street","state":"OH","pin":1234},"type":"Feature","geometry":{"type":"Point","coordinates":[-84.07978,41.029818]}},{"properties":{"city":"Glandorf","status":"Active","ppv":"No","zip":"45848","region":"Glandorf","service packages":"Basic Contract,HD Optic","township":null,"last":"Uphaus","stbs allowed":3,"geo_score":0.725,"first":"Charles","ppv limit":"Unlimited","customer id":520,"phone":4195386591,"whdvr":"No","id":"abjw5clex59u","address":"231 Blanchard, PO Box 16","login":"Glandorf","password":1234,"geo_precision":"street","state":"OH","pin":1234},"type":"Feature","geometry":{"type":"Point","coordinates":[-84.078049,41.02896]}},{"properties":{"city":"Ottawa","status":"Active","ppv":"No","zip":"45875","region":"Glandorf","service packages":"Expanded basic Contract,Expanded HD Fiber","township":null,"last":"Utrup","stbs allowed":6,"geo_score":0.902,"first":"Gerald","ppv limit":"Unlimited","customer id":272,"phone":4195386312,"whdvr":"No","id":"abjw5cumno29","address":"12224 Rd J","login":"Glandorf","password":1234,"geo_precision":"range","state":"OH","pin":1234},"type":"Feature","geometry":{"type":"Point","coordinates":[-84.097856,41.035872]}},{"properties":{"city":"Glandorf","status":"Active","ppv":"Yes","zip":"45848","region":"Glandorf","service packages":"Basic Contract,HD Copper","township":null,"last":"Utrup","stbs allowed":4,"geo_score":0.857,"first":"Kurt","ppv limit":"Unlimited","customer id":359,"phone":4195386415,"whdvr":"No","id":"abjw5cvllt5u","address":"11485 Rd 12, PO BOX 97","login":"Glandorf","password":1234,"geo_precision":"street","state":"OH","pin":1234},"type":"Feature","geometry":{"type":"Point","coordinates":[-84.09255,41.11842]}},{"properties":{"city":"Ottawa","status":"Active","ppv":"Yes","zip":"45875","region":"Glandorf","service packages":"Basic Contract","township":null,"last":"Utrup","stbs allowed":5,"geo_score":0.902,"first":"Jay  Tara","ppv limit":"Unlimited","customer id":1429,"phone":4195387353,"whdvr":"No","id":"abjw5cml6w65","address":"13729  Road K","login":"Glandorf","password":1234,"geo_precision":"range","state":"OH","pin":1234},"type":"Feature","geometry":{"type":"Point","coordinates":[-84.125509,41.021171]}},{"properties":{"city":"Ottawa","status":"Active","ppv":"Yes","zip":"45875","region":"Glandorf","service packages":"Basic Contract","township":null,"last":"Utrup","stbs allowed":4,"geo_score":0.447,"first":"Jason  Joyce","ppv limit":"Unlimited","customer id":1811,"phone":4195386160,"whdvr":"No","id":"abjw5cl9562v","address":"12653 Rd M-10","login":"Glandorf","password":1234,"geo_precision":"street","state":"OH","pin":1234},"type":"Feature","geometry":{"type":"Point","coordinates":[-83.956582,40.658476]}},{"properties":{"city":"Ottawa","status":"Active","ppv":"Yes","zip":"45875","region":"Glandorf","service packages":"Basic Contract,HD Copper","township":null,"last":"Utrup","stbs allowed":4,"geo_score":0.447,"first":"Alvin","ppv limit":"Unlimited","customer id":695,"phone":4195386783,"whdvr":"No","id":"abjw5criemuk","address":"13138 Rd M-10","login":"Glandorf","password":1234,"geo_precision":"street","state":"OH","pin":1234},"type":"Feature","geometry":{"type":"Point","coordinates":[-83.956582,40.658476]}},{"properties":{"city":"Ottawa","status":"Active","ppv":"Yes","zip":"45875","region":"Glandorf","service packages":"Basic Contract,HD Copper","township":null,"last":"Vennekotter","stbs allowed":5,"geo_score":0.447,"first":"Amanda","ppv limit":"Unlimited","customer id":1909,"phone":4195386049,"whdvr":"No","id":"abjw5cwq832s","address":"11683 Rd M-10","login":"Glandorf","password":1234,"geo_precision":"street","state":"OH","pin":1234},"type":"Feature","geometry":{"type":"Point","coordinates":[-83.956582,40.658476]}},{"properties":{"city":"Ottawa","status":"Active","ppv":"Yes","zip":"45875","region":"Glandorf","service packages":"Basic Contract","township":null,"last":"Verhoff","stbs allowed":3,"geo_score":0.902,"first":"Lambert","ppv limit":"Unlimited","customer id":472,"phone":4195386541,"whdvr":"No","id":"abjw5cxwxf9o","address":"13969 Rd 13","login":"Glandorf","password":1234,"geo_precision":"range","state":"OH","pin":1234},"type":"Feature","geometry":{"type":"Point","coordinates":[-84.111178,40.982545]}},{"properties":{"city":"Ottawa","status":"Inactive","ppv":"Yes","zip":"45875","region":"Glandorf","service packages":"Basic Contract","township":null,"last":"Verhoff","stbs allowed":6,"geo_score":0.812,"first":"Robert S","ppv limit":"Unlimited","customer id":85100,"phone":4195386936,"whdvr":"No","id":"abjw5cmn6xmp","address":"12791 St Rt 694","login":"Glandorf","password":1234,"geo_precision":"range","state":"OH","pin":1234},"type":"Feature","geometry":{"type":"Point","coordinates":[-84.107496,41.028505]}},{"properties":{"city":"Ottawa","status":"Active","ppv":"Yes","zip":"45875","region":"Glandorf","service packages":"Basic Contract,HD Copper","township":null,"last":"VonderEmbse","stbs allowed":5,"geo_score":0.526,"first":"Jeff  Julia","ppv limit":"Unlimited","customer id":281,"phone":4195386324,"whdvr":"No","id":"abjw5ct4hrev","address":"13497-C Rd M","login":"Glandorf","password":1234,"geo_precision":"street","state":"OH","pin":1234},"type":"Feature","geometry":{"type":"Point","coordinates":[-88.639427,44.329673]}},{"properties":{"city":"Ottawa","status":"Active","ppv":"Yes","zip":"45875","region":"Glandorf","service packages":"Basic Contract,HD Copper","township":null,"last":"Wahrer","stbs allowed":4,"geo_score":0.659,"first":"Matthew &amp; Jennifer","ppv limit":"Unlimited","customer id":1907,"phone":4195386194,"whdvr":"No","id":"abjw5csf5z1m","address":"12085 RD 14J","login":"Glandorf","password":1234,"geo_precision":"street","state":"OH","pin":1234},"type":"Feature","geometry":{"type":"Point","coordinates":[-84.130355,40.991897]}},{"properties":{"city":"Ottawa","status":"Active","ppv":"Yes","zip":"45875","region":"Glandorf","service packages":"Expanded basic Contract,Expanded HD Fiber","township":null,"last":"Warnecke","stbs allowed":5,"geo_score":0.902,"first":"Gene  Rose","ppv limit":"Unlimited","customer id":287,"phone":4195386330,"whdvr":"No","id":"abjw5cjxevkt","address":"218 Brunswick Dr","login":"Glandorf","password":1234,"geo_precision":"range","state":"OH","pin":1234},"type":"Feature","geometry":{"type":"Point","coordinates":[-84.072411,41.02538]}},{"properties":{"city":"Ottawa","status":"Active","ppv":"Yes","zip":"45875","region":"Glandorf","service packages":"Expanded basic Contract","township":null,"last":"Warnecke","stbs allowed":3,"geo_score":0.902,"first":"Greg","ppv limit":"Unlimited","customer id":348,"phone":4195386403,"whdvr":"No","id":"abjw5cw5alcn","address":"14237 Rd 13","login":"Glandorf","password":1234,"geo_precision":"range","state":"OH","pin":1234},"type":"Feature","geometry":{"type":"Point","coordinates":[-84.11108,40.978393]}},{"properties":{"city":"Ottawa","status":"Active","ppv":"Yes","zip":"45875","region":"Glandorf","service packages":"Basic Contract,HD Copper","township":null,"last":"Warnecke","stbs allowed":4,"geo_score":0.902,"first":"Rodney &amp; Jenny","ppv limit":"Unlimited","customer id":296,"phone":4195386340,"whdvr":"No","id":"abjw5cvcdjlc","address":"11477 Rd L","login":"Glandorf","password":1234,"geo_precision":"range","state":"OH","pin":1234},"type":"Feature","geometry":{"type":"Point","coordinates":[-84.081922,41.006713]}},{"properties":{"city":"Ottawa","status":"Active","ppv":"Yes","zip":"45875","region":"Glandorf","service packages":"Basic Contract","township":null,"last":"Warnecke","stbs allowed":3,"geo_score":0.902,"first":"Duane","ppv limit":"Unlimited","customer id":597,"phone":4195386677,"whdvr":"No","id":"abjw5crs8mvv","address":"178 S Main","login":"Glandorf","password":1234,"geo_precision":"range","state":"OH","pin":1234},"type":"Feature","geometry":{"type":"Point","coordinates":[-84.076777,41.025898]}},{"properties":{"city":"Ottawa","status":"Active","ppv":"Yes","zip":"45875","region":"Glandorf","service packages":"Basic Contract,HD Copper","township":null,"last":"Webken","stbs allowed":3,"geo_score":0.659,"first":"Roger","ppv limit":"Unlimited","customer id":15100,"phone":4195386154,"whdvr":"No","id":"abjw5coyguca","address":"12543 Rd 10L","login":"Glandorf","password":1234,"geo_precision":"street","state":"OH","pin":1234},"type":"Feature","geometry":{"type":"Point","coordinates":[-84.053058,40.962968]}},{"properties":{"city":"Ottawa","status":"Active","ppv":"Yes","zip":"45875","region":"Glandorf","service packages":"Expanded basic Contract,Expanded HD Copper","township":null,"last":"Weis","stbs allowed":4,"geo_score":0.659,"first":"Nathan","ppv limit":"Unlimited","customer id":660,"phone":4195386748,"whdvr":"No","id":"abjw5cprb4lp","address":"12013 Rd 14J","login":"Glandorf","password":1234,"geo_precision":"street","state":"OH","pin":1234},"type":"Feature","geometry":{"type":"Point","coordinates":[-84.130355,40.991897]}},{"properties":{"city":"Ottawa","status":"Active","ppv":"Yes","zip":"45875","region":"Glandorf","service packages":"Basic Contract,HD Copper","township":null,"last":"Westrick","stbs allowed":4,"geo_score":0.902,"first":"Randy","ppv limit":"Unlimited","customer id":302,"phone":4195386347,"whdvr":"No","id":"abjw5cylbclv","address":"13426 Rd M","login":"Glandorf","password":1234,"geo_precision":"range","state":"OH","pin":1234},"type":"Feature","geometry":{"type":"Point","coordinates":[-84.118476,40.99207]}},{"properties":{"city":"Ottawa","status":"Active","ppv":"Yes","zip":"45875","region":"Glandorf","service packages":"Basic Contract,HD Copper","township":null,"last":"Wolke","stbs allowed":4,"geo_score":0.861,"first":"Ron  Norma","ppv limit":"Unlimited","customer id":799,"phone":4195386893,"whdvr":"No","id":"abjw5ctlkifv","address":"11620 Rd 12K","login":"Glandorf","password":1234,"geo_precision":"range","state":"OH","pin":1234},"type":"Feature","geometry":{"type":"Point","coordinates":[-84.101903,41.011744]}},{"properties":{"city":"Ottawa","status":"Active","ppv":"Yes","zip":"45875","region":"Glandorf","service packages":"Basic Contract","township":"Ottawa Township","last":"Wolke","stbs allowed":2,"geo_score":0.659,"first":"Herman","ppv limit":"Unlimited","customer id":777,"phone":4195386869,"whdvr":"No","id":"abjw5ckakd0a","address":"11491 Rd 10K","login":"Glandorf","password":1234,"geo_precision":"street","state":"OH","pin":1234},"type":"Feature","geometry":{"type":"Point","coordinates":[-84.053666,41.066063]}},{"properties":{"city":"Ottawa","status":"Active","ppv":"Yes","zip":"45875","region":"Glandorf","service packages":"Basic Contract,HD Optic","township":"Ottawa Township","last":"Wolke","stbs allowed":5,"geo_score":0.666,"first":"Josh &amp; Beth","ppv limit":"Unlimited","customer id":23400,"phone":4195386241,"whdvr":"No","id":"abjw5cxyi2o2","address":"11471 Rd 10-K","login":"Glandorf","password":1234,"geo_precision":"street","state":"OH","pin":1234},"type":"Feature","geometry":{"type":"Point","coordinates":[-84.061826,41.040995]}},{"properties":{"city":"Ottawa","status":"Inactive","ppv":"Yes","zip":"45875","region":"Glandorf","service packages":"Basic Contract","township":null,"last":"Wrasman","stbs allowed":3,"geo_score":0.902,"first":"Alan","ppv limit":"Unlimited","customer id":53600,"phone":4195386574,"whdvr":"No","id":"abjw5cyllj5r","address":"10810 Rd 13","login":"Glandorf","password":1234,"geo_precision":"range","state":"OH","pin":1234},"type":"Feature","geometry":{"type":"Point","coordinates":[-84.111577,41.023897]}},{"properties":{"city":"Ottawa","status":"Active","ppv":"Yes","zip":"45875","region":"Glandorf","service packages":"Basic Contract","township":null,"last":"Yoder","stbs allowed":4,"geo_score":0.812,"first":"Dan","ppv limit":"Unlimited","customer id":1873,"phone":4195386622,"whdvr":"No","id":"abjw5cqf92cn","address":"13512 St Rt 694","login":"Glandorf","password":1234,"geo_precision":"range","state":"OH","pin":1234},"type":"Feature","geometry":{"type":"Point","coordinates":[-84.121176,41.028472]}},{"properties":{"city":"Ottawa","status":"Active","ppv":"Yes","zip":"45875","region":"Glandorf","service packages":"Basic Contract","township":null,"last":"Zynda","stbs allowed":3,"geo_score":0.447,"first":"Gary","ppv limit":"Unlimited","customer id":7,"phone":4195386003,"whdvr":"No","id":"abjw5ck9nw76","address":"11707 Rd M-10","login":"Glandorf","password":1234,"geo_precision":"street","state":"OH","pin":1234},"type":"Feature","geometry":{"type":"Point","coordinates":[-83.956582,40.658476]}}],"is_temporal":false,"author":{"url":"","metadata":null,"contact_name":null,"contact_address":null,"source":null,"contact_phone":null},"source":"","pagination":{"sort":null,"start":0,"total":335,"limit":1000000},"state":"complete","tags":"","published":"2014-08-16T15:58:28-04:00","id":312378}