{"type":"FeatureCollection","data_type":"Dataset","url_type":null,"permissions":[{"permissions":{"download":true,"view":true},"group_id":"everyone"}],"classification":null,"title":"InboundRaw","count":1009,"stream_id":312801,"contributor":{"url":"http://geocommons.com/users/59474","name":"tmeagle2"},"data_attributes":null,"calculation_params":null,"icon_link":null,"link":"http://geocommons.com/overlays/312801.json","extent":[0.0,0.0,0.0,0.0],"geometry_types":["point"],"unique_name":null,"name":"InboundRaw","feature_count":1009,"description":"","next_feature":null,"is_raster":false,"short_classification":"Y","stats":{"3digit":{"max":456,"variance":5406.9082896786,"mean":211.356788899901,"stdev":73.5316822171137,"min":137,"median":190},"inzips":{"max":456,"variance":5406.9082896786,"mean":211.356788899901,"stdev":73.5316822171137,"min":137,"median":190}},"features":[{"properties":{"zip":"13730","3digit":"137","inzips":"137","primary_city":"Afton","id":"abkwxn0zguyq","state":"NY"},"type":"Feature","geometry":null},{"properties":{"zip":"13731","3digit":"137","inzips":"137","primary_city":"Andes","id":"abkwxngif6mq","state":"NY"},"type":"Feature","geometry":null},{"properties":{"zip":"13732","3digit":"137","inzips":"137","primary_city":"Apalachin","id":"abkwxndolr6l","state":"NY"},"type":"Feature","geometry":null},{"properties":{"zip":"13733","3digit":"137","inzips":"137","primary_city":"Bainbridge","id":"abkwxneo00n1","state":"NY"},"type":"Feature","geometry":null},{"properties":{"zip":"13734","3digit":"137","inzips":"137","primary_city":"Barton","id":"abkwxn0zut9e","state":"NY"},"type":"Feature","geometry":null},{"properties":{"zip":"13736","3digit":"137","inzips":"137","primary_city":"Berkshire","id":"abkwxnczdi7n","state":"NY"},"type":"Feature","geometry":null},{"properties":{"zip":"13737","3digit":"137","inzips":"137","primary_city":"Bible School Park","id":"abkwxn7eoy9c","state":"NY"},"type":"Feature","geometry":null},{"properties":{"zip":"13738","3digit":"137","inzips":"137","primary_city":"Blodgett Mills","id":"abkwxn8q0u6v","state":"NY"},"type":"Feature","geometry":null},{"properties":{"zip":"13739","3digit":"137","inzips":"137","primary_city":"Bloomville","id":"abkwxn9dq4l5","state":"NY"},"type":"Feature","geometry":null},{"properties":{"zip":"13740","3digit":"137","inzips":"137","primary_city":"Bovina Center","id":"abkwxn3fa2mt","state":"NY"},"type":"Feature","geometry":null},{"properties":{"zip":"13743","3digit":"137","inzips":"137","primary_city":"Candor","id":"abkwxn1alxc5","state":"NY"},"type":"Feature","geometry":null},{"properties":{"zip":"13744","3digit":"137","inzips":"137","primary_city":"Castle Creek","id":"abkwxnfjcd1d","state":"NY"},"type":"Feature","geometry":null},{"properties":{"zip":"13745","3digit":"137","inzips":"137","primary_city":"Chenango Bridge","id":"abkwxn7gxzy1","state":"NY"},"type":"Feature","geometry":null},{"properties":{"zip":"13746","3digit":"137","inzips":"137","primary_city":"Chenango Forks","id":"abkwxneu0ecc","state":"NY"},"type":"Feature","geometry":null},{"properties":{"zip":"13747","3digit":"137","inzips":"137","primary_city":"Colliersville","id":"abkwxnabp24a","state":"NY"},"type":"Feature","geometry":null},{"properties":{"zip":"13748","3digit":"137","inzips":"137","primary_city":"Conklin","id":"abkwxn1kpf0j","state":"NY"},"type":"Feature","geometry":null},{"properties":{"zip":"13749","3digit":"137","inzips":"137","primary_city":"Corbettsville","id":"abkwxn7ync2y","state":"NY"},"type":"Feature","geometry":null},{"properties":{"zip":"13750","3digit":"137","inzips":"137","primary_city":"Davenport","id":"abkwxnfuue66","state":"NY"},"type":"Feature","geometry":null},{"properties":{"zip":"13751","3digit":"137","inzips":"137","primary_city":"Davenport Center","id":"abkwxnfack9f","state":"NY"},"type":"Feature","geometry":null},{"properties":{"zip":"13752","3digit":"137","inzips":"137","primary_city":"Delancey","id":"abkwxnfkw059","state":"NY"},"type":"Feature","geometry":null},{"properties":{"zip":"13753","3digit":"137","inzips":"137","primary_city":"Delhi","id":"abkwxnd5xr5f","state":"NY"},"type":"Feature","geometry":null},{"properties":{"zip":"13754","3digit":"137","inzips":"137","primary_city":"Deposit","id":"abkwxn06seoo","state":"NY"},"type":"Feature","geometry":null},{"properties":{"zip":"13755","3digit":"137","inzips":"137","primary_city":"Downsville","id":"abkwxn08ka31","state":"NY"},"type":"Feature","geometry":null},{"properties":{"zip":"13756","3digit":"137","inzips":"137","primary_city":"East Branch","id":"abkwxn29g5pd","state":"NY"},"type":"Feature","geometry":null},{"properties":{"zip":"13757","3digit":"137","inzips":"137","primary_city":"East Meredith","id":"abkwxnc8poay","state":"NY"},"type":"Feature","geometry":null},{"properties":{"zip":"13758","3digit":"137","inzips":"137","primary_city":"East Pharsalia","id":"abkwxn1j815u","state":"NY"},"type":"Feature","geometry":null},{"properties":{"zip":"13760","3digit":"137","inzips":"137","primary_city":"Endicott","id":"abkwxnd7763k","state":"NY"},"type":"Feature","geometry":null},{"properties":{"zip":"13761","3digit":"137","inzips":"137","primary_city":"Endicott","id":"abkwxn100kgp","state":"NY"},"type":"Feature","geometry":null},{"properties":{"zip":"13762","3digit":"137","inzips":"137","primary_city":"Endwell","id":"abkwxn9p16iv","state":"NY"},"type":"Feature","geometry":null},{"properties":{"zip":"13763","3digit":"137","inzips":"137","primary_city":"Endicott","id":"abkwxn5jiben","state":"NY"},"type":"Feature","geometry":null},{"properties":{"zip":"13774","3digit":"137","inzips":"137","primary_city":"Fishs Eddy","id":"abkwxncg459b","state":"NY"},"type":"Feature","geometry":null},{"properties":{"zip":"13775","3digit":"137","inzips":"137","primary_city":"Franklin","id":"abkwxn315rkx","state":"NY"},"type":"Feature","geometry":null},{"properties":{"zip":"13776","3digit":"137","inzips":"137","primary_city":"Gilbertsville","id":"abkwxn7i2zmy","state":"NY"},"type":"Feature","geometry":null},{"properties":{"zip":"13777","3digit":"137","inzips":"137","primary_city":"Glen Aubrey","id":"abkwxn8sdn40","state":"NY"},"type":"Feature","geometry":null},{"properties":{"zip":"13778","3digit":"137","inzips":"137","primary_city":"Greene","id":"abkwxn26wirw","state":"NY"},"type":"Feature","geometry":null},{"properties":{"zip":"13780","3digit":"137","inzips":"137","primary_city":"Guilford","id":"abkwxn1r4mrc","state":"NY"},"type":"Feature","geometry":null},{"properties":{"zip":"13782","3digit":"137","inzips":"137","primary_city":"Hamden","id":"abkwxnew8qk9","state":"NY"},"type":"Feature","geometry":null},{"properties":{"zip":"13783","3digit":"137","inzips":"137","primary_city":"Hancock","id":"abkwxnfxrl46","state":"NY"},"type":"Feature","geometry":null},{"properties":{"zip":"13784","3digit":"137","inzips":"137","primary_city":"Harford","id":"abkwxn8dzqxr","state":"NY"},"type":"Feature","geometry":null},{"properties":{"zip":"13786","3digit":"137","inzips":"137","primary_city":"Harpersfield","id":"abkwxnfqn2i8","state":"NY"},"type":"Feature","geometry":null},{"properties":{"zip":"13787","3digit":"137","inzips":"137","primary_city":"Harpursville","id":"abkwxn9l7e1k","state":"NY"},"type":"Feature","geometry":null},{"properties":{"zip":"13788","3digit":"137","inzips":"137","primary_city":"Hobart","id":"abkwxn4zvy20","state":"NY"},"type":"Feature","geometry":null},{"properties":{"zip":"13790","3digit":"137","inzips":"137","primary_city":"Johnson City","id":"abkwxn623azd","state":"NY"},"type":"Feature","geometry":null},{"properties":{"zip":"13794","3digit":"137","inzips":"137","primary_city":"Killawog","id":"abkwxn8p7k9a","state":"NY"},"type":"Feature","geometry":null},{"properties":{"zip":"13795","3digit":"137","inzips":"137","primary_city":"Kirkwood","id":"abkwxne4sdkx","state":"NY"},"type":"Feature","geometry":null},{"properties":{"zip":"13796","3digit":"137","inzips":"137","primary_city":"Laurens","id":"abkwxn9f1bav","state":"NY"},"type":"Feature","geometry":null},{"properties":{"zip":"13797","3digit":"137","inzips":"137","primary_city":"Lisle","id":"abkwxn0e6rqx","state":"NY"},"type":"Feature","geometry":null},{"properties":{"zip":"14201","3digit":"142","inzips":"142","primary_city":"Buffalo","id":"abkwxn904j4s","state":"NY"},"type":"Feature","geometry":null},{"properties":{"zip":"14202","3digit":"142","inzips":"142","primary_city":"Buffalo","id":"abkwxnafhori","state":"NY"},"type":"Feature","geometry":null},{"properties":{"zip":"14203","3digit":"142","inzips":"142","primary_city":"Buffalo","id":"abkwxn5cmefq","state":"NY"},"type":"Feature","geometry":null},{"properties":{"zip":"14204","3digit":"142","inzips":"142","primary_city":"Buffalo","id":"abkwxn9a8080","state":"NY"},"type":"Feature","geometry":null},{"properties":{"zip":"14205","3digit":"142","inzips":"142","primary_city":"Buffalo","id":"abkwxnfs5e5o","state":"NY"},"type":"Feature","geometry":null},{"properties":{"zip":"14206","3digit":"142","inzips":"142","primary_city":"Buffalo","id":"abkwxngi1799","state":"NY"},"type":"Feature","geometry":null},{"properties":{"zip":"14207","3digit":"142","inzips":"142","primary_city":"Buffalo","id":"abkwxn8b6rcc","state":"NY"},"type":"Feature","geometry":null},{"properties":{"zip":"14208","3digit":"142","inzips":"142","primary_city":"Buffalo","id":"abkwxn9xz3rh","state":"NY"},"type":"Feature","geometry":null},{"properties":{"zip":"14209","3digit":"142","inzips":"142","primary_city":"Buffalo","id":"abkwxne58qrd","state":"NY"},"type":"Feature","geometry":null},{"properties":{"zip":"14210","3digit":"142","inzips":"142","primary_city":"Buffalo","id":"abkwxndu5qlh","state":"NY"},"type":"Feature","geometry":null},{"properties":{"zip":"14211","3digit":"142","inzips":"142","primary_city":"Buffalo","id":"abkwxnb2iqf2","state":"NY"},"type":"Feature","geometry":null},{"properties":{"zip":"14212","3digit":"142","inzips":"142","primary_city":"Buffalo","id":"abkwxnb2dtyo","state":"NY"},"type":"Feature","geometry":null},{"properties":{"zip":"14213","3digit":"142","inzips":"142","primary_city":"Buffalo","id":"abkwxn40h528","state":"NY"},"type":"Feature","geometry":null},{"properties":{"zip":"14214","3digit":"142","inzips":"142","primary_city":"Buffalo","id":"abkwxn1snyep","state":"NY"},"type":"Feature","geometry":null},{"properties":{"zip":"14215","3digit":"142","inzips":"142","primary_city":"Buffalo","id":"abkwxn581rkv","state":"NY"},"type":"Feature","geometry":null},{"properties":{"zip":"14216","3digit":"142","inzips":"142","primary_city":"Buffalo","id":"abkwxn92yklq","state":"NY"},"type":"Feature","geometry":null},{"properties":{"zip":"14217","3digit":"142","inzips":"142","primary_city":"Buffalo","id":"abkwxnbppulx","state":"NY"},"type":"Feature","geometry":null},{"properties":{"zip":"14218","3digit":"142","inzips":"142","primary_city":"Buffalo","id":"abkwxn3ltgdi","state":"NY"},"type":"Feature","geometry":null},{"properties":{"zip":"14219","3digit":"142","inzips":"142","primary_city":"Buffalo","id":"abkwxn8w5fez","state":"NY"},"type":"Feature","geometry":null},{"properties":{"zip":"14220","3digit":"142","inzips":"142","primary_city":"Buffalo","id":"abkwxn1ogmdv","state":"NY"},"type":"Feature","geometry":null},{"properties":{"zip":"14221","3digit":"142","inzips":"142","primary_city":"Buffalo","id":"abkwxne45ojr","state":"NY"},"type":"Feature","geometry":null},{"properties":{"zip":"14222","3digit":"142","inzips":"142","primary_city":"Buffalo","id":"abkwxn58r2h7","state":"NY"},"type":"Feature","geometry":null},{"properties":{"zip":"14223","3digit":"142","inzips":"142","primary_city":"Buffalo","id":"abkwxngk5sop","state":"NY"},"type":"Feature","geometry":null},{"properties":{"zip":"14224","3digit":"142","inzips":"142","primary_city":"Buffalo","id":"abkwxnbjzn8h","state":"NY"},"type":"Feature","geometry":null},{"properties":{"zip":"14225","3digit":"142","inzips":"142","primary_city":"Buffalo","id":"abkwxn264gnz","state":"NY"},"type":"Feature","geometry":null},{"properties":{"zip":"14226","3digit":"142","inzips":"142","primary_city":"Buffalo","id":"abkwxn09n4zi","state":"NY"},"type":"Feature","geometry":null},{"properties":{"zip":"14227","3digit":"142","inzips":"142","primary_city":"Buffalo","id":"abkwxn6zanvg","state":"NY"},"type":"Feature","geometry":null},{"properties":{"zip":"14228","3digit":"142","inzips":"142","primary_city":"Buffalo","id":"abkwxn0gxcl9","state":"NY"},"type":"Feature","geometry":null},{"properties":{"zip":"14231","3digit":"142","inzips":"142","primary_city":"Buffalo","id":"abkwxne4huc9","state":"NY"},"type":"Feature","geometry":null},{"properties":{"zip":"14233","3digit":"142","inzips":"142","primary_city":"Buffalo","id":"abkwxn4nqbk9","state":"NY"},"type":"Feature","geometry":null},{"properties":{"zip":"14240","3digit":"142","inzips":"142","primary_city":"Buffalo","id":"abkwxndrqf4p","state":"NY"},"type":"Feature","geometry":null},{"properties":{"zip":"14241","3digit":"142","inzips":"142","primary_city":"Buffalo","id":"abkwxnbxqbxp","state":"NY"},"type":"Feature","geometry":null},{"properties":{"zip":"14260","3digit":"142","inzips":"142","primary_city":"Buffalo","id":"abkwxn8vli91","state":"NY"},"type":"Feature","geometry":null},{"properties":{"zip":"14261","3digit":"142","inzips":"142","primary_city":"Buffalo","id":"abkwxn61dw1l","state":"NY"},"type":"Feature","geometry":null},{"properties":{"zip":"14263","3digit":"142","inzips":"142","primary_city":"Buffalo","id":"abkwxndrwib3","state":"NY"},"type":"Feature","geometry":null},{"properties":{"zip":"14264","3digit":"142","inzips":"142","primary_city":"Buffalo","id":"abkwxncppisk","state":"NY"},"type":"Feature","geometry":null},{"properties":{"zip":"14265","3digit":"142","inzips":"142","primary_city":"Buffalo","id":"abkwxn37m5ov","state":"NY"},"type":"Feature","geometry":null},{"properties":{"zip":"14267","3digit":"142","inzips":"142","primary_city":"Buffalo","id":"abkwxn9b0i81","state":"NY"},"type":"Feature","geometry":null},{"properties":{"zip":"14269","3digit":"142","inzips":"142","primary_city":"Buffalo","id":"abkwxn056qs5","state":"NY"},"type":"Feature","geometry":null},{"properties":{"zip":"14270","3digit":"142","inzips":"142","primary_city":"Buffalo","id":"abkwxn4x8fwv","state":"NY"},"type":"Feature","geometry":null},{"properties":{"zip":"14272","3digit":"142","inzips":"142","primary_city":"Buffalo","id":"abkwxnab79aw","state":"NY"},"type":"Feature","geometry":null},{"properties":{"zip":"14273","3digit":"142","inzips":"142","primary_city":"Buffalo","id":"abkwxn28barb","state":"NY"},"type":"Feature","geometry":null},{"properties":{"zip":"14276","3digit":"142","inzips":"142","primary_city":"Buffalo","id":"abkwxn2g3828","state":"NY"},"type":"Feature","geometry":null},{"properties":{"zip":"14280","3digit":"142","inzips":"142","primary_city":"Buffalo","id":"abkwxn7zab93","state":"NY"},"type":"Feature","geometry":null},{"properties":{"zip":"17501","3digit":"175","inzips":"175","primary_city":"Akron","id":"abkwxnc4p54z","state":"PA"},"type":"Feature","geometry":null},{"properties":{"zip":"17502","3digit":"175","inzips":"175","primary_city":"Bainbridge","id":"abkwxna330j1","state":"PA"},"type":"Feature","geometry":null},{"properties":{"zip":"17503","3digit":"175","inzips":"175","primary_city":"Bart","id":"abkwxn5cedan","state":"PA"},"type":"Feature","geometry":null},{"properties":{"zip":"17504","3digit":"175","inzips":"175","primary_city":"Bausman","id":"abkwxndjq98y","state":"PA"},"type":"Feature","geometry":null},{"properties":{"zip":"17505","3digit":"175","inzips":"175","primary_city":"Bird In Hand","id":"abkwxnaq9mxg","state":"PA"},"type":"Feature","geometry":null},{"properties":{"zip":"17506","3digit":"175","inzips":"175","primary_city":"Blue Ball","id":"abkwxnfdcc9b","state":"PA"},"type":"Feature","geometry":null},{"properties":{"zip":"17507","3digit":"175","inzips":"175","primary_city":"Bowmansville","id":"abkwxn1spld2","state":"PA"},"type":"Feature","geometry":null},{"properties":{"zip":"17508","3digit":"175","inzips":"175","primary_city":"Brownstown","id":"abkwxn8m98v5","state":"PA"},"type":"Feature","geometry":null},{"properties":{"zip":"17509","3digit":"175","inzips":"175","primary_city":"Christiana","id":"abkwxn1w1ipu","state":"PA"},"type":"Feature","geometry":null},{"properties":{"zip":"17512","3digit":"175","inzips":"175","primary_city":"Columbia","id":"abkwxn0nsfyb","state":"PA"},"type":"Feature","geometry":null},{"properties":{"zip":"17516","3digit":"175","inzips":"175","primary_city":"Conestoga","id":"abkwxn2iopes","state":"PA"},"type":"Feature","geometry":null},{"properties":{"zip":"17517","3digit":"175","inzips":"175","primary_city":"Denver","id":"abkwxna8qrtr","state":"PA"},"type":"Feature","geometry":null},{"properties":{"zip":"17518","3digit":"175","inzips":"175","primary_city":"Drumore","id":"abkwxncts1gl","state":"PA"},"type":"Feature","geometry":null},{"properties":{"zip":"17519","3digit":"175","inzips":"175","primary_city":"East Earl","id":"abkwxnaz3khn","state":"PA"},"type":"Feature","geometry":null},{"properties":{"zip":"17520","3digit":"175","inzips":"175","primary_city":"East Petersburg","id":"abkwxn5onseu","state":"PA"},"type":"Feature","geometry":null},{"properties":{"zip":"17521","3digit":"175","inzips":"175","primary_city":"Elm","id":"abkwxn1a7au5","state":"PA"},"type":"Feature","geometry":null},{"properties":{"zip":"17522","3digit":"175","inzips":"175","primary_city":"Ephrata","id":"abkwxn6nkjnu","state":"PA"},"type":"Feature","geometry":null},{"properties":{"zip":"17527","3digit":"175","inzips":"175","primary_city":"Gap","id":"abkwxnddew69","state":"PA"},"type":"Feature","geometry":null},{"properties":{"zip":"17528","3digit":"175","inzips":"175","primary_city":"Goodville","id":"abkwxn8scksu","state":"PA"},"type":"Feature","geometry":null},{"properties":{"zip":"17529","3digit":"175","inzips":"175","primary_city":"Gordonville","id":"abkwxn4h74mf","state":"PA"},"type":"Feature","geometry":null},{"properties":{"zip":"17532","3digit":"175","inzips":"175","primary_city":"Holtwood","id":"abkwxngaepuf","state":"PA"},"type":"Feature","geometry":null},{"properties":{"zip":"17533","3digit":"175","inzips":"175","primary_city":"Hopeland","id":"abkwxn6px4sg","state":"PA"},"type":"Feature","geometry":null},{"properties":{"zip":"17534","3digit":"175","inzips":"175","primary_city":"Intercourse","id":"abkwxnce0imo","state":"PA"},"type":"Feature","geometry":null},{"properties":{"zip":"17535","3digit":"175","inzips":"175","primary_city":"Kinzers","id":"abkwxn344680","state":"PA"},"type":"Feature","geometry":null},{"properties":{"zip":"17536","3digit":"175","inzips":"175","primary_city":"Kirkwood","id":"abkwxnfuigml","state":"PA"},"type":"Feature","geometry":null},{"properties":{"zip":"17537","3digit":"175","inzips":"175","primary_city":"Lampeter","id":"abkwxn2wk8rq","state":"PA"},"type":"Feature","geometry":null},{"properties":{"zip":"17538","3digit":"175","inzips":"175","primary_city":"Landisville","id":"abkwxn44zznb","state":"PA"},"type":"Feature","geometry":null},{"properties":{"zip":"17540","3digit":"175","inzips":"175","primary_city":"Leola","id":"abkwxnbsyote","state":"PA"},"type":"Feature","geometry":null},{"properties":{"zip":"17543","3digit":"175","inzips":"175","primary_city":"Lititz","id":"abkwxn0orbik","state":"PA"},"type":"Feature","geometry":null},{"properties":{"zip":"17545","3digit":"175","inzips":"175","primary_city":"Manheim","id":"abkwxn4gulpo","state":"PA"},"type":"Feature","geometry":null},{"properties":{"zip":"17547","3digit":"175","inzips":"175","primary_city":"Marietta","id":"abkwxn4t66b9","state":"PA"},"type":"Feature","geometry":null},{"properties":{"zip":"17549","3digit":"175","inzips":"175","primary_city":"Martindale","id":"abkwxn52298s","state":"PA"},"type":"Feature","geometry":null},{"properties":{"zip":"17550","3digit":"175","inzips":"175","primary_city":"Maytown","id":"abkwxn3b1kwk","state":"PA"},"type":"Feature","geometry":null},{"properties":{"zip":"17551","3digit":"175","inzips":"175","primary_city":"Millersville","id":"abkwxn0kr9vh","state":"PA"},"type":"Feature","geometry":null},{"properties":{"zip":"17552","3digit":"175","inzips":"175","primary_city":"Mount Joy","id":"abkwxndetlph","state":"PA"},"type":"Feature","geometry":null},{"properties":{"zip":"17554","3digit":"175","inzips":"175","primary_city":"Mountville","id":"abkwxndhvbqn","state":"PA"},"type":"Feature","geometry":null},{"properties":{"zip":"17555","3digit":"175","inzips":"175","primary_city":"Narvon","id":"abkwxncsevop","state":"PA"},"type":"Feature","geometry":null},{"properties":{"zip":"17557","3digit":"175","inzips":"175","primary_city":"New Holland","id":"abkwxn0cfqeq","state":"PA"},"type":"Feature","geometry":null},{"properties":{"zip":"17560","3digit":"175","inzips":"175","primary_city":"New Providence","id":"abkwxn3z9i5v","state":"PA"},"type":"Feature","geometry":null},{"properties":{"zip":"17562","3digit":"175","inzips":"175","primary_city":"Paradise","id":"abkwxn5m9mft","state":"PA"},"type":"Feature","geometry":null},{"properties":{"zip":"17563","3digit":"175","inzips":"175","primary_city":"Peach Bottom","id":"abkwxnb6r2p3","state":"PA"},"type":"Feature","geometry":null},{"properties":{"zip":"17564","3digit":"175","inzips":"175","primary_city":"Penryn","id":"abkwxneuu321","state":"PA"},"type":"Feature","geometry":null},{"properties":{"zip":"17565","3digit":"175","inzips":"175","primary_city":"Pequea","id":"abkwxndhz4ad","state":"PA"},"type":"Feature","geometry":null},{"properties":{"zip":"17566","3digit":"175","inzips":"175","primary_city":"Quarryville","id":"abkwxn29g02w","state":"PA"},"type":"Feature","geometry":null},{"properties":{"zip":"17567","3digit":"175","inzips":"175","primary_city":"Reamstown","id":"abkwxn8mfiza","state":"PA"},"type":"Feature","geometry":null},{"properties":{"zip":"17568","3digit":"175","inzips":"175","primary_city":"Refton","id":"abkwxndq7wua","state":"PA"},"type":"Feature","geometry":null},{"properties":{"zip":"17569","3digit":"175","inzips":"175","primary_city":"Reinholds","id":"abkwxnc3espy","state":"PA"},"type":"Feature","geometry":null},{"properties":{"zip":"17570","3digit":"175","inzips":"175","primary_city":"Rheems","id":"abkwxnb0l1o9","state":"PA"},"type":"Feature","geometry":null},{"properties":{"zip":"17572","3digit":"175","inzips":"175","primary_city":"Ronks","id":"abkwxn56wzdn","state":"PA"},"type":"Feature","geometry":null},{"properties":{"zip":"17573","3digit":"175","inzips":"175","primary_city":"Lancaster","id":"abkwxn976wnv","state":"PA"},"type":"Feature","geometry":null},{"properties":{"zip":"17575","3digit":"175","inzips":"175","primary_city":"Silver Spring","id":"abkwxnaii9ye","state":"PA"},"type":"Feature","geometry":null},{"properties":{"zip":"17576","3digit":"175","inzips":"175","primary_city":"Smoketown","id":"abkwxn0o1uet","state":"PA"},"type":"Feature","geometry":null},{"properties":{"zip":"17578","3digit":"175","inzips":"175","primary_city":"Stevens","id":"abkwxnbmja27","state":"PA"},"type":"Feature","geometry":null},{"properties":{"zip":"17579","3digit":"175","inzips":"175","primary_city":"Strasburg","id":"abkwxn8g8dre","state":"PA"},"type":"Feature","geometry":null},{"properties":{"zip":"17580","3digit":"175","inzips":"175","primary_city":"Talmage","id":"abkwxn150hhm","state":"PA"},"type":"Feature","geometry":null},{"properties":{"zip":"17581","3digit":"175","inzips":"175","primary_city":"Terre Hill","id":"abkwxnerpxn5","state":"PA"},"type":"Feature","geometry":null},{"properties":{"zip":"17582","3digit":"175","inzips":"175","primary_city":"Washington Boro","id":"abkwxn5bi8bu","state":"PA"},"type":"Feature","geometry":null},{"properties":{"zip":"17583","3digit":"175","inzips":"175","primary_city":"West Willow","id":"abkwxnd2sp4e","state":"PA"},"type":"Feature","geometry":null},{"properties":{"zip":"17584","3digit":"175","inzips":"175","primary_city":"Willow Street","id":"abkwxn73kzmr","state":"PA"},"type":"Feature","geometry":null},{"properties":{"zip":"17585","3digit":"175","inzips":"175","primary_city":"Witmer","id":"abkwxnejnceh","state":"PA"},"type":"Feature","geometry":null},{"properties":{"zip":"18001","3digit":"180","inzips":"180","primary_city":"Lehigh Valley","id":"abkwxn333nsh","state":"PA"},"type":"Feature","geometry":null},{"properties":{"zip":"18002","3digit":"180","inzips":"180","primary_city":"Lehigh Valley","id":"abkwxn9x1tey","state":"PA"},"type":"Feature","geometry":null},{"properties":{"zip":"18003","3digit":"180","inzips":"180","primary_city":"Lehigh Valley","id":"abkwxn1ofdm2","state":"PA"},"type":"Feature","geometry":null},{"properties":{"zip":"18010","3digit":"180","inzips":"180","primary_city":"Ackermanville","id":"abkwxn0tlvwj","state":"PA"},"type":"Feature","geometry":null},{"properties":{"zip":"18011","3digit":"180","inzips":"180","primary_city":"Alburtis","id":"abkwxn2r5seg","state":"PA"},"type":"Feature","geometry":null},{"properties":{"zip":"18012","3digit":"180","inzips":"180","primary_city":"Aquashicola","id":"abkwxn812bod","state":"PA"},"type":"Feature","geometry":null},{"properties":{"zip":"18013","3digit":"180","inzips":"180","primary_city":"Bangor","id":"abkwxne8yfae","state":"PA"},"type":"Feature","geometry":null},{"properties":{"zip":"18014","3digit":"180","inzips":"180","primary_city":"Bath","id":"abkwxn2jy6ki","state":"PA"},"type":"Feature","geometry":null},{"properties":{"zip":"18015","3digit":"180","inzips":"180","primary_city":"Bethlehem","id":"abkwxn1rchd1","state":"PA"},"type":"Feature","geometry":null},{"properties":{"zip":"18016","3digit":"180","inzips":"180","primary_city":"Bethlehem","id":"abkwxnfj1147","state":"PA"},"type":"Feature","geometry":null},{"properties":{"zip":"18017","3digit":"180","inzips":"180","primary_city":"Bethlehem","id":"abkwxn1mfx51","state":"PA"},"type":"Feature","geometry":null},{"properties":{"zip":"18018","3digit":"180","inzips":"180","primary_city":"Bethlehem","id":"abkwxn3y9zl3","state":"PA"},"type":"Feature","geometry":null},{"properties":{"zip":"18020","3digit":"180","inzips":"180","primary_city":"Bethlehem","id":"abkwxnb1yxoe","state":"PA"},"type":"Feature","geometry":null},{"properties":{"zip":"18025","3digit":"180","inzips":"180","primary_city":"Bethlehem","id":"abkwxnb7dryj","state":"PA"},"type":"Feature","geometry":null},{"properties":{"zip":"18030","3digit":"180","inzips":"180","primary_city":"Bowmanstown","id":"abkwxnatdjqe","state":"PA"},"type":"Feature","geometry":null},{"properties":{"zip":"18031","3digit":"180","inzips":"180","primary_city":"Breinigsville","id":"abkwxnbb0kxn","state":"PA"},"type":"Feature","geometry":null},{"properties":{"zip":"18032","3digit":"180","inzips":"180","primary_city":"Catasauqua","id":"abkwxn83l54k","state":"PA"},"type":"Feature","geometry":null},{"properties":{"zip":"18034","3digit":"180","inzips":"180","primary_city":"Center Valley","id":"abkwxn7e05fl","state":"PA"},"type":"Feature","geometry":null},{"properties":{"zip":"18035","3digit":"180","inzips":"180","primary_city":"Cherryville","id":"abkwxn3qr8fl","state":"PA"},"type":"Feature","geometry":null},{"properties":{"zip":"18036","3digit":"180","inzips":"180","primary_city":"Coopersburg","id":"abkwxndympai","state":"PA"},"type":"Feature","geometry":null},{"properties":{"zip":"18037","3digit":"180","inzips":"180","primary_city":"Coplay","id":"abkwxnfok8rj","state":"PA"},"type":"Feature","geometry":null},{"properties":{"zip":"18038","3digit":"180","inzips":"180","primary_city":"Danielsville","id":"abkwxn0brv8f","state":"PA"},"type":"Feature","geometry":null},{"properties":{"zip":"18039","3digit":"180","inzips":"180","primary_city":"Durham","id":"abkwxn8kzkdt","state":"PA"},"type":"Feature","geometry":null},{"properties":{"zip":"18040","3digit":"180","inzips":"180","primary_city":"Easton","id":"abkwxna7t8nn","state":"PA"},"type":"Feature","geometry":null},{"properties":{"zip":"18041","3digit":"180","inzips":"180","primary_city":"East Greenville","id":"abkwxnbmopzn","state":"PA"},"type":"Feature","geometry":null},{"properties":{"zip":"18042","3digit":"180","inzips":"180","primary_city":"Easton","id":"abkwxnbtymf3","state":"PA"},"type":"Feature","geometry":null},{"properties":{"zip":"18043","3digit":"180","inzips":"180","primary_city":"Easton","id":"abkwxn6fymrw","state":"PA"},"type":"Feature","geometry":null},{"properties":{"zip":"18044","3digit":"180","inzips":"180","primary_city":"Easton","id":"abkwxnbrkths","state":"PA"},"type":"Feature","geometry":null},{"properties":{"zip":"18045","3digit":"180","inzips":"180","primary_city":"Easton","id":"abkwxnel8ppb","state":"PA"},"type":"Feature","geometry":null},{"properties":{"zip":"18046","3digit":"180","inzips":"180","primary_city":"East Texas","id":"abkwxncpgwtp","state":"PA"},"type":"Feature","geometry":null},{"properties":{"zip":"18049","3digit":"180","inzips":"180","primary_city":"Emmaus","id":"abkwxndnuzqu","state":"PA"},"type":"Feature","geometry":null},{"properties":{"zip":"18050","3digit":"180","inzips":"180","primary_city":"Flicksville","id":"abkwxn46ikde","state":"PA"},"type":"Feature","geometry":null},{"properties":{"zip":"18051","3digit":"180","inzips":"180","primary_city":"Fogelsville","id":"abkwxn5q1i8q","state":"PA"},"type":"Feature","geometry":null},{"properties":{"zip":"18052","3digit":"180","inzips":"180","primary_city":"Whitehall","id":"abkwxn13fmrc","state":"PA"},"type":"Feature","geometry":null},{"properties":{"zip":"18053","3digit":"180","inzips":"180","primary_city":"Germansville","id":"abkwxnbswdfs","state":"PA"},"type":"Feature","geometry":null},{"properties":{"zip":"18054","3digit":"180","inzips":"180","primary_city":"Green Lane","id":"abkwxn3m2295","state":"PA"},"type":"Feature","geometry":null},{"properties":{"zip":"18055","3digit":"180","inzips":"180","primary_city":"Hellertown","id":"abkwxngbqd4d","state":"PA"},"type":"Feature","geometry":null},{"properties":{"zip":"18056","3digit":"180","inzips":"180","primary_city":"Hereford","id":"abkwxn2hm95i","state":"PA"},"type":"Feature","geometry":null},{"properties":{"zip":"18058","3digit":"180","inzips":"180","primary_city":"Kunkletown","id":"abkwxn9tykct","state":"PA"},"type":"Feature","geometry":null},{"properties":{"zip":"18059","3digit":"180","inzips":"180","primary_city":"Laurys Station","id":"abkwxnfr2vjr","state":"PA"},"type":"Feature","geometry":null},{"properties":{"zip":"18060","3digit":"180","inzips":"180","primary_city":"Limeport","id":"abkwxne8xj1h","state":"PA"},"type":"Feature","geometry":null},{"properties":{"zip":"18062","3digit":"180","inzips":"180","primary_city":"Macungie","id":"abkwxnacbmu8","state":"PA"},"type":"Feature","geometry":null},{"properties":{"zip":"18063","3digit":"180","inzips":"180","primary_city":"Martins Creek","id":"abkwxn77us30","state":"PA"},"type":"Feature","geometry":null},{"properties":{"zip":"18064","3digit":"180","inzips":"180","primary_city":"Nazareth","id":"abkwxn08ys0f","state":"PA"},"type":"Feature","geometry":null},{"properties":{"zip":"18065","3digit":"180","inzips":"180","primary_city":"Neffs","id":"abkwxn1w4e72","state":"PA"},"type":"Feature","geometry":null},{"properties":{"zip":"18066","3digit":"180","inzips":"180","primary_city":"New Tripoli","id":"abkwxn7tq36y","state":"PA"},"type":"Feature","geometry":null},{"properties":{"zip":"18067","3digit":"180","inzips":"180","primary_city":"Northampton","id":"abkwxn93hj5n","state":"PA"},"type":"Feature","geometry":null},{"properties":{"zip":"18068","3digit":"180","inzips":"180","primary_city":"Old Zionsville","id":"abkwxn1rs4fa","state":"PA"},"type":"Feature","geometry":null},{"properties":{"zip":"18069","3digit":"180","inzips":"180","primary_city":"Orefield","id":"abkwxn69eaay","state":"PA"},"type":"Feature","geometry":null},{"properties":{"zip":"18070","3digit":"180","inzips":"180","primary_city":"Palm","id":"abkwxnbpc0zm","state":"PA"},"type":"Feature","geometry":null},{"properties":{"zip":"18071","3digit":"180","inzips":"180","primary_city":"Palmerton","id":"abkwxn4vja3q","state":"PA"},"type":"Feature","geometry":null},{"properties":{"zip":"18072","3digit":"180","inzips":"180","primary_city":"Pen Argyl","id":"abkwxnapiuke","state":"PA"},"type":"Feature","geometry":null},{"properties":{"zip":"18073","3digit":"180","inzips":"180","primary_city":"Pennsburg","id":"abkwxn0ezxfe","state":"PA"},"type":"Feature","geometry":null},{"properties":{"zip":"18074","3digit":"180","inzips":"180","primary_city":"Perkiomenville","id":"abkwxnfzi770","state":"PA"},"type":"Feature","geometry":null},{"properties":{"zip":"18076","3digit":"180","inzips":"180","primary_city":"Red Hill","id":"abkwxnb4h0l6","state":"PA"},"type":"Feature","geometry":null},{"properties":{"zip":"18077","3digit":"180","inzips":"180","primary_city":"Riegelsville","id":"abkwxn80ffas","state":"PA"},"type":"Feature","geometry":null},{"properties":{"zip":"18078","3digit":"180","inzips":"180","primary_city":"Schnecksville","id":"abkwxn45ctu4","state":"PA"},"type":"Feature","geometry":null},{"properties":{"zip":"18079","3digit":"180","inzips":"180","primary_city":"Slatedale","id":"abkwxn8n5ud5","state":"PA"},"type":"Feature","geometry":null},{"properties":{"zip":"18080","3digit":"180","inzips":"180","primary_city":"Slatington","id":"abkwxn3wp4ck","state":"PA"},"type":"Feature","geometry":null},{"properties":{"zip":"18081","3digit":"180","inzips":"180","primary_city":"Springtown","id":"abkwxnb1o943","state":"PA"},"type":"Feature","geometry":null},{"properties":{"zip":"18083","3digit":"180","inzips":"180","primary_city":"Stockertown","id":"abkwxn8gixni","state":"PA"},"type":"Feature","geometry":null},{"properties":{"zip":"18084","3digit":"180","inzips":"180","primary_city":"Sumneytown","id":"abkwxn8xdbvb","state":"PA"},"type":"Feature","geometry":null},{"properties":{"zip":"18085","3digit":"180","inzips":"180","primary_city":"Tatamy","id":"abkwxn1rpnu6","state":"PA"},"type":"Feature","geometry":null},{"properties":{"zip":"18086","3digit":"180","inzips":"180","primary_city":"Treichlers","id":"abkwxnbkihna","state":"PA"},"type":"Feature","geometry":null},{"properties":{"zip":"18087","3digit":"180","inzips":"180","primary_city":"Trexlertown","id":"abkwxn6hc7tu","state":"PA"},"type":"Feature","geometry":null},{"properties":{"zip":"18088","3digit":"180","inzips":"180","primary_city":"Walnutport","id":"abkwxnbjlffr","state":"PA"},"type":"Feature","geometry":null},{"properties":{"zip":"18091","3digit":"180","inzips":"180","primary_city":"Wind Gap","id":"abkwxn1y2adw","state":"PA"},"type":"Feature","geometry":null},{"properties":{"zip":"18092","3digit":"180","inzips":"180","primary_city":"Zionsville","id":"abkwxncuzxq7","state":"PA"},"type":"Feature","geometry":null},{"properties":{"zip":"18098","3digit":"180","inzips":"180","primary_city":"Emmaus","id":"abkwxngh49wr","state":"PA"},"type":"Feature","geometry":null},{"properties":{"zip":"18099","3digit":"180","inzips":"180","primary_city":"Emmaus","id":"abkwxn8fo8sd","state":"PA"},"type":"Feature","geometry":null},{"properties":{"zip":"18101","3digit":"181","inzips":"181","primary_city":"Allentown","id":"abkwxn03txbt","state":"PA"},"type":"Feature","geometry":null},{"properties":{"zip":"18102","3digit":"181","inzips":"181","primary_city":"Allentown","id":"abkwxn2ahd51","state":"PA"},"type":"Feature","geometry":null},{"properties":{"zip":"18103","3digit":"181","inzips":"181","primary_city":"Allentown","id":"abkwxn27q00s","state":"PA"},"type":"Feature","geometry":null},{"properties":{"zip":"18104","3digit":"181","inzips":"181","primary_city":"Allentown","id":"abkwxn83acih","state":"PA"},"type":"Feature","geometry":null},{"properties":{"zip":"18105","3digit":"181","inzips":"181","primary_city":"Allentown","id":"abkwxn18wb13","state":"PA"},"type":"Feature","geometry":null},{"properties":{"zip":"18106","3digit":"181","inzips":"181","primary_city":"Allentown","id":"abkwxn4fhvvr","state":"PA"},"type":"Feature","geometry":null},{"properties":{"zip":"18109","3digit":"181","inzips":"181","primary_city":"Allentown","id":"abkwxn97lpeh","state":"PA"},"type":"Feature","geometry":null},{"properties":{"zip":"18175","3digit":"181","inzips":"181","primary_city":"Allentown","id":"abkwxn1saelp","state":"PA"},"type":"Feature","geometry":null},{"properties":{"zip":"18195","3digit":"181","inzips":"181","primary_city":"Allentown","id":"abkwxn5wz5o1","state":"PA"},"type":"Feature","geometry":null},{"properties":{"zip":"18201","3digit":"182","inzips":"182","primary_city":"Hazleton","id":"abkwxn5e4n2a","state":"PA"},"type":"Feature","geometry":null},{"properties":{"zip":"18202","3digit":"182","inzips":"182","primary_city":"Hazleton","id":"abkwxn4sdgpc","state":"PA"},"type":"Feature","geometry":null},{"properties":{"zip":"18210","3digit":"182","inzips":"182","primary_city":"Albrightsville","id":"abkwxn3cr711","state":"PA"},"type":"Feature","geometry":null},{"properties":{"zip":"18211","3digit":"182","inzips":"182","primary_city":"Andreas","id":"abkwxne8rs5z","state":"PA"},"type":"Feature","geometry":null},{"properties":{"zip":"18212","3digit":"182","inzips":"182","primary_city":"Ashfield","id":"abkwxn81oa5w","state":"PA"},"type":"Feature","geometry":null},{"properties":{"zip":"18214","3digit":"182","inzips":"182","primary_city":"Barnesville","id":"abkwxn1t7w8n","state":"PA"},"type":"Feature","geometry":null},{"properties":{"zip":"18216","3digit":"182","inzips":"182","primary_city":"Beaver Meadows","id":"abkwxn45nn93","state":"PA"},"type":"Feature","geometry":null},{"properties":{"zip":"18218","3digit":"182","inzips":"182","primary_city":"Coaldale","id":"abkwxn0pktwy","state":"PA"},"type":"Feature","geometry":null},{"properties":{"zip":"18219","3digit":"182","inzips":"182","primary_city":"Conyngham","id":"abkwxnejvgve","state":"PA"},"type":"Feature","geometry":null},{"properties":{"zip":"18220","3digit":"182","inzips":"182","primary_city":"Delano","id":"abkwxn197p3a","state":"PA"},"type":"Feature","geometry":null},{"properties":{"zip":"18221","3digit":"182","inzips":"182","primary_city":"Drifton","id":"abkwxnfrswrz","state":"PA"},"type":"Feature","geometry":null},{"properties":{"zip":"18222","3digit":"182","inzips":"182","primary_city":"Drums","id":"abkwxnaurbwt","state":"PA"},"type":"Feature","geometry":null},{"properties":{"zip":"18223","3digit":"182","inzips":"182","primary_city":"Ebervale","id":"abkwxnek106x","state":"PA"},"type":"Feature","geometry":null},{"properties":{"zip":"18224","3digit":"182","inzips":"182","primary_city":"Freeland","id":"abkwxnfjc3we","state":"PA"},"type":"Feature","geometry":null},{"properties":{"zip":"18225","3digit":"182","inzips":"182","primary_city":"Harleigh","id":"abkwxn8nfs70","state":"PA"},"type":"Feature","geometry":null},{"properties":{"zip":"18229","3digit":"182","inzips":"182","primary_city":"Jim Thorpe","id":"abkwxna5c3pn","state":"PA"},"type":"Feature","geometry":null},{"properties":{"zip":"18230","3digit":"182","inzips":"182","primary_city":"Junedale","id":"abkwxnfy6t0h","state":"PA"},"type":"Feature","geometry":null},{"properties":{"zip":"18231","3digit":"182","inzips":"182","primary_city":"Kelayres","id":"abkwxn8yqlz8","state":"PA"},"type":"Feature","geometry":null},{"properties":{"zip":"18232","3digit":"182","inzips":"182","primary_city":"Lansford","id":"abkwxn7wcpdh","state":"PA"},"type":"Feature","geometry":null},{"properties":{"zip":"18234","3digit":"182","inzips":"182","primary_city":"Lattimer Mines","id":"abkwxn8xaggl","state":"PA"},"type":"Feature","geometry":null},{"properties":{"zip":"18235","3digit":"182","inzips":"182","primary_city":"Lehighton","id":"abkwxn3ovmsz","state":"PA"},"type":"Feature","geometry":null},{"properties":{"zip":"18237","3digit":"182","inzips":"182","primary_city":"Mcadoo","id":"abkwxnetfah5","state":"PA"},"type":"Feature","geometry":null},{"properties":{"zip":"18239","3digit":"182","inzips":"182","primary_city":"Milnesville","id":"abkwxn7ad7m3","state":"PA"},"type":"Feature","geometry":null},{"properties":{"zip":"18240","3digit":"182","inzips":"182","primary_city":"Nesquehoning","id":"abkwxna2g0u0","state":"PA"},"type":"Feature","geometry":null},{"properties":{"zip":"18241","3digit":"182","inzips":"182","primary_city":"Nuremberg","id":"abkwxnaap8c0","state":"PA"},"type":"Feature","geometry":null},{"properties":{"zip":"18242","3digit":"182","inzips":"182","primary_city":"Oneida","id":"abkwxnc8bc1z","state":"PA"},"type":"Feature","geometry":null},{"properties":{"zip":"18244","3digit":"182","inzips":"182","primary_city":"Parryville","id":"abkwxnemz6sx","state":"PA"},"type":"Feature","geometry":null},{"properties":{"zip":"18245","3digit":"182","inzips":"182","primary_city":"Quakake","id":"abkwxn8w795g","state":"PA"},"type":"Feature","geometry":null},{"properties":{"zip":"18246","3digit":"182","inzips":"182","primary_city":"Rock Glen","id":"abkwxng4gf9e","state":"PA"},"type":"Feature","geometry":null},{"properties":{"zip":"18247","3digit":"182","inzips":"182","primary_city":"Saint Johns","id":"abkwxn45jeh7","state":"PA"},"type":"Feature","geometry":null},{"properties":{"zip":"18248","3digit":"182","inzips":"182","primary_city":"Sheppton","id":"abkwxnbx8aku","state":"PA"},"type":"Feature","geometry":null},{"properties":{"zip":"18249","3digit":"182","inzips":"182","primary_city":"Sugarloaf","id":"abkwxn5mfryw","state":"PA"},"type":"Feature","geometry":null},{"properties":{"zip":"18250","3digit":"182","inzips":"182","primary_city":"Summit Hill","id":"abkwxn7d7xlp","state":"PA"},"type":"Feature","geometry":null},{"properties":{"zip":"18251","3digit":"182","inzips":"182","primary_city":"Sybertsville","id":"abkwxn9mtqu4","state":"PA"},"type":"Feature","geometry":null},{"properties":{"zip":"18252","3digit":"182","inzips":"182","primary_city":"Tamaqua","id":"abkwxnbrlajv","state":"PA"},"type":"Feature","geometry":null},{"properties":{"zip":"18254","3digit":"182","inzips":"182","primary_city":"Tresckow","id":"abkwxnd2l5v3","state":"PA"},"type":"Feature","geometry":null},{"properties":{"zip":"18255","3digit":"182","inzips":"182","primary_city":"Weatherly","id":"abkwxn0n8k6r","state":"PA"},"type":"Feature","geometry":null},{"properties":{"zip":"18256","3digit":"182","inzips":"182","primary_city":"Weston","id":"abkwxn96tf70","state":"PA"},"type":"Feature","geometry":null},{"properties":{"zip":"18403","3digit":"184","inzips":"184","primary_city":"Archbald","id":"abkwxn7ysak6","state":"PA"},"type":"Feature","geometry":null},{"properties":{"zip":"18405","3digit":"184","inzips":"184","primary_city":"Beach Lake","id":"abkwxn8vmf7c","state":"PA"},"type":"Feature","geometry":null},{"properties":{"zip":"18407","3digit":"184","inzips":"184","primary_city":"Carbondale","id":"abkwxn1iqiqy","state":"PA"},"type":"Feature","geometry":null},{"properties":{"zip":"18410","3digit":"184","inzips":"184","primary_city":"Chinchilla","id":"abkwxn858fdr","state":"PA"},"type":"Feature","geometry":null},{"properties":{"zip":"18411","3digit":"184","inzips":"184","primary_city":"Clarks Summit","id":"abkwxn01ywim","state":"PA"},"type":"Feature","geometry":null},{"properties":{"zip":"18413","3digit":"184","inzips":"184","primary_city":"Clifford","id":"abkwxncr2vp5","state":"PA"},"type":"Feature","geometry":null},{"properties":{"zip":"18414","3digit":"184","inzips":"184","primary_city":"Dalton","id":"abkwxndkwh0r","state":"PA"},"type":"Feature","geometry":null},{"properties":{"zip":"18415","3digit":"184","inzips":"184","primary_city":"Damascus","id":"abkwxndioiy0","state":"PA"},"type":"Feature","geometry":null},{"properties":{"zip":"18416","3digit":"184","inzips":"184","primary_city":"Elmhurst","id":"abkwxn8glff1","state":"PA"},"type":"Feature","geometry":null},{"properties":{"zip":"18417","3digit":"184","inzips":"184","primary_city":"Equinunk","id":"abkwxnclpo33","state":"PA"},"type":"Feature","geometry":null},{"properties":{"zip":"18419","3digit":"184","inzips":"184","primary_city":"Factoryville","id":"abkwxn0c0ypq","state":"PA"},"type":"Feature","geometry":null},{"properties":{"zip":"18420","3digit":"184","inzips":"184","primary_city":"Fleetville","id":"abkwxn91b1o4","state":"PA"},"type":"Feature","geometry":null},{"properties":{"zip":"18421","3digit":"184","inzips":"184","primary_city":"Forest City","id":"abkwxn2yk4f2","state":"PA"},"type":"Feature","geometry":null},{"properties":{"zip":"18424","3digit":"184","inzips":"184","primary_city":"Gouldsboro","id":"abkwxnam038x","state":"PA"},"type":"Feature","geometry":null},{"properties":{"zip":"18425","3digit":"184","inzips":"184","primary_city":"Greeley","id":"abkwxn7rmctv","state":"PA"},"type":"Feature","geometry":null},{"properties":{"zip":"18426","3digit":"184","inzips":"184","primary_city":"Greentown","id":"abkwxnfv0jc0","state":"PA"},"type":"Feature","geometry":null},{"properties":{"zip":"18427","3digit":"184","inzips":"184","primary_city":"Hamlin","id":"abkwxn7ly19o","state":"PA"},"type":"Feature","geometry":null},{"properties":{"zip":"18428","3digit":"184","inzips":"184","primary_city":"Hawley","id":"abkwxn5275ig","state":"PA"},"type":"Feature","geometry":null},{"properties":{"zip":"18430","3digit":"184","inzips":"184","primary_city":"Herrick Center","id":"abkwxnab0d1j","state":"PA"},"type":"Feature","geometry":null},{"properties":{"zip":"18431","3digit":"184","inzips":"184","primary_city":"Honesdale","id":"abkwxnat6vsk","state":"PA"},"type":"Feature","geometry":null},{"properties":{"zip":"18433","3digit":"184","inzips":"184","primary_city":"Jermyn","id":"abkwxnft0w53","state":"PA"},"type":"Feature","geometry":null},{"properties":{"zip":"18434","3digit":"184","inzips":"184","primary_city":"Jessup","id":"abkwxn1oin29","state":"PA"},"type":"Feature","geometry":null},{"properties":{"zip":"18435","3digit":"184","inzips":"184","primary_city":"Lackawaxen","id":"abkwxn8kwyaz","state":"PA"},"type":"Feature","geometry":null},{"properties":{"zip":"18436","3digit":"184","inzips":"184","primary_city":"Lake Ariel","id":"abkwxndlwbel","state":"PA"},"type":"Feature","geometry":null},{"properties":{"zip":"18437","3digit":"184","inzips":"184","primary_city":"Lake Como","id":"abkwxn3wto5j","state":"PA"},"type":"Feature","geometry":null},{"properties":{"zip":"18438","3digit":"184","inzips":"184","primary_city":"Lakeville","id":"abkwxnc74zva","state":"PA"},"type":"Feature","geometry":null},{"properties":{"zip":"18439","3digit":"184","inzips":"184","primary_city":"Lakewood","id":"abkwxn5rsh54","state":"PA"},"type":"Feature","geometry":null},{"properties":{"zip":"18440","3digit":"184","inzips":"184","primary_city":"La Plume","id":"abkwxn7it8r7","state":"PA"},"type":"Feature","geometry":null},{"properties":{"zip":"18441","3digit":"184","inzips":"184","primary_city":"Lenoxville","id":"abkwxn0jux07","state":"PA"},"type":"Feature","geometry":null},{"properties":{"zip":"18443","3digit":"184","inzips":"184","primary_city":"Milanville","id":"abkwxn6kvhal","state":"PA"},"type":"Feature","geometry":null},{"properties":{"zip":"18444","3digit":"184","inzips":"184","primary_city":"Moscow","id":"abkwxncdbxze","state":"PA"},"type":"Feature","geometry":null},{"properties":{"zip":"18445","3digit":"184","inzips":"184","primary_city":"Newfoundland","id":"abkwxn1ls4pe","state":"PA"},"type":"Feature","geometry":null},{"properties":{"zip":"18446","3digit":"184","inzips":"184","primary_city":"Nicholson","id":"abkwxn681bh8","state":"PA"},"type":"Feature","geometry":null},{"properties":{"zip":"18447","3digit":"184","inzips":"184","primary_city":"Olyphant","id":"abkwxnc7jt07","state":"PA"},"type":"Feature","geometry":null},{"properties":{"zip":"18448","3digit":"184","inzips":"184","primary_city":"Olyphant","id":"abkwxng7jh4p","state":"PA"},"type":"Feature","geometry":null},{"properties":{"zip":"18449","3digit":"184","inzips":"184","primary_city":"Orson","id":"abkwxn9hykpf","state":"PA"},"type":"Feature","geometry":null},{"properties":{"zip":"18451","3digit":"184","inzips":"184","primary_city":"Paupack","id":"abkwxng1slun","state":"PA"},"type":"Feature","geometry":null},{"properties":{"zip":"18452","3digit":"184","inzips":"184","primary_city":"Peckville","id":"abkwxncrh5bh","state":"PA"},"type":"Feature","geometry":null},{"properties":{"zip":"18453","3digit":"184","inzips":"184","primary_city":"Pleasant Mount","id":"abkwxn7xoq4y","state":"PA"},"type":"Feature","geometry":null},{"properties":{"zip":"18454","3digit":"184","inzips":"184","primary_city":"Poyntelle","id":"abkwxn0yjvjo","state":"PA"},"type":"Feature","geometry":null},{"properties":{"zip":"18455","3digit":"184","inzips":"184","primary_city":"Preston Park","id":"abkwxn8pdn8a","state":"PA"},"type":"Feature","geometry":null},{"properties":{"zip":"18456","3digit":"184","inzips":"184","primary_city":"Prompton","id":"abkwxn8o3f6y","state":"PA"},"type":"Feature","geometry":null},{"properties":{"zip":"18457","3digit":"184","inzips":"184","primary_city":"Rowland","id":"abkwxn9eeqmu","state":"PA"},"type":"Feature","geometry":null},{"properties":{"zip":"18458","3digit":"184","inzips":"184","primary_city":"Shohola","id":"abkwxn4h4ryp","state":"PA"},"type":"Feature","geometry":null},{"properties":{"zip":"18459","3digit":"184","inzips":"184","primary_city":"South Canaan","id":"abkwxnab3sbn","state":"PA"},"type":"Feature","geometry":null},{"properties":{"zip":"18460","3digit":"184","inzips":"184","primary_city":"South Sterling","id":"abkwxn582fhd","state":"PA"},"type":"Feature","geometry":null},{"properties":{"zip":"18461","3digit":"184","inzips":"184","primary_city":"Starlight","id":"abkwxnday9eu","state":"PA"},"type":"Feature","geometry":null},{"properties":{"zip":"18462","3digit":"184","inzips":"184","primary_city":"Starrucca","id":"abkwxn0hcj9a","state":"PA"},"type":"Feature","geometry":null},{"properties":{"zip":"18463","3digit":"184","inzips":"184","primary_city":"Sterling","id":"abkwxncn4frt","state":"PA"},"type":"Feature","geometry":null},{"properties":{"zip":"18464","3digit":"184","inzips":"184","primary_city":"Tafton","id":"abkwxn8grmim","state":"PA"},"type":"Feature","geometry":null},{"properties":{"zip":"18465","3digit":"184","inzips":"184","primary_city":"Thompson","id":"abkwxnbvbxvz","state":"PA"},"type":"Feature","geometry":null},{"properties":{"zip":"18466","3digit":"184","inzips":"184","primary_city":"Tobyhanna","id":"abkwxn09wmye","state":"PA"},"type":"Feature","geometry":null},{"properties":{"zip":"18469","3digit":"184","inzips":"184","primary_city":"Tyler Hill","id":"abkwxn6lq0v3","state":"PA"},"type":"Feature","geometry":null},{"properties":{"zip":"18470","3digit":"184","inzips":"184","primary_city":"Union Dale","id":"abkwxn5rughf","state":"PA"},"type":"Feature","geometry":null},{"properties":{"zip":"18471","3digit":"184","inzips":"184","primary_city":"Waverly","id":"abkwxnbggzje","state":"PA"},"type":"Feature","geometry":null},{"properties":{"zip":"18472","3digit":"184","inzips":"184","primary_city":"Waymart","id":"abkwxn1jshg0","state":"PA"},"type":"Feature","geometry":null},{"properties":{"zip":"18473","3digit":"184","inzips":"184","primary_city":"White Mills","id":"abkwxnbm1sxr","state":"PA"},"type":"Feature","geometry":null},{"properties":{"zip":"18501","3digit":"185","inzips":"185","primary_city":"Scranton","id":"abkwxn6cyeuh","state":"PA"},"type":"Feature","geometry":null},{"properties":{"zip":"18502","3digit":"185","inzips":"185","primary_city":"Scranton","id":"abkwxn8rbrd6","state":"PA"},"type":"Feature","geometry":null},{"properties":{"zip":"18503","3digit":"185","inzips":"185","primary_city":"Scranton","id":"abkwxnfaopwc","state":"PA"},"type":"Feature","geometry":null},{"properties":{"zip":"18504","3digit":"185","inzips":"185","primary_city":"Scranton","id":"abkwxn5arseg","state":"PA"},"type":"Feature","geometry":null},{"properties":{"zip":"18505","3digit":"185","inzips":"185","primary_city":"Scranton","id":"abkwxnehklge","state":"PA"},"type":"Feature","geometry":null},{"properties":{"zip":"18507","3digit":"185","inzips":"185","primary_city":"Moosic","id":"abkwxn6md8jh","state":"PA"},"type":"Feature","geometry":null},{"properties":{"zip":"18508","3digit":"185","inzips":"185","primary_city":"Scranton","id":"abkwxn8etnqk","state":"PA"},"type":"Feature","geometry":null},{"properties":{"zip":"18509","3digit":"185","inzips":"185","primary_city":"Scranton","id":"abkwxn7hkgaz","state":"PA"},"type":"Feature","geometry":null},{"properties":{"zip":"18510","3digit":"185","inzips":"185","primary_city":"Scranton","id":"abkwxnd0p3u6","state":"PA"},"type":"Feature","geometry":null},{"properties":{"zip":"18512","3digit":"185","inzips":"185","primary_city":"Scranton","id":"abkwxn2ihoid","state":"PA"},"type":"Feature","geometry":null},{"properties":{"zip":"18514","3digit":"185","inzips":"185","primary_city":"Scranton","id":"abkwxn8c1vfg","state":"PA"},"type":"Feature","geometry":null},{"properties":{"zip":"18515","3digit":"185","inzips":"185","primary_city":"Scranton","id":"abkwxn6blzs1","state":"PA"},"type":"Feature","geometry":null},{"properties":{"zip":"18517","3digit":"185","inzips":"185","primary_city":"Taylor","id":"abkwxn8qoamv","state":"PA"},"type":"Feature","geometry":null},{"properties":{"zip":"18518","3digit":"185","inzips":"185","primary_city":"Old Forge","id":"abkwxn6x1c9a","state":"PA"},"type":"Feature","geometry":null},{"properties":{"zip":"18519","3digit":"185","inzips":"185","primary_city":"Scranton","id":"abkwxneml105","state":"PA"},"type":"Feature","geometry":null},{"properties":{"zip":"18522","3digit":"185","inzips":"185","primary_city":"Scranton","id":"abkwxn7tzjzy","state":"PA"},"type":"Feature","geometry":null},{"properties":{"zip":"18540","3digit":"185","inzips":"185","primary_city":"Scranton","id":"abkwxng34nd3","state":"PA"},"type":"Feature","geometry":null},{"properties":{"zip":"18577","3digit":"185","inzips":"185","primary_city":"Scranton","id":"abkwxn89uwqj","state":"PA"},"type":"Feature","geometry":null},{"properties":{"zip":"18601","3digit":"186","inzips":"186","primary_city":"Beach Haven","id":"abkwxnf10scv","state":"PA"},"type":"Feature","geometry":null},{"properties":{"zip":"18602","3digit":"186","inzips":"186","primary_city":"Bear Creek","id":"abkwxn6b6wf1","state":"PA"},"type":"Feature","geometry":null},{"properties":{"zip":"18603","3digit":"186","inzips":"186","primary_city":"Berwick","id":"abkwxn4yvblb","state":"PA"},"type":"Feature","geometry":null},{"properties":{"zip":"18610","3digit":"186","inzips":"186","primary_city":"Blakeslee","id":"abkwxna3atpj","state":"PA"},"type":"Feature","geometry":null},{"properties":{"zip":"18611","3digit":"186","inzips":"186","primary_city":"Cambra","id":"abkwxn4wvhy9","state":"PA"},"type":"Feature","geometry":null},{"properties":{"zip":"18612","3digit":"186","inzips":"186","primary_city":"Dallas","id":"abkwxnf0mgvw","state":"PA"},"type":"Feature","geometry":null},{"properties":{"zip":"18614","3digit":"186","inzips":"186","primary_city":"Dushore","id":"abkwxn05nd5g","state":"PA"},"type":"Feature","geometry":null},{"properties":{"zip":"18615","3digit":"186","inzips":"186","primary_city":"Falls","id":"abkwxna27qj8","state":"PA"},"type":"Feature","geometry":null},{"properties":{"zip":"18616","3digit":"186","inzips":"186","primary_city":"Forksville","id":"abkwxndl8r5b","state":"PA"},"type":"Feature","geometry":null},{"properties":{"zip":"18617","3digit":"186","inzips":"186","primary_city":"Glen Lyon","id":"abkwxne5a2rr","state":"PA"},"type":"Feature","geometry":null},{"properties":{"zip":"18618","3digit":"186","inzips":"186","primary_city":"Harveys Lake","id":"abkwxn99hh28","state":"PA"},"type":"Feature","geometry":null},{"properties":{"zip":"18619","3digit":"186","inzips":"186","primary_city":"Hillsgrove","id":"abkwxn285geu","state":"PA"},"type":"Feature","geometry":null},{"properties":{"zip":"18621","3digit":"186","inzips":"186","primary_city":"Hunlock Creek","id":"abkwxnbh9m94","state":"PA"},"type":"Feature","geometry":null},{"properties":{"zip":"18622","3digit":"186","inzips":"186","primary_city":"Huntington Mills","id":"abkwxn6n31vn","state":"PA"},"type":"Feature","geometry":null},{"properties":{"zip":"18623","3digit":"186","inzips":"186","primary_city":"Laceyville","id":"abkwxn228se1","state":"PA"},"type":"Feature","geometry":null},{"properties":{"zip":"18624","3digit":"186","inzips":"186","primary_city":"Lake Harmony","id":"abkwxn7lmtgg","state":"PA"},"type":"Feature","geometry":null},{"properties":{"zip":"18625","3digit":"186","inzips":"186","primary_city":"Lake Winola","id":"abkwxnf1s2i3","state":"PA"},"type":"Feature","geometry":null},{"properties":{"zip":"18626","3digit":"186","inzips":"186","primary_city":"Laporte","id":"abkwxnfd9jpw","state":"PA"},"type":"Feature","geometry":null},{"properties":{"zip":"18627","3digit":"186","inzips":"186","primary_city":"Lehman","id":"abkwxnd6s9y9","state":"PA"},"type":"Feature","geometry":null},{"properties":{"zip":"18628","3digit":"186","inzips":"186","primary_city":"Lopez","id":"abkwxn2mx8xp","state":"PA"},"type":"Feature","geometry":null},{"properties":{"zip":"18629","3digit":"186","inzips":"186","primary_city":"Mehoopany","id":"abkwxn3wjhd8","state":"PA"},"type":"Feature","geometry":null},{"properties":{"zip":"18630","3digit":"186","inzips":"186","primary_city":"Meshoppen","id":"abkwxn7r5yw9","state":"PA"},"type":"Feature","geometry":null},{"properties":{"zip":"18631","3digit":"186","inzips":"186","primary_city":"Mifflinville","id":"abkwxn6vwu4g","state":"PA"},"type":"Feature","geometry":null},{"properties":{"zip":"18632","3digit":"186","inzips":"186","primary_city":"Mildred","id":"abkwxn40koq7","state":"PA"},"type":"Feature","geometry":null},{"properties":{"zip":"18634","3digit":"186","inzips":"186","primary_city":"Nanticoke","id":"abkwxn3tzu09","state":"PA"},"type":"Feature","geometry":null},{"properties":{"zip":"18635","3digit":"186","inzips":"186","primary_city":"Nescopeck","id":"abkwxna33c84","state":"PA"},"type":"Feature","geometry":null},{"properties":{"zip":"18636","3digit":"186","inzips":"186","primary_city":"Noxen","id":"abkwxn0jmiv4","state":"PA"},"type":"Feature","geometry":null},{"properties":{"zip":"18640","3digit":"186","inzips":"186","primary_city":"Pittston","id":"abkwxnbb4lnv","state":"PA"},"type":"Feature","geometry":null},{"properties":{"zip":"18641","3digit":"186","inzips":"186","primary_city":"Pittston","id":"abkwxndjuvo3","state":"PA"},"type":"Feature","geometry":null},{"properties":{"zip":"18642","3digit":"186","inzips":"186","primary_city":"Duryea","id":"abkwxn0n4sdf","state":"PA"},"type":"Feature","geometry":null},{"properties":{"zip":"18643","3digit":"186","inzips":"186","primary_city":"Pittston","id":"abkwxn8dc9yt","state":"PA"},"type":"Feature","geometry":null},{"properties":{"zip":"18644","3digit":"186","inzips":"186","primary_city":"Wyoming","id":"abkwxna1xfpy","state":"PA"},"type":"Feature","geometry":null},{"properties":{"zip":"18651","3digit":"186","inzips":"186","primary_city":"Plymouth","id":"abkwxn4y4vl5","state":"PA"},"type":"Feature","geometry":null},{"properties":{"zip":"18653","3digit":"186","inzips":"186","primary_city":"Ransom","id":"abkwxn5j9ju7","state":"PA"},"type":"Feature","geometry":null},{"properties":{"zip":"18654","3digit":"186","inzips":"186","primary_city":"Shawanese","id":"abkwxn1saa2m","state":"PA"},"type":"Feature","geometry":null},{"properties":{"zip":"18655","3digit":"186","inzips":"186","primary_city":"Shickshinny","id":"abkwxn6u2ug4","state":"PA"},"type":"Feature","geometry":null},{"properties":{"zip":"18656","3digit":"186","inzips":"186","primary_city":"Sweet Valley","id":"abkwxn5bqskk","state":"PA"},"type":"Feature","geometry":null},{"properties":{"zip":"18657","3digit":"186","inzips":"186","primary_city":"Tunkhannock","id":"abkwxn86lvue","state":"PA"},"type":"Feature","geometry":null},{"properties":{"zip":"18660","3digit":"186","inzips":"186","primary_city":"Wapwallopen","id":"abkwxn4ss9t4","state":"PA"},"type":"Feature","geometry":null},{"properties":{"zip":"18661","3digit":"186","inzips":"186","primary_city":"White Haven","id":"abkwxnfzngxr","state":"PA"},"type":"Feature","geometry":null},{"properties":{"zip":"18690","3digit":"186","inzips":"186","primary_city":"Dallas","id":"abkwxnci821k","state":"PA"},"type":"Feature","geometry":null},{"properties":{"zip":"18701","3digit":"187","inzips":"187","primary_city":"Wilkes Barre","id":"abkwxn424ahs","state":"PA"},"type":"Feature","geometry":null},{"properties":{"zip":"18702","3digit":"187","inzips":"187","primary_city":"Wilkes Barre","id":"abkwxn8ra9mt","state":"PA"},"type":"Feature","geometry":null},{"properties":{"zip":"18703","3digit":"187","inzips":"187","primary_city":"Wilkes Barre","id":"abkwxncx7lgs","state":"PA"},"type":"Feature","geometry":null},{"properties":{"zip":"18704","3digit":"187","inzips":"187","primary_city":"Kingston","id":"abkwxn5qfhou","state":"PA"},"type":"Feature","geometry":null},{"properties":{"zip":"18705","3digit":"187","inzips":"187","primary_city":"Wilkes Barre","id":"abkwxnelgcv6","state":"PA"},"type":"Feature","geometry":null},{"properties":{"zip":"18706","3digit":"187","inzips":"187","primary_city":"Wilkes Barre","id":"abkwxnchkrjw","state":"PA"},"type":"Feature","geometry":null},{"properties":{"zip":"18707","3digit":"187","inzips":"187","primary_city":"Mountain Top","id":"abkwxnaheqcd","state":"PA"},"type":"Feature","geometry":null},{"properties":{"zip":"18708","3digit":"187","inzips":"187","primary_city":"Shavertown","id":"abkwxn42rnfk","state":"PA"},"type":"Feature","geometry":null},{"properties":{"zip":"18709","3digit":"187","inzips":"187","primary_city":"Luzerne","id":"abkwxn6dqk6u","state":"PA"},"type":"Feature","geometry":null},{"properties":{"zip":"18710","3digit":"187","inzips":"187","primary_city":"Wilkes Barre","id":"abkwxnbhs8l9","state":"PA"},"type":"Feature","geometry":null},{"properties":{"zip":"18711","3digit":"187","inzips":"187","primary_city":"Wilkes Barre","id":"abkwxn5dlnrs","state":"PA"},"type":"Feature","geometry":null},{"properties":{"zip":"18762","3digit":"187","inzips":"187","primary_city":"Wilkes Barre","id":"abkwxng38147","state":"PA"},"type":"Feature","geometry":null},{"properties":{"zip":"18764","3digit":"187","inzips":"187","primary_city":"Wilkes Barre","id":"abkwxnayeqer","state":"PA"},"type":"Feature","geometry":null},{"properties":{"zip":"18765","3digit":"187","inzips":"187","primary_city":"Wilkes Barre","id":"abkwxn097w8m","state":"PA"},"type":"Feature","geometry":null},{"properties":{"zip":"18766","3digit":"187","inzips":"187","primary_city":"Wilkes Barre","id":"abkwxnf3hzlp","state":"PA"},"type":"Feature","geometry":null},{"properties":{"zip":"18767","3digit":"187","inzips":"187","primary_city":"Wilkes Barre","id":"abkwxn4rkgrc","state":"PA"},"type":"Feature","geometry":null},{"properties":{"zip":"18769","3digit":"187","inzips":"187","primary_city":"Wilkes Barre","id":"abkwxnavp58g","state":"PA"},"type":"Feature","geometry":null},{"properties":{"zip":"18773","3digit":"187","inzips":"187","primary_city":"Wilkes Barre","id":"abkwxng832z4","state":"PA"},"type":"Feature","geometry":null},{"properties":{"zip":"18901","3digit":"189","inzips":"189","primary_city":"Doylestown","id":"abkwxn1y45ld","state":"PA"},"type":"Feature","geometry":null},{"properties":{"zip":"18902","3digit":"189","inzips":"189","primary_city":"Doylestown","id":"abkwxn8s54az","state":"PA"},"type":"Feature","geometry":null},{"properties":{"zip":"18910","3digit":"189","inzips":"189","primary_city":"Bedminster","id":"abkwxn9tulfl","state":"PA"},"type":"Feature","geometry":null},{"properties":{"zip":"18911","3digit":"189","inzips":"189","primary_city":"Blooming Glen","id":"abkwxn2wk1qk","state":"PA"},"type":"Feature","geometry":null},{"properties":{"zip":"18912","3digit":"189","inzips":"189","primary_city":"Buckingham","id":"abkwxn1hkzp2","state":"PA"},"type":"Feature","geometry":null},{"properties":{"zip":"18913","3digit":"189","inzips":"189","primary_city":"Carversville","id":"abkwxneqb5i2","state":"PA"},"type":"Feature","geometry":null},{"properties":{"zip":"18914","3digit":"189","inzips":"189","primary_city":"Chalfont","id":"abkwxn65z8bv","state":"PA"},"type":"Feature","geometry":null},{"properties":{"zip":"18915","3digit":"189","inzips":"189","primary_city":"Colmar","id":"abkwxn8e4fkh","state":"PA"},"type":"Feature","geometry":null},{"properties":{"zip":"18916","3digit":"189","inzips":"189","primary_city":"Danboro","id":"abkwxn04qcjh","state":"PA"},"type":"Feature","geometry":null},{"properties":{"zip":"18917","3digit":"189","inzips":"189","primary_city":"Dublin","id":"abkwxnaw1e05","state":"PA"},"type":"Feature","geometry":null},{"properties":{"zip":"18918","3digit":"189","inzips":"189","primary_city":"Earlington","id":"abkwxn21v684","state":"PA"},"type":"Feature","geometry":null},{"properties":{"zip":"18920","3digit":"189","inzips":"189","primary_city":"Erwinna","id":"abkwxn3qcg5u","state":"PA"},"type":"Feature","geometry":null},{"properties":{"zip":"18921","3digit":"189","inzips":"189","primary_city":"Ferndale","id":"abkwxnfrajmo","state":"PA"},"type":"Feature","geometry":null},{"properties":{"zip":"18922","3digit":"189","inzips":"189","primary_city":"Forest Grove","id":"abkwxn903qay","state":"PA"},"type":"Feature","geometry":null},{"properties":{"zip":"18923","3digit":"189","inzips":"189","primary_city":"Fountainville","id":"abkwxn6cjo4y","state":"PA"},"type":"Feature","geometry":null},{"properties":{"zip":"18924","3digit":"189","inzips":"189","primary_city":"Franconia","id":"abkwxn46sa7u","state":"PA"},"type":"Feature","geometry":null},{"properties":{"zip":"18925","3digit":"189","inzips":"189","primary_city":"Furlong","id":"abkwxnehggp3","state":"PA"},"type":"Feature","geometry":null},{"properties":{"zip":"18926","3digit":"189","inzips":"189","primary_city":"Gardenville","id":"abkwxn3x809j","state":"PA"},"type":"Feature","geometry":null},{"properties":{"zip":"18927","3digit":"189","inzips":"189","primary_city":"Hilltown","id":"abkwxndo6v00","state":"PA"},"type":"Feature","geometry":null},{"properties":{"zip":"18928","3digit":"189","inzips":"189","primary_city":"Holicong","id":"abkwxn1ozkdt","state":"PA"},"type":"Feature","geometry":null},{"properties":{"zip":"18929","3digit":"189","inzips":"189","primary_city":"Jamison","id":"abkwxn3x0ufl","state":"PA"},"type":"Feature","geometry":null},{"properties":{"zip":"18930","3digit":"189","inzips":"189","primary_city":"Kintnersville","id":"abkwxna2f85y","state":"PA"},"type":"Feature","geometry":null},{"properties":{"zip":"18931","3digit":"189","inzips":"189","primary_city":"Lahaska","id":"abkwxn468i3c","state":"PA"},"type":"Feature","geometry":null},{"properties":{"zip":"18932","3digit":"189","inzips":"189","primary_city":"Line Lexington","id":"abkwxn51ppxn","state":"PA"},"type":"Feature","geometry":null},{"properties":{"zip":"18933","3digit":"189","inzips":"189","primary_city":"Lumberville","id":"abkwxn1f86tn","state":"PA"},"type":"Feature","geometry":null},{"properties":{"zip":"18934","3digit":"189","inzips":"189","primary_city":"Mechanicsville","id":"abkwxn1ws82j","state":"PA"},"type":"Feature","geometry":null},{"properties":{"zip":"18935","3digit":"189","inzips":"189","primary_city":"Milford Square","id":"abkwxnfa81ty","state":"PA"},"type":"Feature","geometry":null},{"properties":{"zip":"18936","3digit":"189","inzips":"189","primary_city":"Montgomeryville","id":"abkwxnbsuw85","state":"PA"},"type":"Feature","geometry":null},{"properties":{"zip":"18938","3digit":"189","inzips":"189","primary_city":"New Hope","id":"abkwxnbkxlhq","state":"PA"},"type":"Feature","geometry":null},{"properties":{"zip":"18940","3digit":"189","inzips":"189","primary_city":"Newtown","id":"abkwxn7gi0vn","state":"PA"},"type":"Feature","geometry":null},{"properties":{"zip":"18942","3digit":"189","inzips":"189","primary_city":"Ottsville","id":"abkwxn1fa1ca","state":"PA"},"type":"Feature","geometry":null},{"properties":{"zip":"18943","3digit":"189","inzips":"189","primary_city":"Penns Park","id":"abkwxn41gn8o","state":"PA"},"type":"Feature","geometry":null},{"properties":{"zip":"18944","3digit":"189","inzips":"189","primary_city":"Perkasie","id":"abkwxn1wrmx5","state":"PA"},"type":"Feature","geometry":null},{"properties":{"zip":"18946","3digit":"189","inzips":"189","primary_city":"Pineville","id":"abkwxne0owwv","state":"PA"},"type":"Feature","geometry":null},{"properties":{"zip":"18947","3digit":"189","inzips":"189","primary_city":"Pipersville","id":"abkwxn2gak96","state":"PA"},"type":"Feature","geometry":null},{"properties":{"zip":"18949","3digit":"189","inzips":"189","primary_city":"Plumsteadville","id":"abkwxn0fo3n6","state":"PA"},"type":"Feature","geometry":null},{"properties":{"zip":"18950","3digit":"189","inzips":"189","primary_city":"Point Pleasant","id":"abkwxn7possx","state":"PA"},"type":"Feature","geometry":null},{"properties":{"zip":"18951","3digit":"189","inzips":"189","primary_city":"Quakertown","id":"abkwxn6eaeen","state":"PA"},"type":"Feature","geometry":null},{"properties":{"zip":"18953","3digit":"189","inzips":"189","primary_city":"Revere","id":"abkwxn088qnb","state":"PA"},"type":"Feature","geometry":null},{"properties":{"zip":"18954","3digit":"189","inzips":"189","primary_city":"Richboro","id":"abkwxng24kv9","state":"PA"},"type":"Feature","geometry":null},{"properties":{"zip":"18955","3digit":"189","inzips":"189","primary_city":"Richlandtown","id":"abkwxn1rh3p3","state":"PA"},"type":"Feature","geometry":null},{"properties":{"zip":"18956","3digit":"189","inzips":"189","primary_city":"Rushland","id":"abkwxn7zklw8","state":"PA"},"type":"Feature","geometry":null},{"properties":{"zip":"18957","3digit":"189","inzips":"189","primary_city":"Salford","id":"abkwxnbjqyh7","state":"PA"},"type":"Feature","geometry":null},{"properties":{"zip":"18958","3digit":"189","inzips":"189","primary_city":"Salfordville","id":"abkwxndbwdba","state":"PA"},"type":"Feature","geometry":null},{"properties":{"zip":"18960","3digit":"189","inzips":"189","primary_city":"Sellersville","id":"abkwxne6x6a4","state":"PA"},"type":"Feature","geometry":null},{"properties":{"zip":"18962","3digit":"189","inzips":"189","primary_city":"Silverdale","id":"abkwxnarwhyn","state":"PA"},"type":"Feature","geometry":null},{"properties":{"zip":"18963","3digit":"189","inzips":"189","primary_city":"Solebury","id":"abkwxngklt0t","state":"PA"},"type":"Feature","geometry":null},{"properties":{"zip":"18964","3digit":"189","inzips":"189","primary_city":"Souderton","id":"abkwxn9gne3m","state":"PA"},"type":"Feature","geometry":null},{"properties":{"zip":"18966","3digit":"189","inzips":"189","primary_city":"Southampton","id":"abkwxn4e3zer","state":"PA"},"type":"Feature","geometry":null},{"properties":{"zip":"18968","3digit":"189","inzips":"189","primary_city":"Spinnerstown","id":"abkwxne6s4yr","state":"PA"},"type":"Feature","geometry":null},{"properties":{"zip":"18969","3digit":"189","inzips":"189","primary_city":"Telford","id":"abkwxnc2269g","state":"PA"},"type":"Feature","geometry":null},{"properties":{"zip":"18970","3digit":"189","inzips":"189","primary_city":"Trumbauersville","id":"abkwxn2kmigf","state":"PA"},"type":"Feature","geometry":null},{"properties":{"zip":"18971","3digit":"189","inzips":"189","primary_city":"Tylersport","id":"abkwxnemdrd4","state":"PA"},"type":"Feature","geometry":null},{"properties":{"zip":"18972","3digit":"189","inzips":"189","primary_city":"Upper Black Eddy","id":"abkwxn4vx7q4","state":"PA"},"type":"Feature","geometry":null},{"properties":{"zip":"18974","3digit":"189","inzips":"189","primary_city":"Warminster","id":"abkwxn5ajucu","state":"PA"},"type":"Feature","geometry":null},{"properties":{"zip":"18976","3digit":"189","inzips":"189","primary_city":"Warrington","id":"abkwxn7ehsno","state":"PA"},"type":"Feature","geometry":null},{"properties":{"zip":"18977","3digit":"189","inzips":"189","primary_city":"Washington Crossing","id":"abkwxn3nvjkh","state":"PA"},"type":"Feature","geometry":null},{"properties":{"zip":"18979","3digit":"189","inzips":"189","primary_city":"Woxall","id":"abkwxn5hdyxm","state":"PA"},"type":"Feature","geometry":null},{"properties":{"zip":"18980","3digit":"189","inzips":"189","primary_city":"Wycombe","id":"abkwxnda3eji","state":"PA"},"type":"Feature","geometry":null},{"properties":{"zip":"18981","3digit":"189","inzips":"189","primary_city":"Zionhill","id":"abkwxn0avzwu","state":"PA"},"type":"Feature","geometry":null},{"properties":{"zip":"18991","3digit":"189","inzips":"189","primary_city":"Warminster","id":"abkwxn2x1xv9","state":"PA"},"type":"Feature","geometry":null},{"properties":{"zip":"19001","3digit":"190","inzips":"190","primary_city":"Abington","id":"abkwxndqozuq","state":"PA"},"type":"Feature","geometry":null},{"properties":{"zip":"19002","3digit":"190","inzips":"190","primary_city":"Ambler","id":"abkwxn5lkppq","state":"PA"},"type":"Feature","geometry":null},{"properties":{"zip":"19003","3digit":"190","inzips":"190","primary_city":"Ardmore","id":"abkwxnc629hr","state":"PA"},"type":"Feature","geometry":null},{"properties":{"zip":"19004","3digit":"190","inzips":"190","primary_city":"Bala Cynwyd","id":"abkwxn1nrhqh","state":"PA"},"type":"Feature","geometry":null},{"properties":{"zip":"19006","3digit":"190","inzips":"190","primary_city":"Huntingdon Valley","id":"abkwxn4catqc","state":"PA"},"type":"Feature","geometry":null},{"properties":{"zip":"19007","3digit":"190","inzips":"190","primary_city":"Bristol","id":"abkwxn32wvi2","state":"PA"},"type":"Feature","geometry":null},{"properties":{"zip":"19008","3digit":"190","inzips":"190","primary_city":"Broomall","id":"abkwxn5gd8tj","state":"PA"},"type":"Feature","geometry":null},{"properties":{"zip":"19009","3digit":"190","inzips":"190","primary_city":"Bryn Athyn","id":"abkwxn405o26","state":"PA"},"type":"Feature","geometry":null},{"properties":{"zip":"19010","3digit":"190","inzips":"190","primary_city":"Bryn Mawr","id":"abkwxn07yh4h","state":"PA"},"type":"Feature","geometry":null},{"properties":{"zip":"19012","3digit":"190","inzips":"190","primary_city":"Cheltenham","id":"abkwxn6qjz5i","state":"PA"},"type":"Feature","geometry":null},{"properties":{"zip":"19013","3digit":"190","inzips":"190","primary_city":"Chester","id":"abkwxn40ww96","state":"PA"},"type":"Feature","geometry":null},{"properties":{"zip":"19014","3digit":"190","inzips":"190","primary_city":"Aston","id":"abkwxn8re1ls","state":"PA"},"type":"Feature","geometry":null},{"properties":{"zip":"19015","3digit":"190","inzips":"190","primary_city":"Brookhaven","id":"abkwxn8ucz4v","state":"PA"},"type":"Feature","geometry":null},{"properties":{"zip":"19016","3digit":"190","inzips":"190","primary_city":"Chester","id":"abkwxn2byvmv","state":"PA"},"type":"Feature","geometry":null},{"properties":{"zip":"19017","3digit":"190","inzips":"190","primary_city":"Chester Heights","id":"abkwxn7m4ywl","state":"PA"},"type":"Feature","geometry":null},{"properties":{"zip":"19018","3digit":"190","inzips":"190","primary_city":"Clifton Heights","id":"abkwxn5hi3rw","state":"PA"},"type":"Feature","geometry":null},{"properties":{"zip":"19019","3digit":"190","inzips":"190","primary_city":"Philadelphia","id":"abkwxn18yc3b","state":"PA"},"type":"Feature","geometry":null},{"properties":{"zip":"19020","3digit":"190","inzips":"190","primary_city":"Bensalem","id":"abkwxnfg06pn","state":"PA"},"type":"Feature","geometry":null},{"properties":{"zip":"19021","3digit":"190","inzips":"190","primary_city":"Croydon","id":"abkwxn3zg2dy","state":"PA"},"type":"Feature","geometry":null},{"properties":{"zip":"19022","3digit":"190","inzips":"190","primary_city":"Crum Lynne","id":"abkwxnek3emx","state":"PA"},"type":"Feature","geometry":null},{"properties":{"zip":"19023","3digit":"190","inzips":"190","primary_city":"Darby","id":"abkwxn5oozye","state":"PA"},"type":"Feature","geometry":null},{"properties":{"zip":"19025","3digit":"190","inzips":"190","primary_city":"Dresher","id":"abkwxn0bn5lw","state":"PA"},"type":"Feature","geometry":null},{"properties":{"zip":"19026","3digit":"190","inzips":"190","primary_city":"Drexel Hill","id":"abkwxnerbq3e","state":"PA"},"type":"Feature","geometry":null},{"properties":{"zip":"19027","3digit":"190","inzips":"190","primary_city":"Elkins Park","id":"abkwxng4kqbv","state":"PA"},"type":"Feature","geometry":null},{"properties":{"zip":"19028","3digit":"190","inzips":"190","primary_city":"Edgemont","id":"abkwxn8n5zaq","state":"PA"},"type":"Feature","geometry":null},{"properties":{"zip":"19029","3digit":"190","inzips":"190","primary_city":"Essington","id":"abkwxnccqq4x","state":"PA"},"type":"Feature","geometry":null},{"properties":{"zip":"19030","3digit":"190","inzips":"190","primary_city":"Fairless Hills","id":"abkwxn5kzjz9","state":"PA"},"type":"Feature","geometry":null},{"properties":{"zip":"19031","3digit":"190","inzips":"190","primary_city":"Flourtown","id":"abkwxndccl8s","state":"PA"},"type":"Feature","geometry":null},{"properties":{"zip":"19032","3digit":"190","inzips":"190","primary_city":"Folcroft","id":"abkwxngf6sq0","state":"PA"},"type":"Feature","geometry":null},{"properties":{"zip":"19033","3digit":"190","inzips":"190","primary_city":"Folsom","id":"abkwxneq21hn","state":"PA"},"type":"Feature","geometry":null},{"properties":{"zip":"19034","3digit":"190","inzips":"190","primary_city":"Fort Washington","id":"abkwxn23zshw","state":"PA"},"type":"Feature","geometry":null},{"properties":{"zip":"19035","3digit":"190","inzips":"190","primary_city":"Gladwyne","id":"abkwxnc51562","state":"PA"},"type":"Feature","geometry":null},{"properties":{"zip":"19036","3digit":"190","inzips":"190","primary_city":"Glenolden","id":"abkwxn1mit0h","state":"PA"},"type":"Feature","geometry":null},{"properties":{"zip":"19037","3digit":"190","inzips":"190","primary_city":"Glen Riddle Lima","id":"abkwxn80up7g","state":"PA"},"type":"Feature","geometry":null},{"properties":{"zip":"19038","3digit":"190","inzips":"190","primary_city":"Glenside","id":"abkwxngg69ti","state":"PA"},"type":"Feature","geometry":null},{"properties":{"zip":"19039","3digit":"190","inzips":"190","primary_city":"Gradyville","id":"abkwxn0vi3iy","state":"PA"},"type":"Feature","geometry":null},{"properties":{"zip":"19040","3digit":"190","inzips":"190","primary_city":"Hatboro","id":"abkwxn3ah515","state":"PA"},"type":"Feature","geometry":null},{"properties":{"zip":"19041","3digit":"190","inzips":"190","primary_city":"Haverford","id":"abkwxn5md7b5","state":"PA"},"type":"Feature","geometry":null},{"properties":{"zip":"19043","3digit":"190","inzips":"190","primary_city":"Holmes","id":"abkwxnfl8yqc","state":"PA"},"type":"Feature","geometry":null},{"properties":{"zip":"19044","3digit":"190","inzips":"190","primary_city":"Horsham","id":"abkwxn2x66ht","state":"PA"},"type":"Feature","geometry":null},{"properties":{"zip":"19046","3digit":"190","inzips":"190","primary_city":"Jenkintown","id":"abkwxn6f5kwr","state":"PA"},"type":"Feature","geometry":null},{"properties":{"zip":"19047","3digit":"190","inzips":"190","primary_city":"Langhorne","id":"abkwxnczim0p","state":"PA"},"type":"Feature","geometry":null},{"properties":{"zip":"19048","3digit":"190","inzips":"190","primary_city":"Fort Washington","id":"abkwxn7felwl","state":"PA"},"type":"Feature","geometry":null},{"properties":{"zip":"19049","3digit":"190","inzips":"190","primary_city":"Fort Washington","id":"abkwxnbmi8bm","state":"PA"},"type":"Feature","geometry":null},{"properties":{"zip":"19050","3digit":"190","inzips":"190","primary_city":"Lansdowne","id":"abkwxn6rcwjq","state":"PA"},"type":"Feature","geometry":null},{"properties":{"zip":"19052","3digit":"190","inzips":"190","primary_city":"Lenni","id":"abkwxnarg29n","state":"PA"},"type":"Feature","geometry":null},{"properties":{"zip":"19053","3digit":"190","inzips":"190","primary_city":"Feasterville Trevose","id":"abkwxn3ayb8b","state":"PA"},"type":"Feature","geometry":null},{"properties":{"zip":"19054","3digit":"190","inzips":"190","primary_city":"Levittown","id":"abkwxn7ag0xq","state":"PA"},"type":"Feature","geometry":null},{"properties":{"zip":"19055","3digit":"190","inzips":"190","primary_city":"Levittown","id":"abkwxn28godr","state":"PA"},"type":"Feature","geometry":null},{"properties":{"zip":"19056","3digit":"190","inzips":"190","primary_city":"Levittown","id":"abkwxnb9uvd5","state":"PA"},"type":"Feature","geometry":null},{"properties":{"zip":"19057","3digit":"190","inzips":"190","primary_city":"Levittown","id":"abkwxng95z6y","state":"PA"},"type":"Feature","geometry":null},{"properties":{"zip":"19058","3digit":"190","inzips":"190","primary_city":"Levittown","id":"abkwxn9z7sgk","state":"PA"},"type":"Feature","geometry":null},{"properties":{"zip":"19060","3digit":"190","inzips":"190","primary_city":"Garnet Valley","id":"abkwxn58tjfc","state":"PA"},"type":"Feature","geometry":null},{"properties":{"zip":"19061","3digit":"190","inzips":"190","primary_city":"Marcus Hook","id":"abkwxng6hje3","state":"PA"},"type":"Feature","geometry":null},{"properties":{"zip":"19063","3digit":"190","inzips":"190","primary_city":"Media","id":"abkwxn5nixaw","state":"PA"},"type":"Feature","geometry":null},{"properties":{"zip":"19064","3digit":"190","inzips":"190","primary_city":"Springfield","id":"abkwxn6w6uyq","state":"PA"},"type":"Feature","geometry":null},{"properties":{"zip":"19065","3digit":"190","inzips":"190","primary_city":"Media","id":"abkwxnc4avot","state":"PA"},"type":"Feature","geometry":null},{"properties":{"zip":"19066","3digit":"190","inzips":"190","primary_city":"Merion Station","id":"abkwxn568ifg","state":"PA"},"type":"Feature","geometry":null},{"properties":{"zip":"19067","3digit":"190","inzips":"190","primary_city":"Morrisville","id":"abkwxna5xobs","state":"PA"},"type":"Feature","geometry":null},{"properties":{"zip":"19070","3digit":"190","inzips":"190","primary_city":"Morton","id":"abkwxn20fctv","state":"PA"},"type":"Feature","geometry":null},{"properties":{"zip":"19072","3digit":"190","inzips":"190","primary_city":"Narberth","id":"abkwxn16e193","state":"PA"},"type":"Feature","geometry":null},{"properties":{"zip":"19073","3digit":"190","inzips":"190","primary_city":"Newtown Square","id":"abkwxn5dawdq","state":"PA"},"type":"Feature","geometry":null},{"properties":{"zip":"19074","3digit":"190","inzips":"190","primary_city":"Norwood","id":"abkwxn45wz6y","state":"PA"},"type":"Feature","geometry":null},{"properties":{"zip":"19075","3digit":"190","inzips":"190","primary_city":"Oreland","id":"abkwxnfxy0x7","state":"PA"},"type":"Feature","geometry":null},{"properties":{"zip":"19076","3digit":"190","inzips":"190","primary_city":"Prospect Park","id":"abkwxndc8238","state":"PA"},"type":"Feature","geometry":null},{"properties":{"zip":"19078","3digit":"190","inzips":"190","primary_city":"Ridley Park","id":"abkwxn9vgf09","state":"PA"},"type":"Feature","geometry":null},{"properties":{"zip":"19079","3digit":"190","inzips":"190","primary_city":"Sharon Hill","id":"abkwxn4qo7kv","state":"PA"},"type":"Feature","geometry":null},{"properties":{"zip":"19080","3digit":"190","inzips":"190","primary_city":"Wayne","id":"abkwxn96kgub","state":"PA"},"type":"Feature","geometry":null},{"properties":{"zip":"19081","3digit":"190","inzips":"190","primary_city":"Swarthmore","id":"abkwxn9widya","state":"PA"},"type":"Feature","geometry":null},{"properties":{"zip":"19082","3digit":"190","inzips":"190","primary_city":"Upper Darby","id":"abkwxn9l31s4","state":"PA"},"type":"Feature","geometry":null},{"properties":{"zip":"19083","3digit":"190","inzips":"190","primary_city":"Havertown","id":"abkwxnbd0ig1","state":"PA"},"type":"Feature","geometry":null},{"properties":{"zip":"19085","3digit":"190","inzips":"190","primary_city":"Villanova","id":"abkwxng2p84l","state":"PA"},"type":"Feature","geometry":null},{"properties":{"zip":"19086","3digit":"190","inzips":"190","primary_city":"Wallingford","id":"abkwxn3tvtuc","state":"PA"},"type":"Feature","geometry":null},{"properties":{"zip":"19087","3digit":"190","inzips":"190","primary_city":"Wayne","id":"abkwxnakn8pb","state":"PA"},"type":"Feature","geometry":null},{"properties":{"zip":"19088","3digit":"190","inzips":"190","primary_city":"Wayne","id":"abkwxne6b6w2","state":"PA"},"type":"Feature","geometry":null},{"properties":{"zip":"19089","3digit":"190","inzips":"190","primary_city":"Wayne","id":"abkwxn70ag90","state":"PA"},"type":"Feature","geometry":null},{"properties":{"zip":"19090","3digit":"190","inzips":"190","primary_city":"Willow Grove","id":"abkwxn9mn20i","state":"PA"},"type":"Feature","geometry":null},{"properties":{"zip":"19091","3digit":"190","inzips":"190","primary_city":"Media","id":"abkwxn5oabk9","state":"PA"},"type":"Feature","geometry":null},{"properties":{"zip":"19092","3digit":"190","inzips":"190","primary_city":"Philadelphia","id":"abkwxn6ive7z","state":"PA"},"type":"Feature","geometry":null},{"properties":{"zip":"19093","3digit":"190","inzips":"190","primary_city":"Philadelphia","id":"abkwxne8xual","state":"PA"},"type":"Feature","geometry":null},{"properties":{"zip":"19094","3digit":"190","inzips":"190","primary_city":"Woodlyn","id":"abkwxn045165","state":"PA"},"type":"Feature","geometry":null},{"properties":{"zip":"19095","3digit":"190","inzips":"190","primary_city":"Wyncote","id":"abkwxn0f5q1f","state":"PA"},"type":"Feature","geometry":null},{"properties":{"zip":"19096","3digit":"190","inzips":"190","primary_city":"Wynnewood","id":"abkwxnedkv61","state":"PA"},"type":"Feature","geometry":null},{"properties":{"zip":"19098","3digit":"190","inzips":"190","primary_city":"Holmes","id":"abkwxn6oiugu","state":"PA"},"type":"Feature","geometry":null},{"properties":{"zip":"19099","3digit":"190","inzips":"190","primary_city":"Philadelphia","id":"abkwxn30us5n","state":"PA"},"type":"Feature","geometry":null},{"properties":{"zip":"19101","3digit":"191","inzips":"191","primary_city":"Philadelphia","id":"abkwxnd3yq93","state":"PA"},"type":"Feature","geometry":null},{"properties":{"zip":"19102","3digit":"191","inzips":"191","primary_city":"Philadelphia","id":"abkwxn5zzw2v","state":"PA"},"type":"Feature","geometry":null},{"properties":{"zip":"19103","3digit":"191","inzips":"191","primary_city":"Philadelphia","id":"abkwxnajbm4h","state":"PA"},"type":"Feature","geometry":null},{"properties":{"zip":"19104","3digit":"191","inzips":"191","primary_city":"Philadelphia","id":"abkwxn8wm6e5","state":"PA"},"type":"Feature","geometry":null},{"properties":{"zip":"19105","3digit":"191","inzips":"191","primary_city":"Philadelphia","id":"abkwxn2nholu","state":"PA"},"type":"Feature","geometry":null},{"properties":{"zip":"19106","3digit":"191","inzips":"191","primary_city":"Philadelphia","id":"abkwxn161jb1","state":"PA"},"type":"Feature","geometry":null},{"properties":{"zip":"19107","3digit":"191","inzips":"191","primary_city":"Philadelphia","id":"abkwxn8htm4k","state":"PA"},"type":"Feature","geometry":null},{"properties":{"zip":"19108","3digit":"191","inzips":"191","primary_city":"Philadelphia","id":"abkwxnbqu6z0","state":"PA"},"type":"Feature","geometry":null},{"properties":{"zip":"19109","3digit":"191","inzips":"191","primary_city":"Philadelphia","id":"abkwxnbnrzs5","state":"PA"},"type":"Feature","geometry":null},{"properties":{"zip":"19110","3digit":"191","inzips":"191","primary_city":"Philadelphia","id":"abkwxnavb5cd","state":"PA"},"type":"Feature","geometry":null},{"properties":{"zip":"19111","3digit":"191","inzips":"191","primary_city":"Philadelphia","id":"abkwxndga6hq","state":"PA"},"type":"Feature","geometry":null},{"properties":{"zip":"19112","3digit":"191","inzips":"191","primary_city":"Philadelphia","id":"abkwxn53nktx","state":"PA"},"type":"Feature","geometry":null},{"properties":{"zip":"19113","3digit":"191","inzips":"191","primary_city":"Philadelphia","id":"abkwxngkjhva","state":"PA"},"type":"Feature","geometry":null},{"properties":{"zip":"19114","3digit":"191","inzips":"191","primary_city":"Philadelphia","id":"abkwxngb4cbu","state":"PA"},"type":"Feature","geometry":null},{"properties":{"zip":"19115","3digit":"191","inzips":"191","primary_city":"Philadelphia","id":"abkwxn95du2q","state":"PA"},"type":"Feature","geometry":null},{"properties":{"zip":"19116","3digit":"191","inzips":"191","primary_city":"Philadelphia","id":"abkwxn0rng2t","state":"PA"},"type":"Feature","geometry":null},{"properties":{"zip":"19118","3digit":"191","inzips":"191","primary_city":"Philadelphia","id":"abkwxnelp7d5","state":"PA"},"type":"Feature","geometry":null},{"properties":{"zip":"19119","3digit":"191","inzips":"191","primary_city":"Philadelphia","id":"abkwxn2hb7i2","state":"PA"},"type":"Feature","geometry":null},{"properties":{"zip":"19120","3digit":"191","inzips":"191","primary_city":"Philadelphia","id":"abkwxnchwfvm","state":"PA"},"type":"Feature","geometry":null},{"properties":{"zip":"19121","3digit":"191","inzips":"191","primary_city":"Philadelphia","id":"abkwxncr0pmf","state":"PA"},"type":"Feature","geometry":null},{"properties":{"zip":"19122","3digit":"191","inzips":"191","primary_city":"Philadelphia","id":"abkwxn825fzj","state":"PA"},"type":"Feature","geometry":null},{"properties":{"zip":"19123","3digit":"191","inzips":"191","primary_city":"Philadelphia","id":"abkwxn90yu2h","state":"PA"},"type":"Feature","geometry":null},{"properties":{"zip":"19124","3digit":"191","inzips":"191","primary_city":"Philadelphia","id":"abkwxngc1siw","state":"PA"},"type":"Feature","geometry":null},{"properties":{"zip":"19125","3digit":"191","inzips":"191","primary_city":"Philadelphia","id":"abkwxn4saynr","state":"PA"},"type":"Feature","geometry":null},{"properties":{"zip":"19126","3digit":"191","inzips":"191","primary_city":"Philadelphia","id":"abkwxn5givx3","state":"PA"},"type":"Feature","geometry":null},{"properties":{"zip":"19127","3digit":"191","inzips":"191","primary_city":"Philadelphia","id":"abkwxnbr52p9","state":"PA"},"type":"Feature","geometry":null},{"properties":{"zip":"19128","3digit":"191","inzips":"191","primary_city":"Philadelphia","id":"abkwxn69p5yg","state":"PA"},"type":"Feature","geometry":null},{"properties":{"zip":"19129","3digit":"191","inzips":"191","primary_city":"Philadelphia","id":"abkwxn1fopcx","state":"PA"},"type":"Feature","geometry":null},{"properties":{"zip":"19130","3digit":"191","inzips":"191","primary_city":"Philadelphia","id":"abkwxn4jkwl2","state":"PA"},"type":"Feature","geometry":null},{"properties":{"zip":"19131","3digit":"191","inzips":"191","primary_city":"Philadelphia","id":"abkwxn2qkqwz","state":"PA"},"type":"Feature","geometry":null},{"properties":{"zip":"19132","3digit":"191","inzips":"191","primary_city":"Philadelphia","id":"abkwxnacgui5","state":"PA"},"type":"Feature","geometry":null},{"properties":{"zip":"19133","3digit":"191","inzips":"191","primary_city":"Philadelphia","id":"abkwxnc8nwh8","state":"PA"},"type":"Feature","geometry":null},{"properties":{"zip":"19134","3digit":"191","inzips":"191","primary_city":"Philadelphia","id":"abkwxnddj9kr","state":"PA"},"type":"Feature","geometry":null},{"properties":{"zip":"19135","3digit":"191","inzips":"191","primary_city":"Philadelphia","id":"abkwxnag9m74","state":"PA"},"type":"Feature","geometry":null},{"properties":{"zip":"19136","3digit":"191","inzips":"191","primary_city":"Philadelphia","id":"abkwxn89dvrf","state":"PA"},"type":"Feature","geometry":null},{"properties":{"zip":"19137","3digit":"191","inzips":"191","primary_city":"Philadelphia","id":"abkwxn256tcq","state":"PA"},"type":"Feature","geometry":null},{"properties":{"zip":"19138","3digit":"191","inzips":"191","primary_city":"Philadelphia","id":"abkwxng5xxm3","state":"PA"},"type":"Feature","geometry":null},{"properties":{"zip":"19139","3digit":"191","inzips":"191","primary_city":"Philadelphia","id":"abkwxnfinlug","state":"PA"},"type":"Feature","geometry":null},{"properties":{"zip":"19140","3digit":"191","inzips":"191","primary_city":"Philadelphia","id":"abkwxn68kyxm","state":"PA"},"type":"Feature","geometry":null},{"properties":{"zip":"19141","3digit":"191","inzips":"191","primary_city":"Philadelphia","id":"abkwxn1rr601","state":"PA"},"type":"Feature","geometry":null},{"properties":{"zip":"19142","3digit":"191","inzips":"191","primary_city":"Philadelphia","id":"abkwxn6ps029","state":"PA"},"type":"Feature","geometry":null},{"properties":{"zip":"19143","3digit":"191","inzips":"191","primary_city":"Philadelphia","id":"abkwxn7er4ef","state":"PA"},"type":"Feature","geometry":null},{"properties":{"zip":"19144","3digit":"191","inzips":"191","primary_city":"Philadelphia","id":"abkwxn0uhmbv","state":"PA"},"type":"Feature","geometry":null},{"properties":{"zip":"19145","3digit":"191","inzips":"191","primary_city":"Philadelphia","id":"abkwxnezoec3","state":"PA"},"type":"Feature","geometry":null},{"properties":{"zip":"19146","3digit":"191","inzips":"191","primary_city":"Philadelphia","id":"abkwxn68vyq0","state":"PA"},"type":"Feature","geometry":null},{"properties":{"zip":"19147","3digit":"191","inzips":"191","primary_city":"Philadelphia","id":"abkwxnfeckgm","state":"PA"},"type":"Feature","geometry":null},{"properties":{"zip":"19148","3digit":"191","inzips":"191","primary_city":"Philadelphia","id":"abkwxngdj06s","state":"PA"},"type":"Feature","geometry":null},{"properties":{"zip":"19149","3digit":"191","inzips":"191","primary_city":"Philadelphia","id":"abkwxnern0v5","state":"PA"},"type":"Feature","geometry":null},{"properties":{"zip":"19150","3digit":"191","inzips":"191","primary_city":"Philadelphia","id":"abkwxn3ksd8b","state":"PA"},"type":"Feature","geometry":null},{"properties":{"zip":"19151","3digit":"191","inzips":"191","primary_city":"Philadelphia","id":"abkwxnf261kk","state":"PA"},"type":"Feature","geometry":null},{"properties":{"zip":"19152","3digit":"191","inzips":"191","primary_city":"Philadelphia","id":"abkwxnbqlcft","state":"PA"},"type":"Feature","geometry":null},{"properties":{"zip":"19153","3digit":"191","inzips":"191","primary_city":"Philadelphia","id":"abkwxn0x3fvv","state":"PA"},"type":"Feature","geometry":null},{"properties":{"zip":"19154","3digit":"191","inzips":"191","primary_city":"Philadelphia","id":"abkwxngfisce","state":"PA"},"type":"Feature","geometry":null},{"properties":{"zip":"19155","3digit":"191","inzips":"191","primary_city":"Philadelphia","id":"abkwxn3ydvxe","state":"PA"},"type":"Feature","geometry":null},{"properties":{"zip":"19160","3digit":"191","inzips":"191","primary_city":"Philadelphia","id":"abkwxncpymj1","state":"PA"},"type":"Feature","geometry":null},{"properties":{"zip":"19161","3digit":"191","inzips":"191","primary_city":"Philadelphia","id":"abkwxneclxtf","state":"PA"},"type":"Feature","geometry":null},{"properties":{"zip":"19162","3digit":"191","inzips":"191","primary_city":"Philadelphia","id":"abkwxnfn5iyl","state":"PA"},"type":"Feature","geometry":null},{"properties":{"zip":"19170","3digit":"191","inzips":"191","primary_city":"Philadelphia","id":"abkwxnfcqlop","state":"PA"},"type":"Feature","geometry":null},{"properties":{"zip":"19171","3digit":"191","inzips":"191","primary_city":"Philadelphia","id":"abkwxnbuv1lg","state":"PA"},"type":"Feature","geometry":null},{"properties":{"zip":"19172","3digit":"191","inzips":"191","primary_city":"Philadelphia","id":"abkwxn8urij6","state":"PA"},"type":"Feature","geometry":null},{"properties":{"zip":"19173","3digit":"191","inzips":"191","primary_city":"Philadelphia","id":"abkwxn73w4ii","state":"PA"},"type":"Feature","geometry":null},{"properties":{"zip":"19175","3digit":"191","inzips":"191","primary_city":"Philadelphia","id":"abkwxn9ycpki","state":"PA"},"type":"Feature","geometry":null},{"properties":{"zip":"19176","3digit":"191","inzips":"191","primary_city":"Philadelphia","id":"abkwxne6jlg7","state":"PA"},"type":"Feature","geometry":null},{"properties":{"zip":"19177","3digit":"191","inzips":"191","primary_city":"Philadelphia","id":"abkwxn7pqnsv","state":"PA"},"type":"Feature","geometry":null},{"properties":{"zip":"19178","3digit":"191","inzips":"191","primary_city":"Philadelphia","id":"abkwxn6hoooc","state":"PA"},"type":"Feature","geometry":null},{"properties":{"zip":"19179","3digit":"191","inzips":"191","primary_city":"Philadelphia","id":"abkwxnfxyj7m","state":"PA"},"type":"Feature","geometry":null},{"properties":{"zip":"19181","3digit":"191","inzips":"191","primary_city":"Philadelphia","id":"abkwxn4ziyg8","state":"PA"},"type":"Feature","geometry":null},{"properties":{"zip":"19182","3digit":"191","inzips":"191","primary_city":"Philadelphia","id":"abkwxnbxekjn","state":"PA"},"type":"Feature","geometry":null},{"properties":{"zip":"19183","3digit":"191","inzips":"191","primary_city":"Philadelphia","id":"abkwxn9z2w9n","state":"PA"},"type":"Feature","geometry":null},{"properties":{"zip":"19184","3digit":"191","inzips":"191","primary_city":"Philadelphia","id":"abkwxn8im635","state":"PA"},"type":"Feature","geometry":null},{"properties":{"zip":"19185","3digit":"191","inzips":"191","primary_city":"Philadelphia","id":"abkwxnf5ap7z","state":"PA"},"type":"Feature","geometry":null},{"properties":{"zip":"19187","3digit":"191","inzips":"191","primary_city":"Philadelphia","id":"abkwxnfagwhw","state":"PA"},"type":"Feature","geometry":null},{"properties":{"zip":"19188","3digit":"191","inzips":"191","primary_city":"Philadelphia","id":"abkwxn7w4no8","state":"PA"},"type":"Feature","geometry":null},{"properties":{"zip":"19190","3digit":"191","inzips":"191","primary_city":"Philadelphia","id":"abkwxn5jtx3j","state":"PA"},"type":"Feature","geometry":null},{"properties":{"zip":"19191","3digit":"191","inzips":"191","primary_city":"Philadelphia","id":"abkwxn43yefr","state":"PA"},"type":"Feature","geometry":null},{"properties":{"zip":"19192","3digit":"191","inzips":"191","primary_city":"Philadelphia","id":"abkwxnb2bjwf","state":"PA"},"type":"Feature","geometry":null},{"properties":{"zip":"19193","3digit":"191","inzips":"191","primary_city":"Philadelphia","id":"abkwxnble7aj","state":"PA"},"type":"Feature","geometry":null},{"properties":{"zip":"19194","3digit":"191","inzips":"191","primary_city":"Philadelphia","id":"abkwxn0jh4qw","state":"PA"},"type":"Feature","geometry":null},{"properties":{"zip":"19195","3digit":"191","inzips":"191","primary_city":"Philadelphia","id":"abkwxn39fgpm","state":"PA"},"type":"Feature","geometry":null},{"properties":{"zip":"19196","3digit":"191","inzips":"191","primary_city":"Philadelphia","id":"abkwxnc5tzx1","state":"PA"},"type":"Feature","geometry":null},{"properties":{"zip":"19197","3digit":"191","inzips":"191","primary_city":"Philadelphia","id":"abkwxn6iyqv2","state":"PA"},"type":"Feature","geometry":null},{"properties":{"zip":"19301","3digit":"193","inzips":"193","primary_city":"Paoli","id":"abkwxn4h9xb0","state":"PA"},"type":"Feature","geometry":null},{"properties":{"zip":"19310","3digit":"193","inzips":"193","primary_city":"Atglen","id":"abkwxn7i8zwo","state":"PA"},"type":"Feature","geometry":null},{"properties":{"zip":"19311","3digit":"193","inzips":"193","primary_city":"Avondale","id":"abkwxn1wyaai","state":"PA"},"type":"Feature","geometry":null},{"properties":{"zip":"19312","3digit":"193","inzips":"193","primary_city":"Berwyn","id":"abkwxnfcewas","state":"PA"},"type":"Feature","geometry":null},{"properties":{"zip":"19316","3digit":"193","inzips":"193","primary_city":"Brandamore","id":"abkwxn9bcv68","state":"PA"},"type":"Feature","geometry":null},{"properties":{"zip":"19317","3digit":"193","inzips":"193","primary_city":"Chadds Ford","id":"abkwxnga5fk8","state":"PA"},"type":"Feature","geometry":null},{"properties":{"zip":"19318","3digit":"193","inzips":"193","primary_city":"Chatham","id":"abkwxn2ml7kd","state":"PA"},"type":"Feature","geometry":null},{"properties":{"zip":"19319","3digit":"193","inzips":"193","primary_city":"Cheyney","id":"abkwxnf4uw7y","state":"PA"},"type":"Feature","geometry":null},{"properties":{"zip":"19320","3digit":"193","inzips":"193","primary_city":"Coatesville","id":"abkwxn06u8qc","state":"PA"},"type":"Feature","geometry":null},{"properties":{"zip":"19330","3digit":"193","inzips":"193","primary_city":"Cochranville","id":"abkwxn5rp9xp","state":"PA"},"type":"Feature","geometry":null},{"properties":{"zip":"19331","3digit":"193","inzips":"193","primary_city":"Concordville","id":"abkwxn7vonqj","state":"PA"},"type":"Feature","geometry":null},{"properties":{"zip":"19333","3digit":"193","inzips":"193","primary_city":"Devon","id":"abkwxnc1koaz","state":"PA"},"type":"Feature","geometry":null},{"properties":{"zip":"19335","3digit":"193","inzips":"193","primary_city":"Downingtown","id":"abkwxn7vba50","state":"PA"},"type":"Feature","geometry":null},{"properties":{"zip":"19339","3digit":"193","inzips":"193","primary_city":"Concordville","id":"abkwxndds9tk","state":"PA"},"type":"Feature","geometry":null},{"properties":{"zip":"19340","3digit":"193","inzips":"193","primary_city":"Concordville","id":"abkwxn7jxr0w","state":"PA"},"type":"Feature","geometry":null},{"properties":{"zip":"19341","3digit":"193","inzips":"193","primary_city":"Exton","id":"abkwxne15dsj","state":"PA"},"type":"Feature","geometry":null},{"properties":{"zip":"19342","3digit":"193","inzips":"193","primary_city":"Glen Mills","id":"abkwxn9b8d9u","state":"PA"},"type":"Feature","geometry":null},{"properties":{"zip":"19343","3digit":"193","inzips":"193","primary_city":"Glenmoore","id":"abkwxn3bqfoi","state":"PA"},"type":"Feature","geometry":null},{"properties":{"zip":"19344","3digit":"193","inzips":"193","primary_city":"Honey Brook","id":"abkwxncylqqr","state":"PA"},"type":"Feature","geometry":null},{"properties":{"zip":"19345","3digit":"193","inzips":"193","primary_city":"Immaculata","id":"abkwxn5i82tj","state":"PA"},"type":"Feature","geometry":null},{"properties":{"zip":"19346","3digit":"193","inzips":"193","primary_city":"Kelton","id":"abkwxn7ti0df","state":"PA"},"type":"Feature","geometry":null},{"properties":{"zip":"19347","3digit":"193","inzips":"193","primary_city":"Kemblesville","id":"abkwxn3i5un2","state":"PA"},"type":"Feature","geometry":null},{"properties":{"zip":"19348","3digit":"193","inzips":"193","primary_city":"Kennett Square","id":"abkwxn47p0tx","state":"PA"},"type":"Feature","geometry":null},{"properties":{"zip":"19350","3digit":"193","inzips":"193","primary_city":"Landenberg","id":"abkwxncno83d","state":"PA"},"type":"Feature","geometry":null},{"properties":{"zip":"19351","3digit":"193","inzips":"193","primary_city":"Lewisville","id":"abkwxn302h3r","state":"PA"},"type":"Feature","geometry":null},{"properties":{"zip":"19352","3digit":"193","inzips":"193","primary_city":"Lincoln University","id":"abkwxn2wde4i","state":"PA"},"type":"Feature","geometry":null},{"properties":{"zip":"19353","3digit":"193","inzips":"193","primary_city":"Lionville","id":"abkwxn71idqp","state":"PA"},"type":"Feature","geometry":null},{"properties":{"zip":"19354","3digit":"193","inzips":"193","primary_city":"Lyndell","id":"abkwxnb2fq6y","state":"PA"},"type":"Feature","geometry":null},{"properties":{"zip":"19355","3digit":"193","inzips":"193","primary_city":"Malvern","id":"abkwxn5ir7bq","state":"PA"},"type":"Feature","geometry":null},{"properties":{"zip":"19357","3digit":"193","inzips":"193","primary_city":"Mendenhall","id":"abkwxn649nae","state":"PA"},"type":"Feature","geometry":null},{"properties":{"zip":"19358","3digit":"193","inzips":"193","primary_city":"Modena","id":"abkwxnb9beeq","state":"PA"},"type":"Feature","geometry":null},{"properties":{"zip":"19360","3digit":"193","inzips":"193","primary_city":"New London","id":"abkwxn90zvjt","state":"PA"},"type":"Feature","geometry":null},{"properties":{"zip":"19362","3digit":"193","inzips":"193","primary_city":"Nottingham","id":"abkwxn6zdlxp","state":"PA"},"type":"Feature","geometry":null},{"properties":{"zip":"19363","3digit":"193","inzips":"193","primary_city":"Oxford","id":"abkwxn9zjjzy","state":"PA"},"type":"Feature","geometry":null},{"properties":{"zip":"19365","3digit":"193","inzips":"193","primary_city":"Parkesburg","id":"abkwxngcbhiw","state":"PA"},"type":"Feature","geometry":null},{"properties":{"zip":"19366","3digit":"193","inzips":"193","primary_city":"Pocopson","id":"abkwxn65wfn8","state":"PA"},"type":"Feature","geometry":null},{"properties":{"zip":"19367","3digit":"193","inzips":"193","primary_city":"Pomeroy","id":"abkwxngdjk4h","state":"PA"},"type":"Feature","geometry":null},{"properties":{"zip":"19369","3digit":"193","inzips":"193","primary_city":"Sadsburyville","id":"abkwxn93qkkd","state":"PA"},"type":"Feature","geometry":null},{"properties":{"zip":"19371","3digit":"193","inzips":"193","primary_city":"Suplee","id":"abkwxn4ma5ay","state":"PA"},"type":"Feature","geometry":null},{"properties":{"zip":"19372","3digit":"193","inzips":"193","primary_city":"Thorndale","id":"abkwxn9413ev","state":"PA"},"type":"Feature","geometry":null},{"properties":{"zip":"19373","3digit":"193","inzips":"193","primary_city":"Thornton","id":"abkwxn2x85fk","state":"PA"},"type":"Feature","geometry":null},{"properties":{"zip":"19374","3digit":"193","inzips":"193","primary_city":"Toughkenamon","id":"abkwxn69n35r","state":"PA"},"type":"Feature","geometry":null},{"properties":{"zip":"19375","3digit":"193","inzips":"193","primary_city":"Unionville","id":"abkwxn69j7g1","state":"PA"},"type":"Feature","geometry":null},{"properties":{"zip":"19376","3digit":"193","inzips":"193","primary_city":"Wagontown","id":"abkwxn5zzsv0","state":"PA"},"type":"Feature","geometry":null},{"properties":{"zip":"19380","3digit":"193","inzips":"193","primary_city":"West Chester","id":"abkwxn159wgk","state":"PA"},"type":"Feature","geometry":null},{"properties":{"zip":"19381","3digit":"193","inzips":"193","primary_city":"West Chester","id":"abkwxnf7mlu3","state":"PA"},"type":"Feature","geometry":null},{"properties":{"zip":"19382","3digit":"193","inzips":"193","primary_city":"West Chester","id":"abkwxnej9a00","state":"PA"},"type":"Feature","geometry":null},{"properties":{"zip":"19383","3digit":"193","inzips":"193","primary_city":"West Chester","id":"abkwxn19rnxg","state":"PA"},"type":"Feature","geometry":null},{"properties":{"zip":"19388","3digit":"193","inzips":"193","primary_city":"West Chester","id":"abkwxn9alq8s","state":"PA"},"type":"Feature","geometry":null},{"properties":{"zip":"19390","3digit":"193","inzips":"193","primary_city":"West Grove","id":"abkwxn4zq0vq","state":"PA"},"type":"Feature","geometry":null},{"properties":{"zip":"19395","3digit":"193","inzips":"193","primary_city":"Westtown","id":"abkwxn5x7gup","state":"PA"},"type":"Feature","geometry":null},{"properties":{"zip":"19397","3digit":"193","inzips":"193","primary_city":"Southeastern","id":"abkwxn25r5yg","state":"PA"},"type":"Feature","geometry":null},{"properties":{"zip":"19398","3digit":"193","inzips":"193","primary_city":"Southeastern","id":"abkwxn64mc36","state":"PA"},"type":"Feature","geometry":null},{"properties":{"zip":"19399","3digit":"193","inzips":"193","primary_city":"Southeastern","id":"abkwxncksugy","state":"PA"},"type":"Feature","geometry":null},{"properties":{"zip":"19401","3digit":"194","inzips":"194","primary_city":"Norristown","id":"abkwxn52dnb8","state":"PA"},"type":"Feature","geometry":null},{"properties":{"zip":"19403","3digit":"194","inzips":"194","primary_city":"Norristown","id":"abkwxn3pukrk","state":"PA"},"type":"Feature","geometry":null},{"properties":{"zip":"19404","3digit":"194","inzips":"194","primary_city":"Norristown","id":"abkwxndhzuzy","state":"PA"},"type":"Feature","geometry":null},{"properties":{"zip":"19405","3digit":"194","inzips":"194","primary_city":"Bridgeport","id":"abkwxn694xcz","state":"PA"},"type":"Feature","geometry":null},{"properties":{"zip":"19406","3digit":"194","inzips":"194","primary_city":"King Of Prussia","id":"abkwxna9er20","state":"PA"},"type":"Feature","geometry":null},{"properties":{"zip":"19407","3digit":"194","inzips":"194","primary_city":"Audubon","id":"abkwxn0lv2le","state":"PA"},"type":"Feature","geometry":null},{"properties":{"zip":"19408","3digit":"194","inzips":"194","primary_city":"Eagleville","id":"abkwxn0862rs","state":"PA"},"type":"Feature","geometry":null},{"properties":{"zip":"19409","3digit":"194","inzips":"194","primary_city":"Fairview Village","id":"abkwxn96pt33","state":"PA"},"type":"Feature","geometry":null},{"properties":{"zip":"19415","3digit":"194","inzips":"194","primary_city":"Eagleville","id":"abkwxnfwhnlq","state":"PA"},"type":"Feature","geometry":null},{"properties":{"zip":"19420","3digit":"194","inzips":"194","primary_city":"Arcola","id":"abkwxn19vnxa","state":"PA"},"type":"Feature","geometry":null},{"properties":{"zip":"19421","3digit":"194","inzips":"194","primary_city":"Birchrunville","id":"abkwxn4kzztz","state":"PA"},"type":"Feature","geometry":null},{"properties":{"zip":"19422","3digit":"194","inzips":"194","primary_city":"Blue Bell","id":"abkwxn50mkkb","state":"PA"},"type":"Feature","geometry":null},{"properties":{"zip":"19423","3digit":"194","inzips":"194","primary_city":"Cedars","id":"abkwxnfprha7","state":"PA"},"type":"Feature","geometry":null},{"properties":{"zip":"19424","3digit":"194","inzips":"194","primary_city":"Blue Bell","id":"abkwxn3l9pro","state":"PA"},"type":"Feature","geometry":null},{"properties":{"zip":"19425","3digit":"194","inzips":"194","primary_city":"Chester Springs","id":"abkwxncqir8n","state":"PA"},"type":"Feature","geometry":null},{"properties":{"zip":"19426","3digit":"194","inzips":"194","primary_city":"Collegeville","id":"abkwxn2oppf4","state":"PA"},"type":"Feature","geometry":null},{"properties":{"zip":"19428","3digit":"194","inzips":"194","primary_city":"Conshohocken","id":"abkwxn72y7em","state":"PA"},"type":"Feature","geometry":null},{"properties":{"zip":"19429","3digit":"194","inzips":"194","primary_city":"Conshohocken","id":"abkwxn0zpmdb","state":"PA"},"type":"Feature","geometry":null},{"properties":{"zip":"19430","3digit":"194","inzips":"194","primary_city":"Creamery","id":"abkwxnc20wkp","state":"PA"},"type":"Feature","geometry":null},{"properties":{"zip":"19432","3digit":"194","inzips":"194","primary_city":"Devault","id":"abkwxn9j177k","state":"PA"},"type":"Feature","geometry":null},{"properties":{"zip":"19435","3digit":"194","inzips":"194","primary_city":"Frederick","id":"abkwxn4jwl2e","state":"PA"},"type":"Feature","geometry":null},{"properties":{"zip":"19436","3digit":"194","inzips":"194","primary_city":"Gwynedd","id":"abkwxn7y2kf3","state":"PA"},"type":"Feature","geometry":null},{"properties":{"zip":"19437","3digit":"194","inzips":"194","primary_city":"Gwynedd Valley","id":"abkwxn9bg9qw","state":"PA"},"type":"Feature","geometry":null},{"properties":{"zip":"19438","3digit":"194","inzips":"194","primary_city":"Harleysville","id":"abkwxngayv1t","state":"PA"},"type":"Feature","geometry":null},{"properties":{"zip":"19440","3digit":"194","inzips":"194","primary_city":"Hatfield","id":"abkwxn3efuwc","state":"PA"},"type":"Feature","geometry":null},{"properties":{"zip":"19441","3digit":"194","inzips":"194","primary_city":"Harleysville","id":"abkwxnfqflrd","state":"PA"},"type":"Feature","geometry":null},{"properties":{"zip":"19442","3digit":"194","inzips":"194","primary_city":"Kimberton","id":"abkwxncyx1b6","state":"PA"},"type":"Feature","geometry":null},{"properties":{"zip":"19443","3digit":"194","inzips":"194","primary_city":"Kulpsville","id":"abkwxn1b9pcv","state":"PA"},"type":"Feature","geometry":null},{"properties":{"zip":"19444","3digit":"194","inzips":"194","primary_city":"Lafayette Hill","id":"abkwxngbtugn","state":"PA"},"type":"Feature","geometry":null},{"properties":{"zip":"19446","3digit":"194","inzips":"194","primary_city":"Lansdale","id":"abkwxnfzuvrt","state":"PA"},"type":"Feature","geometry":null},{"properties":{"zip":"19450","3digit":"194","inzips":"194","primary_city":"Lederach","id":"abkwxnfg5bas","state":"PA"},"type":"Feature","geometry":null},{"properties":{"zip":"19451","3digit":"194","inzips":"194","primary_city":"Mainland","id":"abkwxngkgqn5","state":"PA"},"type":"Feature","geometry":null},{"properties":{"zip":"19453","3digit":"194","inzips":"194","primary_city":"Mont Clare","id":"abkwxn1fejg9","state":"PA"},"type":"Feature","geometry":null},{"properties":{"zip":"19454","3digit":"194","inzips":"194","primary_city":"North Wales","id":"abkwxne8akk1","state":"PA"},"type":"Feature","geometry":null},{"properties":{"zip":"19455","3digit":"194","inzips":"194","primary_city":"North Wales","id":"abkwxn30aev6","state":"PA"},"type":"Feature","geometry":null},{"properties":{"zip":"19456","3digit":"194","inzips":"194","primary_city":"Oaks","id":"abkwxncdwtcj","state":"PA"},"type":"Feature","geometry":null},{"properties":{"zip":"19457","3digit":"194","inzips":"194","primary_city":"Parker Ford","id":"abkwxn1n3kkq","state":"PA"},"type":"Feature","geometry":null},{"properties":{"zip":"19460","3digit":"194","inzips":"194","primary_city":"Phoenixville","id":"abkwxn8fxhkt","state":"PA"},"type":"Feature","geometry":null},{"properties":{"zip":"19462","3digit":"194","inzips":"194","primary_city":"Plymouth Meeting","id":"abkwxn6ox4ot","state":"PA"},"type":"Feature","geometry":null},{"properties":{"zip":"19464","3digit":"194","inzips":"194","primary_city":"Pottstown","id":"abkwxn0c8zpl","state":"PA"},"type":"Feature","geometry":null},{"properties":{"zip":"19465","3digit":"194","inzips":"194","primary_city":"Pottstown","id":"abkwxn1pqznm","state":"PA"},"type":"Feature","geometry":null},{"properties":{"zip":"19468","3digit":"194","inzips":"194","primary_city":"Royersford","id":"abkwxn07pbsb","state":"PA"},"type":"Feature","geometry":null},{"properties":{"zip":"19470","3digit":"194","inzips":"194","primary_city":"Saint Peters","id":"abkwxne6fotf","state":"PA"},"type":"Feature","geometry":null},{"properties":{"zip":"19472","3digit":"194","inzips":"194","primary_city":"Sassamansville","id":"abkwxn3pmve5","state":"PA"},"type":"Feature","geometry":null},{"properties":{"zip":"19473","3digit":"194","inzips":"194","primary_city":"Schwenksville","id":"abkwxncg4kv1","state":"PA"},"type":"Feature","geometry":null},{"properties":{"zip":"19474","3digit":"194","inzips":"194","primary_city":"Skippack","id":"abkwxne6t2zg","state":"PA"},"type":"Feature","geometry":null},{"properties":{"zip":"19475","3digit":"194","inzips":"194","primary_city":"Spring City","id":"abkwxn7rx77w","state":"PA"},"type":"Feature","geometry":null},{"properties":{"zip":"19477","3digit":"194","inzips":"194","primary_city":"Spring House","id":"abkwxn06ty1k","state":"PA"},"type":"Feature","geometry":null},{"properties":{"zip":"19478","3digit":"194","inzips":"194","primary_city":"Spring Mount","id":"abkwxn8hexj2","state":"PA"},"type":"Feature","geometry":null},{"properties":{"zip":"19480","3digit":"194","inzips":"194","primary_city":"Uwchland","id":"abkwxn7d7zia","state":"PA"},"type":"Feature","geometry":null},{"properties":{"zip":"19481","3digit":"194","inzips":"194","primary_city":"Valley Forge","id":"abkwxn354osx","state":"PA"},"type":"Feature","geometry":null},{"properties":{"zip":"19482","3digit":"194","inzips":"194","primary_city":"Valley Forge","id":"abkwxneam9px","state":"PA"},"type":"Feature","geometry":null},{"properties":{"zip":"19483","3digit":"194","inzips":"194","primary_city":"Valley Forge","id":"abkwxnb8bv4z","state":"PA"},"type":"Feature","geometry":null},{"properties":{"zip":"19484","3digit":"194","inzips":"194","primary_city":"Valley Forge","id":"abkwxn6ddwp2","state":"PA"},"type":"Feature","geometry":null},{"properties":{"zip":"19485","3digit":"194","inzips":"194","primary_city":"Valley Forge","id":"abkwxn5u5inm","state":"PA"},"type":"Feature","geometry":null},{"properties":{"zip":"19486","3digit":"194","inzips":"194","primary_city":"West Point","id":"abkwxn7gb6ql","state":"PA"},"type":"Feature","geometry":null},{"properties":{"zip":"19487","3digit":"194","inzips":"194","primary_city":"King Of Prussia","id":"abkwxn92xyb9","state":"PA"},"type":"Feature","geometry":null},{"properties":{"zip":"19488","3digit":"194","inzips":"194","primary_city":"Norristown","id":"abkwxna6bpff","state":"PA"},"type":"Feature","geometry":null},{"properties":{"zip":"19489","3digit":"194","inzips":"194","primary_city":"Norristown","id":"abkwxn874u91","state":"PA"},"type":"Feature","geometry":null},{"properties":{"zip":"19490","3digit":"194","inzips":"194","primary_city":"Worcester","id":"abkwxnfkzshe","state":"PA"},"type":"Feature","geometry":null},{"properties":{"zip":"19492","3digit":"194","inzips":"194","primary_city":"Zieglerville","id":"abkwxn1l7w8c","state":"PA"},"type":"Feature","geometry":null},{"properties":{"zip":"19493","3digit":"194","inzips":"194","primary_city":"Valley Forge","id":"abkwxncffwfa","state":"PA"},"type":"Feature","geometry":null},{"properties":{"zip":"19494","3digit":"194","inzips":"194","primary_city":"Valley Forge","id":"abkwxn3js3eh","state":"PA"},"type":"Feature","geometry":null},{"properties":{"zip":"19495","3digit":"194","inzips":"194","primary_city":"Valley Forge","id":"abkwxnes97pz","state":"PA"},"type":"Feature","geometry":null},{"properties":{"zip":"19496","3digit":"194","inzips":"194","primary_city":"Valley Forge","id":"abkwxn1ma3o8","state":"PA"},"type":"Feature","geometry":null},{"properties":{"zip":"19501","3digit":"195","inzips":"195","primary_city":"Adamstown","id":"abkwxn3vq10j","state":"PA"},"type":"Feature","geometry":null},{"properties":{"zip":"19503","3digit":"195","inzips":"195","primary_city":"Bally","id":"abkwxnftfp02","state":"PA"},"type":"Feature","geometry":null},{"properties":{"zip":"19504","3digit":"195","inzips":"195","primary_city":"Barto","id":"abkwxng6r8is","state":"PA"},"type":"Feature","geometry":null},{"properties":{"zip":"19505","3digit":"195","inzips":"195","primary_city":"Bechtelsville","id":"abkwxn35lo19","state":"PA"},"type":"Feature","geometry":null},{"properties":{"zip":"19506","3digit":"195","inzips":"195","primary_city":"Bernville","id":"abkwxnfk4y5f","state":"PA"},"type":"Feature","geometry":null},{"properties":{"zip":"19507","3digit":"195","inzips":"195","primary_city":"Bethel","id":"abkwxn5l0ytf","state":"PA"},"type":"Feature","geometry":null},{"properties":{"zip":"19508","3digit":"195","inzips":"195","primary_city":"Birdsboro","id":"abkwxn584w9p","state":"PA"},"type":"Feature","geometry":null},{"properties":{"zip":"19510","3digit":"195","inzips":"195","primary_city":"Blandon","id":"abkwxn2ik922","state":"PA"},"type":"Feature","geometry":null},{"properties":{"zip":"19511","3digit":"195","inzips":"195","primary_city":"Bowers","id":"abkwxn4ai55l","state":"PA"},"type":"Feature","geometry":null},{"properties":{"zip":"19512","3digit":"195","inzips":"195","primary_city":"Boyertown","id":"abkwxn0z8jr4","state":"PA"},"type":"Feature","geometry":null},{"properties":{"zip":"19516","3digit":"195","inzips":"195","primary_city":"Centerport","id":"abkwxn0cl0oh","state":"PA"},"type":"Feature","geometry":null},{"properties":{"zip":"19518","3digit":"195","inzips":"195","primary_city":"Douglassville","id":"abkwxncq4eoz","state":"PA"},"type":"Feature","geometry":null},{"properties":{"zip":"19519","3digit":"195","inzips":"195","primary_city":"Earlville","id":"abkwxn7ryd0g","state":"PA"},"type":"Feature","geometry":null},{"properties":{"zip":"19520","3digit":"195","inzips":"195","primary_city":"Elverson","id":"abkwxnevv71b","state":"PA"},"type":"Feature","geometry":null},{"properties":{"zip":"19522","3digit":"195","inzips":"195","primary_city":"Fleetwood","id":"abkwxneqx7tr","state":"PA"},"type":"Feature","geometry":null},{"properties":{"zip":"19523","3digit":"195","inzips":"195","primary_city":"Geigertown","id":"abkwxn9aszz2","state":"PA"},"type":"Feature","geometry":null},{"properties":{"zip":"19525","3digit":"195","inzips":"195","primary_city":"Gilbertsville","id":"abkwxn1ztjck","state":"PA"},"type":"Feature","geometry":null},{"properties":{"zip":"19526","3digit":"195","inzips":"195","primary_city":"Hamburg","id":"abkwxng2g3z4","state":"PA"},"type":"Feature","geometry":null},{"properties":{"zip":"19529","3digit":"195","inzips":"195","primary_city":"Kempton","id":"abkwxn3efj38","state":"PA"},"type":"Feature","geometry":null},{"properties":{"zip":"19530","3digit":"195","inzips":"195","primary_city":"Kutztown","id":"abkwxn4g7qcf","state":"PA"},"type":"Feature","geometry":null},{"properties":{"zip":"19533","3digit":"195","inzips":"195","primary_city":"Leesport","id":"abkwxn023vh6","state":"PA"},"type":"Feature","geometry":null},{"properties":{"zip":"19534","3digit":"195","inzips":"195","primary_city":"Lenhartsville","id":"abkwxnfubkdx","state":"PA"},"type":"Feature","geometry":null},{"properties":{"zip":"19535","3digit":"195","inzips":"195","primary_city":"Limekiln","id":"abkwxnflg1ie","state":"PA"},"type":"Feature","geometry":null},{"properties":{"zip":"19536","3digit":"195","inzips":"195","primary_city":"Lyon Station","id":"abkwxn8ewkyi","state":"PA"},"type":"Feature","geometry":null},{"properties":{"zip":"19538","3digit":"195","inzips":"195","primary_city":"Maxatawny","id":"abkwxn6nwfq9","state":"PA"},"type":"Feature","geometry":null},{"properties":{"zip":"19539","3digit":"195","inzips":"195","primary_city":"Mertztown","id":"abkwxn2vejxn","state":"PA"},"type":"Feature","geometry":null},{"properties":{"zip":"19540","3digit":"195","inzips":"195","primary_city":"Mohnton","id":"abkwxn0lt2jq","state":"PA"},"type":"Feature","geometry":null},{"properties":{"zip":"19541","3digit":"195","inzips":"195","primary_city":"Mohrsville","id":"abkwxn3g26k5","state":"PA"},"type":"Feature","geometry":null},{"properties":{"zip":"19542","3digit":"195","inzips":"195","primary_city":"Monocacy Station","id":"abkwxn9493i0","state":"PA"},"type":"Feature","geometry":null},{"properties":{"zip":"19543","3digit":"195","inzips":"195","primary_city":"Morgantown","id":"abkwxn71oigl","state":"PA"},"type":"Feature","geometry":null},{"properties":{"zip":"19544","3digit":"195","inzips":"195","primary_city":"Mount Aetna","id":"abkwxn6d0otq","state":"PA"},"type":"Feature","geometry":null},{"properties":{"zip":"19545","3digit":"195","inzips":"195","primary_city":"New Berlinville","id":"abkwxnd5pc8a","state":"PA"},"type":"Feature","geometry":null},{"properties":{"zip":"19547","3digit":"195","inzips":"195","primary_city":"Oley","id":"abkwxn3zo3kq","state":"PA"},"type":"Feature","geometry":null},{"properties":{"zip":"19548","3digit":"195","inzips":"195","primary_city":"Pine Forge","id":"abkwxn0vyi7w","state":"PA"},"type":"Feature","geometry":null},{"properties":{"zip":"19549","3digit":"195","inzips":"195","primary_city":"Port Clinton","id":"abkwxnccrlqc","state":"PA"},"type":"Feature","geometry":null},{"properties":{"zip":"19550","3digit":"195","inzips":"195","primary_city":"Rehrersburg","id":"abkwxn9g05vv","state":"PA"},"type":"Feature","geometry":null},{"properties":{"zip":"19551","3digit":"195","inzips":"195","primary_city":"Robesonia","id":"abkwxn7r6bne","state":"PA"},"type":"Feature","geometry":null},{"properties":{"zip":"19554","3digit":"195","inzips":"195","primary_city":"Shartlesville","id":"abkwxn3ulp3j","state":"PA"},"type":"Feature","geometry":null},{"properties":{"zip":"19555","3digit":"195","inzips":"195","primary_city":"Shoemakersville","id":"abkwxn9a3neg","state":"PA"},"type":"Feature","geometry":null},{"properties":{"zip":"19559","3digit":"195","inzips":"195","primary_city":"Strausstown","id":"abkwxn8j4m0w","state":"PA"},"type":"Feature","geometry":null},{"properties":{"zip":"19560","3digit":"195","inzips":"195","primary_city":"Temple","id":"abkwxn5nsm9o","state":"PA"},"type":"Feature","geometry":null},{"properties":{"zip":"19562","3digit":"195","inzips":"195","primary_city":"Topton","id":"abkwxn4gffv9","state":"PA"},"type":"Feature","geometry":null},{"properties":{"zip":"19564","3digit":"195","inzips":"195","primary_city":"Virginville","id":"abkwxn8tidxs","state":"PA"},"type":"Feature","geometry":null},{"properties":{"zip":"19565","3digit":"195","inzips":"195","primary_city":"Wernersville","id":"abkwxn6e9z8y","state":"PA"},"type":"Feature","geometry":null},{"properties":{"zip":"19567","3digit":"195","inzips":"195","primary_city":"Womelsdorf","id":"abkwxn6h4k67","state":"PA"},"type":"Feature","geometry":null},{"properties":{"zip":"19601","3digit":"196","inzips":"196","primary_city":"Reading","id":"abkwxney7hs2","state":"PA"},"type":"Feature","geometry":null},{"properties":{"zip":"19602","3digit":"196","inzips":"196","primary_city":"Reading","id":"abkwxn4hzj1c","state":"PA"},"type":"Feature","geometry":null},{"properties":{"zip":"19603","3digit":"196","inzips":"196","primary_city":"Reading","id":"abkwxn8xu52w","state":"PA"},"type":"Feature","geometry":null},{"properties":{"zip":"19604","3digit":"196","inzips":"196","primary_city":"Reading","id":"abkwxn9mpdrr","state":"PA"},"type":"Feature","geometry":null},{"properties":{"zip":"19605","3digit":"196","inzips":"196","primary_city":"Reading","id":"abkwxn4pc434","state":"PA"},"type":"Feature","geometry":null},{"properties":{"zip":"19606","3digit":"196","inzips":"196","primary_city":"Reading","id":"abkwxn6ux3ds","state":"PA"},"type":"Feature","geometry":null},{"properties":{"zip":"19607","3digit":"196","inzips":"196","primary_city":"Reading","id":"abkwxn9sjdyv","state":"PA"},"type":"Feature","geometry":null},{"properties":{"zip":"19608","3digit":"196","inzips":"196","primary_city":"Reading","id":"abkwxnbwaij7","state":"PA"},"type":"Feature","geometry":null},{"properties":{"zip":"19609","3digit":"196","inzips":"196","primary_city":"Reading","id":"abkwxndlabbk","state":"PA"},"type":"Feature","geometry":null},{"properties":{"zip":"19610","3digit":"196","inzips":"196","primary_city":"Reading","id":"abkwxn87mrs3","state":"PA"},"type":"Feature","geometry":null},{"properties":{"zip":"19611","3digit":"196","inzips":"196","primary_city":"Reading","id":"abkwxnek1zll","state":"PA"},"type":"Feature","geometry":null},{"properties":{"zip":"19612","3digit":"196","inzips":"196","primary_city":"Reading","id":"abkwxn2sd3fz","state":"PA"},"type":"Feature","geometry":null},{"properties":{"zip":"19640","3digit":"196","inzips":"196","primary_city":"Reading","id":"abkwxn1105cf","state":"PA"},"type":"Feature","geometry":null},{"properties":{"zip":"23801","3digit":"238","inzips":"238","primary_city":"Fort Lee","id":"abkwxnbzis1d","state":"VA"},"type":"Feature","geometry":null},{"properties":{"zip":"23803","3digit":"238","inzips":"238","primary_city":"Petersburg","id":"abkwxn06khgn","state":"VA"},"type":"Feature","geometry":null},{"properties":{"zip":"23804","3digit":"238","inzips":"238","primary_city":"Petersburg","id":"abkwxnb5yr7z","state":"VA"},"type":"Feature","geometry":null},{"properties":{"zip":"23805","3digit":"238","inzips":"238","primary_city":"Petersburg","id":"abkwxn72ywtz","state":"VA"},"type":"Feature","geometry":null},{"properties":{"zip":"23806","3digit":"238","inzips":"238","primary_city":"Virginia State University","id":"abkwxn66csb0","state":"VA"},"type":"Feature","geometry":null},{"properties":{"zip":"23821","3digit":"238","inzips":"238","primary_city":"Alberta","id":"abkwxnc3y1gf","state":"VA"},"type":"Feature","geometry":null},{"properties":{"zip":"23822","3digit":"238","inzips":"238","primary_city":"Ammon","id":"abkwxn5mfcdz","state":"VA"},"type":"Feature","geometry":null},{"properties":{"zip":"23824","3digit":"238","inzips":"238","primary_city":"Blackstone","id":"abkwxnacv3kj","state":"VA"},"type":"Feature","geometry":null},{"properties":{"zip":"23825","3digit":"238","inzips":"238","primary_city":"Blackstone","id":"abkwxndtqxzk","state":"VA"},"type":"Feature","geometry":null},{"properties":{"zip":"23827","3digit":"238","inzips":"238","primary_city":"Boykins","id":"abkwxn5zms1v","state":"VA"},"type":"Feature","geometry":null},{"properties":{"zip":"23828","3digit":"238","inzips":"238","primary_city":"Branchville","id":"abkwxngbi9ne","state":"VA"},"type":"Feature","geometry":null},{"properties":{"zip":"23829","3digit":"238","inzips":"238","primary_city":"Capron","id":"abkwxnjx5fdh","state":"VA"},"type":"Feature","geometry":null},{"properties":{"zip":"23830","3digit":"238","inzips":"238","primary_city":"Carson","id":"abkwxnsdx17g","state":"VA"},"type":"Feature","geometry":null},{"properties":{"zip":"23831","3digit":"238","inzips":"238","primary_city":"Chester","id":"abkwxnkov57y","state":"VA"},"type":"Feature","geometry":null},{"properties":{"zip":"23832","3digit":"238","inzips":"238","primary_city":"Chesterfield","id":"abkwxnh39si3","state":"VA"},"type":"Feature","geometry":null},{"properties":{"zip":"23833","3digit":"238","inzips":"238","primary_city":"Church Road","id":"abkwxnm4xw53","state":"VA"},"type":"Feature","geometry":null},{"properties":{"zip":"23834","3digit":"238","inzips":"238","primary_city":"Colonial Heights","id":"abkwxnq8v35e","state":"VA"},"type":"Feature","geometry":null},{"properties":{"zip":"23836","3digit":"238","inzips":"238","primary_city":"Chester","id":"abkwxnglxho3","state":"VA"},"type":"Feature","geometry":null},{"properties":{"zip":"23837","3digit":"238","inzips":"238","primary_city":"Courtland","id":"abkwxnham9w5","state":"VA"},"type":"Feature","geometry":null},{"properties":{"zip":"23838","3digit":"238","inzips":"238","primary_city":"Chesterfield","id":"abkwxnw2itxd","state":"VA"},"type":"Feature","geometry":null},{"properties":{"zip":"23839","3digit":"238","inzips":"238","primary_city":"Dendron","id":"abkwxnpyebt7","state":"VA"},"type":"Feature","geometry":null},{"properties":{"zip":"23840","3digit":"238","inzips":"238","primary_city":"Dewitt","id":"abkwxno081yi","state":"VA"},"type":"Feature","geometry":null},{"properties":{"zip":"23841","3digit":"238","inzips":"238","primary_city":"Dinwiddie","id":"abkwxnjw2025","state":"VA"},"type":"Feature","geometry":null},{"properties":{"zip":"23842","3digit":"238","inzips":"238","primary_city":"Disputanta","id":"abkwxnr38ie6","state":"VA"},"type":"Feature","geometry":null},{"properties":{"zip":"23843","3digit":"238","inzips":"238","primary_city":"Dolphin","id":"abkwxnup4unp","state":"VA"},"type":"Feature","geometry":null},{"properties":{"zip":"23844","3digit":"238","inzips":"238","primary_city":"Drewryville","id":"abkwxnh54b3e","state":"VA"},"type":"Feature","geometry":null},{"properties":{"zip":"23845","3digit":"238","inzips":"238","primary_city":"Ebony","id":"abkwxnjfpmrn","state":"VA"},"type":"Feature","geometry":null},{"properties":{"zip":"23846","3digit":"238","inzips":"238","primary_city":"Elberon","id":"abkwxnsfnx2e","state":"VA"},"type":"Feature","geometry":null},{"properties":{"zip":"23847","3digit":"238","inzips":"238","primary_city":"Emporia","id":"abkwxnq2f4zp","state":"VA"},"type":"Feature","geometry":null},{"properties":{"zip":"23850","3digit":"238","inzips":"238","primary_city":"Ford","id":"abkwxntpqnbi","state":"VA"},"type":"Feature","geometry":null},{"properties":{"zip":"23851","3digit":"238","inzips":"238","primary_city":"Franklin","id":"abkwxnjfvd3d","state":"VA"},"type":"Feature","geometry":null},{"properties":{"zip":"23856","3digit":"238","inzips":"238","primary_city":"Freeman","id":"abkwxnnkxmcw","state":"VA"},"type":"Feature","geometry":null},{"properties":{"zip":"23857","3digit":"238","inzips":"238","primary_city":"Gasburg","id":"abkwxnjbj04s","state":"VA"},"type":"Feature","geometry":null},{"properties":{"zip":"23860","3digit":"238","inzips":"238","primary_city":"Hopewell","id":"abkwxntsljei","state":"VA"},"type":"Feature","geometry":null},{"properties":{"zip":"23866","3digit":"238","inzips":"238","primary_city":"Ivor","id":"abkwxnkpfs7y","state":"VA"},"type":"Feature","geometry":null},{"properties":{"zip":"23867","3digit":"238","inzips":"238","primary_city":"Jarratt","id":"abkwxnj3cg7w","state":"VA"},"type":"Feature","geometry":null},{"properties":{"zip":"23868","3digit":"238","inzips":"238","primary_city":"Lawrenceville","id":"abkwxnq8hl8m","state":"VA"},"type":"Feature","geometry":null},{"properties":{"zip":"23870","3digit":"238","inzips":"238","primary_city":"Jarratt","id":"abkwxnof36ui","state":"VA"},"type":"Feature","geometry":null},{"properties":{"zip":"23872","3digit":"238","inzips":"238","primary_city":"Mc Kenney","id":"abkwxnoovtf1","state":"VA"},"type":"Feature","geometry":null},{"properties":{"zip":"23873","3digit":"238","inzips":"238","primary_city":"Meredithville","id":"abkwxnp0sdop","state":"VA"},"type":"Feature","geometry":null},{"properties":{"zip":"23874","3digit":"238","inzips":"238","primary_city":"Newsoms","id":"abkwxnlm4zff","state":"VA"},"type":"Feature","geometry":null},{"properties":{"zip":"23875","3digit":"238","inzips":"238","primary_city":"Prince George","id":"abkwxnrdl8ff","state":"VA"},"type":"Feature","geometry":null},{"properties":{"zip":"23876","3digit":"238","inzips":"238","primary_city":"Rawlings","id":"abkwxnuvrwv4","state":"VA"},"type":"Feature","geometry":null},{"properties":{"zip":"23878","3digit":"238","inzips":"238","primary_city":"Sedley","id":"abkwxnuu43h1","state":"VA"},"type":"Feature","geometry":null},{"properties":{"zip":"23879","3digit":"238","inzips":"238","primary_city":"Skippers","id":"abkwxnqfwuzz","state":"VA"},"type":"Feature","geometry":null},{"properties":{"zip":"23881","3digit":"238","inzips":"238","primary_city":"Spring Grove","id":"abkwxnirs58u","state":"VA"},"type":"Feature","geometry":null},{"properties":{"zip":"23882","3digit":"238","inzips":"238","primary_city":"Stony Creek","id":"abkwxnlneiwj","state":"VA"},"type":"Feature","geometry":null},{"properties":{"zip":"23883","3digit":"238","inzips":"238","primary_city":"Surry","id":"abkwxni5rv4r","state":"VA"},"type":"Feature","geometry":null},{"properties":{"zip":"23884","3digit":"238","inzips":"238","primary_city":"Sussex","id":"abkwxnk0j7v7","state":"VA"},"type":"Feature","geometry":null},{"properties":{"zip":"23885","3digit":"238","inzips":"238","primary_city":"Sutherland","id":"abkwxnl4n3wm","state":"VA"},"type":"Feature","geometry":null},{"properties":{"zip":"23887","3digit":"238","inzips":"238","primary_city":"Valentines","id":"abkwxnvgs93s","state":"VA"},"type":"Feature","geometry":null},{"properties":{"zip":"23888","3digit":"238","inzips":"238","primary_city":"Wakefield","id":"abkwxnuu9rdl","state":"VA"},"type":"Feature","geometry":null},{"properties":{"zip":"23889","3digit":"238","inzips":"238","primary_city":"Warfield","id":"abkwxnszfbv2","state":"VA"},"type":"Feature","geometry":null},{"properties":{"zip":"23890","3digit":"238","inzips":"238","primary_city":"Waverly","id":"abkwxntciksq","state":"VA"},"type":"Feature","geometry":null},{"properties":{"zip":"23891","3digit":"238","inzips":"238","primary_city":"Waverly","id":"abkwxngzc6da","state":"VA"},"type":"Feature","geometry":null},{"properties":{"zip":"23893","3digit":"238","inzips":"238","primary_city":"White Plains","id":"abkwxnu91svh","state":"VA"},"type":"Feature","geometry":null},{"properties":{"zip":"23894","3digit":"238","inzips":"238","primary_city":"Wilsons","id":"abkwxnkyy8jy","state":"VA"},"type":"Feature","geometry":null},{"properties":{"zip":"23897","3digit":"238","inzips":"238","primary_city":"Yale","id":"abkwxnguxc7b","state":"VA"},"type":"Feature","geometry":null},{"properties":{"zip":"23898","3digit":"238","inzips":"238","primary_city":"Zuni","id":"abkwxnhc1wlg","state":"VA"},"type":"Feature","geometry":null},{"properties":{"zip":"23899","3digit":"238","inzips":"238","primary_city":"Claremont","id":"abkwxnvfx83g","state":"VA"},"type":"Feature","geometry":null},{"properties":{"zip":"28201","3digit":"282","inzips":"282","primary_city":"Charlotte","id":"abkwxnitn2p0","state":"NC"},"type":"Feature","geometry":null},{"properties":{"zip":"28202","3digit":"282","inzips":"282","primary_city":"Charlotte","id":"abkwxnsgls5g","state":"NC"},"type":"Feature","geometry":null},{"properties":{"zip":"28203","3digit":"282","inzips":"282","primary_city":"Charlotte","id":"abkwxnq5tjui","state":"NC"},"type":"Feature","geometry":null},{"properties":{"zip":"28204","3digit":"282","inzips":"282","primary_city":"Charlotte","id":"abkwxnvyukz2","state":"NC"},"type":"Feature","geometry":null},{"properties":{"zip":"28205","3digit":"282","inzips":"282","primary_city":"Charlotte","id":"abkwxnpgy5ux","state":"NC"},"type":"Feature","geometry":null},{"properties":{"zip":"28206","3digit":"282","inzips":"282","primary_city":"Charlotte","id":"abkwxnquwxfy","state":"NC"},"type":"Feature","geometry":null},{"properties":{"zip":"28207","3digit":"282","inzips":"282","primary_city":"Charlotte","id":"abkwxnurdlpv","state":"NC"},"type":"Feature","geometry":null},{"properties":{"zip":"28208","3digit":"282","inzips":"282","primary_city":"Charlotte","id":"abkwxnlyoycn","state":"NC"},"type":"Feature","geometry":null},{"properties":{"zip":"28209","3digit":"282","inzips":"282","primary_city":"Charlotte","id":"abkwxnj1rotb","state":"NC"},"type":"Feature","geometry":null},{"properties":{"zip":"28210","3digit":"282","inzips":"282","primary_city":"Charlotte","id":"abkwxnhfmyba","state":"NC"},"type":"Feature","geometry":null},{"properties":{"zip":"28211","3digit":"282","inzips":"282","primary_city":"Charlotte","id":"abkwxnk2lchk","state":"NC"},"type":"Feature","geometry":null},{"properties":{"zip":"28212","3digit":"282","inzips":"282","primary_city":"Charlotte","id":"abkwxnsu8b8c","state":"NC"},"type":"Feature","geometry":null},{"properties":{"zip":"28213","3digit":"282","inzips":"282","primary_city":"Charlotte","id":"abkwxnwjx1py","state":"NC"},"type":"Feature","geometry":null},{"properties":{"zip":"28214","3digit":"282","inzips":"282","primary_city":"Charlotte","id":"abkwxnwmx3qj","state":"NC"},"type":"Feature","geometry":null},{"properties":{"zip":"28215","3digit":"282","inzips":"282","primary_city":"Charlotte","id":"abkwxntmulut","state":"NC"},"type":"Feature","geometry":null},{"properties":{"zip":"28216","3digit":"282","inzips":"282","primary_city":"Charlotte","id":"abkwxnso2r2i","state":"NC"},"type":"Feature","geometry":null},{"properties":{"zip":"28217","3digit":"282","inzips":"282","primary_city":"Charlotte","id":"abkwxntuwern","state":"NC"},"type":"Feature","geometry":null},{"properties":{"zip":"28218","3digit":"282","inzips":"282","primary_city":"Charlotte","id":"abkwxnsnjg4x","state":"NC"},"type":"Feature","geometry":null},{"properties":{"zip":"28219","3digit":"282","inzips":"282","primary_city":"Charlotte","id":"abkwxnx16ce2","state":"NC"},"type":"Feature","geometry":null},{"properties":{"zip":"28220","3digit":"282","inzips":"282","primary_city":"Charlotte","id":"abkwxnwp23m8","state":"NC"},"type":"Feature","geometry":null},{"properties":{"zip":"28221","3digit":"282","inzips":"282","primary_city":"Charlotte","id":"abkwxnuqq8gf","state":"NC"},"type":"Feature","geometry":null},{"properties":{"zip":"28222","3digit":"282","inzips":"282","primary_city":"Charlotte","id":"abkwxnv5sqlv","state":"NC"},"type":"Feature","geometry":null},{"properties":{"zip":"28223","3digit":"282","inzips":"282","primary_city":"Charlotte","id":"abkwxnnl5z57","state":"NC"},"type":"Feature","geometry":null},{"properties":{"zip":"28224","3digit":"282","inzips":"282","primary_city":"Charlotte","id":"abkwxnmyc649","state":"NC"},"type":"Feature","geometry":null},{"properties":{"zip":"28226","3digit":"282","inzips":"282","primary_city":"Charlotte","id":"abkwxnw2pv9j","state":"NC"},"type":"Feature","geometry":null},{"properties":{"zip":"28227","3digit":"282","inzips":"282","primary_city":"Charlotte","id":"abkwxnkjpata","state":"NC"},"type":"Feature","geometry":null},{"properties":{"zip":"28228","3digit":"282","inzips":"282","primary_city":"Charlotte","id":"abkwxns6komm","state":"NC"},"type":"Feature","geometry":null},{"properties":{"zip":"28229","3digit":"282","inzips":"282","primary_city":"Charlotte","id":"abkwxnpvszbo","state":"NC"},"type":"Feature","geometry":null},{"properties":{"zip":"28230","3digit":"282","inzips":"282","primary_city":"Charlotte","id":"abkwxnj2jzft","state":"NC"},"type":"Feature","geometry":null},{"properties":{"zip":"28231","3digit":"282","inzips":"282","primary_city":"Charlotte","id":"abkwxni1w7w8","state":"NC"},"type":"Feature","geometry":null},{"properties":{"zip":"28232","3digit":"282","inzips":"282","primary_city":"Charlotte","id":"abkwxnhuiyw6","state":"NC"},"type":"Feature","geometry":null},{"properties":{"zip":"28233","3digit":"282","inzips":"282","primary_city":"Charlotte","id":"abkwxnj9bxbq","state":"NC"},"type":"Feature","geometry":null},{"properties":{"zip":"28234","3digit":"282","inzips":"282","primary_city":"Charlotte","id":"abkwxntdhiz2","state":"NC"},"type":"Feature","geometry":null},{"properties":{"zip":"28235","3digit":"282","inzips":"282","primary_city":"Charlotte","id":"abkwxnshz37r","state":"NC"},"type":"Feature","geometry":null},{"properties":{"zip":"28236","3digit":"282","inzips":"282","primary_city":"Charlotte","id":"abkwxnn8smdh","state":"NC"},"type":"Feature","geometry":null},{"properties":{"zip":"28237","3digit":"282","inzips":"282","primary_city":"Charlotte","id":"abkwxnoagwas","state":"NC"},"type":"Feature","geometry":null},{"properties":{"zip":"28241","3digit":"282","inzips":"282","primary_city":"Charlotte","id":"abkwxnr9a0ay","state":"NC"},"type":"Feature","geometry":null},{"properties":{"zip":"28242","3digit":"282","inzips":"282","primary_city":"Charlotte","id":"abkwxnj8a10s","state":"NC"},"type":"Feature","geometry":null},{"properties":{"zip":"28243","3digit":"282","inzips":"282","primary_city":"Charlotte","id":"abkwxnvsy03z","state":"NC"},"type":"Feature","geometry":null},{"properties":{"zip":"28244","3digit":"282","inzips":"282","primary_city":"Charlotte","id":"abkwxnlw675z","state":"NC"},"type":"Feature","geometry":null},{"properties":{"zip":"28246","3digit":"282","inzips":"282","primary_city":"Charlotte","id":"abkwxnu9jg0e","state":"NC"},"type":"Feature","geometry":null},{"properties":{"zip":"28247","3digit":"282","inzips":"282","primary_city":"Charlotte","id":"abkwxnvvmcxf","state":"NC"},"type":"Feature","geometry":null},{"properties":{"zip":"28250","3digit":"282","inzips":"282","primary_city":"Charlotte","id":"abkwxnhk0nv8","state":"NC"},"type":"Feature","geometry":null},{"properties":{"zip":"28253","3digit":"282","inzips":"282","primary_city":"Charlotte","id":"abkwxnuxqg2n","state":"NC"},"type":"Feature","geometry":null},{"properties":{"zip":"28254","3digit":"282","inzips":"282","primary_city":"Charlotte","id":"abkwxnkgazc9","state":"NC"},"type":"Feature","geometry":null},{"properties":{"zip":"28255","3digit":"282","inzips":"282","primary_city":"Charlotte","id":"abkwxnpbz97r","state":"NC"},"type":"Feature","geometry":null},{"properties":{"zip":"28256","3digit":"282","inzips":"282","primary_city":"Charlotte","id":"abkwxnjyf0o9","state":"NC"},"type":"Feature","geometry":null},{"properties":{"zip":"28258","3digit":"282","inzips":"282","primary_city":"Charlotte","id":"abkwxnm3cmsh","state":"NC"},"type":"Feature","geometry":null},{"properties":{"zip":"28260","3digit":"282","inzips":"282","primary_city":"Charlotte","id":"abkwxnwulkiy","state":"NC"},"type":"Feature","geometry":null},{"properties":{"zip":"28262","3digit":"282","inzips":"282","primary_city":"Charlotte","id":"abkwxns1krm4","state":"NC"},"type":"Feature","geometry":null},{"properties":{"zip":"28263","3digit":"282","inzips":"282","primary_city":"Charlotte","id":"abkwxnpxyd2h","state":"NC"},"type":"Feature","geometry":null},{"properties":{"zip":"28265","3digit":"282","inzips":"282","primary_city":"Charlotte","id":"abkwxno256hu","state":"NC"},"type":"Feature","geometry":null},{"properties":{"zip":"28266","3digit":"282","inzips":"282","primary_city":"Charlotte","id":"abkwxngrobrr","state":"NC"},"type":"Feature","geometry":null},{"properties":{"zip":"28269","3digit":"282","inzips":"282","primary_city":"Charlotte","id":"abkwxnljivvj","state":"NC"},"type":"Feature","geometry":null},{"properties":{"zip":"28270","3digit":"282","inzips":"282","primary_city":"Charlotte","id":"abkwxnx4dhln","state":"NC"},"type":"Feature","geometry":null},{"properties":{"zip":"28271","3digit":"282","inzips":"282","primary_city":"Charlotte","id":"abkwxnnpnwgh","state":"NC"},"type":"Feature","geometry":null},{"properties":{"zip":"28272","3digit":"282","inzips":"282","primary_city":"Charlotte","id":"abkwxnrjg0up","state":"NC"},"type":"Feature","geometry":null},{"properties":{"zip":"28273","3digit":"282","inzips":"282","primary_city":"Charlotte","id":"abkwxnvd2j1b","state":"NC"},"type":"Feature","geometry":null},{"properties":{"zip":"28274","3digit":"282","inzips":"282","primary_city":"Charlotte","id":"abkwxnk0j709","state":"NC"},"type":"Feature","geometry":null},{"properties":{"zip":"28275","3digit":"282","inzips":"282","primary_city":"Charlotte","id":"abkwxnpux4e6","state":"NC"},"type":"Feature","geometry":null},{"properties":{"zip":"28277","3digit":"282","inzips":"282","primary_city":"Charlotte","id":"abkwxnrnfejy","state":"NC"},"type":"Feature","geometry":null},{"properties":{"zip":"28278","3digit":"282","inzips":"282","primary_city":"Charlotte","id":"abkwxngwhdhq","state":"NC"},"type":"Feature","geometry":null},{"properties":{"zip":"28280","3digit":"282","inzips":"282","primary_city":"Charlotte","id":"abkwxnw38uss","state":"NC"},"type":"Feature","geometry":null},{"properties":{"zip":"28281","3digit":"282","inzips":"282","primary_city":"Charlotte","id":"abkwxnrgm69n","state":"NC"},"type":"Feature","geometry":null},{"properties":{"zip":"28282","3digit":"282","inzips":"282","primary_city":"Charlotte","id":"abkwxntbkpcr","state":"NC"},"type":"Feature","geometry":null},{"properties":{"zip":"28284","3digit":"282","inzips":"282","primary_city":"Charlotte","id":"abkwxnq4t2e7","state":"NC"},"type":"Feature","geometry":null},{"properties":{"zip":"28285","3digit":"282","inzips":"282","primary_city":"Charlotte","id":"abkwxnq1l2z3","state":"NC"},"type":"Feature","geometry":null},{"properties":{"zip":"28287","3digit":"282","inzips":"282","primary_city":"Charlotte","id":"abkwxnopbadd","state":"NC"},"type":"Feature","geometry":null},{"properties":{"zip":"28288","3digit":"282","inzips":"282","primary_city":"Charlotte","id":"abkwxnsy8ksx","state":"NC"},"type":"Feature","geometry":null},{"properties":{"zip":"28289","3digit":"282","inzips":"282","primary_city":"Charlotte","id":"abkwxnqapqxr","state":"NC"},"type":"Feature","geometry":null},{"properties":{"zip":"28290","3digit":"282","inzips":"282","primary_city":"Charlotte","id":"abkwxnk10g7v","state":"NC"},"type":"Feature","geometry":null},{"properties":{"zip":"28296","3digit":"282","inzips":"282","primary_city":"Charlotte","id":"abkwxnj5asd7","state":"NC"},"type":"Feature","geometry":null},{"properties":{"zip":"28297","3digit":"282","inzips":"282","primary_city":"Charlotte","id":"abkwxnwros9f","state":"NC"},"type":"Feature","geometry":null},{"properties":{"zip":"28299","3digit":"282","inzips":"282","primary_city":"Charlotte","id":"abkwxni0mz27","state":"NC"},"type":"Feature","geometry":null},{"properties":{"zip":"45601","3digit":"456","inzips":"456","primary_city":"Chillicothe","id":"abkwxnh0j4e5","state":"OH"},"type":"Feature","geometry":null},{"properties":{"zip":"45612","3digit":"456","inzips":"456","primary_city":"Bainbridge","id":"abkwxns664pn","state":"OH"},"type":"Feature","geometry":null},{"properties":{"zip":"45613","3digit":"456","inzips":"456","primary_city":"Beaver","id":"abkwxnqowo6a","state":"OH"},"type":"Feature","geometry":null},{"properties":{"zip":"45614","3digit":"456","inzips":"456","primary_city":"Bidwell","id":"abkwxnlgxg9r","state":"OH"},"type":"Feature","geometry":null},{"properties":{"zip":"45616","3digit":"456","inzips":"456","primary_city":"Blue Creek","id":"abkwxnuufx5a","state":"OH"},"type":"Feature","geometry":null},{"properties":{"zip":"45617","3digit":"456","inzips":"456","primary_city":"Bourneville","id":"abkwxnvlkj09","state":"OH"},"type":"Feature","geometry":null},{"properties":{"zip":"45618","3digit":"456","inzips":"456","primary_city":"Cherry Fork","id":"abkwxnnqrw7x","state":"OH"},"type":"Feature","geometry":null},{"properties":{"zip":"45619","3digit":"456","inzips":"456","primary_city":"Chesapeake","id":"abkwxnhl5lmk","state":"OH"},"type":"Feature","geometry":null},{"properties":{"zip":"45620","3digit":"456","inzips":"456","primary_city":"Cheshire","id":"abkwxnpj62ku","state":"OH"},"type":"Feature","geometry":null},{"properties":{"zip":"45621","3digit":"456","inzips":"456","primary_city":"Coalton","id":"abkwxnqw8dzw","state":"OH"},"type":"Feature","geometry":null},{"properties":{"zip":"45622","3digit":"456","inzips":"456","primary_city":"Creola","id":"abkwxnnxmd4h","state":"OH"},"type":"Feature","geometry":null},{"properties":{"zip":"45623","3digit":"456","inzips":"456","primary_city":"Crown City","id":"abkwxnw1t2lm","state":"OH"},"type":"Feature","geometry":null},{"properties":{"zip":"45624","3digit":"456","inzips":"456","primary_city":"Cynthiana","id":"abkwxnqqf9dp","state":"OH"},"type":"Feature","geometry":null},{"properties":{"zip":"45628","3digit":"456","inzips":"456","primary_city":"Frankfort","id":"abkwxnl774t9","state":"OH"},"type":"Feature","geometry":null},{"properties":{"zip":"45629","3digit":"456","inzips":"456","primary_city":"Franklin Furnace","id":"abkwxnhtu2uo","state":"OH"},"type":"Feature","geometry":null},{"properties":{"zip":"45630","3digit":"456","inzips":"456","primary_city":"Friendship","id":"abkwxnjk8do1","state":"OH"},"type":"Feature","geometry":null},{"properties":{"zip":"45631","3digit":"456","inzips":"456","primary_city":"Gallipolis","id":"abkwxnluxw5b","state":"OH"},"type":"Feature","geometry":null},{"properties":{"zip":"45633","3digit":"456","inzips":"456","primary_city":"Hallsville","id":"abkwxnniksx8","state":"OH"},"type":"Feature","geometry":null},{"properties":{"zip":"45634","3digit":"456","inzips":"456","primary_city":"Hamden","id":"abkwxnlzxupz","state":"OH"},"type":"Feature","geometry":null},{"properties":{"zip":"45636","3digit":"456","inzips":"456","primary_city":"Haverhill","id":"abkwxnrslsc5","state":"OH"},"type":"Feature","geometry":null},{"properties":{"zip":"45638","3digit":"456","inzips":"456","primary_city":"Ironton","id":"abkwxnjeuoc3","state":"OH"},"type":"Feature","geometry":null},{"properties":{"zip":"45640","3digit":"456","inzips":"456","primary_city":"Jackson","id":"abkwxni8prfz","state":"OH"},"type":"Feature","geometry":null},{"properties":{"zip":"45642","3digit":"456","inzips":"456","primary_city":"Jasper","id":"abkwxnob739d","state":"OH"},"type":"Feature","geometry":null},{"properties":{"zip":"45643","3digit":"456","inzips":"456","primary_city":"Kerr","id":"abkwxniqnss6","state":"OH"},"type":"Feature","geometry":null},{"properties":{"zip":"45644","3digit":"456","inzips":"456","primary_city":"Kingston","id":"abkwxnix4x9m","state":"OH"},"type":"Feature","geometry":null},{"properties":{"zip":"45645","3digit":"456","inzips":"456","primary_city":"Kitts Hill","id":"abkwxnodpzta","state":"OH"},"type":"Feature","geometry":null},{"properties":{"zip":"45646","3digit":"456","inzips":"456","primary_city":"Latham","id":"abkwxnng51bt","state":"OH"},"type":"Feature","geometry":null},{"properties":{"zip":"45647","3digit":"456","inzips":"456","primary_city":"Londonderry","id":"abkwxnu1g0f4","state":"OH"},"type":"Feature","geometry":null},{"properties":{"zip":"45648","3digit":"456","inzips":"456","primary_city":"Lucasville","id":"abkwxnm6hy0d","state":"OH"},"type":"Feature","geometry":null},{"properties":{"zip":"45650","3digit":"456","inzips":"456","primary_city":"Lynx","id":"abkwxnu9z8r9","state":"OH"},"type":"Feature","geometry":null},{"properties":{"zip":"45651","3digit":"456","inzips":"456","primary_city":"Mc Arthur","id":"abkwxnukxds1","state":"OH"},"type":"Feature","geometry":null},{"properties":{"zip":"45652","3digit":"456","inzips":"456","primary_city":"Mc Dermott","id":"abkwxnhojc34","state":"OH"},"type":"Feature","geometry":null},{"properties":{"zip":"45653","3digit":"456","inzips":"456","primary_city":"Minford","id":"abkwxnt21kh7","state":"OH"},"type":"Feature","geometry":null},{"properties":{"zip":"45654","3digit":"456","inzips":"456","primary_city":"New Plymouth","id":"abkwxnl4eehg","state":"OH"},"type":"Feature","geometry":null},{"properties":{"zip":"45656","3digit":"456","inzips":"456","primary_city":"Oak Hill","id":"abkwxnrxmsbc","state":"OH"},"type":"Feature","geometry":null},{"properties":{"zip":"45657","3digit":"456","inzips":"456","primary_city":"Otway","id":"abkwxniwjrx5","state":"OH"},"type":"Feature","geometry":null},{"properties":{"zip":"45658","3digit":"456","inzips":"456","primary_city":"Patriot","id":"abkwxnkj5omj","state":"OH"},"type":"Feature","geometry":null},{"properties":{"zip":"45659","3digit":"456","inzips":"456","primary_city":"Pedro","id":"abkwxnovrtup","state":"OH"},"type":"Feature","geometry":null},{"properties":{"zip":"45660","3digit":"456","inzips":"456","primary_city":"Peebles","id":"abkwxnklhunk","state":"OH"},"type":"Feature","geometry":null},{"properties":{"zip":"45661","3digit":"456","inzips":"456","primary_city":"Piketon","id":"abkwxnmdoelk","state":"OH"},"type":"Feature","geometry":null},{"properties":{"zip":"45662","3digit":"456","inzips":"456","primary_city":"Portsmouth","id":"abkwxnm4d83l","state":"OH"},"type":"Feature","geometry":null},{"properties":{"zip":"45663","3digit":"456","inzips":"456","primary_city":"West Portsmouth","id":"abkwxnubknpm","state":"OH"},"type":"Feature","geometry":null},{"properties":{"zip":"45669","3digit":"456","inzips":"456","primary_city":"Proctorville","id":"abkwxnhnabgp","state":"OH"},"type":"Feature","geometry":null},{"properties":{"zip":"45671","3digit":"456","inzips":"456","primary_city":"Rarden","id":"abkwxnrua5po","state":"OH"},"type":"Feature","geometry":null},{"properties":{"zip":"45672","3digit":"456","inzips":"456","primary_city":"Ray","id":"abkwxnw5zd1t","state":"OH"},"type":"Feature","geometry":null},{"properties":{"zip":"45673","3digit":"456","inzips":"456","primary_city":"Richmond Dale","id":"abkwxni3op5f","state":"OH"},"type":"Feature","geometry":null},{"properties":{"zip":"45674","3digit":"456","inzips":"456","primary_city":"Rio Grande","id":"abkwxnrzunf2","state":"OH"},"type":"Feature","geometry":null},{"properties":{"zip":"45675","3digit":"456","inzips":"456","primary_city":"Rock Camp","id":"abkwxnt5zynf","state":"OH"},"type":"Feature","geometry":null},{"properties":{"zip":"45677","3digit":"456","inzips":"456","primary_city":"Scioto Furnace","id":"abkwxnwotj5y","state":"OH"},"type":"Feature","geometry":null},{"properties":{"zip":"45678","3digit":"456","inzips":"456","primary_city":"Scottown","id":"abkwxns8owmm","state":"OH"},"type":"Feature","geometry":null},{"properties":{"zip":"45679","3digit":"456","inzips":"456","primary_city":"Seaman","id":"abkwxnisr34c","state":"OH"},"type":"Feature","geometry":null},{"properties":{"zip":"45680","3digit":"456","inzips":"456","primary_city":"South Point","id":"abkwxnp9wwi7","state":"OH"},"type":"Feature","geometry":null},{"properties":{"zip":"45681","3digit":"456","inzips":"456","primary_city":"South Salem","id":"abkwxnh23p9x","state":"OH"},"type":"Feature","geometry":null},{"properties":{"zip":"45682","3digit":"456","inzips":"456","primary_city":"South Webster","id":"abkwxnl1w9tc","state":"OH"},"type":"Feature","geometry":null},{"properties":{"zip":"45683","3digit":"456","inzips":"456","primary_city":"Stockdale","id":"abkwxnooc35z","state":"OH"},"type":"Feature","geometry":null},{"properties":{"zip":"45684","3digit":"456","inzips":"456","primary_city":"Stout","id":"abkwxnpsx6uf","state":"OH"},"type":"Feature","geometry":null},{"properties":{"zip":"45685","3digit":"456","inzips":"456","primary_city":"Thurman","id":"abkwxntj5x8t","state":"OH"},"type":"Feature","geometry":null},{"properties":{"zip":"45686","3digit":"456","inzips":"456","primary_city":"Vinton","id":"abkwxnpkch15","state":"OH"},"type":"Feature","geometry":null},{"properties":{"zip":"45687","3digit":"456","inzips":"456","primary_city":"Wakefield","id":"abkwxnoedbg4","state":"OH"},"type":"Feature","geometry":null},{"properties":{"zip":"45688","3digit":"456","inzips":"456","primary_city":"Waterloo","id":"abkwxnhxgiha","state":"OH"},"type":"Feature","geometry":null},{"properties":{"zip":"45690","3digit":"456","inzips":"456","primary_city":"Waverly","id":"abkwxnm5r968","state":"OH"},"type":"Feature","geometry":null},{"properties":{"zip":"45692","3digit":"456","inzips":"456","primary_city":"Wellston","id":"abkwxnpo4su3","state":"OH"},"type":"Feature","geometry":null},{"properties":{"zip":"45693","3digit":"456","inzips":"456","primary_city":"West Union","id":"abkwxnr06bte","state":"OH"},"type":"Feature","geometry":null},{"properties":{"zip":"45694","3digit":"456","inzips":"456","primary_city":"Wheelersburg","id":"abkwxnsvrv23","state":"OH"},"type":"Feature","geometry":null},{"properties":{"zip":"45695","3digit":"456","inzips":"456","primary_city":"Wilkesville","id":"abkwxnknqo76","state":"OH"},"type":"Feature","geometry":null},{"properties":{"zip":"45696","3digit":"456","inzips":"456","primary_city":"Willow Wood","id":"abkwxnnaillx","state":"OH"},"type":"Feature","geometry":null},{"properties":{"zip":"45697","3digit":"456","inzips":"456","primary_city":"Winchester","id":"abkwxnrq6kmu","state":"OH"},"type":"Feature","geometry":null},{"properties":{"zip":"45698","3digit":"456","inzips":"456","primary_city":"Zaleski","id":"abkwxniw31xj","state":"OH"},"type":"Feature","geometry":null},{"properties":{"zip":"45699","3digit":"456","inzips":"456","primary_city":"Lucasville","id":"abkwxnj92p44","state":"OH"},"type":"Feature","geometry":null}],"is_temporal":false,"author":{"url":null,"metadata":null,"contact_name":null,"contact_address":null,"source":null,"contact_phone":null},"source":null,"pagination":{"sort":null,"start":0,"total":1009,"limit":1000000},"state":"errored","tags":"","published":"2014-08-16T16:47:01-04:00","id":312801}