{"type":"FeatureCollection","data_type":"Dataset","url_type":null,"permissions":[{"permissions":{"download":true,"view":true},"group_id":"everyone"}],"classification":null,"title":"Target Stores","count":8,"stream_id":313054,"contributor":{"url":"http://geocommons.com/users/59521","name":"bguevarra"},"data_attributes":null,"calculation_params":null,"icon_link":null,"link":"http://geocommons.com/overlays/313054.json","extent":[-78.8818,35.6876,-78.5773,35.9094],"geometry_types":["point"],"unique_name":null,"name":"Target Stores","feature_count":8,"description":"Specific POI: Target Stores in the West Raleigh Vicinity","next_feature":null,"is_raster":false,"short_classification":"Y","stats":{"yelp rating":{"max":5.0,"mean":4.125,"variance":0.196428571428571,"stdev":0.443202630213959,"median":4.0,"min":3.5}},"features":[{"properties":{"city":"Apex","zip":"27502","geo_score":0.547,"yelp rating":4.0,"phone":"(919)372-1406","id":"abme9kqi3pr3","address":"1201 Beaver Creek Commons Dr","geo_precision":"street","state":"NC"},"type":"Feature","geometry":{"type":"Point","coordinates":[-78.881841,35.747457]}},{"properties":{"city":"Morrisville","zip":"27560","geo_score":0.488,"yelp rating":4.5,"phone":"(919)379-2180","id":"abme9kopbvbe","address":"3001 Market Center Dr","geo_precision":"street","state":"NC"},"type":"Feature","geometry":{"type":"Point","coordinates":[-78.792884,35.909448]}},{"properties":{"city":"Raleigh","zip":"27609","geo_score":0.429,"yelp rating":4.0,"phone":"(919)781-9848","id":"abme9kwq1yow","address":"4191 The Circle At North Hills St","geo_precision":"street","state":"NC"},"type":"Feature","geometry":{"type":"Point","coordinates":[-78.657862,35.854274]}},{"properties":{"city":"Raleigh","zip":"27609","geo_score":0.429,"yelp rating":3.5,"phone":"(919)781-9848","id":"abme9knvqh64","address":"4191 The Circle At North Hills St","geo_precision":"street","state":"NC"},"type":"Feature","geometry":{"type":"Point","coordinates":[-78.657862,35.854274]}},{"properties":{"city":"Cary","zip":"27518","geo_score":0.902,"yelp rating":4.0,"phone":"(919)233-4451","id":"abme9ku4moiv","address":"2021 Walnut St","geo_precision":"range","state":"NC"},"type":"Feature","geometry":{"type":"Point","coordinates":[-78.741382,35.756005]}},{"properties":{"city":"Garner","zip":"27529","geo_score":0.902,"yelp rating":4.0,"phone":"(919)661-2017","id":"abme9kwezxjl","address":"7277 White Oak Rd","geo_precision":"range","state":"NC"},"type":"Feature","geometry":{"type":"Point","coordinates":[-78.581071,35.687633]}},{"properties":{"city":"Garner","zip":"27529","geo_score":0.902,"yelp rating":5.0,"phone":"(919)772-9065","id":"abme9l0tfyr6","address":"2700 Timber Dr","geo_precision":"range","state":"NC"},"type":"Feature","geometry":{"type":"Point","coordinates":[-78.641357,35.710224]}},{"properties":{"city":"Raleigh","zip":"27616","geo_score":0.708,"yelp rating":4.0,"phone":"(919)790-1026","id":"abme9kovezr1","address":"7900 Old Wake Forest Rd","geo_precision":"street","state":"NC"},"type":"Feature","geometry":{"type":"Point","coordinates":[-78.577282,35.869645]}}],"is_temporal":false,"author":{"url":"","metadata":null,"contact_name":null,"contact_address":null,"source":null,"contact_phone":null},"source":"","pagination":{"sort":null,"start":0,"total":8,"limit":1000000},"state":"complete","tags":"","published":"2014-08-16T17:14:54-04:00","id":313054}