{"type":"FeatureCollection","data_type":"Dataset","url_type":null,"permissions":[{"permissions":{"download":true,"view":true},"group_id":"everyone"}],"classification":null,"title":"Copy_of_IPTV-Ft","count":104,"stream_id":313324,"contributor":{"url":"http://geocommons.com/users/59404","name":"KatieEtgen"},"data_attributes":null,"calculation_params":null,"icon_link":null,"link":"http://geocommons.com/overlays/313324.json","extent":[-84.3551,40.8178,-84.204,40.9758],"geometry_types":["point"],"unique_name":null,"name":"Copy_of_IPTV-Ft","feature_count":104,"description":"","next_feature":null,"is_raster":false,"short_classification":"Y","stats":{"stbs allowed":{"max":10,"mean":5.04807692307692,"variance":0.240384615384615,"stdev":0.490290337845459,"median":5,"min":5},"ppv limit":{"max":100,"mean":90.4807692307692,"variance":860.057879014189,"stdev":29.3267434096285,"median":100,"min":1},"phone":{"max":5677651225,"mean":4203780219.98077,"variance":7.41589664073096e+16,"stdev":272321439.492578,"median":4192862435,"min":2392536141},"password":{"max":1234,"mean":1234.0,"variance":0.0,"stdev":0.0,"median":1234,"min":1234},"login":{"max":1234,"mean":1234.0,"variance":0.0,"stdev":0.0,"median":1234,"min":1234},"pin":{"max":3267,"mean":1253.54807692308,"variance":39741.2403846153,"stdev":199.352051367964,"median":1234,"min":1234}},"features":[{"properties":{"city":"Fort Jennings","status":"Active","ppv":"Yes","zip":"45844","region":"Ft. Jennings","service packages":"Max","township":null,"last":"286 TEST","stbs allowed":10,"geo_score":0.793,"first":"FJTC","ppv limit":1,"customer id":null,"phone":4192862181,"whdvr":"Yes","id":"abn5qfa4mej2","address":"65 W Third St","login":1234,"password":1234,"geo_precision":"range","state":"OH","pin":1234},"type":"Feature","geometry":{"type":"Point","coordinates":[-84.297478,40.904997]}},{"properties":{"city":"Fort Jennings","status":"Active","ppv":"Yes","zip":"45844","region":"Ft. Jennings","service packages":"IP Basic,HD Basic","township":null,"last":"Anspach","stbs allowed":5,"geo_score":0.902,"first":"Adam","ppv limit":100,"customer id":null,"phone":4192862334,"whdvr":"No","id":"abn5qfh4roa8","address":"19290 Road 20P","login":1234,"password":1234,"geo_precision":"range","state":"OH","pin":1234},"type":"Feature","geometry":{"type":"Point","coordinates":[-84.279444,40.898976]}},{"properties":{"city":"Delphos","status":"Active","ppv":"Yes","zip":"45833","region":"Ft. Jennings","service packages":"IP Basic,HD Basic","township":null,"last":"Baumgartner","stbs allowed":5,"geo_score":0.488,"first":"James","ppv limit":100,"customer id":null,"phone":4196928618,"whdvr":"No","id":"abn5qf1xf4lr","address":"1211 Grothause St","login":1234,"password":1234,"geo_precision":"zip","state":"OH","pin":1234},"type":"Feature","geometry":{"type":"Point","coordinates":[-84.272729,40.817828]}},{"properties":{"city":"Delphos","status":"Active","ppv":"Yes","zip":"45833","region":"Ft. Jennings","service packages":"Max","township":null,"last":"Berelsman","stbs allowed":5,"geo_score":0.707,"first":"Tim","ppv limit":100,"customer id":null,"phone":4196958502,"whdvr":"No","id":"abn5qf55o416","address":"1301 Rose Anna","login":1234,"password":1234,"geo_precision":"street","state":"OH","pin":1234},"type":"Feature","geometry":{"type":"Point","coordinates":[-84.35507,40.851704]}},{"properties":{"city":"Fort Jennings","status":"Active","ppv":"Yes","zip":"45844","region":"Ft. Jennings","service packages":"IP Basic,HD Basic","township":null,"last":"Berelsman","stbs allowed":5,"geo_score":0.902,"first":"Anthony","ppv limit":100,"customer id":null,"phone":4192861473,"whdvr":"No","id":"abn5qf898ema","address":"215 Charles St","login":1234,"password":1234,"geo_precision":"range","state":"OH","pin":1234},"type":"Feature","geometry":{"type":"Point","coordinates":[-84.297168,40.907519]}},{"properties":{"city":"Fort Jennings","status":"Active","ppv":"Yes","zip":"45844","region":"Ft. Jennings","service packages":"IP Expanded,HD Basic","township":null,"last":"Berelsman","stbs allowed":5,"geo_score":0.87,"first":"Andrew","ppv limit":100,"customer id":null,"phone":4192864091,"whdvr":"No","id":"abn5qf43b0lw","address":"480 N Main St","login":1234,"password":1234,"geo_precision":"range","state":"OH","pin":1234},"type":"Feature","geometry":{"type":"Point","coordinates":[-84.331012,40.937031]}},{"properties":{"city":"Delphos","status":"Active","ppv":"Yes","zip":"45833","region":"Ft. Jennings","service packages":"IP Basic,HD Basic","township":null,"last":"Bidlack","stbs allowed":5,"geo_score":0.902,"first":"Todd","ppv limit":100,"customer id":null,"phone":4192862078,"whdvr":"No","id":"abn5qf7tzjm6","address":"24836 Rd T","login":1234,"password":1234,"geo_precision":"range","state":"OH","pin":1234},"type":"Feature","geometry":{"type":"Point","coordinates":[-84.337709,40.888306]}},{"properties":{"city":"Fort Jennings","status":"Active","ppv":"Yes","zip":"45844","region":"Ft. Jennings","service packages":"IP Expanded,HD Basic","township":null,"last":"Bidlack","stbs allowed":5,"geo_score":0.902,"first":"John","ppv limit":100,"customer id":null,"phone":4192862279,"whdvr":"No","id":"abn5qfcxgshp","address":"19150 Road 20","login":1234,"password":1234,"geo_precision":"range","state":"OH","pin":1234},"type":"Feature","geometry":{"type":"Point","coordinates":[-84.244009,40.901067]}},{"properties":{"city":"Fort Jennings","status":"Active","ppv":"Yes","zip":"45844","region":"Ft. Jennings","service packages":"IP Expanded,HD Basic","township":null,"last":"Bigelow","stbs allowed":5,"geo_score":0.745,"first":"Keith","ppv limit":100,"customer id":null,"phone":4192861342,"whdvr":"No","id":"abn5qffnxk0j","address":"18517 SR 190","login":1234,"password":1234,"geo_precision":"range","state":"OH","pin":1234},"type":"Feature","geometry":{"type":"Point","coordinates":[-84.286738,40.908957]}},{"properties":{"city":"Delphos","status":"Active","ppv":"No","zip":"45833","region":"Ft. Jennings","service packages":"IP Basic,HD Basic","township":null,"last":"Bowersock","stbs allowed":5,"geo_score":0.902,"first":"Rex","ppv limit":1,"customer id":null,"phone":5677650550,"whdvr":"No","id":"abn5qfgl8r76","address":"1370 Marsh Ave","login":1234,"password":1234,"geo_precision":"range","state":"OH","pin":1234},"type":"Feature","geometry":{"type":"Point","coordinates":[-84.32382,40.855578]}},{"properties":{"city":"Fort Jennings","status":"Active","ppv":"Yes","zip":"45844","region":"Ft. Jennings","service packages":"IP Expanded,HD Basic","township":null,"last":"Brinkman","stbs allowed":5,"geo_score":0.745,"first":"Steve","ppv limit":100,"customer id":null,"phone":4192862759,"whdvr":"No","id":"abn5qfgq777h","address":"16530 SR 634","login":1234,"password":1234,"geo_precision":"range","state":"OH","pin":1234},"type":"Feature","geometry":{"type":"Point","coordinates":[-84.292136,40.93599]}},{"properties":{"city":"Fort Jennings","status":"Active","ppv":"Yes","zip":"45844","region":"Ft. Jennings","service packages":"HBO,IP Expanded,HD Basic","township":null,"last":"Brokamp","stbs allowed":5,"geo_score":0.488,"first":"Eric","ppv limit":100,"customer id":null,"phone":4190019320,"whdvr":"No","id":"abn5qf7bzjjn","address":"23896 Road T-23","login":1234,"password":1234,"geo_precision":"zip","state":"OH","pin":1234},"type":"Feature","geometry":{"type":"Point","coordinates":[-84.253283,40.874217]}},{"properties":{"city":"FORT JENNINGS","status":"Active","ppv":"Yes","zip":"45844","region":"Ft. Jennings","service packages":"IP Expanded,HD Basic,Encore HD","township":null,"last":"Brosseau","stbs allowed":5,"geo_score":0.715,"first":"Grant","ppv limit":100,"customer id":null,"phone":2392536141,"whdvr":"No","id":"abn5qffedbgd","address":"18564 St Rt 189","login":1234,"password":1234,"geo_precision":"street","state":"OH","pin":1234},"type":"Feature","geometry":{"type":"Point","coordinates":[-84.213669,40.884359]}},{"properties":{"city":"Fort Jennings","status":"Active","ppv":"Yes","zip":"45844","region":"Ft. Jennings","service packages":"IP Basic,HD Basic","township":null,"last":"Burgei","stbs allowed":5,"geo_score":0.902,"first":"Darrin","ppv limit":100,"customer id":null,"phone":4192862658,"whdvr":"No","id":"abn5qf1m03q3","address":"19431 Road 22","login":1234,"password":1234,"geo_precision":"range","state":"OH","pin":1234},"type":"Feature","geometry":{"type":"Point","coordinates":[-84.282235,40.894502]}},{"properties":{"city":"Fort Jennings","status":"Active","ppv":"Yes","zip":"45844","region":"Ft. Jennings","service packages":"Max","township":null,"last":"Burkhart","stbs allowed":5,"geo_score":0.87,"first":"Luke","ppv limit":100,"customer id":null,"phone":4192865853,"whdvr":"No","id":"abn5qf6koch8","address":"280 N Main St","login":1234,"password":1234,"geo_precision":"range","state":"OH","pin":1234},"type":"Feature","geometry":{"type":"Point","coordinates":[-84.336575,40.934478]}},{"properties":{"city":"Fort Jennings","status":"Active","ppv":"Yes","zip":"45844","region":"Ft. Jennings","service packages":"IP Expanded,HD Basic","township":null,"last":"Calvelage","stbs allowed":5,"geo_score":0.707,"first":"Rick","ppv limit":100,"customer id":null,"phone":4192862476,"whdvr":"Yes","id":"abn5qf7tj3zq","address":"24530 Rd T","login":1234,"password":1234,"geo_precision":"street","state":"OH","pin":1234},"type":"Feature","geometry":{"type":"Point","coordinates":[-84.291361,40.888427]}},{"properties":{"city":"Fort Jennings","status":"Active","ppv":"Yes","zip":"45844","region":"Ft. Jennings","service packages":"HBO,CINEMAX,IP Expanded,HD Basic,SHO Unlimited HD","township":null,"last":"Calvelage","stbs allowed":5,"geo_score":0.902,"first":"Omer","ppv limit":100,"customer id":null,"phone":4196928305,"whdvr":"Yes","id":"abn5qfcmtat8","address":"21500 Rd V","login":1234,"password":1234,"geo_precision":"range","state":"OH","pin":1234},"type":"Feature","geometry":{"type":"Point","coordinates":[-84.270308,40.859769]}},{"properties":{"city":"Fort Jennings","status":"Active","ppv":"Yes","zip":"45844","region":"Ft. Jennings","service packages":"IP Basic,IP Expanded,HD Basic","township":null,"last":"Cross","stbs allowed":5,"geo_score":0.708,"first":"Greg","ppv limit":100,"customer id":null,"phone":4192862099,"whdvr":"No","id":"abn5qfgfjtz5","address":"20174 Rd 21","login":1234,"password":1234,"geo_precision":"street","state":"OH","pin":1234},"type":"Feature","geometry":{"type":"Point","coordinates":[-84.26278,40.893074]}},{"properties":{"city":"Fort Jennings","status":"Active","ppv":"Yes","zip":"45844","region":"Ft. Jennings","service packages":"IP Basic","township":null,"last":"Ebbeskotte","stbs allowed":5,"geo_score":0.902,"first":"Ron","ppv limit":100,"customer id":null,"phone":4190027144,"whdvr":"No","id":"abn5qfa7chug","address":"8765 Mericle Rd","login":1234,"password":1234,"geo_precision":"range","state":"OH","pin":1234},"type":"Feature","geometry":{"type":"Point","coordinates":[-84.271262,40.859617]}},{"properties":{"city":"Fort Jennings","status":"Active","ppv":"Yes","zip":"45844","region":"Ft. Jennings","service packages":"IP Basic,HD Basic","township":null,"last":"Ellerbrock","stbs allowed":5,"geo_score":0.745,"first":"Craig","ppv limit":100,"customer id":null,"phone":4192862934,"whdvr":"No","id":"abn5qf50tb9t","address":"18332 SR 190","login":1234,"password":1234,"geo_precision":"range","state":"OH","pin":1234},"type":"Feature","geometry":{"type":"Point","coordinates":[-84.28371,40.91106]}},{"properties":{"city":"Fort Jennings","status":"Active","ppv":"Yes","zip":"45844","region":"Ft. Jennings","service packages":"IP Basic,IP Expanded,HD Basic","township":null,"last":"Elliott","stbs allowed":5,"geo_score":0.707,"first":"Dean","ppv limit":100,"customer id":null,"phone":4190027528,"whdvr":"No","id":"abn5qf5m317u","address":"21951 Rd 21","login":1234,"password":1234,"geo_precision":"street","state":"OH","pin":1234},"type":"Feature","geometry":{"type":"Point","coordinates":[-84.26278,40.893074]}},{"properties":{"city":"Fort Jennings","status":"Active","ppv":"Yes","zip":"45844","region":"Ft. Jennings","service packages":"IP Expanded,HD Basic","township":null,"last":"Erickson","stbs allowed":5,"geo_score":0.707,"first":"Roger","ppv limit":100,"customer id":null,"phone":4196425235,"whdvr":"No","id":"abn5qff8oeoj","address":"21952 Rd 21","login":1234,"password":1234,"geo_precision":"street","state":"OH","pin":1234},"type":"Feature","geometry":{"type":"Point","coordinates":[-84.26278,40.893074]}},{"properties":{"city":"Fort Jennings","status":"Active","ppv":"Yes","zip":"45844","region":"Ft. Jennings","service packages":"HBO,IP Expanded,HD Basic","township":null,"last":"Farler","stbs allowed":5,"geo_score":0.882,"first":"David","ppv limit":100,"customer id":null,"phone":4192867636,"whdvr":"No","id":"abn5qfgldhab","address":"35 JF Kennedy St","login":1234,"password":1234,"geo_precision":"range","state":"OH","pin":1234},"type":"Feature","geometry":{"type":"Point","coordinates":[-84.297695,40.908281]}},{"properties":{"city":"Fort Jennings","status":"Active","ppv":"Yes","zip":"45844","region":"Ft. Jennings","service packages":"IP Expanded,HD Basic","township":null,"last":"Gasser","stbs allowed":5,"geo_score":0.526,"first":"Scott","ppv limit":100,"customer id":null,"phone":4190017502,"whdvr":"No","id":"abn5qfbfuafj","address":"20065 Rd 23-T","login":1234,"password":1234,"geo_precision":"street","state":"OH","pin":1234},"type":"Feature","geometry":{"type":"Point","coordinates":[-84.330351,40.903715]}},{"properties":{"city":"Fort Jennings","status":"Active","ppv":"Yes","zip":"45844","region":"Ft. Jennings","service packages":"IP Expanded,HD Basic","township":null,"last":"Gasser","stbs allowed":5,"geo_score":0.902,"first":"Tim","ppv limit":100,"customer id":null,"phone":4192862400,"whdvr":"No","id":"abn5qf7epv98","address":"19502 Rd 22-S","login":1234,"password":1234,"geo_precision":"range","state":"OH","pin":1234},"type":"Feature","geometry":{"type":"Point","coordinates":[-84.293296,40.893712]}},{"properties":{"city":"Fort Jennings","status":"Active","ppv":"Yes","zip":"45844","region":"Ft. Jennings","service packages":"First Month,IP Basic,HD Basic","township":null,"last":"Gasser","stbs allowed":5,"geo_score":0.902,"first":"Randy","ppv limit":100,"customer id":null,"phone":4192862435,"whdvr":"No","id":"abn5qfhfp9fb","address":"715 N Water St","login":1234,"password":1234,"geo_precision":"range","state":"OH","pin":1234},"type":"Feature","geometry":{"type":"Point","coordinates":[-84.292432,40.907914]}},{"properties":{"city":"Fort Jennings","status":"Inactive","ppv":"Yes","zip":"45844","region":"Ft. Jennings","service packages":"HBO,IP Expanded,HD Basic","township":null,"last":"Gerdeman","stbs allowed":5,"geo_score":0.902,"first":"Scott","ppv limit":100,"customer id":null,"phone":4192862387,"whdvr":"No","id":"abn5qfd3e2vq","address":"240 Maple Lane","login":1234,"password":1234,"geo_precision":"range","state":"OH","pin":1234},"type":"Feature","geometry":{"type":"Point","coordinates":[-84.300932,40.906816]}},{"properties":{"city":"Delphos","status":"Active","ppv":"Yes","zip":"45833","region":"Ft. Jennings","service packages":"IP Expanded,HD Basic","township":null,"last":"German","stbs allowed":5,"geo_score":0.902,"first":"Dan","ppv limit":100,"customer id":null,"phone":4192862815,"whdvr":"Yes","id":"abn5qf6vvo8l","address":"24596 Road T","login":1234,"password":1234,"geo_precision":"range","state":"OH","pin":3267},"type":"Feature","geometry":{"type":"Point","coordinates":[-84.340525,40.88857]}},{"properties":{"city":"Fort Jennings","status":"Active","ppv":"Yes","zip":"45844","region":"Ft. Jennings","service packages":"First Month,HBO,IP Basic,HD Basic,Showtime HD","township":null,"last":"Good","stbs allowed":5,"geo_score":0.812,"first":"Brandon","ppv limit":100,"customer id":null,"phone":4190018300,"whdvr":"No","id":"abn5qfgd7kxc","address":"17806A St Rt 634","login":1234,"password":1234,"geo_precision":"range","state":"OH","pin":1234},"type":"Feature","geometry":{"type":"Point","coordinates":[-84.292172,40.922813]}},{"properties":{"city":"Fort Jennings","status":"Active","ppv":"No","zip":"45844","region":"Ft. Jennings","service packages":"IP Expanded","township":null,"last":"Good","stbs allowed":5,"geo_score":0.87,"first":"Bob","ppv limit":1,"customer id":null,"phone":4192862767,"whdvr":"No","id":"abn5qf6ifsti","address":"365 N Main St","login":1234,"password":1234,"geo_precision":"range","state":"OH","pin":1234},"type":"Feature","geometry":{"type":"Point","coordinates":[-84.334464,40.935091]}},{"properties":{"city":"Fort Jennings","status":"Active","ppv":"Yes","zip":"45844","region":"Ft. Jennings","service packages":"IP Expanded,HD Basic","township":null,"last":"Grone","stbs allowed":5,"geo_score":0.902,"first":"Jim","ppv limit":100,"customer id":null,"phone":4192862283,"whdvr":"No","id":"abn5qf3d1trt","address":"30 Oak St","login":1234,"password":1234,"geo_precision":"range","state":"OH","pin":1234},"type":"Feature","geometry":{"type":"Point","coordinates":[-84.296562,40.908945]}},{"properties":{"city":"Fort Jennings","status":"Active","ppv":"Yes","zip":"45844","region":"Ft. Jennings","service packages":"IP Expanded,HD Basic","township":null,"last":"Grothouse","stbs allowed":5,"geo_score":0.707,"first":"Nicole","ppv limit":100,"customer id":null,"phone":4192862073,"whdvr":"No","id":"abn5qfbsh4kx","address":"21009 Rd 21","login":1234,"password":1234,"geo_precision":"street","state":"OH","pin":1234},"type":"Feature","geometry":{"type":"Point","coordinates":[-84.26278,40.893074]}},{"properties":{"city":"Fort Jennings","status":"Active","ppv":"Yes","zip":"45844","region":"Ft. Jennings","service packages":"IP Expanded,HD Basic","township":null,"last":"Haehn","stbs allowed":5,"geo_score":0.902,"first":"Dan","ppv limit":100,"customer id":null,"phone":4190026927,"whdvr":"No","id":"abn5qf4smf4x","address":"21222 Rd V","login":1234,"password":1234,"geo_precision":"range","state":"OH","pin":1234},"type":"Feature","geometry":{"type":"Point","coordinates":[-84.26675,40.859768]}},{"properties":{"city":"Fort Jennings","status":"Active","ppv":"Yes","zip":"45844","region":"Ft. Jennings","service packages":"IP Expanded,HD Basic","township":null,"last":"Hedrick","stbs allowed":5,"geo_score":0.745,"first":"Matt","ppv limit":100,"customer id":null,"phone":4190016453,"whdvr":"No","id":"abn5qfd6n720","address":"16847 SR 190","login":1234,"password":1234,"geo_precision":"range","state":"OH","pin":1234},"type":"Feature","geometry":{"type":"Point","coordinates":[-84.274922,40.933727]}},{"properties":{"city":"Delphos","status":"Active","ppv":"Yes","zip":"45833","region":"Ft. Jennings","service packages":"IP Expanded,HD Basic","township":null,"last":"Hellman","stbs allowed":5,"geo_score":0.577,"first":"Sandra","ppv limit":100,"customer id":null,"phone":4196920197,"whdvr":"No","id":"abn5qf18ndnm","address":"1310 Rose Anna Street","login":1234,"password":1234,"geo_precision":"street","state":"OH","pin":1234},"type":"Feature","geometry":{"type":"Point","coordinates":[-84.35507,40.851704]}},{"properties":{"city":"Fort Jennings","status":"Active","ppv":"No","zip":"45844","region":"Ft. Jennings","service packages":"IP Expanded,HD Basic","township":null,"last":"Hobkirk","stbs allowed":5,"geo_score":0.87,"first":"Robert","ppv limit":1,"customer id":null,"phone":4192865836,"whdvr":"No","id":"abn5qfhe3cvx","address":"235 N Main St","login":1234,"password":1234,"geo_precision":"range","state":"OH","pin":1234},"type":"Feature","geometry":{"type":"Point","coordinates":[-84.336301,40.934399]}},{"properties":{"city":"Fort Jennings","status":"Active","ppv":"Yes","zip":"45844","region":"Ft. Jennings","service packages":"IP Basic,HD Basic","township":null,"last":"Jackson","stbs allowed":5,"geo_score":0.902,"first":"Ed","ppv limit":100,"customer id":null,"phone":4192862861,"whdvr":"No","id":"abn5qfb3172c","address":"18964 Road 21","login":1234,"password":1234,"geo_precision":"range","state":"OH","pin":1234},"type":"Feature","geometry":{"type":"Point","coordinates":[-84.263567,40.904213]}},{"properties":{"city":"Fort Jennings","status":"Active","ppv":"Yes","zip":"45844","region":"Ft. Jennings","service packages":"HBO,IP Basic,HD Basic","township":null,"last":"Kehres","stbs allowed":5,"geo_score":0.745,"first":"Andrew","ppv limit":100,"customer id":null,"phone":4192863162,"whdvr":"No","id":"abn5qfegcxqa","address":"17048 SR 190","login":1234,"password":1234,"geo_precision":"range","state":"OH","pin":1234},"type":"Feature","geometry":{"type":"Point","coordinates":[-84.275574,40.931925]}},{"properties":{"city":"Delphos","status":"Active","ppv":"Yes","zip":"45833","region":"Ft. Jennings","service packages":"IP Expanded,HD Basic","township":null,"last":"Kill","stbs allowed":5,"geo_score":0.902,"first":"Ken","ppv limit":100,"customer id":null,"phone":4190012915,"whdvr":"No","id":"abn5qfgxu6qz","address":"24550 Road T","login":1234,"password":1234,"geo_precision":"range","state":"OH","pin":1234},"type":"Feature","geometry":{"type":"Point","coordinates":[-84.33098,40.888377]}},{"properties":{"city":"Fort Jennings","status":"Active","ppv":"Yes","zip":"45844","region":"Ft. Jennings","service packages":"IP Basic,HD Basic","township":null,"last":"Kimmet","stbs allowed":5,"geo_score":0.902,"first":"Shawn","ppv limit":100,"customer id":null,"phone":4190029535,"whdvr":"Yes","id":"abn5qfg9k4sz","address":"8433 N Defiance Trail","login":1234,"password":1234,"geo_precision":"range","state":"OH","pin":1234},"type":"Feature","geometry":{"type":"Point","coordinates":[-84.290271,40.849805]}},{"properties":{"city":"Fort Jennings","status":"Active","ppv":"Yes","zip":"45844","region":"Ft. Jennings","service packages":"IP Expanded,HD Basic,STARZ/Encore HD","township":null,"last":"Kleman","stbs allowed":5,"geo_score":0.902,"first":"Rick","ppv limit":100,"customer id":null,"phone":4192862670,"whdvr":"No","id":"abn5qfdhd67u","address":"19028 Rd 20P","login":1234,"password":1234,"geo_precision":"range","state":"OH","pin":1234},"type":"Feature","geometry":{"type":"Point","coordinates":[-84.276993,40.903309]}},{"properties":{"city":"Fort Jennings","status":"Active","ppv":"Yes","zip":"45844","region":"Ft. Jennings","service packages":"IP Expanded,HD Basic","township":null,"last":"Klima","stbs allowed":5,"geo_score":0.745,"first":"Brad &amp; Leslie","ppv limit":100,"customer id":null,"phone":4190016208,"whdvr":"No","id":"abn5qfbjg9c5","address":"23242 SR 189","login":1234,"password":1234,"geo_precision":"range","state":"OH","pin":1234},"type":"Feature","geometry":{"type":"Point","coordinates":[-84.316299,40.918009]}},{"properties":{"city":"Fort Jennings","status":"Active","ppv":"Yes","zip":"45844","region":"Ft. Jennings","service packages":"IP Basic,HD Basic","township":null,"last":"Knippen","stbs allowed":5,"geo_score":0.902,"first":"Mark","ppv limit":100,"customer id":null,"phone":4192865073,"whdvr":"No","id":"abn5qfgekbse","address":"23960 Rd R","login":1234,"password":1234,"geo_precision":"range","state":"OH","pin":1234},"type":"Feature","geometry":{"type":"Point","coordinates":[-84.319718,40.918194]}},{"properties":{"city":"Fort Jennings","status":"Active","ppv":"Yes","zip":"45844","region":"Ft. Jennings","service packages":"First Month,IP Expanded,HD Basic","township":null,"last":"Korte","stbs allowed":5,"geo_score":0.902,"first":"Anthony","ppv limit":100,"customer id":null,"phone":4190019988,"whdvr":"No","id":"abn5qf7yoifk","address":"220 Maple Lane","login":1234,"password":1234,"geo_precision":"range","state":"OH","pin":1234},"type":"Feature","geometry":{"type":"Point","coordinates":[-84.300807,40.907263]}},{"properties":{"city":"Fort Jennings","status":"Active","ppv":"Yes","zip":"45844","region":"Ft. Jennings","service packages":"IP Expanded,HD Basic","township":null,"last":"Kraft","stbs allowed":5,"geo_score":0.902,"first":"Chris","ppv limit":100,"customer id":null,"phone":4190012732,"whdvr":"No","id":"abn5qffia9ja","address":"20277 Rd P","login":1234,"password":1234,"geo_precision":"range","state":"OH","pin":1234},"type":"Feature","geometry":{"type":"Point","coordinates":[-84.250425,40.947131]}},{"properties":{"city":"Fort Jennings","status":"Active","ppv":"Yes","zip":"45844","region":"Ft. Jennings","service packages":"HBO,CINEMAX,IP Expanded,SHO Unlimited HD,STARZ/Encore HD","township":null,"last":"Kramer","stbs allowed":5,"geo_score":0.902,"first":"Paul","ppv limit":100,"customer id":null,"phone":4196425294,"whdvr":"No","id":"abn5qfgpfnqu","address":"20600 Road 19","login":1234,"password":1234,"geo_precision":"range","state":"OH","pin":1234},"type":"Feature","geometry":{"type":"Point","coordinates":[-84.225143,40.878584]}},{"properties":{"city":"Fort Jennings","status":"Active","ppv":"No","zip":"45844","region":"Ft. Jennings","service packages":"IP Basic,HD Basic","township":null,"last":"Kramer","stbs allowed":5,"geo_score":0.902,"first":"Alfred","ppv limit":1,"customer id":null,"phone":4192862967,"whdvr":"No","id":"abn5qf33zxwl","address":"20916 Rd Q","login":1234,"password":1234,"geo_precision":"range","state":"OH","pin":1234},"type":"Feature","geometry":{"type":"Point","coordinates":[-84.25646,40.932821]}},{"properties":{"city":"Fort Jennings","status":"Active","ppv":"Yes","zip":"45844","region":"Ft. Jennings","service packages":"IP Expanded,HD Basic","township":null,"last":"Krietemeyer","stbs allowed":5,"geo_score":0.745,"first":"Harold","ppv limit":100,"customer id":null,"phone":4192862547,"whdvr":"No","id":"abn5qf4tgq14","address":"18515 SR 190","login":1234,"password":1234,"geo_precision":"range","state":"OH","pin":1234},"type":"Feature","geometry":{"type":"Point","coordinates":[-84.286699,40.908967]}},{"properties":{"city":"Fort Jennings","status":"Active","ppv":"Yes","zip":"45844","region":"Ft. Jennings","service packages":"IP Expanded,HD Basic","township":null,"last":"Krietemeyer","stbs allowed":5,"geo_score":0.526,"first":"Eric","ppv limit":100,"customer id":null,"phone":4190010211,"whdvr":"Yes","id":"abn5qf19kv8d","address":"20821 Rd 23-T","login":1234,"password":1234,"geo_precision":"street","state":"OH","pin":1234},"type":"Feature","geometry":{"type":"Point","coordinates":[-84.330351,40.903715]}},{"properties":{"city":"Fort Jennings","status":"Active","ppv":"Yes","zip":"45844","region":"Ft. Jennings","service packages":"IP Expanded,HD Basic","township":null,"last":"Kunz","stbs allowed":5,"geo_score":0.488,"first":"Steve","ppv limit":100,"customer id":null,"phone":4192862357,"whdvr":"No","id":"abn5qf3pjg1n","address":"21927 Rd U-20","login":1234,"password":1234,"geo_precision":"zip","state":"OH","pin":1234},"type":"Feature","geometry":{"type":"Point","coordinates":[-84.253283,40.874217]}},{"properties":{"city":"Fort Jennings","status":"Active","ppv":"Yes","zip":"45844","region":"Ft. Jennings","service packages":"Max","township":null,"last":"Landwehr","stbs allowed":5,"geo_score":0.745,"first":"Carl","ppv limit":100,"customer id":null,"phone":4192862195,"whdvr":"No","id":"abn5qffim31c","address":"16955 SR 634","login":1234,"password":1234,"geo_precision":"range","state":"OH","pin":1234},"type":"Feature","geometry":{"type":"Point","coordinates":[-84.291982,40.933977]}},{"properties":{"city":"Fort Jennings","status":"Active","ppv":"Yes","zip":"45844","region":"Ft. Jennings","service packages":"IP Basic,HD Basic","township":null,"last":"Laudick","stbs allowed":5,"geo_score":0.902,"first":"Justin","ppv limit":100,"customer id":null,"phone":4190012909,"whdvr":"No","id":"abn5qf7iluhe","address":"160 Charles St","login":1234,"password":1234,"geo_precision":"range","state":"OH","pin":1234},"type":"Feature","geometry":{"type":"Point","coordinates":[-84.296616,40.907717]}},{"properties":{"city":"Fort Jennings","status":"Active","ppv":"Yes","zip":"45844","region":"Ft. Jennings","service packages":"IP Basic,HD Basic","township":null,"last":"Lindeman","stbs allowed":5,"geo_score":0.756,"first":"Paul","ppv limit":100,"customer id":null,"phone":4192862695,"whdvr":"No","id":"abn5qf4md938","address":"235 W First St","login":1234,"password":1234,"geo_precision":"range","state":"OH","pin":1234},"type":"Feature","geometry":{"type":"Point","coordinates":[-84.301097,40.904592]}},{"properties":{"city":"Fort Jennings","status":"Active","ppv":"Yes","zip":"45844","region":"Ft. Jennings","service packages":"IP Expanded,HD Basic","township":null,"last":"Lowe","stbs allowed":5,"geo_score":0.87,"first":"Mark","ppv limit":100,"customer id":null,"phone":4192867446,"whdvr":"No","id":"abn5qf74ygm4","address":"485 N Main St","login":1234,"password":1234,"geo_precision":"range","state":"OH","pin":1234},"type":"Feature","geometry":{"type":"Point","coordinates":[-84.332293,40.936172]}},{"properties":{"city":"Fort Jennings","status":"Active","ppv":"Yes","zip":"45844","region":"Ft. Jennings","service packages":"IP Basic","township":null,"last":"Lucke","stbs allowed":5,"geo_score":0.707,"first":"Ruth","ppv limit":100,"customer id":null,"phone":4192862700,"whdvr":"No","id":"abn5qf9p5val","address":"20626 Rd 21","login":1234,"password":1234,"geo_precision":"street","state":"OH","pin":1234},"type":"Feature","geometry":{"type":"Point","coordinates":[-84.26278,40.893074]}},{"properties":{"city":"Fort Jennings","status":"Inactive","ppv":"Yes","zip":"45844","region":"Ft. Jennings","service packages":"IP Expanded,HD Basic","township":null,"last":"Maag","stbs allowed":5,"geo_score":0.707,"first":"Mark","ppv limit":100,"customer id":null,"phone":4192864835,"whdvr":"No","id":"abn5qffsciud","address":"19480 Road R","login":1234,"password":1234,"geo_precision":"street","state":"OH","pin":1234},"type":"Feature","geometry":{"type":"Point","coordinates":[-84.272403,40.91888]}},{"properties":{"city":"Fort Jennings","status":"Active","ppv":"Yes","zip":"45844","region":"Ft. Jennings","service packages":"IP Basic,HD Basic","township":null,"last":"Maag","stbs allowed":5,"geo_score":0.902,"first":"Charlie","ppv limit":100,"customer id":null,"phone":4190018092,"whdvr":"No","id":"abn5qf2l9txv","address":"125 Charles St","login":1234,"password":1234,"geo_precision":"range","state":"OH","pin":1234},"type":"Feature","geometry":{"type":"Point","coordinates":[-84.298185,40.907088]}},{"properties":{"city":"Fort Jennings","status":"Active","ppv":"Yes","zip":"45844","region":"Ft. Jennings","service packages":"IP Expanded,HD Basic","township":null,"last":"Maye","stbs allowed":5,"geo_score":0.902,"first":"Daniel","ppv limit":100,"customer id":null,"phone":4196923304,"whdvr":"No","id":"abn5qf2rfob7","address":"21122 Rd V","login":1234,"password":1234,"geo_precision":"range","state":"OH","pin":1234},"type":"Feature","geometry":{"type":"Point","coordinates":[-84.264511,40.859764]}},{"properties":{"city":"Columbus Grove","status":"Active","ppv":"Yes","zip":"45830","region":"Ft. Jennings","service packages":"HBO,CINEMAX,IP Expanded,HD Basic,SHO Unlimited HD,STARZ/Encore HD","township":null,"last":"McKinnie","stbs allowed":5,"geo_score":0.902,"first":"Tina","ppv limit":100,"customer id":null,"phone":4196425055,"whdvr":"No","id":"abn5qf4rmf53","address":"19981 Rd 18-R","login":1234,"password":1234,"geo_precision":"range","state":"OH","pin":1234},"type":"Feature","geometry":{"type":"Point","coordinates":[-84.211425,40.88842]}},{"properties":{"city":"Fort Jennings","status":"Active","ppv":"Yes","zip":"45844","region":"Ft. Jennings","service packages":"HBO,IP Basic,HD Basic","township":null,"last":"Menke","stbs allowed":5,"geo_score":0.565,"first":"Zeke","ppv limit":100,"customer id":null,"phone":4192862837,"whdvr":"No","id":"abn5qf4zlr7c","address":"85 W Sixth St","login":1234,"password":1234,"geo_precision":"street","state":"OH","pin":1234},"type":"Feature","geometry":{"type":"Point","coordinates":[-84.294392,40.906925]}},{"properties":{"city":"Fort Jennings","status":"Active","ppv":"Yes","zip":"45844","region":"Ft. Jennings","service packages":"IP Basic,HD Basic","township":null,"last":"Menke","stbs allowed":5,"geo_score":0.707,"first":"Eugene","ppv limit":100,"customer id":null,"phone":4190012456,"whdvr":"No","id":"abn5qf3wz5md","address":"24266 Road T","login":1234,"password":1234,"geo_precision":"street","state":"OH","pin":1234},"type":"Feature","geometry":{"type":"Point","coordinates":[-84.291361,40.888427]}},{"properties":{"city":"Delphos","status":"Active","ppv":"No","zip":"45833","region":"Ft. Jennings","service packages":"HBO,IP Expanded,HD Basic,STARZ/Encore HD","township":null,"last":"Mericle","stbs allowed":5,"geo_score":0.861,"first":"Brenda","ppv limit":100,"customer id":null,"phone":4190012036,"whdvr":"No","id":"abn5qf3ql7fd","address":"20799 Rd 24T","login":1234,"password":1234,"geo_precision":"range","state":"OH","pin":1234},"type":"Feature","geometry":{"type":"Point","coordinates":[-84.336997,40.880883]}},{"properties":{"city":"Fort Jennings","status":"Active","ppv":"Yes","zip":"45844","region":"Ft. Jennings","service packages":"IP Expanded,HD Basic,SHO Unlimited HD,STARZ/Encore HD","township":null,"last":"Metzger","stbs allowed":5,"geo_score":0.756,"first":"Mike","ppv limit":100,"customer id":null,"phone":4192862710,"whdvr":"Yes","id":"abn5qf7ow43b","address":"65 W First St","login":1234,"password":1234,"geo_precision":"range","state":"OH","pin":1234},"type":"Feature","geometry":{"type":"Point","coordinates":[-84.29952,40.903958]}},{"properties":{"city":"Fort Jennings","status":"Active","ppv":"No","zip":"45844","region":"Ft. Jennings","service packages":"IP Expanded,HD Basic","township":null,"last":"Metzger","stbs allowed":5,"geo_score":0.745,"first":"Eugene","ppv limit":1,"customer id":null,"phone":4192862756,"whdvr":"No","id":"abn5qfa1mukf","address":"17912 SR 190","login":1234,"password":1234,"geo_precision":"range","state":"OH","pin":1234},"type":"Feature","geometry":{"type":"Point","coordinates":[-84.280187,40.919349]}},{"properties":{"city":"Fort Jennings","status":"Active","ppv":"Yes","zip":"45844","region":"Ft. Jennings","service packages":"IP Expanded,HD Basic","township":null,"last":"Metzger","stbs allowed":5,"geo_score":0.902,"first":"Rick","ppv limit":100,"customer id":null,"phone":4192862729,"whdvr":"No","id":"abn5qfb1jqn0","address":"21386 Rd 22-S","login":1234,"password":1234,"geo_precision":"range","state":"OH","pin":1234},"type":"Feature","geometry":{"type":"Point","coordinates":[-84.290136,40.868924]}},{"properties":{"city":"Fort Jennings","status":"Active","ppv":"Yes","zip":"45844","region":"Ft. Jennings","service packages":"IP Expanded,HD Basic","township":null,"last":"Miehls","stbs allowed":5,"geo_score":0.745,"first":"Ruth","ppv limit":100,"customer id":null,"phone":4192862043,"whdvr":"No","id":"abn5qffav06z","address":"16687 SR 634","login":1234,"password":1234,"geo_precision":"range","state":"OH","pin":1234},"type":"Feature","geometry":{"type":"Point","coordinates":[-84.291983,40.937014]}},{"properties":{"city":"Columbus Grove","status":"Active","ppv":"Yes","zip":"45830","region":"Ft. Jennings","service packages":"IP Expanded,HD Basic","township":null,"last":"Miller","stbs allowed":5,"geo_score":0.745,"first":"Gloria","ppv limit":100,"customer id":null,"phone":4196425485,"whdvr":"No","id":"abn5qf5yqnp1","address":"18282 SR 189","login":1234,"password":1234,"geo_precision":"range","state":"OH","pin":1234},"type":"Feature","geometry":{"type":"Point","coordinates":[-84.20397,40.881111]}},{"properties":{"city":"Fort Jennings","status":"Active","ppv":"Yes","zip":"45844","region":"Ft. Jennings","service packages":"IP Basic,HD Basic,Encore HD","township":null,"last":"Moore","stbs allowed":5,"geo_score":0.902,"first":"Larry","ppv limit":100,"customer id":null,"phone":4192862988,"whdvr":"No","id":"abn5qfbz8if3","address":"17587 Rd 20Q","login":1234,"password":1234,"geo_precision":"range","state":"OH","pin":1234},"type":"Feature","geometry":{"type":"Point","coordinates":[-84.253846,40.921561]}},{"properties":{"city":"Fort Jennings","status":"Active","ppv":"No","zip":"45844","region":"Ft. Jennings","service packages":"IP Expanded,HD Basic","township":null,"last":"Murphy","stbs allowed":5,"geo_score":0.902,"first":"Craig","ppv limit":1,"customer id":null,"phone":4192869881,"whdvr":"No","id":"abn5qf2v9mcn","address":"21485 Road T","login":1234,"password":1234,"geo_precision":"range","state":"OH","pin":1234},"type":"Feature","geometry":{"type":"Point","coordinates":[-84.271855,40.888587]}},{"properties":{"city":"Fort Jennings","status":"Active","ppv":"Yes","zip":"45844","region":"Ft. Jennings","service packages":"Max","township":null,"last":"Neidert","stbs allowed":5,"geo_score":0.805,"first":"Craig","ppv limit":100,"customer id":null,"phone":4192862576,"whdvr":"Yes","id":"abn5qfhcnwmh","address":"19599 Road S","login":1234,"password":1234,"geo_precision":"range","state":"OH","pin":1234},"type":"Feature","geometry":{"type":"Point","coordinates":[-84.235892,40.903841]}},{"properties":{"city":"Fort Jennings","status":"Active","ppv":"Yes","zip":"45844","region":"Ft. Jennings","service packages":"IP Expanded,HD Basic","township":null,"last":"Nussbaum","stbs allowed":5,"geo_score":0.902,"first":"Brent","ppv limit":100,"customer id":null,"phone":4190019366,"whdvr":"Yes","id":"abn5qfb7k9is","address":"21062 Road T","login":1234,"password":1234,"geo_precision":"range","state":"OH","pin":1234},"type":"Feature","geometry":{"type":"Point","coordinates":[-84.26375,40.888747]}},{"properties":{"city":"Delphos","status":"Active","ppv":"No","zip":"45833","region":"Ft. Jennings","service packages":"HBO,IP Basic,HD Basic","township":null,"last":"Ostendorf","stbs allowed":5,"geo_score":0.647,"first":"Jason &amp; Allisha","ppv limit":1,"customer id":null,"phone":4192862726,"whdvr":"No","id":"abn5qf829jtw","address":"20235 SR 190","login":1234,"password":1234,"geo_precision":"street","state":"OH","pin":1234},"type":"Feature","geometry":{"type":"Point","coordinates":[-84.325073,40.87963]}},{"properties":{"city":"Fort Jennings","status":"Active","ppv":"Yes","zip":"45844","region":"Ft. Jennings","service packages":"HBO,IP Expanded,HD Basic","township":null,"last":"Paddubny","stbs allowed":5,"geo_score":0.624,"first":"Jerry","ppv limit":100,"customer id":null,"phone":4192862225,"whdvr":"No","id":"abn5qfe1mnc3","address":"19658 Rd 23-T","login":1234,"password":1234,"geo_precision":"street","state":"OH","pin":1234},"type":"Feature","geometry":{"type":"Point","coordinates":[-84.330351,40.903715]}},{"properties":{"city":"Fort Jennings","status":"Active","ppv":"Yes","zip":"45844","region":"Ft. Jennings","service packages":"IP Basic,HD Basic","township":null,"last":"Pence","stbs allowed":5,"geo_score":0.561,"first":"Mercede","ppv limit":100,"customer id":null,"phone":4190017118,"whdvr":"No","id":"abn5qffyqj78","address":"19453 Road 23T","login":1234,"password":1234,"geo_precision":"street","state":"OH","pin":1234},"type":"Feature","geometry":{"type":"Point","coordinates":[-84.330351,40.903715]}},{"properties":{"city":"Fort Jennings","status":"Active","ppv":"Yes","zip":"45844","region":"Ft. Jennings","service packages":"IP Expanded,HD Basic","township":null,"last":"Predmore","stbs allowed":5,"geo_score":0.902,"first":"Robert","ppv limit":100,"customer id":null,"phone":5677651225,"whdvr":"Yes","id":"abn5qf46qg1x","address":"20396 Rd U","login":1234,"password":1234,"geo_precision":"range","state":"OH","pin":1234},"type":"Feature","geometry":{"type":"Point","coordinates":[-84.249568,40.874273]}},{"properties":{"city":"Fort Jennings","status":"Active","ppv":"Yes","zip":"45844","region":"Ft. Jennings","service packages":"IP Expanded,HD Basic","township":null,"last":"Ralston","stbs allowed":5,"geo_score":0.745,"first":"Kevin","ppv limit":100,"customer id":null,"phone":4192861423,"whdvr":"No","id":"abn5qf2huvva","address":"18489 SR 190","login":1234,"password":1234,"geo_precision":"range","state":"OH","pin":1234},"type":"Feature","geometry":{"type":"Point","coordinates":[-84.286186,40.909102]}},{"properties":{"city":"Columbus Grove","status":"Active","ppv":"Yes","zip":"45830","region":"Ft. Jennings","service packages":"IP Basic,HD Basic","township":null,"last":"Recker","stbs allowed":5,"geo_score":0.902,"first":"Denny","ppv limit":100,"customer id":null,"phone":4196425221,"whdvr":"No","id":"abn5qfb5mnrq","address":"20209 Rd 18-R","login":1234,"password":1234,"geo_precision":"range","state":"OH","pin":1234},"type":"Feature","geometry":{"type":"Point","coordinates":[-84.211394,40.886477]}},{"properties":{"city":"Fort Jennings","status":"Active","ppv":"Yes","zip":"45844","region":"Ft. Jennings","service packages":"IP Basic,HD Basic","township":null,"last":"Rex","stbs allowed":5,"geo_score":0.488,"first":"Roger","ppv limit":100,"customer id":null,"phone":4192862662,"whdvr":"No","id":"abn5qfdz9ffa","address":"20 S High St","login":1234,"password":1234,"geo_precision":"zip","state":"OH","pin":1234},"type":"Feature","geometry":{"type":"Point","coordinates":[-84.253283,40.874217]}},{"properties":{"city":"Fort Jennings","status":"Active","ppv":"No","zip":"45844","region":"Ft. Jennings","service packages":"Basic","township":null,"last":"Ricker","stbs allowed":5,"geo_score":0.745,"first":"Leonard","ppv limit":1,"customer id":null,"phone":4192862647,"whdvr":"No","id":"abn5qfcmx2no","address":"20087 SR 189","login":1234,"password":1234,"geo_precision":"range","state":"OH","pin":1234},"type":"Feature","geometry":{"type":"Point","coordinates":[-84.248761,40.885553]}},{"properties":{"city":"Delphos","status":"Active","ppv":"Yes","zip":"45833","region":"Ft. Jennings","service packages":"IP Basic,HD Basic","township":null,"last":"Riley","stbs allowed":5,"geo_score":0.902,"first":"Chanda","ppv limit":100,"customer id":null,"phone":4190023242,"whdvr":"No","id":"abn5qfcsto04","address":"1400 Marsh Ave","login":1234,"password":1234,"geo_precision":"range","state":"OH","pin":1234},"type":"Feature","geometry":{"type":"Point","coordinates":[-84.323929,40.85715]}},{"properties":{"city":"Fort Jennings","status":"Active","ppv":"Yes","zip":"45844","region":"Ft. Jennings","service packages":"IP Expanded,HD Basic","township":null,"last":"Rode","stbs allowed":5,"geo_score":0.861,"first":"Todd &amp; Sarah","ppv limit":100,"customer id":null,"phone":4192867663,"whdvr":"No","id":"abn5qfex5avu","address":"20911 Rd 20-S","login":1234,"password":1234,"geo_precision":"range","state":"OH","pin":1234},"type":"Feature","geometry":{"type":"Point","coordinates":[-84.253109,40.886327]}},{"properties":{"city":"Fort Jennings","status":"Active","ppv":"Yes","zip":"45844","region":"Ft. Jennings","service packages":"IP Basic,HD Basic","township":null,"last":"Schimmoeller","stbs allowed":5,"geo_score":0.745,"first":"Larry","ppv limit":100,"customer id":null,"phone":4192862170,"whdvr":"No","id":"abn5qfbeaz66","address":"17940 SR 190","login":1234,"password":1234,"geo_precision":"range","state":"OH","pin":1234},"type":"Feature","geometry":{"type":"Point","coordinates":[-84.280309,40.918983]}},{"properties":{"city":"FORT JENNINGS","status":"Active","ppv":"Yes","zip":"45844","region":"Ft. Jennings","service packages":"IP Expanded,HD Basic","township":null,"last":"Schroeder","stbs allowed":5,"geo_score":0.861,"first":"Todd","ppv limit":100,"customer id":null,"phone":4190012363,"whdvr":"Yes","id":"abn5qf462qi9","address":"17719 Road 20-P","login":1234,"password":1234,"geo_precision":"range","state":"OH","pin":1234},"type":"Feature","geometry":{"type":"Point","coordinates":[-84.269943,40.922624]}},{"properties":{"city":"Fort Jennings","status":"Active","ppv":"Yes","zip":"45844","region":"Ft. Jennings","service packages":"IP Expanded,HD Basic","township":null,"last":"Schroeder","stbs allowed":5,"geo_score":0.756,"first":"Daryl","ppv limit":100,"customer id":null,"phone":4190012334,"whdvr":"No","id":"abn5qf13khx5","address":"215 W Fourth St","login":1234,"password":1234,"geo_precision":"range","state":"OH","pin":1234},"type":"Feature","geometry":{"type":"Point","coordinates":[-84.297841,40.906364]}},{"properties":{"city":"Fort Jennings","status":"Active","ppv":"Yes","zip":"45844","region":"Ft. Jennings","service packages":"IP Expanded,HD Basic","township":null,"last":"Schweller","stbs allowed":5,"geo_score":0.756,"first":"Ron","ppv limit":100,"customer id":null,"phone":4192862192,"whdvr":"No","id":"abn5qf7yf49d","address":"240 W Fourth St","login":1234,"password":1234,"geo_precision":"range","state":"OH","pin":1234},"type":"Feature","geometry":{"type":"Point","coordinates":[-84.29876,40.906966]}},{"properties":{"city":"Fort Jennings","status":"Active","ppv":"Yes","zip":"45844","region":"Ft. Jennings","service packages":"IP Basic,HD Basic,Showtime HD","township":null,"last":"Siebeneck","stbs allowed":5,"geo_score":0.861,"first":"Jane","ppv limit":100,"customer id":null,"phone":4192860030,"whdvr":"No","id":"abn5qf71mtoa","address":"17622 Road 20-P","login":1234,"password":1234,"geo_precision":"range","state":"OH","pin":1234},"type":"Feature","geometry":{"type":"Point","coordinates":[-84.269885,40.924154]}},{"properties":{"city":"Delphos","status":"Active","ppv":"Yes","zip":"45833","region":"Ft. Jennings","service packages":"IP Basic,HD Basic","township":null,"last":"Siefker","stbs allowed":5,"geo_score":0.488,"first":"Gene","ppv limit":100,"customer id":null,"phone":4190025657,"whdvr":"No","id":"abn5qf27lfze","address":"1305 Hedrick St","login":1234,"password":1234,"geo_precision":"zip","state":"OH","pin":1234},"type":"Feature","geometry":{"type":"Point","coordinates":[-84.272729,40.817828]}},{"properties":{"city":"Fort Jennings","status":"Active","ppv":"Yes","zip":"45844","region":"Ft. Jennings","service packages":"IP Basic,HD Basic","township":null,"last":"Siefker","stbs allowed":5,"geo_score":0.756,"first":"Brandon","ppv limit":100,"customer id":null,"phone":4190014667,"whdvr":"No","id":"abn5qfch2arm","address":"290 W 4th St","login":1234,"password":1234,"geo_precision":"range","state":"OH","pin":1234},"type":"Feature","geometry":{"type":"Point","coordinates":[-84.298536,40.906842]}},{"properties":{"city":"Delphos","status":"Active","ppv":"Yes","zip":"45833","region":"Ft. Jennings","service packages":"IP Expanded,HD Basic,SHO Unlimited HD","township":null,"last":"Sisinger","stbs allowed":5,"geo_score":0.745,"first":"Floyd","ppv limit":100,"customer id":null,"phone":4196922976,"whdvr":"No","id":"abn5qfgdvmpn","address":"1730 SR 190","login":1234,"password":1234,"geo_precision":"range","state":"OH","pin":1234},"type":"Feature","geometry":{"type":"Point","coordinates":[-84.32952,40.857738]}},{"properties":{"city":"Fort Jennings","status":"Active","ppv":"Yes","zip":"45844","region":"Ft. Jennings","service packages":"IP Expanded","township":null,"last":"Smith","stbs allowed":5,"geo_score":0.707,"first":"Dave","ppv limit":100,"customer id":null,"phone":4196425735,"whdvr":"No","id":"abn5qf5r6lwy","address":"21761 Rd 21","login":1234,"password":1234,"geo_precision":"street","state":"OH","pin":1234},"type":"Feature","geometry":{"type":"Point","coordinates":[-84.26278,40.893074]}},{"properties":{"city":"Fort Jennings","status":"Active","ppv":"Yes","zip":"45844","region":"Ft. Jennings","service packages":"HBO,IP Basic,HD Basic","township":null,"last":"Stennett","stbs allowed":5,"geo_score":0.756,"first":"Gary","ppv limit":100,"customer id":null,"phone":4192862315,"whdvr":"No","id":"abn5qfgkc6fd","address":"135 W Fourth St","login":1234,"password":1234,"geo_precision":"range","state":"OH","pin":1234},"type":"Feature","geometry":{"type":"Point","coordinates":[-84.298255,40.906594]}},{"properties":{"city":"Fort Jennings","status":"Active","ppv":"Yes","zip":"45844","region":"Ft. Jennings","service packages":"IP Basic,HD Basic","township":null,"last":"Streets","stbs allowed":5,"geo_score":0.902,"first":"Larry","ppv limit":100,"customer id":null,"phone":4192862153,"whdvr":"No","id":"abn5qf9xk1im","address":"120 Charles St","login":1234,"password":1234,"geo_precision":"range","state":"OH","pin":1234},"type":"Feature","geometry":{"type":"Point","coordinates":[-84.29656,40.907771]}},{"properties":{"city":"Columbus Grove","status":"Active","ppv":"Yes","zip":"45830","region":"Ft. Jennings","service packages":"IP Basic,HD Basic","township":null,"last":"Vargo","stbs allowed":5,"geo_score":0.902,"first":"Josh","ppv limit":100,"customer id":null,"phone":4190020154,"whdvr":"No","id":"abn5qf8dsm7p","address":"20223 Rd 18-R","login":1234,"password":1234,"geo_precision":"range","state":"OH","pin":1234},"type":"Feature","geometry":{"type":"Point","coordinates":[-84.211393,40.886366]}},{"properties":{"city":"Fort Jennings","status":"Active","ppv":"Yes","zip":"45844","region":"Ft. Jennings","service packages":"IP Expanded,HD Basic","township":null,"last":"Vetter","stbs allowed":5,"geo_score":0.902,"first":"Gerald","ppv limit":100,"customer id":null,"phone":4192862057,"whdvr":"No","id":"abn5qf2da8xd","address":"22578 Road R","login":1234,"password":1234,"geo_precision":"range","state":"OH","pin":1234},"type":"Feature","geometry":{"type":"Point","coordinates":[-84.289413,40.918256]}},{"properties":{"city":"Fort Jennings","status":"Active","ppv":"Yes","zip":"45844","region":"Ft. Jennings","service packages":"IP Expanded,HD Basic","township":null,"last":"Von Lehmden","stbs allowed":5,"geo_score":0.805,"first":"Ron","ppv limit":100,"customer id":null,"phone":4192862906,"whdvr":"No","id":"abn5qfbiaj0p","address":"19620 Road S","login":1234,"password":1234,"geo_precision":"range","state":"OH","pin":1234},"type":"Feature","geometry":{"type":"Point","coordinates":[-84.236237,40.90399]}},{"properties":{"city":"Fort Jennings","status":"Active","ppv":"Yes","zip":"45844","region":"Ft. Jennings","service packages":"IP Expanded,HD Basic","township":null,"last":"Von Sossan","stbs allowed":5,"geo_score":0.861,"first":"Todd &amp; Jodi","ppv limit":100,"customer id":null,"phone":4192862881,"whdvr":"No","id":"abn5qf7ynxwi","address":"18234 Rd 20-P","login":1234,"password":1234,"geo_precision":"range","state":"OH","pin":1234},"type":"Feature","geometry":{"type":"Point","coordinates":[-84.271668,40.914829]}},{"properties":{"city":"Cloverdale","status":"Active","ppv":"Yes","zip":"45844","region":"Ft. Jennings","service packages":"IP Basic,HD Basic","township":null,"last":"Wagner","stbs allowed":5,"geo_score":0.689,"first":"Dan","ppv limit":100,"customer id":null,"phone":4192864209,"whdvr":"No","id":"abn5qf5ahoos","address":"22703 Rd N","login":1234,"password":1234,"geo_precision":"range","state":"OH","pin":1234},"type":"Feature","geometry":{"type":"Point","coordinates":[-84.295841,40.975838]}},{"properties":{"city":"Fort Jennings","status":"Active","ppv":"Yes","zip":"45844","region":"Ft. Jennings","service packages":"IP Basic,HD Basic,Encore HD","township":null,"last":"Weyrauch","stbs allowed":5,"geo_score":0.745,"first":"Adrian","ppv limit":100,"customer id":null,"phone":4192862688,"whdvr":"No","id":"abn5qfh3ghfs","address":"20288 SR 189","login":1234,"password":1234,"geo_precision":"range","state":"OH","pin":1234},"type":"Feature","geometry":{"type":"Point","coordinates":[-84.251455,40.887021]}},{"properties":{"city":"Fort Jennings","status":"Active","ppv":"Yes","zip":"45844","region":"Ft. Jennings","service packages":"IP Basic","township":null,"last":"Wiechart","stbs allowed":5,"geo_score":0.902,"first":"Gary","ppv limit":100,"customer id":null,"phone":4192862083,"whdvr":"No","id":"abn5qfdi3jf0","address":"20636 Road 22-S","login":1234,"password":1234,"geo_precision":"range","state":"OH","pin":1234},"type":"Feature","geometry":{"type":"Point","coordinates":[-84.290902,40.879329]}},{"properties":{"city":"Fort Jennings","status":"Active","ppv":"Yes","zip":"45844","region":"Ft. Jennings","service packages":"IP Expanded","township":null,"last":"Wilhelm","stbs allowed":5,"geo_score":0.902,"first":"Ruth","ppv limit":100,"customer id":null,"phone":4190021042,"whdvr":"No","id":"abn5qf4a9wuw","address":"21086 Rd V","login":1234,"password":1234,"geo_precision":"range","state":"OH","pin":1234},"type":"Feature","geometry":{"type":"Point","coordinates":[-84.264013,40.859762]}},{"properties":{"city":"Fort Jennings","status":"Active","ppv":"Yes","zip":"45844","region":"Ft. Jennings","service packages":"Max","township":null,"last":"Will","stbs allowed":5,"geo_score":0.902,"first":"Dave","ppv limit":100,"customer id":null,"phone":4192862498,"whdvr":"Yes","id":"abn5qf4w6s9b","address":"19766 Road 22-S","login":1234,"password":1234,"geo_precision":"range","state":"OH","pin":1234},"type":"Feature","geometry":{"type":"Point","coordinates":[-84.292372,40.891448]}},{"properties":{"city":"Delphos","status":"Active","ppv":"No","zip":"45833","region":"Ft. Jennings","service packages":"IP Basic","township":null,"last":"Wiltsie","stbs allowed":5,"geo_score":0.902,"first":"Dianne","ppv limit":1,"customer id":null,"phone":4190023219,"whdvr":"No","id":"abn5qf1gkvu6","address":"10905 Lincoln Hwy","login":1234,"password":1234,"geo_precision":"range","state":"OH","pin":1234},"type":"Feature","geometry":{"type":"Point","coordinates":[-84.309458,40.846909]}},{"properties":{"city":"Fort Jennings","status":"Active","ppv":"Yes","zip":"45844","region":"Ft. Jennings","service packages":"IP Expanded,HD Basic","township":null,"last":"Wittler","stbs allowed":5,"geo_score":0.902,"first":"Neil","ppv limit":100,"customer id":null,"phone":4192862552,"whdvr":"No","id":"abn5qf2aan3c","address":"19284 Rd 20","login":1234,"password":1234,"geo_precision":"range","state":"OH","pin":1234},"type":"Feature","geometry":{"type":"Point","coordinates":[-84.243963,40.898537]}},{"properties":{"city":"Delphos","status":"Active","ppv":"Yes","zip":"45833","region":"Ft. Jennings","service packages":"IP Basic,HD Basic","township":null,"last":"Wurst","stbs allowed":5,"geo_score":0.488,"first":"Andy","ppv limit":100,"customer id":null,"phone":4190026320,"whdvr":"No","id":"abn5qfelzkjs","address":"23269 Road U-20","login":1234,"password":1234,"geo_precision":"zip","state":"OH","pin":1234},"type":"Feature","geometry":{"type":"Point","coordinates":[-84.272729,40.817828]}}],"is_temporal":false,"author":{"url":"","metadata":null,"contact_name":null,"contact_address":null,"source":null,"contact_phone":null},"source":"","pagination":{"sort":null,"start":0,"total":104,"limit":1000000},"state":"complete","tags":"","published":"2014-08-16T17:48:59-04:00","id":313324}