{"type":"FeatureCollection","data_type":"Dataset","url_type":null,"permissions":[{"permissions":{"download":true,"view":true},"group_id":"everyone"}],"classification":null,"title":"NAS_SUS","count":47,"stream_id":313370,"contributor":{"url":"http://geocommons.com/users/37170","name":"lfuentes"},"data_attributes":null,"calculation_params":null,"icon_link":null,"link":"http://geocommons.com/overlays/313370.json","extent":[0.0,0.0,0.0,0.0],"geometry_types":[],"unique_name":null,"name":"NAS_SUS","feature_count":47,"description":"","next_feature":null,"is_raster":false,"short_classification":"Y","stats":{"# of rooms":{"max":85,"mean":23.4042553191489,"variance":579.376503237743,"stdev":24.0702410299054,"median":14,"min":1}},"features":[{"properties":{"city":"LONG BEACH","name":"ALLEGRIA HOTEL (73928)","status":"Completed 1.10.13","# of rooms":76,"county":"Nassau","geo_score":0.0,"id":"abn8zjktho7i","address":"ALLEGRIA HOTEL (73928)","geo_precision":"unmatched"},"type":"Feature","geometry":null},{"properties":{"city":"GLEN COVE","name":"GLEN COVE MANSION HOTEL AND CONFERENCE CENTER (73","status":"Completed 1.11.13","# of rooms":21,"county":"Nassau","geo_score":0.0,"id":"abn8zjsdb339","address":"GLEN COVE MANSION HOTEL AND CONFERENCE CENTER (73","geo_precision":"unmatched"},"type":"Feature","geometry":null},{"properties":{"city":"GREAT NECK","name":"THE ANDREW HOTEL (73552)","status":"Completed 1.11.13","# of rooms":13,"county":"Nassau","geo_score":0.0,"id":"abn8zjmqd3hy","address":"THE ANDREW HOTEL (73552)","geo_precision":"unmatched"},"type":"Feature","geometry":null},{"properties":{"city":"MELVILLE","name":"EXTENDED STAY AMERICA (60310)","status":"Completed 1.12","# of rooms":17,"county":"Suffolk","geo_score":0.0,"id":"abn8zjg47km7","address":"EXTENDED STAY AMERICA (60310)","geo_precision":"unmatched"},"type":"Feature","geometry":null},{"properties":{"city":"HOLTSVILLE","name":"RAMADA PLAZA LONG ISLAND MACARTHUR AIRPORT (34302)","status":"Completed 1.12","# of rooms":14,"county":"Suffolk","geo_score":0.0,"id":"abn8zjpif3a9","address":"RAMADA PLAZA LONG ISLAND MACARTHUR AIRPORT (34302)","geo_precision":"unmatched"},"type":"Feature","geometry":null},{"properties":{"city":"FARMINGVILLE","name":"HAMPTON INN LONG ISLAND BROOK (68031)","status":"Completed 1.12","# of rooms":13,"county":"Suffolk","geo_score":0.0,"id":"abn8zjr95lze","address":"HAMPTON INN LONG ISLAND BROOK (68031)","geo_precision":"unmatched"},"type":"Feature","geometry":null},{"properties":{"city":"RONKONKOMA","name":"HOLIDAY INN AIRPORT (34413)","status":"Completed 1.12","# of rooms":4,"county":"Suffolk","geo_score":0.0,"id":"abn8zjog3d8d","address":"HOLIDAY INN AIRPORT (34413)","geo_precision":"unmatched"},"type":"Feature","geometry":null},{"properties":{"city":"FARMINGDALE","name":"COURTYARD REPUBLIC AIRPORT LONG ISLAND/FARMINGDAL","status":"Completed 1.12.13","# of rooms":30,"county":"Nassau","geo_score":0.0,"id":"abn8zjolt08o","address":"COURTYARD REPUBLIC AIRPORT LONG ISLAND/FARMINGDAL","geo_precision":"unmatched"},"type":"Feature","geometry":null},{"properties":{"city":"GARDEN CITY","name":"HAMPTON INN GARDEN CITY (68115)","status":"Completed 1.12.13","# of rooms":26,"county":"Nassau","geo_score":0.0,"id":"abn8zjmwhi4r","address":"HAMPTON INN GARDEN CITY (68115)","geo_precision":"unmatched"},"type":"Feature","geometry":null},{"properties":{"city":"BRENTWOOD","name":"WINGATE BY WYNDHAM COMMACK LONG ISLAND NY (68754)","status":"Completed 1.12.13","# of rooms":4,"county":"Suffolk","geo_score":0.0,"id":"abn8zjrmi9zm","address":"WINGATE BY WYNDHAM COMMACK LONG ISLAND NY (68754)","geo_precision":"unmatched"},"type":"Feature","geometry":null},{"properties":{"city":"FARMINGDALE","name":"TOWNEPLACE SUITES (58144)","status":"Completed 1.12.13","# of rooms":73,"county":"Nassau","geo_score":0.0,"id":"abn8zjsvh23e","address":"TOWNEPLACE SUITES (58144)","geo_precision":"unmatched"},"type":"Feature","geometry":null},{"properties":{"city":"RONKONKOMA","name":"COURTYARD MARRIOTT(08640)","status":"Completed 1.12.13","# of rooms":1,"county":"Suffolk","geo_score":0.0,"id":"abn8zjlechwk","address":"COURTYARD MARRIOTT(08640)","geo_precision":"unmatched"},"type":"Feature","geometry":null},{"properties":{"city":"WESTBURY","name":"RED ROOF INN#266 (08790)","status":"Completed 1.14","# of rooms":85,"county":"Nassau","geo_score":0.0,"id":"abn8zjia0g0g","address":"RED ROOF INN#266 (08790)","geo_precision":"unmatched"},"type":"Feature","geometry":null},{"properties":{"city":"GARDEN CITY","name":"THE GARDEN CITY HOTEL (73378)","status":"Completed 1.14","# of rooms":48,"county":"Nassau","geo_score":0.0,"id":"abn8zjibcaug","address":"THE GARDEN CITY HOTEL (73378)","geo_precision":"unmatched"},"type":"Feature","geometry":null},{"properties":{"city":"GARDEN CITY","name":"LAQUINTA INN GARDEN CITY (71090)","status":"Completed 1.14","# of rooms":32,"county":"Nassau","geo_score":0.0,"id":"abn8zjjsyxr4","address":"LAQUINTA INN GARDEN CITY (71090)","geo_precision":"unmatched"},"type":"Feature","geometry":null},{"properties":{"city":"BETHPAGE","name":"EXTENDED STAY AMERICA#634 (13817)","status":"Completed 1.14","# of rooms":26,"county":"Nassau","geo_score":0.0,"id":"abn8zjm6va8r","address":"EXTENDED STAY AMERICA#634 (13817)","geo_precision":"unmatched"},"type":"Feature","geometry":null},{"properties":{"city":"PORT JEFFERSON","name":"DANFORDS HOTEL &amp; MARINA (73608)","status":"Completed 1.15","# of rooms":11,"county":"Suffolk","geo_score":0.0,"id":"abn8zjhqjk8w","address":"DANFORDS HOTEL &amp; MARINA (73608)","geo_precision":"unmatched"},"type":"Feature","geometry":null},{"properties":{"city":"WOODBURY","name":"EXECUTIVE INN @WOODBURY(34407)","status":"Completed 1.15","# of rooms":14,"county":"Nassau","geo_score":0.0,"id":"abn8zjpyyvpl","address":"EXECUTIVE INN @WOODBURY(34407)","geo_precision":"unmatched"},"type":"Feature","geometry":null},{"properties":{"city":"PORT JEFFERSON STATION","name":"AMERICAS BEST VALUE INN - PORT JEFFERSON STATION","status":"Completed 1.15","# of rooms":3,"county":"Suffolk","geo_score":0.0,"id":"abn8zjfs50oz","address":"AMERICAS BEST VALUE INN - PORT JEFFERSON STATION","geo_precision":"unmatched"},"type":"Feature","geometry":null},{"properties":{"city":"MASSAPEQUA PARK","name":"BEST WESTERN BAR HARBOUR INN (34358)","status":"Completed 1.16","# of rooms":20,"county":"Nassau","geo_score":0.0,"id":"abn8zjqmwrz6","address":"BEST WESTERN BAR HARBOUR INN (34358)","geo_precision":"unmatched"},"type":"Feature","geometry":null},{"properties":{"city":"ROCKVILLE CENTRE","name":"RAMADA INN &amp; SUITES (79593)","status":"Completed 1.16","# of rooms":14,"county":"Nassau","geo_score":0.0,"id":"abn8zjp8bktu","address":"RAMADA INN &amp; SUITES (79593)","geo_precision":"unmatched"},"type":"Feature","geometry":null},{"properties":{"city":"FREEPORT","name":"FREEPORT MOTOR INN (66199)","status":"Completed 1.16","# of rooms":8,"county":"Nassau","geo_score":0.0,"id":"abn8zjl67c6s","address":"FREEPORT MOTOR INN (66199)","geo_precision":"unmatched"},"type":"Feature","geometry":null},{"properties":{"city":"AMAGANSETT","name":"WINDWARD SHORES OCEAN RESORT (73745)","status":"COMPLETED 1.18","# of rooms":1,"county":"Suffolk","geo_score":0.0,"id":"abn8zjfv1cyd","address":"WINDWARD SHORES OCEAN RESORT (73745)","geo_precision":"unmatched"},"type":"Feature","geometry":null},{"properties":{"city":"WAINSCOTT","name":"THE COZY COTTAGES (73482)","status":"COMPLETED 1.18","# of rooms":2,"county":"Suffolk","geo_score":0.0,"id":"abn8zjigerww","address":"THE COZY COTTAGES (73482)","geo_precision":"unmatched"},"type":"Feature","geometry":null},{"properties":{"city":"FLORAL PARK","name":"QUALITY INN (63029)","status":"Completed 1.20 Invited to ARC","# of rooms":21,"county":"Nassau","geo_score":0.0,"id":"abn8zjflgvyh","address":"QUALITY INN (63029)","geo_precision":"unmatched"},"type":"Feature","geometry":null},{"properties":{"city":"HEMPSTEAD GARDENS","name":"ANASTASIA'S BED &amp; BREAKFAST (73894)","status":"Completed 1.20 Invited to ARC","# of rooms":1,"county":"Nassau","geo_score":0.0,"id":"abn8zjdggem2","address":"ANASTASIA'S BED &amp; BREAKFAST (73894)","geo_precision":"unmatched"},"type":"Feature","geometry":null},{"properties":{"city":"COLD SPRING HARBOR","name":"SWAN VIEW MANOR (73656)","status":"Completed 1.20 Invited to ARC","# of rooms":4,"county":"Suffolk","geo_score":0.0,"id":"abn8zjm8rdpm","address":"SWAN VIEW MANOR (73656)","geo_precision":"unmatched"},"type":"Feature","geometry":null},{"properties":{"city":"RIVERHEAD","name":"HILTON GARDEN INN RIVERHEAD (70063)","status":"Completed 1.20 Invited to ARC","# of rooms":7,"county":"Suffolk","geo_score":0.0,"id":"abn8zjrp9ay7","address":"HILTON GARDEN INN RIVERHEAD (70063)","geo_precision":"unmatched"},"type":"Feature","geometry":null},{"properties":{"city":"COPIAGUE","name":"SOUTH BAY MOTEL (73793)","status":"Completed 1.8.13","# of rooms":8,"county":"Suffolk","geo_score":0.0,"id":"abn8zjlcaksu","address":"SOUTH BAY MOTEL (73793)","geo_precision":"unmatched"},"type":"Feature","geometry":null},{"properties":{"city":"ROCKVILLE CENTRE","name":"BEST WESTERN MILL RIVER MANOR (14902)","status":"Completed 1.9.13","# of rooms":68,"county":"Nassau","geo_score":0.0,"id":"abn8zjeqfpgh","address":"BEST WESTERN MILL RIVER MANOR (14902)","geo_precision":"unmatched"},"type":"Feature","geometry":null},{"properties":{"city":"BOHEMIA","name":"LA QUINTA INN &amp; SUITES ISLIP MACARTHUR AIRPORT (7","status":"Completed 1.9.13","# of rooms":23,"county":"Suffolk","geo_score":0.0,"id":"abn8zjq58jsr","address":"LA QUINTA INN &amp; SUITES ISLIP MACARTHUR AIRPORT (7","geo_precision":"unmatched"},"type":"Feature","geometry":null},{"properties":{"city":"RONKONKOMA","name":"HILTON GARDEN INN (69406)","status":"Completed 1.9.13","# of rooms":3,"county":"Suffolk","geo_score":0.0,"id":"abn8zjsiro2h","address":"HILTON GARDEN INN (69406)","geo_precision":"unmatched"},"type":"Feature","geometry":null},{"properties":{"city":"RIVERHEAD","name":"HYATT PLACE LONG ISLAND EAST END (71292)","status":"Completed 1.9.13","# of rooms":2,"county":"Suffolk","geo_score":0.0,"id":"abn8zjo3vz4x","address":"HYATT PLACE LONG ISLAND EAST END (71292)","geo_precision":"unmatched"},"type":"Feature","geometry":null},{"properties":{"city":"WOODBURY","name":"BEST WESTERN WOODBURY INN(34603)","status":"Completed 1/15/13","# of rooms":41,"county":"Nassau","geo_score":0.0,"id":"abn8zjh6r36p","address":"BEST WESTERN WOODBURY INN(34603)","geo_precision":"unmatched"},"type":"Feature","geometry":null},{"properties":{"city":"CENTEREACH","name":"HOLIDAY INN EXPRESS(34455)","status":"Completed 1/15/13","# of rooms":3,"county":"Suffolk","geo_score":0.0,"id":"abn8zjlhgtrs","address":"HOLIDAY INN EXPRESS(34455)","geo_precision":"unmatched"},"type":"Feature","geometry":null},{"properties":{"city":"RIVERHEAD","name":"HILTON GARDEN INN RIVERHEAD (70063)","status":"Completed 1/9/13","# of rooms":7,"county":"Suffolk","geo_score":0.0,"id":"abn8zjsf0g38","address":"HILTON GARDEN INN RIVERHEAD (70063)","geo_precision":"unmatched"},"type":"Feature","geometry":null},{"properties":{"city":"GREENPORT","name":"SOUND VIEW INN (73751)","status":"Completed by phone 01/10/13","# of rooms":3,"county":"Suffolk","geo_score":0.0,"id":"abn8zjf0soeq","address":"SOUND VIEW INN (73751)","geo_precision":"unmatched"},"type":"Feature","geometry":null},{"properties":{"city":"FARMINGDALE","name":"COURTYARD REPUBLIC AIRPORT LONG ISLAND/FARMINGDAL","status":"DUPLICATE COMPLETED 1.18","# of rooms":30,"county":"Nassau","geo_score":0.0,"id":"abn8zjs6c7mh","address":"COURTYARD REPUBLIC AIRPORT LONG ISLAND/FARMINGDAL","geo_precision":"unmatched"},"type":"Feature","geometry":null},{"properties":{"city":"FARMINGDALE","name":"TOWNEPLACE SUITES (58144)","status":"DUPLICATE COMPLETED 1.18","# of rooms":73,"county":"Nassau","geo_score":0.0,"id":"abn8zjsvso51","address":"TOWNEPLACE SUITES (58144)","geo_precision":"unmatched"},"type":"Feature","geometry":null},{"properties":{"city":"BETHPAGE","name":"EXTENDED STAY AMERICA#634 (13817)","status":"Duplicate completed 1.20 Invited to ARC","# of rooms":26,"county":"Nassau","geo_score":0.0,"id":"abn8zjl9o7hi","address":"EXTENDED STAY AMERICA#634 (13817)","geo_precision":"unmatched"},"type":"Feature","geometry":null},{"properties":{"city":"LONG BEACH","name":"ALLEGRIA HOTEL (73928)","status":"Duplicate Completed 1/19","# of rooms":76,"county":"Nassau","geo_score":0.0,"id":"abn8zjlf9lv9","address":"ALLEGRIA HOTEL (73928)","geo_precision":"unmatched"},"type":"Feature","geometry":null},{"properties":{"city":"HOLTSVILLE","name":"RAMADA PLAZA LONG ISLAND MACARTHUR AIRPORT (34302)","status":"Duplicate scheduled 1.21","# of rooms":14,"county":"Suffolk","geo_score":0.0,"id":"abn8zjmokny3","address":"RAMADA PLAZA LONG ISLAND MACARTHUR AIRPORT (34302)","geo_precision":"unmatched"},"type":"Feature","geometry":null},{"properties":{"city":"BOHEMIA","name":"LA QUINTA INN &amp; SUITES ISLIP MACARTHUR AIRPORT (7","status":"Duplicate scheduled 1.21","# of rooms":23,"county":"Suffolk","geo_score":0.0,"id":"abn8zjjyv1re","address":"LA QUINTA INN &amp; SUITES ISLIP MACARTHUR AIRPORT (7","geo_precision":"unmatched"},"type":"Feature","geometry":null},{"properties":{"city":"GLEN COVE","name":"GLEN COVE MANSION HOTEL AND CONFERENCE CENTER (73","status":"Duplicate scheduled 1.21","# of rooms":21,"county":"Nassau","geo_score":0.0,"id":"abn8zjpb0wvp","address":"GLEN COVE MANSION HOTEL AND CONFERENCE CENTER (73","geo_precision":"unmatched"},"type":"Feature","geometry":null},{"properties":{"city":"ROCKVILLE CENTRE","name":"BEST WESTERN MILL RIVER MANOR (14902)","status":"Duplicated Completed 1.19","# of rooms":68,"county":"Nassau","geo_score":0.0,"id":"abn8zjgp2xpz","address":"BEST WESTERN MILL RIVER MANOR (14902)","geo_precision":"unmatched"},"type":"Feature","geometry":null},{"properties":{"city":"EAST NORWICH","name":"EAST NORWICH INN (73655)","status":"Scheduled for 1/21","# of rooms":11,"county":"Nassau","geo_score":0.0,"id":"abn8zji9iqkj","address":"EAST NORWICH INN (73655)","geo_precision":"unmatched"},"type":"Feature","geometry":null},{"properties":{"city":"CARLE PLACE","name":"HOLIDAY INN-WESTBURY (34403)","status":null,"# of rooms":11,"county":"Nassau","geo_score":0.0,"id":"abn8zjqqarbj","address":"HOLIDAY INN-WESTBURY (34403)","geo_precision":"unmatched"},"type":"Feature","geometry":null}],"is_temporal":false,"author":{"url":"","metadata":null,"contact_name":null,"contact_address":null,"source":null,"contact_phone":null},"source":"","pagination":{"sort":null,"start":0,"total":47,"limit":1000000},"state":"complete","tags":"","published":"2014-08-16T17:53:06-04:00","id":313370}