{"type":"FeatureCollection","data_type":"Dataset","url_type":null,"permissions":[{"permissions":{"download":true,"view":true},"group_id":"everyone"}],"classification":null,"title":"Copy_of_IPTV-Middlepoint-Jan-16-2013_-_CSV","count":63,"stream_id":313300,"contributor":{"url":"http://geocommons.com/users/59404","name":"KatieEtgen"},"data_attributes":null,"calculation_params":null,"icon_link":null,"link":"http://geocommons.com/overlays/313300.json","extent":[-84.6448,40.4897,-84.4174,40.9481],"geometry_types":["point"],"unique_name":null,"name":"Copy_of_IPTV-Middlepoint-Jan-16-2013_-_CSV","feature_count":63,"description":"","next_feature":null,"is_raster":false,"short_classification":"Y","stats":{"stbs allowed":{"max":15,"mean":4.11111111111111,"variance":3.16487455197132,"stdev":1.77900942998381,"median":4,"min":2},"phone":{"max":4199683093,"mean":4199682495.26984,"variance":95583.6195596517,"stdev":309.166006474922,"median":4199682469,"min":4199682016},"customer id":{"max":4199683093,"mean":4199682495.26984,"variance":95583.6195596517,"stdev":309.166006474922,"median":4199682469,"min":4199682016},"password":{"max":4199683093,"mean":4199682495.26984,"variance":95583.6195596517,"stdev":309.166006474922,"median":4199682469,"min":4199682016},"login":{"max":4199683093,"mean":4199682495.26984,"variance":95583.6195596517,"stdev":309.166006474922,"median":4199682469,"min":4199682016},"pin":{"max":4199683093,"mean":4199682495.26984,"variance":95583.6195596517,"stdev":309.166006474922,"median":4199682469,"min":4199682016}},"features":[{"properties":{"city":"Middle Point","status":"Active","ppv":"Yes","zip":"45863","region":"Middlepoint","service packages":"Local Basic,Expanded Basic,Galaxie Music","township":null,"last":"Adams","stbs allowed":3,"geo_score":0.902,"first":"Steward","ppv limit":"Unlimited","customer id":4199682692,"phone":4199682692,"whdvr":"No","id":"abn5di5jzoaf","address":"19668 Lincoln Hwy","login":4199682692,"password":4199682692,"geo_precision":"range","state":"OH","pin":4199682692},"type":"Feature","geometry":{"type":"Point","coordinates":[-84.442721,40.871447]}},{"properties":{"city":"Middle Point","status":"Active","ppv":"Yes","zip":"45863","region":"Middlepoint","service packages":"Local Basic,Expanded Basic,Galaxie Music","township":null,"last":"Adams","stbs allowed":3,"geo_score":0.476,"first":"Chad","ppv limit":"Unlimited","customer id":4199682726,"phone":4199682726,"whdvr":"No","id":"abn5dih1o8p4","address":"207 E. Wood St.","login":4199682726,"password":4199682726,"geo_precision":"street","state":"OH","pin":4199682726},"type":"Feature","geometry":{"type":"Point","coordinates":[-84.444707,40.856339]}},{"properties":{"city":"Van Wert","status":"Active","ppv":"Yes","zip":"45891","region":"Middlepoint","service packages":"Local Basic,Expanded Basic,Galaxie Music","township":"Ridge Township","last":"Ashbaugh","stbs allowed":2,"geo_score":0.902,"first":"Helen","ppv limit":"Unlimited","customer id":4199682563,"phone":4199682563,"whdvr":"No","id":"abn5di7i753y","address":"17377 Lincoln Hwy","login":4199682563,"password":4199682563,"geo_precision":"range","state":"OH","pin":4199682563},"type":"Feature","geometry":{"type":"Point","coordinates":[-84.487599,40.878496]}},{"properties":{"city":"Middle Point","status":"Active","ppv":"Yes","zip":"45863","region":"Middlepoint","service packages":"Local Basic,Expanded Basic,Galaxie Music","township":null,"last":"Berryman","stbs allowed":5,"geo_score":0.902,"first":"Barb","ppv limit":"Unlimited","customer id":4199682219,"phone":4199682219,"whdvr":"No","id":"abn5di6jebfs","address":"215 Westfield Dr.","login":4199682219,"password":4199682219,"geo_precision":"range","state":"OH","pin":4199682219},"type":"Feature","geometry":{"type":"Point","coordinates":[-84.454314,40.853824]}},{"properties":{"city":"Middle Point","status":"Active","ppv":"Yes","zip":"45863","region":"Middlepoint","service packages":"Local Basic,Expanded Basic,Galaxie Music","township":null,"last":"Bigelow","stbs allowed":3,"geo_score":0.902,"first":"John","ppv limit":"Unlimited","customer id":4199682469,"phone":4199682469,"whdvr":"No","id":"abn5diiyjaqz","address":"19922 Convoy Rd.","login":4199682469,"password":4199682469,"geo_precision":"range","state":"OH","pin":4199682469},"type":"Feature","geometry":{"type":"Point","coordinates":[-84.438517,40.917473]}},{"properties":{"city":"Middle Point","status":"Active","ppv":"Yes","zip":"45863","region":"Middlepoint","service packages":"Local Basic,Expanded Basic,Galaxie Music","township":"Jackson Township","last":"Calvelage","stbs allowed":3,"geo_score":0.805,"first":"Rick","ppv limit":"Unlimited","customer id":4199682601,"phone":4199682601,"whdvr":"No","id":"abn5di614r96","address":"20089 Church Rd.","login":4199682601,"password":4199682601,"geo_precision":"street","state":"OH","pin":4199682601},"type":"Feature","geometry":{"type":"Point","coordinates":[-84.427221,40.903113]}},{"properties":{"city":"Middle Point","status":"Active","ppv":"Yes","zip":"45863","region":"Middlepoint","service packages":"Local Basic,Expanded Basic,Galaxie Music","township":null,"last":"Carmickle","stbs allowed":5,"geo_score":0.476,"first":"Rick","ppv limit":"Unlimited","customer id":4199682656,"phone":4199682656,"whdvr":"No","id":"abn5di4tlr70","address":"205 E. Wood St","login":4199682656,"password":4199682656,"geo_precision":"street","state":"OH","pin":4199682656},"type":"Feature","geometry":{"type":"Point","coordinates":[-84.444707,40.856339]}},{"properties":{"city":"Middle Point","status":"Active","ppv":"Yes","zip":"45863","region":"Middlepoint","service packages":"Local Basic,Expanded Basic,Galaxie Music","township":"Ridge Township","last":"Colgan","stbs allowed":5,"geo_score":0.902,"first":"Andrew","ppv limit":"Unlimited","customer id":4199682465,"phone":4199682465,"whdvr":"No","id":"abn5di6hwnha","address":"8174 Dog Creek Rd","login":4199682465,"password":4199682465,"geo_precision":"range","state":"OH","pin":4199682465},"type":"Feature","geometry":{"type":"Point","coordinates":[-84.455978,40.885599]}},{"properties":{"city":"Middle Point","status":"Active","ppv":"Yes","zip":"45863","region":"Middlepoint","service packages":"Local Basic,Expanded Basic,Galaxie Music","township":null,"last":"Copeland","stbs allowed":3,"geo_score":0.844,"first":"Darrell","ppv limit":"Unlimited","customer id":4199682321,"phone":4199682321,"whdvr":"No","id":"abn5di8b9lyf","address":"302 Mason St.","login":4199682321,"password":4199682321,"geo_precision":"range","state":"OH","pin":4199682321},"type":"Feature","geometry":{"type":"Point","coordinates":[-84.44766,40.854665]}},{"properties":{"city":"Middle Point","status":"Active","ppv":"Yes","zip":"45863","region":"Middlepoint","service packages":"Local Basic","township":"Ridge Township","last":"Coplin","stbs allowed":3,"geo_score":0.902,"first":"Deb","ppv limit":"Unlimited","customer id":4199682183,"phone":4199682183,"whdvr":"No","id":"abn5dibjkd0y","address":"17782 Knittle Rd","login":4199682183,"password":4199682183,"geo_precision":"range","state":"OH","pin":4199682183},"type":"Feature","geometry":{"type":"Point","coordinates":[-84.479375,40.866116]}},{"properties":{"city":"Middle Point","status":"Active","ppv":"Yes","zip":"45863","region":"Middlepoint","service packages":"Local Basic","township":null,"last":"Dickman","stbs allowed":5,"geo_score":0.476,"first":"Virgil","ppv limit":"Unlimited","customer id":4199682164,"phone":4199682164,"whdvr":"No","id":"abn5dif1crr3","address":"202 E. Wood St.","login":4199682164,"password":4199682164,"geo_precision":"street","state":"OH","pin":4199682164},"type":"Feature","geometry":{"type":"Point","coordinates":[-84.444707,40.856339]}},{"properties":{"city":"Middle Point","status":"Active","ppv":"Yes","zip":"45863","region":"Middlepoint","service packages":"Local Basic,Expanded Basic,Galaxie Music","township":null,"last":"Eley","stbs allowed":5,"geo_score":0.785,"first":"Tina","ppv limit":"Unlimited","customer id":4199682293,"phone":4199682293,"whdvr":"No","id":"abn5di9bh63s","address":"210 W South St","login":4199682293,"password":4199682293,"geo_precision":"range","state":"OH","pin":4199682293},"type":"Feature","geometry":{"type":"Point","coordinates":[-84.449213,40.853839]}},{"properties":{"city":"Middle Point","status":"Active","ppv":"Yes","zip":"45863","region":"Middlepoint","service packages":"Local Basic,Expanded Basic,Galaxie Music","township":"Washington Township","last":"Elston","stbs allowed":4,"geo_score":0.71,"first":"Mike","ppv limit":"Unlimited","customer id":4199682940,"phone":4199682940,"whdvr":"No","id":"abn5di8pmesc","address":"19318 Bellis Rd","login":4199682940,"password":4199682940,"geo_precision":"street","state":"OH","pin":4199682940},"type":"Feature","geometry":{"type":"Point","coordinates":[-84.450115,40.851943]}},{"properties":{"city":"Middle Point","status":"Inactive","ppv":"Yes","zip":"45863","region":"Middlepoint","service packages":"Local Basic,Expanded Basic,Galaxie Music","township":null,"last":"Energy Products","stbs allowed":5,"geo_score":0.815,"first":"Hopsco","ppv limit":"Unlimited","customer id":4199682884,"phone":4199682884,"whdvr":"No","id":"abn5diawez6m","address":"109 S Adams","login":4199682884,"password":4199682884,"geo_precision":"range","state":"OH","pin":4199682884},"type":"Feature","geometry":{"type":"Point","coordinates":[-84.445965,40.854338]}},{"properties":{"city":"Van Wert","status":"Active","ppv":"Yes","zip":"45891","region":"Middlepoint","service packages":"Local Basic","township":null,"last":"Enyart","stbs allowed":5,"geo_score":0.902,"first":"Terry","ppv limit":"Unlimited","customer id":4199682079,"phone":4199682079,"whdvr":"No","id":"abn5di7hblr1","address":"10377 Chenowith Rd","login":4199682079,"password":4199682079,"geo_precision":"range","state":"OH","pin":4199682079},"type":"Feature","geometry":{"type":"Point","coordinates":[-84.48538,40.853727]}},{"properties":{"city":"Middle Point","status":"Active","ppv":"Yes","zip":"45863","region":"Middlepoint","service packages":"Local Basic,Expanded Basic,Galaxie Music","township":null,"last":"Etzler","stbs allowed":4,"geo_score":0.849,"first":"John &amp; Pat","ppv limit":"Unlimited","customer id":4199682658,"phone":4199682658,"whdvr":"No","id":"abn5di6px8dx","address":"7986 Middle Point-Wetzel Rd","login":4199682658,"password":4199682658,"geo_precision":"range","state":"OH","pin":4199682658},"type":"Feature","geometry":{"type":"Point","coordinates":[-84.436643,40.888407]}},{"properties":{"city":"Middle Point","status":"Active","ppv":"Yes","zip":"45863","region":"Middlepoint","service packages":"Local Basic","township":null,"last":"Evans","stbs allowed":4,"geo_score":0.902,"first":"David","ppv limit":"Unlimited","customer id":4199682560,"phone":4199682560,"whdvr":"No","id":"abn5dieog0fm","address":"17685 Knittle Rd.","login":4199682560,"password":4199682560,"geo_precision":"range","state":"OH","pin":4199682560},"type":"Feature","geometry":{"type":"Point","coordinates":[-84.477734,40.867448]}},{"properties":{"city":"Middle Point","status":"Active","ppv":"Yes","zip":"45863","region":"Middlepoint","service packages":"Local Basic,Expanded Basic,Galaxie Music","township":null,"last":"Farmer","stbs allowed":3,"geo_score":0.471,"first":"Scott","ppv limit":"Unlimited","customer id":4199682048,"phone":4199682048,"whdvr":"No","id":"abn5dib9ipc1","address":"303 E. Lewis Dr","login":4199682048,"password":4199682048,"geo_precision":"street","state":"OH","pin":4199682048},"type":"Feature","geometry":{"type":"Point","coordinates":[-84.442015,40.856701]}},{"properties":{"city":"Middle Point","status":"Active","ppv":"Yes","zip":"45863","region":"Middlepoint","service packages":"Local Basic,Expanded Basic,Galaxie Music","township":null,"last":"Gear","stbs allowed":5,"geo_score":0.902,"first":"Dale","ppv limit":"Unlimited","customer id":4199682297,"phone":4199682297,"whdvr":"No","id":"abn5di8iqzbb","address":"304 S Adams St","login":4199682297,"password":4199682297,"geo_precision":"range","state":"OH","pin":4199682297},"type":"Feature","geometry":{"type":"Point","coordinates":[-84.446106,40.852199]}},{"properties":{"city":"Middle Poiint","status":"Active","ppv":"Yes","zip":"45863","region":"Middlepoint","service packages":"Local Basic,Expanded Basic,Galaxie Music","township":null,"last":"Gillespie","stbs allowed":5,"geo_score":0.895,"first":"Nicole","ppv limit":"Unlimited","customer id":4199682960,"phone":4199682960,"whdvr":"No","id":"abn5did8xhcz","address":"203 E Wood St","login":4199682960,"password":4199682960,"geo_precision":"range","state":"OH","pin":4199682960},"type":"Feature","geometry":{"type":"Point","coordinates":[-84.44449,40.856413]}},{"properties":{"city":"Delphos","status":"Active","ppv":"Yes","zip":"45833","region":"Middlepoint","service packages":"Local Basic,Expanded Basic,Galaxie Music","township":"Washington Township","last":"Goins","stbs allowed":5,"geo_score":0.812,"first":"Mark","ppv limit":"Unlimited","customer id":4199683071,"phone":4199683071,"whdvr":"No","id":"abn5digflvyb","address":"19634 ST RT 697","login":4199683071,"password":4199683071,"geo_precision":"range","state":"OH","pin":4199683071},"type":"Feature","geometry":{"type":"Point","coordinates":[-84.442118,40.837372]}},{"properties":{"city":"Middle Point","status":"Active","ppv":"Yes","zip":"45863","region":"Middlepoint","service packages":"Local Basic,Expanded Basic,Galaxie Music","township":null,"last":"Hanf","stbs allowed":4,"geo_score":0.714,"first":"John","ppv limit":"Unlimited","customer id":4199682241,"phone":4199682241,"whdvr":"No","id":"abn5di86zhv3","address":"209 E. Jackson St.","login":4199682241,"password":4199682241,"geo_precision":"zip","state":"OH","pin":4199682241},"type":"Feature","geometry":{"type":"Point","coordinates":[-84.454113,40.899321]}},{"properties":{"city":"Middle Point","status":"Active","ppv":"Yes","zip":"45863","region":"Middlepoint","service packages":"Local Basic,Expanded Basic,Galaxie Music","township":null,"last":"Hart","stbs allowed":5,"geo_score":0.902,"first":"Lawrence","ppv limit":"Unlimited","customer id":4199682610,"phone":4199682610,"whdvr":"No","id":"abn5dicj6lz8","address":"212 Westfield Dr","login":4199682610,"password":4199682610,"geo_precision":"range","state":"OH","pin":4199682610},"type":"Feature","geometry":{"type":"Point","coordinates":[-84.455882,40.853681]}},{"properties":{"city":"Middle Point","status":"Active","ppv":"Yes","zip":"45863","region":"Middlepoint","service packages":"Local Basic,Expanded Basic,Galaxie Music","township":null,"last":"Hire","stbs allowed":15,"geo_score":0.672,"first":"Brian","ppv limit":"Unlimited","customer id":4199683093,"phone":4199683093,"whdvr":"No","id":"abn5diai4q03","address":"201 North Chestnut","login":4199683093,"password":4199683093,"geo_precision":"street","state":"OH","pin":4199683093},"type":"Feature","geometry":{"type":"Point","coordinates":[-84.442015,40.856701]}},{"properties":{"city":"Middle Point","status":"Active","ppv":"Yes","zip":"45863","region":"Middlepoint","service packages":"Local Basic","township":null,"last":"Hoying","stbs allowed":3,"geo_score":0.902,"first":"Robert","ppv limit":"Unlimited","customer id":4199682579,"phone":4199682579,"whdvr":"No","id":"abn5diaax3vn","address":"201 E Bellis Rd","login":4199682579,"password":4199682579,"geo_precision":"range","state":"OH","pin":4199682579},"type":"Feature","geometry":{"type":"Point","coordinates":[-84.442861,40.851949]}},{"properties":{"city":"Middle Point","status":"Active","ppv":"Yes","zip":"45863","region":"Middlepoint","service packages":"Local Basic","township":null,"last":"Hundley","stbs allowed":3,"geo_score":0.837,"first":"Vernon","ppv limit":"Unlimited","customer id":4199682111,"phone":4199682111,"whdvr":"No","id":"abn5di8clphr","address":"101 N Mill St","login":4199682111,"password":4199682111,"geo_precision":"range","state":"OH","pin":4199682111},"type":"Feature","geometry":{"type":"Point","coordinates":[-84.442047,40.855374]}},{"properties":{"city":"Middle Point","status":"Active","ppv":"Yes","zip":"45863","region":"Middlepoint","service packages":"Local Basic,Expanded Basic,Galaxie Music","township":null,"last":"Jessee","stbs allowed":5,"geo_score":0.849,"first":"Ralph","ppv limit":"Unlimited","customer id":4199682616,"phone":4199682616,"whdvr":"No","id":"abn5diik14af","address":"7924 Middle Point-Wetzel Rd","login":4199682616,"password":4199682616,"geo_precision":"range","state":"OH","pin":4199682616},"type":"Feature","geometry":{"type":"Point","coordinates":[-84.436657,40.889243]}},{"properties":{"city":"Middle Point","status":"Active","ppv":"Yes","zip":"45863","region":"Middlepoint","service packages":"Local Basic,Expanded Basic,Galaxie Music","township":null,"last":"Kerner","stbs allowed":3,"geo_score":0.471,"first":"Ronald","ppv limit":"Unlimited","customer id":4199682898,"phone":4199682898,"whdvr":"No","id":"abn5di9ese8w","address":"302 W. South St.","login":4199682898,"password":4199682898,"geo_precision":"street","state":"OH","pin":4199682898},"type":"Feature","geometry":{"type":"Point","coordinates":[-84.448647,40.853854]}},{"properties":{"city":"Middle Point","status":"Active","ppv":"Yes","zip":"45863","region":"Middlepoint","service packages":"Local Basic,Expanded Basic,Galaxie Music","township":null,"last":"Kimmey","stbs allowed":4,"geo_score":0.654,"first":"David","ppv limit":"Unlimited","customer id":4199682429,"phone":4199682429,"whdvr":"No","id":"abn5dihidfnx","address":"3884 Middle Point-Wetzel Rd","login":4199682429,"password":4199682429,"geo_precision":"street","state":"OH","pin":4199682429},"type":"Feature","geometry":{"type":"Point","coordinates":[-84.437134,40.948079]}},{"properties":{"city":"Middle Point","status":"Active","ppv":"Yes","zip":"45863","region":"Middlepoint","service packages":"Local Basic,Expanded Basic,Galaxie Music","township":"Jackson Township","last":"Klinger","stbs allowed":3,"geo_score":0.902,"first":"Robert","ppv limit":"Unlimited","customer id":4199682059,"phone":4199682059,"whdvr":"No","id":"abn5dih5xigm","address":"4536 Dog Creek Rd","login":4199682059,"password":4199682059,"geo_precision":"range","state":"OH","pin":4199682059},"type":"Feature","geometry":{"type":"Point","coordinates":[-84.450123,40.938044]}},{"properties":{"city":"Middle Point","status":"Active","ppv":"Yes","zip":"45863","region":"Middlepoint","service packages":"Local Basic,Expanded Basic,Galaxie Music","township":null,"last":"Koenig","stbs allowed":3,"geo_score":0.902,"first":"Matthew","ppv limit":"Unlimited","customer id":4199682032,"phone":4199682032,"whdvr":"No","id":"abn5di784v6p","address":"103 Normal St.","login":4199682032,"password":4199682032,"geo_precision":"range","state":"OH","pin":4199682032},"type":"Feature","geometry":{"type":"Point","coordinates":[-84.447907,40.853004]}},{"properties":{"city":"Middle Point","status":"Active","ppv":"Yes","zip":"45863","region":"Middlepoint","service packages":"Local Basic,Expanded Basic,Galaxie Music","township":null,"last":"Lauf","stbs allowed":3,"geo_score":0.844,"first":"Eugene","ppv limit":"Unlimited","customer id":4199682467,"phone":4199682467,"whdvr":"No","id":"abn5difkr3ex","address":"9146 Middle Point Rd","login":4199682467,"password":4199682467,"geo_precision":"range","state":"OH","pin":4199682467},"type":"Feature","geometry":{"type":"Point","coordinates":[-84.446205,40.870223]}},{"properties":{"city":"Middle Point","status":"Active","ppv":"Yes","zip":"45863","region":"Middlepoint","service packages":"Local Basic,Expanded Basic,Galaxie Music","township":"Washington Township","last":"Lauf","stbs allowed":4,"geo_score":0.844,"first":"Jason","ppv limit":"Unlimited","customer id":4199682768,"phone":4199682768,"whdvr":"No","id":"abn5dic273a7","address":"9794 Middle point Rd.","login":4199682768,"password":4199682768,"geo_precision":"range","state":"OH","pin":4199682768},"type":"Feature","geometry":{"type":"Point","coordinates":[-84.446174,40.863287]}},{"properties":{"city":"Middle Point","status":"Active","ppv":"Yes","zip":"45863","region":"Middlepoint","service packages":"Cinemax,HBO,Local Basic,Expanded Basic,Variety,Starz/Encore,Showtime/TMC,Galaxie Music","township":null,"last":"Long","stbs allowed":4,"geo_score":0.708,"first":"Ron","ppv limit":"Unlimited","customer id":4199682333,"phone":4199682333,"whdvr":"No","id":"abn5di5bd1ol","address":"11025 Dog Creek Rd","login":4199682333,"password":4199682333,"geo_precision":"street","state":"OH","pin":4199682333},"type":"Feature","geometry":{"type":"Point","coordinates":[-84.45651,40.859204]}},{"properties":{"city":"Middle Point","status":"Active","ppv":"Yes","zip":"45863","region":"Middlepoint","service packages":"Local Basic,Expanded Basic,Galaxie Music","township":"Jackson Township","last":"Mason","stbs allowed":3,"geo_score":0.902,"first":"Randall","ppv limit":"Unlimited","customer id":4199682055,"phone":4199682055,"whdvr":"No","id":"abn5diic0kug","address":"6231 Dog Creek Rd","login":4199682055,"password":4199682055,"geo_precision":"range","state":"OH","pin":4199682055},"type":"Feature","geometry":{"type":"Point","coordinates":[-84.446477,40.914669]}},{"properties":{"city":"Middle Point","status":"Active","ppv":"Yes","zip":"45863","region":"Middlepoint","service packages":"Local Basic,Expanded Basic,Galaxie Music","township":null,"last":"Miller","stbs allowed":5,"geo_score":0.476,"first":"Helen","ppv limit":"Unlimited","customer id":4199682156,"phone":4199682156,"whdvr":"No","id":"abn5dig0blo8","address":"208 N. Main St.","login":4199682156,"password":4199682156,"geo_precision":"street","state":"OH","pin":4199682156},"type":"Feature","geometry":{"type":"Point","coordinates":[-84.443074,40.855097]}},{"properties":{"city":"Middle Point","status":"Active","ppv":"Yes","zip":"45863","region":"Middlepoint","service packages":"Local Basic,Expanded Basic,Galaxie Music","township":null,"last":"Moore","stbs allowed":3,"geo_score":0.476,"first":"Sandy","ppv limit":"Unlimited","customer id":4199682443,"phone":4199682443,"whdvr":"No","id":"abn5dial5siw","address":"405 N. Main St.","login":4199682443,"password":4199682443,"geo_precision":"street","state":"OH","pin":4199682443},"type":"Feature","geometry":{"type":"Point","coordinates":[-84.443074,40.855097]}},{"properties":{"city":"Van Wert","status":"Active","ppv":"Yes","zip":"45891","region":"Middlepoint","service packages":"Local Basic,Expanded Basic,Galaxie Music","township":"Ridge Township","last":"Myers","stbs allowed":3,"geo_score":0.902,"first":"Cole","ppv limit":"Unlimited","customer id":4199682528,"phone":4199682528,"whdvr":"No","id":"abn5di8l80m9","address":"10904 Reidenbach Rd.","login":4199682528,"password":4199682528,"geo_precision":"range","state":"OH","pin":4199682528},"type":"Feature","geometry":{"type":"Point","coordinates":[-84.495201,40.845971]}},{"properties":{"city":"Middle Point","status":"Active","ppv":"Yes","zip":"45863","region":"Middlepoint","service packages":"Local Basic,Expanded Basic,Galaxie Music","township":null,"last":"Myers","stbs allowed":3,"geo_score":0.5,"first":"Gary","ppv limit":"Unlimited","customer id":4199682102,"phone":4199682102,"whdvr":"No","id":"abn5dib2p566","address":"104 E. Elm St.","login":4199682102,"password":4199682102,"geo_precision":"street","state":"OH","pin":4199682102},"type":"Feature","geometry":{"type":"Point","coordinates":[-84.444713,40.857938]}},{"properties":{"city":"Middle Point","status":"Active","ppv":"Yes","zip":"45863","region":"Middlepoint","service packages":"Local Basic,Expanded Basic,Galaxie Music","township":null,"last":"Myers","stbs allowed":5,"geo_score":0.613,"first":"David","ppv limit":"Unlimited","customer id":4199682442,"phone":4199682442,"whdvr":"No","id":"abn5di5f4ed0","address":"101 Elm St","login":4199682442,"password":4199682442,"geo_precision":"street","state":"OH","pin":4199682442},"type":"Feature","geometry":{"type":"Point","coordinates":[-84.445281,40.857991]}},{"properties":{"city":"Middle Point","status":"Active","ppv":"Yes","zip":"45863","region":"Middlepoint","service packages":"Local Basic,Expanded Basic,Galaxie Music","township":null,"last":"Myers","stbs allowed":5,"geo_score":0.708,"first":"Ken","ppv limit":"Unlimited","customer id":4199682654,"phone":4199682654,"whdvr":"No","id":"abn5digimzew","address":"101 Northfield Dr.","login":4199682654,"password":4199682654,"geo_precision":"street","state":"OH","pin":4199682654},"type":"Feature","geometry":{"type":"Point","coordinates":[-84.644823,40.489717]}},{"properties":{"city":"Middle Point","status":"Active","ppv":"Yes","zip":"45863","region":"Middlepoint","service packages":"Local Basic,Expanded Basic,Galaxie Music","township":"Washington Township","last":"Owens","stbs allowed":5,"geo_score":0.863,"first":"Mike","ppv limit":"Unlimited","customer id":4199682837,"phone":4199682837,"whdvr":"No","id":"abn5dijypzqi","address":"8615 Middle Point Wetzel Rd","login":4199682837,"password":4199682837,"geo_precision":"range","state":"OH","pin":4199682837},"type":"Feature","geometry":{"type":"Point","coordinates":[-84.436372,40.88008]}},{"properties":{"city":"Middle Point","status":"Active","ppv":"Yes","zip":"45863","region":"Middlepoint","service packages":"Local Basic,Expanded Basic,Galaxie Music","township":"Washington Township","last":"Owens","stbs allowed":3,"geo_score":0.863,"first":"Matthew","ppv limit":"Unlimited","customer id":4199682430,"phone":4199682430,"whdvr":"No","id":"abn5dijdg9pc","address":"8831 Middle Point Wetzel Rd,","login":4199682430,"password":4199682430,"geo_precision":"range","state":"OH","pin":4199682430},"type":"Feature","geometry":{"type":"Point","coordinates":[-84.436364,40.877212]}},{"properties":{"city":"Van Wert","status":"Active","ppv":"Yes","zip":"45891","region":"Middlepoint","service packages":"Local Basic,Expanded Basic,Galaxie Music","township":"Ridge Township","last":"Pannkuk","stbs allowed":3,"geo_score":0.902,"first":"Jennifer","ppv limit":"Unlimited","customer id":4199683054,"phone":4199683054,"whdvr":"No","id":"abn5did4o0p4","address":"10732 Reidenbach Rd","login":4199683054,"password":4199683054,"geo_precision":"range","state":"OH","pin":4199683054},"type":"Feature","geometry":{"type":"Point","coordinates":[-84.495294,40.848434]}},{"properties":{"city":"Middle Point","status":"Active","ppv":"Yes","zip":"45863","region":"Middlepoint","service packages":"Local Basic,Expanded Basic,Variety,Galaxie Music","township":null,"last":"Pollock","stbs allowed":5,"geo_score":0.429,"first":"Frank","ppv limit":"Unlimited","customer id":4199682435,"phone":4199682435,"whdvr":"No","id":"abn5diclhtt9","address":"308 N. Griswold St.","login":4199682435,"password":4199682435,"geo_precision":"street","state":"OH","pin":4199682435},"type":"Feature","geometry":{"type":"Point","coordinates":[-84.447882,40.857411]}},{"properties":{"city":"Middle Point","status":"Active","ppv":"Yes","zip":"45863","region":"Middlepoint","service packages":"Local Basic,Expanded Basic,Galaxie Music","township":null,"last":"Reindel","stbs allowed":5,"geo_score":0.902,"first":"Melvin","ppv limit":"Unlimited","customer id":4199682718,"phone":4199682718,"whdvr":"No","id":"abn5dic7ib2i","address":"9170 Dog Creek Rd","login":4199682718,"password":4199682718,"geo_precision":"range","state":"OH","pin":4199682718},"type":"Feature","geometry":{"type":"Point","coordinates":[-84.456572,40.871424]}},{"properties":{"city":"Middle Point","status":"Active","ppv":"Yes","zip":"45863","region":"Middlepoint","service packages":"Local Basic,Expanded Basic,Variety,Galaxie Music","township":null,"last":"Richardson","stbs allowed":8,"geo_score":0.574,"first":"Wayne","ppv limit":"Unlimited","customer id":4199682086,"phone":4199682086,"whdvr":"No","id":"abn5dic1jhtd","address":"104 E Railroad St","login":4199682086,"password":4199682086,"geo_precision":"street","state":"OH","pin":4199682086},"type":"Feature","geometry":{"type":"Point","coordinates":[-84.445005,40.854273]}},{"properties":{"city":"Middle Point","status":"Active","ppv":"Yes","zip":"45863","region":"Middlepoint","service packages":"Local Basic,Expanded Basic,Starz/Encore,Galaxie Music","township":null,"last":"Romes","stbs allowed":3,"geo_score":0.476,"first":"Gerald","ppv limit":"Unlimited","customer id":4199682995,"phone":4199682995,"whdvr":"No","id":"abn5dikuos3j","address":"201 E. Wood St.","login":4199682995,"password":4199682995,"geo_precision":"street","state":"OH","pin":4199682995},"type":"Feature","geometry":{"type":"Point","coordinates":[-84.444707,40.856339]}},{"properties":{"city":"Middle Point","status":"Active","ppv":"Yes","zip":"45863","region":"Middlepoint","service packages":"Local Basic,Expanded Basic,Galaxie Music","township":"Washington Township","last":"Schaadt","stbs allowed":5,"geo_score":0.709,"first":"Rex","ppv limit":"Unlimited","customer id":4199682283,"phone":4199682283,"whdvr":"No","id":"abn5di6ymcn9","address":"19754 Bellis Rd.","login":4199682283,"password":4199682283,"geo_precision":"street","state":"OH","pin":4199682283},"type":"Feature","geometry":{"type":"Point","coordinates":[-84.443713,40.851945]}},{"properties":{"city":"Middle Point","status":"Active","ppv":"Yes","zip":"45863","region":"Middlepoint","service packages":"Local Basic,Expanded Basic,Galaxie Music","township":null,"last":"Schoeff","stbs allowed":2,"geo_score":0.476,"first":"Madeline","ppv limit":"Unlimited","customer id":4199682991,"phone":4199682991,"whdvr":"No","id":"abn5diav2v80","address":"409 N. Main St","login":4199682991,"password":4199682991,"geo_precision":"street","state":"OH","pin":4199682991},"type":"Feature","geometry":{"type":"Point","coordinates":[-84.443074,40.855097]}},{"properties":{"city":"Middle Point","status":"Active","ppv":"Yes","zip":"45863","region":"Middlepoint","service packages":"Local Basic,Expanded Basic,Galaxie Music","township":"Jackson Township","last":"Sears","stbs allowed":5,"geo_score":0.902,"first":"Shannon","ppv limit":"Unlimited","customer id":4199682559,"phone":4199682559,"whdvr":"No","id":"abn5di7dzjjs","address":"19864 Convoy Rd","login":4199682559,"password":4199682559,"geo_precision":"range","state":"OH","pin":4199682559},"type":"Feature","geometry":{"type":"Point","coordinates":[-84.440029,40.917473]}},{"properties":{"city":"Middle Point","status":"Active","ppv":"Yes","zip":"45863","region":"Middlepoint","service packages":"HBO,Local Basic,Expanded Basic,Galaxie Music","township":null,"last":"Sellers","stbs allowed":3,"geo_score":0.714,"first":"William","ppv limit":"Unlimited","customer id":4199682774,"phone":4199682774,"whdvr":"No","id":"abn5didl8xj8","address":"105 W. Jackson St.","login":4199682774,"password":4199682774,"geo_precision":"zip","state":"OH","pin":4199682774},"type":"Feature","geometry":{"type":"Point","coordinates":[-84.454113,40.899321]}},{"properties":{"city":"Middle Point","status":"Active","ppv":"Yes","zip":"45863","region":"Middlepoint","service packages":"Local Basic,Expanded Basic,Galaxie Music","township":null,"last":"Shumaker","stbs allowed":3,"geo_score":0.714,"first":"Danny","ppv limit":"Unlimited","customer id":4199682056,"phone":4199682056,"whdvr":"No","id":"abn5di9xu8lt","address":"207 E. Jackson St","login":4199682056,"password":4199682056,"geo_precision":"zip","state":"OH","pin":4199682056},"type":"Feature","geometry":{"type":"Point","coordinates":[-84.454113,40.899321]}},{"properties":{"city":"Van Wert","status":"Active","ppv":"Yes","zip":"45891","region":"Middlepoint","service packages":"Local Basic,Expanded Basic,Galaxie Music","township":"Hoaglin Township","last":"Snyder","stbs allowed":3,"geo_score":0.902,"first":"Sally","ppv limit":"Unlimited","customer id":4199682530,"phone":4199682530,"whdvr":"No","id":"abn5di77okgl","address":"16487 Galvin Rd","login":4199682530,"password":4199682530,"geo_precision":"range","state":"OH","pin":4199682530},"type":"Feature","geometry":{"type":"Point","coordinates":[-84.506499,40.92463]}},{"properties":{"city":"Middle Point","status":"Active","ppv":"Yes","zip":"45863","region":"Middlepoint","service packages":"Local Basic,Expanded Basic,Showtime/TMC,Galaxie Music","township":null,"last":"Spridgeon","stbs allowed":5,"geo_score":0.902,"first":"Gary","ppv limit":"Unlimited","customer id":4199682139,"phone":4199682139,"whdvr":"No","id":"abn5di4gizem","address":"101 W Sycamore St","login":4199682139,"password":4199682139,"geo_precision":"range","state":"OH","pin":4199682139},"type":"Feature","geometry":{"type":"Point","coordinates":[-84.447491,40.857406]}},{"properties":{"city":"Middle Point","status":"Active","ppv":"Yes","zip":"45863","region":"Middlepoint","service packages":"Local Basic,Expanded Basic,Galaxie Music","township":null,"last":"Stephenson","stbs allowed":5,"geo_score":0.471,"first":"Harry","ppv limit":"Unlimited","customer id":4199682537,"phone":4199682537,"whdvr":"No","id":"abn5di96h32s","address":"109 W. South St","login":4199682537,"password":4199682537,"geo_precision":"street","state":"OH","pin":4199682537},"type":"Feature","geometry":{"type":"Point","coordinates":[-84.448647,40.853854]}},{"properties":{"city":"Middle Point","status":"Active","ppv":"Yes","zip":"45863","region":"Middlepoint","service packages":"Local Basic,Expanded Basic,Galaxie Music","township":null,"last":"Sterling","stbs allowed":3,"geo_score":0.902,"first":"Gayle","ppv limit":"Unlimited","customer id":4199682179,"phone":4199682179,"whdvr":"No","id":"abn5di7djdp3","address":"302 N Main St","login":4199682179,"password":4199682179,"geo_precision":"range","state":"OH","pin":4199682179},"type":"Feature","geometry":{"type":"Point","coordinates":[-84.443058,40.856603]}},{"properties":{"city":"Delphos","status":"Active","ppv":"Yes","zip":"45833","region":"Middlepoint","service packages":"Local Basic,Expanded Basic,Galaxie Music","township":null,"last":"Steyer","stbs allowed":3,"geo_score":0.886,"first":"Lois","ppv limit":"Unlimited","customer id":4199682331,"phone":4199682331,"whdvr":"No","id":"abn5dijcjg79","address":"10786 Converse-Roselm Rd","login":4199682331,"password":4199682331,"geo_precision":"range","state":"OH","pin":4199682331},"type":"Feature","geometry":{"type":"Point","coordinates":[-84.417389,40.847287]}},{"properties":{"city":"Middle Point","status":"Active","ppv":"Yes","zip":"45863","region":"Middlepoint","service packages":"Local Basic,Expanded Basic,Galaxie Music","township":null,"last":"Thompson","stbs allowed":3,"geo_score":0.902,"first":"Susan","ppv limit":"Unlimited","customer id":4199682603,"phone":4199682603,"whdvr":"No","id":"abn5diaxlzp9","address":"10218 Dog Creek Rd.","login":4199682603,"password":4199682603,"geo_precision":"range","state":"OH","pin":4199682603},"type":"Feature","geometry":{"type":"Point","coordinates":[-84.456584,40.856734]}},{"properties":{"city":"Middle Point","status":"Active","ppv":"Yes","zip":"45863","region":"Middlepoint","service packages":"Local Basic,Expanded Basic,Variety,Galaxie Music","township":null,"last":"Weldy","stbs allowed":5,"geo_score":0.488,"first":"William","ppv limit":"Unlimited","customer id":4199682016,"phone":4199682016,"whdvr":"No","id":"abn5dii377pk","address":"19649","login":4199682016,"password":4199682016,"geo_precision":"zip","state":"OH","pin":4199682016},"type":"Feature","geometry":{"type":"Point","coordinates":[-84.454113,40.899321]}},{"properties":{"city":"Van Wert","status":"Active","ppv":"Yes","zip":"45891","region":"Middlepoint","service packages":"Local Basic,Expanded Basic,Galaxie Music","township":"Ridge Township","last":"Welker","stbs allowed":3,"geo_score":0.902,"first":"Betsy","ppv limit":"Unlimited","customer id":4199682851,"phone":4199682851,"whdvr":"No","id":"abn5di5i3t2p","address":"10228 Chenowith Rd","login":4199682851,"password":4199682851,"geo_precision":"range","state":"OH","pin":4199682851},"type":"Feature","geometry":{"type":"Point","coordinates":[-84.485543,40.855988]}},{"properties":{"city":"Middle Point","status":"Active","ppv":"Yes","zip":"45863","region":"Middlepoint","service packages":"Local Basic,Expanded Basic,Galaxie Music","township":null,"last":"Wills","stbs allowed":5,"geo_score":0.767,"first":"Crystal","ppv limit":"Unlimited","customer id":4199682959,"phone":4199682959,"whdvr":"No","id":"abn5dikdblym","address":"204 E Railroad St","login":4199682959,"password":4199682959,"geo_precision":"range","state":"OH","pin":4199682959},"type":"Feature","geometry":{"type":"Point","coordinates":[-84.444492,40.854122]}},{"properties":{"city":"Middle Point","status":"Active","ppv":"Yes","zip":"45863","region":"Middlepoint","service packages":"Local Basic,Expanded Basic,Galaxie Music","township":"Hoaglin Township","last":"Young","stbs allowed":3,"geo_score":0.902,"first":"David","ppv limit":"Unlimited","customer id":4199682374,"phone":4199682374,"whdvr":"No","id":"abn5dico8dhe","address":"17863 Convoy Rd.","login":4199682374,"password":4199682374,"geo_precision":"range","state":"OH","pin":4199682374},"type":"Feature","geometry":{"type":"Point","coordinates":[-84.49428,40.91763]}}],"is_temporal":false,"author":{"url":"","metadata":null,"contact_name":null,"contact_address":null,"source":null,"contact_phone":null},"source":"","pagination":{"sort":null,"start":0,"total":63,"limit":1000000},"state":"complete","tags":"","published":"2014-08-16T17:43:50-04:00","id":313300}