{"type":"FeatureCollection","data_type":"Dataset","url_type":null,"permissions":[{"permissions":{"download":true,"view":true},"group_id":"everyone"}],"classification":null,"title":"Copy_of_IPTV-Ayersville-Jan-16-2013_-_CSV","count":308,"stream_id":313319,"contributor":{"url":"http://geocommons.com/users/59404","name":"KatieEtgen"},"data_attributes":null,"calculation_params":null,"icon_link":null,"link":"http://geocommons.com/overlays/313319.json","extent":[-84.522,41.1803,-84.1907,41.3825],"geometry_types":["point"],"unique_name":null,"name":"Copy_of_IPTV-Ayersville-Jan-16-2013_-_CSV","feature_count":308,"description":"","next_feature":null,"is_raster":false,"short_classification":"Y","stats":{"stbs allowed":{"max":30,"mean":3.80519480519481,"variance":5.09547781209021,"stdev":2.25731650684839,"median":3,"min":2},"phone":{"max":4197709278,"mean":4193963987.97727,"variance":45840432479.2861,"stdev":214103.789035332,"median":4193951869,"min":4193950104},"password":{"max":7721,"mean":1801.85993485342,"variance":530679.356134636,"stdev":728.47742321546,"median":1867,"min":104},"pin":{"max":7721,"mean":1801.85993485342,"variance":530679.356134636,"stdev":728.47742321546,"median":1867,"min":104}},"features":[{"properties":{"city":"Defiance","status":"Active","ppv":"Yes","zip":"43512","region":"Ayersville","service packages":"Platinum Bundle,Basic HD","township":null,"last":"Adair","stbs allowed":4,"geo_score":0.488,"first":"Ken","ppv limit":"Unlimited","customer id":"C-00211","phone":4193951450,"whdvr":"No","id":"abn5prdh2zdk","address":"28147 Blachard Rd.","login":"Adair","password":1450,"geo_precision":"zip","state":"OH","pin":1450},"type":"Feature","geometry":{"type":"Point","coordinates":[-84.299947,41.297826]}},{"properties":{"city":"Holgate","status":"Active","ppv":"Yes","zip":"43527","region":"Ayersville","service packages":"Platinum Bundle","township":null,"last":"Addington","stbs allowed":4,"geo_score":0.822,"first":"Tammy &amp; Danny","ppv limit":"Unlimited","customer id":"C-01310","phone":4193952631,"whdvr":"No","id":"abn5preo8en4","address":"11172 Defiance-Henry Co Line","login":"Addington","password":2631,"geo_precision":"range","state":"OH","pin":2631},"type":"Feature","geometry":{"type":"Point","coordinates":[-84.227402,41.279782]}},{"properties":{"city":"Defiance","status":"Active","ppv":"Yes","zip":"43512","region":"Ayersville","service packages":"Gold Bundle","township":null,"last":"Aden","stbs allowed":3,"geo_score":0.902,"first":"James","ppv limit":"Unlimited","customer id":"C-00651","phone":4193952142,"whdvr":"No","id":"abn5pr8t1869","address":"27726 Watson Rd.","login":"Aden","password":2142,"geo_precision":"range","state":"OH","pin":2142},"type":"Feature","geometry":{"type":"Point","coordinates":[-84.290425,41.238191]}},{"properties":{"city":"Defiaince","status":"Active","ppv":"Yes","zip":"43512","region":"Ayersville","service packages":"Extended Package","township":null,"last":"Adkins","stbs allowed":3,"geo_score":0.892,"first":"Samantha","ppv limit":"Unlimited","customer id":"C-01203","phone":4193950152,"whdvr":"No","id":"abn5prdwg0o8","address":"15862 Painter Rd.","login":"Adkins","password":152,"geo_precision":"range","state":"OH","pin":152},"type":"Feature","geometry":{"type":"Point","coordinates":[-84.295294,41.213254]}},{"properties":{"city":"Defiance","status":"Inactive","ppv":"Yes","zip":"43512","region":"Ayersville","service packages":"Extended Package","township":null,"last":"Aguilar","stbs allowed":2,"geo_score":0.488,"first":"Linda","ppv limit":"Unlimited","customer id":"C-01091","phone":4193950162,"whdvr":"No","id":"abn5pragh03c","address":"28970 St. Rt. 281 Lot 8","login":"Aguilar","password":162,"geo_precision":"street","state":"OH","pin":162},"type":"Feature","geometry":{"type":"Point","coordinates":[-84.367122,41.278624]}},{"properties":{"city":"Defiance","status":"Active","ppv":"Yes","zip":"43512","region":"Ayersville","service packages":"Platinum Bundle,Basic HD","township":null,"last":"Ankney","stbs allowed":5,"geo_score":0.902,"first":"Charles","ppv limit":"Unlimited","customer id":"C-00075","phone":4193951967,"whdvr":"No","id":"abn5pr68rg3z","address":"28323 Rohn Rd.","login":"Ankney","password":1967,"geo_precision":"range","state":"OH","pin":1967},"type":"Feature","geometry":{"type":"Point","coordinates":[-84.281049,41.239304]}},{"properties":{"city":"Defiance","status":"Active","ppv":"Yes","zip":"43512","region":"Ayersville","service packages":"Gold Bundle","township":null,"last":"Ankney","stbs allowed":4,"geo_score":0.902,"first":"Lora","ppv limit":"Unlimited","customer id":"C-00234","phone":4193951115,"whdvr":"No","id":"abn5prfn6vtm","address":"29141 Steinmaier Rd.","login":"Ankney","password":1234,"geo_precision":"range","state":"OH","pin":1234},"type":"Feature","geometry":{"type":"Point","coordinates":[-84.259833,41.240811]}},{"properties":{"city":"Defiance","status":"Active","ppv":"Yes","zip":"43512","region":"Ayersville","service packages":"Gold Bundle","township":null,"last":"Antoine","stbs allowed":4,"geo_score":0.902,"first":"Randy","ppv limit":"Unlimited","customer id":"C-00829","phone":4193951977,"whdvr":"No","id":"abn5prj82vwp","address":"1576 Standley Rd.","login":"Antoine","password":1977,"geo_precision":"range","state":"OH","pin":1977},"type":"Feature","geometry":{"type":"Point","coordinates":[-84.328633,41.268115]}},{"properties":{"city":"Defiance","status":"Active","ppv":"Yes","zip":"43512","region":"Ayersville","service packages":"Gold Bundle","township":"Richland Township","last":"Antoine","stbs allowed":3,"geo_score":0.823,"first":"Caleb","ppv limit":"Unlimited","customer id":"C-00516","phone":4193952230,"whdvr":"No","id":"abn5prl4j2rx","address":"26172 Standley","login":"Antoine","password":2230,"geo_precision":"range","state":"OH","pin":2230},"type":"Feature","geometry":{"type":"Point","coordinates":[-84.321,41.267937]}},{"properties":{"city":"Defiance","status":"Inactive","ppv":"Yes","zip":"43512","region":"Ayersville","service packages":"Platinum Bundle","township":null,"last":"Auch","stbs allowed":3,"geo_score":0.902,"first":"Shelly","ppv limit":"Unlimited","customer id":"C-00414","phone":4193952369,"whdvr":"No","id":"abn5pr6ky5sd","address":"28292 Rohn Rd.","login":"Auch","password":2369,"geo_precision":"range","state":"OH","pin":2369},"type":"Feature","geometry":{"type":"Point","coordinates":[-84.281309,41.239075]}},{"properties":{"city":"Defiance","status":"Active","ppv":"Yes","zip":"43512","region":"Ayersville","service packages":"basic package","township":null,"last":"Ayersville","stbs allowed":3,"geo_score":0.707,"first":"Carry-out","ppv limit":"Unlimited","customer id":"C-00002","phone":4193951001,"whdvr":"No","id":"abn5prcnw2kv","address":"27986 Ayersville Rd.","login":"Ayersville","password":1001,"geo_precision":"street","state":"OH","pin":1001},"type":"Feature","geometry":{"type":"Point","coordinates":[-84.323816,41.258725]}},{"properties":{"city":"Defiance","status":"Active","ppv":"Yes","zip":"43512","region":"Ayersville","service packages":"testing,Basic","township":null,"last":"Ayersville","stbs allowed":5,"geo_score":0.902,"first":"Test","ppv limit":"Unlimited","customer id":"395-5000","phone":4193955000,"whdvr":"No","id":"abn5prktjlrq","address":"27932 Watson Road","login":"test","password":5000,"geo_precision":"range","state":"OH","pin":5000},"type":"Feature","geometry":{"type":"Point","coordinates":[-84.286821,41.23822]}},{"properties":{"city":"Ayersville","status":"Active","ppv":"Yes","zip":"43512","region":"Ayersville","service packages":"testing,Platinum Bundle,Extended HD","township":null,"last":"Ayersville Display","stbs allowed":24,"geo_score":0.902,"first":null,"ppv limit":"Unlimited","customer id":"3","phone":4193952523,"whdvr":"No","id":"abn5pr6cdevl","address":"27932 Watson Rd","login":"Display","password":2222,"geo_precision":"range","state":"OH","pin":2222},"type":"Feature","geometry":{"type":"Point","coordinates":[-84.286821,41.23822]}},{"properties":{"city":"Defiance","status":"Active","ppv":"Yes","zip":"43512","region":"Ayersville","service packages":"Gold Bundle","township":null,"last":"Baldwin","stbs allowed":3,"geo_score":0.902,"first":"Kay","ppv limit":"Unlimited","customer id":"C-00737","phone":4193951873,"whdvr":"No","id":"abn5prckhd73","address":"15386 Dohoney Rd.","login":"Baldwin","password":1873,"geo_precision":"range","state":"OH","pin":1873},"type":"Feature","geometry":{"type":"Point","coordinates":[-84.324097,41.218144]}},{"properties":{"city":"Defiance","status":"Active","ppv":"Yes","zip":"43512","region":"Ayersville","service packages":"Platinum Bundle,ENCORE\\STARS PACKAGE","township":null,"last":"Baldwin","stbs allowed":5,"geo_score":0.707,"first":"Daniel","ppv limit":"Unlimited","customer id":"C-00736","phone":4193951872,"whdvr":"No","id":"abn5prccm0cj","address":"27759 Ayersville Rd.","login":"Baldwin","password":1872,"geo_precision":"street","state":"OH","pin":1872},"type":"Feature","geometry":{"type":"Point","coordinates":[-84.323816,41.258725]}},{"properties":{"city":"Holgate","status":"Active","ppv":"Yes","zip":"43512","region":"Ayersville","service packages":"Platinum Bundle","township":null,"last":"Bartley","stbs allowed":5,"geo_score":0.634,"first":"Robert &amp; Stacy","ppv limit":"Unlimited","customer id":"C-00232","phone":4193951896,"whdvr":"No","id":"abn5prgl137u","address":"30705 Standley Rd.","login":"Bartley","password":1896,"geo_precision":"street","state":"OH","pin":1896},"type":"Feature","geometry":{"type":"Point","coordinates":[-84.246727,41.267784]}},{"properties":{"city":"Defiance","status":"Active","ppv":"Yes","zip":"43512","region":"Ayersville","service packages":"Gold Bundle","township":null,"last":"Bauman","stbs allowed":3,"geo_score":0.64,"first":"Jeanne","ppv limit":"Unlimited","customer id":"C-00323","phone":4193951439,"whdvr":"No","id":"abn5prez9r21","address":"27418 Ayersville","login":"Bauman","password":1439,"geo_precision":"street","state":"OH","pin":1439},"type":"Feature","geometry":{"type":"Point","coordinates":[-84.323816,41.258725]}},{"properties":{"city":"Defiance","status":"Active","ppv":"Yes","zip":"43512","region":"Ayersville","service packages":"Platinum Bundle,CINEMAX &amp; HBO","township":null,"last":"Beardsley","stbs allowed":2,"geo_score":0.707,"first":"Doug","ppv limit":"Unlimited","customer id":"C-00571","phone":4193951707,"whdvr":"No","id":"abn5prg57rap","address":"28202 Ayersville Rd.","login":"Beardsley","password":1707,"geo_precision":"street","state":"OH","pin":1707},"type":"Feature","geometry":{"type":"Point","coordinates":[-84.323816,41.258725]}},{"properties":{"city":"Defiance","status":"Active","ppv":"Yes","zip":"43512","region":"Ayersville","service packages":"Gold Bundle","township":null,"last":"Bergeon","stbs allowed":3,"geo_score":0.902,"first":"Beth","ppv limit":"Unlimited","customer id":"C-00999","phone":4193952263,"whdvr":"No","id":"abn5pr5ei0vp","address":"27890 Watson Rd","login":"Bergeon","password":2263,"geo_precision":"range","state":"OH","pin":2263},"type":"Feature","geometry":{"type":"Point","coordinates":[-84.287815,41.238212]}},{"properties":{"city":"Defiance","status":"Active","ppv":"Yes","zip":"43512","region":"Ayersville","service packages":"Silver Bundle","township":null,"last":"Bidlack","stbs allowed":3,"geo_score":0.902,"first":"Gary","ppv limit":"Unlimited","customer id":"C-00124","phone":4193951747,"whdvr":"No","id":"abn5pr7xivrt","address":"14727 Harris Rd.","login":"Bidlack","password":1747,"geo_precision":"range","state":"OH","pin":1747},"type":"Feature","geometry":{"type":"Point","coordinates":[-84.266198,41.229664]}},{"properties":{"city":"Defiance","status":"Active","ppv":"Yes","zip":"43512","region":"Ayersville","service packages":"Platinum Bundle","township":null,"last":"Bird","stbs allowed":3,"geo_score":0.902,"first":"Alan","ppv limit":"Unlimited","customer id":"C-00914","phone":4193952168,"whdvr":"No","id":"abn5pr852evq","address":"28411 Blanchard Rd.","login":"Bird","password":2168,"geo_precision":"range","state":"OH","pin":2168},"type":"Feature","geometry":{"type":"Point","coordinates":[-84.281571,41.209301]}},{"properties":{"city":"Defiance","status":"Active","ppv":"Yes","zip":"43512","region":"Ayersville","service packages":"Gold Bundle,Basic HD","township":null,"last":"Boals","stbs allowed":4,"geo_score":0.707,"first":"Thomas","ppv limit":"Unlimited","customer id":"C-00598","phone":4193951736,"whdvr":"No","id":"abn5pr9s82cy","address":"27936 Ayersville Rd","login":"Boals","password":1736,"geo_precision":"street","state":"OH","pin":1736},"type":"Feature","geometry":{"type":"Point","coordinates":[-84.323816,41.258725]}},{"properties":{"city":"Defiance","status":"Active","ppv":"Yes","zip":"43512","region":"Ayersville","service packages":"Platinum Bundle","township":null,"last":"Bory","stbs allowed":5,"geo_score":0.902,"first":"Phyllis","ppv limit":"Unlimited","customer id":"C-00089","phone":4193952340,"whdvr":"No","id":"abn5pres7iog","address":"14950 Dohoney Rd","login":"Bory","password":2340,"geo_precision":"range","state":"OH","pin":2340},"type":"Feature","geometry":{"type":"Point","coordinates":[-84.324027,41.224147]}},{"properties":{"city":"Defiance","status":"Active","ppv":"Yes","zip":"43512","region":"Ayersville","service packages":"Gold Bundle","township":null,"last":"Bowling","stbs allowed":4,"geo_score":0.902,"first":"Kent","ppv limit":"Unlimited","customer id":"C-00405","phone":4193951527,"whdvr":"No","id":"abn5pr5eozw8","address":"28243 Blanchard Rd","login":"Bowling","password":1527,"geo_precision":"range","state":"OH","pin":1527},"type":"Feature","geometry":{"type":"Point","coordinates":[-84.278325,41.209275]}},{"properties":{"city":"Holgate","status":"Active","ppv":"Yes","zip":"43527","region":"Ayersville","service packages":"Lifeline (Locals Package)","township":null,"last":"Brink","stbs allowed":5,"geo_score":0.902,"first":"Burdette","ppv limit":"Unlimited","customer id":"C-00351","phone":4193951471,"whdvr":"No","id":"abn5pr74ms2h","address":"30115 Standley Rd.","login":"Brink","password":1471,"geo_precision":"range","state":"OH","pin":1471},"type":"Feature","geometry":{"type":"Point","coordinates":[-84.244347,41.267851]}},{"properties":{"city":"Defiance","status":"Active","ppv":"Yes","zip":"43512","region":"Ayersville","service packages":"Gold Bundle","township":null,"last":"Brink","stbs allowed":3,"geo_score":0.902,"first":"Annette","ppv limit":"Unlimited","customer id":"C-00494","phone":4193952390,"whdvr":"No","id":"abn5prdzs8dv","address":"28814 Blanchard Rd","login":"brink","password":2390,"geo_precision":"range","state":"OH","pin":2390},"type":"Feature","geometry":{"type":"Point","coordinates":[-84.272326,41.209159]}},{"properties":{"city":"Defiance","status":"Active","ppv":"Yes","zip":"43512","region":"Ayersville","service packages":"Gold Bundle,Basic HD","township":null,"last":"Brown","stbs allowed":4,"geo_score":0.902,"first":"Steven","ppv limit":"Unlimited","customer id":"C-00732","phone":4193951867,"whdvr":"No","id":"abn5prew3c6g","address":"28383 Bowman Rd.","login":"Brown","password":1867,"geo_precision":"range","state":"OH","pin":1867},"type":"Feature","geometry":{"type":"Point","coordinates":[-84.285118,41.223874]}},{"properties":{"city":"Defiance","status":"Active","ppv":"Yes","zip":"43512","region":"Ayersville","service packages":"Platinum Bundle,Basic HD,Extended HD","township":null,"last":"Brown","stbs allowed":5,"geo_score":0.902,"first":"Kyle","ppv limit":"Unlimited","customer id":"C-01202","phone":4193952480,"whdvr":"No","id":"abn5pr7m3jw1","address":"28821 Blanchard Rd","login":"Brown","password":2480,"geo_precision":"range","state":"OH","pin":2480},"type":"Feature","geometry":{"type":"Point","coordinates":[-84.272616,41.209307]}},{"properties":{"city":"Defiance","status":"Active","ppv":"Yes","zip":"43512","region":"Ayersville","service packages":"Gold Bundle","township":null,"last":"Brown","stbs allowed":3,"geo_score":0.815,"first":"Steven","ppv limit":"Unlimited","customer id":"C-00759","phone":4193951899,"whdvr":"No","id":"abn5pre7ojo5","address":"15526 Dohoney","login":"Brown","password":1899,"geo_precision":"range","state":"OH","pin":1899},"type":"Feature","geometry":{"type":"Point","coordinates":[-84.324126,41.216077]}},{"properties":{"city":"Defiance","status":"Active","ppv":"Yes","zip":"43512","region":"Ayersville","service packages":"Platinum Bundle","township":null,"last":"Bruce","stbs allowed":4,"geo_score":0.902,"first":"Lori","ppv limit":"Unlimited","customer id":"C-01333","phone":4193952656,"whdvr":"No","id":"abn5prfny7pc","address":"25732 Blanchard Rd","login":"Bruce","password":2656,"geo_precision":"range","state":"OH","pin":2656},"type":"Feature","geometry":{"type":"Point","coordinates":[-84.32707,41.209037]}},{"properties":{"city":"Defiance","status":"Active","ppv":"Yes","zip":"43512","region":"Ayersville","service packages":"Gold Bundle,Basic HD","township":null,"last":"Bunke","stbs allowed":4,"geo_score":0.902,"first":"D.N.","ppv limit":"Unlimited","customer id":"C-00765","phone":4193951904,"whdvr":"No","id":"abn5prexbvoe","address":"14689 Harris Rd.","login":"Bunke","password":1904,"geo_precision":"range","state":"OH","pin":1904},"type":"Feature","geometry":{"type":"Point","coordinates":[-84.26619,41.230498]}},{"properties":{"city":"Defiance","status":"Active","ppv":"Yes","zip":"43512","region":"Ayersville","service packages":"Platinum Bundle,Basic HD","township":null,"last":"Burdine","stbs allowed":3,"geo_score":0.78,"first":"Robert","ppv limit":"Unlimited","customer id":"C-00687","phone":4193952249,"whdvr":"No","id":"abn5pr5cwdmu","address":"14646 Dohoney Rd.","login":"Burdine","password":2249,"geo_precision":"range","state":"OH","pin":2249},"type":"Feature","geometry":{"type":"Point","coordinates":[-84.323857,41.225996]}},{"properties":{"city":"Defiance","status":"Active","ppv":"Yes","zip":"43512","region":"Ayersville","service packages":"Platinum Bundle","township":"Highland Township","last":"Burket","stbs allowed":4,"geo_score":0.902,"first":"Rebecca","ppv limit":"Unlimited","customer id":"C-01000","phone":4193952264,"whdvr":"No","id":"abn5pr8h66vw","address":"29023 Steinmaier Road","login":"Burket","password":2264,"geo_precision":"range","state":"OH","pin":2264},"type":"Feature","geometry":{"type":"Point","coordinates":[-84.257686,41.241657]}},{"properties":{"city":"Defiance","status":"Active","ppv":"Yes","zip":"43512","region":"Ayersville","service packages":"Platinum Bundle,Basic HD","township":null,"last":"Bush","stbs allowed":4,"geo_score":0.84,"first":"Russell","ppv limit":"Unlimited","customer id":"C-01033","phone":4193952296,"whdvr":"No","id":"abn5pr83x3sc","address":"12417 Fruit Ridge","login":"Bush","password":2296,"geo_precision":"range","state":"OH","pin":2296},"type":"Feature","geometry":{"type":"Point","coordinates":[-84.292906,41.26163]}},{"properties":{"city":"Defiance","status":"Active","ppv":"Yes","zip":"43512","region":"Ayersville","service packages":"Gold Bundle","township":null,"last":"Caraham","stbs allowed":3,"geo_score":0.902,"first":"David","ppv limit":"Unlimited","customer id":"C-00604","phone":4193951741,"whdvr":"No","id":"abn5prgga9fr","address":"28328 Rohn Rd.","login":"Caraham","password":1741,"geo_precision":"range","state":"OH","pin":1741},"type":"Feature","geometry":{"type":"Point","coordinates":[-84.280929,41.239179]}},{"properties":{"city":"Defiance","status":"Active","ppv":"Yes","zip":"43512","region":"Ayersville","service packages":"Platinum Bundle,Basic HD","township":null,"last":"Carlisle","stbs allowed":5,"geo_score":0.902,"first":"Steven &amp; Danett","ppv limit":"Unlimited","customer id":"C-00987","phone":4193952476,"whdvr":"No","id":"abn5prkaqcfu","address":"17426 Harris Rd.","login":"Carlisle","password":2476,"geo_precision":"range","state":"OH","pin":2476},"type":"Feature","geometry":{"type":"Point","coordinates":[-84.266733,41.188691]}},{"properties":{"city":"Defiance","status":"Active","ppv":"Yes","zip":"43512","region":"Ayersville","service packages":"Gold Bundle,Basic HD","township":null,"last":"Carr","stbs allowed":3,"geo_score":0.902,"first":"Robert","ppv limit":"Unlimited","customer id":"C-01113","phone":4193952386,"whdvr":"No","id":"abn5praypfw0","address":"17825 HILL ROAD","login":"Carr","password":2386,"geo_precision":"range","state":"OH","pin":2386},"type":"Feature","geometry":{"type":"Point","coordinates":[-84.276208,41.183023]}},{"properties":{"city":"Defiance","status":"Active","ppv":"Yes","zip":"43512","region":"Ayersville","service packages":"Gold Bundle,Basic HD","township":null,"last":"Carrol","stbs allowed":6,"geo_score":0.902,"first":"Tim","ppv limit":"Unlimited","customer id":"C-00534","phone":4193951667,"whdvr":"No","id":"abn5prk3v26d","address":"26845 Slusser Dr.","login":"Carrol","password":1667,"geo_precision":"range","state":"OH","pin":1667},"type":"Feature","geometry":{"type":"Point","coordinates":[-84.321898,41.247045]}},{"properties":{"city":"Defiance","status":"Active","ppv":"Yes","zip":"43512","region":"Ayersville","service packages":"Platinum Bundle","township":null,"last":"Cass","stbs allowed":3,"geo_score":0.512,"first":"Robert","ppv limit":"Unlimited","customer id":"C-00127","phone":4193951130,"whdvr":"No","id":"abn5pr5aqt94","address":"16077 Highland Center","login":"Cass","password":1130,"geo_precision":"street","state":"OH","pin":1130},"type":"Feature","geometry":{"type":"Point","coordinates":[-84.521982,41.382459]}},{"properties":{"city":"Defiance","status":"Inactive","ppv":"Yes","zip":"43512","region":"Ayersville","service packages":"Platinum Bundle","township":null,"last":"Cassity","stbs allowed":3,"geo_score":0.84,"first":"Charles","ppv limit":"Unlimited","customer id":"C-00462","phone":4193950164,"whdvr":"No","id":"abn5prcfj8pc","address":"11201 Fruit Ridge","login":"Cassity","password":164,"geo_precision":"range","state":"OH","pin":164},"type":"Feature","geometry":{"type":"Point","coordinates":[-84.295263,41.276473]}},{"properties":{"city":"Defiance","status":"Inactive","ppv":"Yes","zip":"43512","region":"Ayersville","service packages":"Platinum Bundle","township":null,"last":"Castillo","stbs allowed":4,"geo_score":0.782,"first":"Paula","ppv limit":"Unlimited","customer id":"C-01153","phone":4193951713,"whdvr":"No","id":"abn5preih773","address":"13536 Fullmer Rd Lot 15","login":null,"password":null,"geo_precision":"range","state":"OH","pin":null},"type":"Feature","geometry":{"type":"Point","coordinates":[-84.31428,41.244197]}},{"properties":{"city":"Defiance","status":"Active","ppv":"Yes","zip":"43512","region":"Ayersville","service packages":"Platinum Bundle,Basic HD","township":null,"last":"Cattel","stbs allowed":4,"geo_score":0.902,"first":"John","ppv limit":"Unlimited","customer id":"C-00021","phone":4193951020,"whdvr":"No","id":"abn5prl7cjru","address":"27789 Watson Rd.","login":"Cattel","password":1020,"geo_precision":"range","state":"OH","pin":1020},"type":"Feature","geometry":{"type":"Point","coordinates":[-84.29168,41.238338]}},{"properties":{"city":"Defiance","status":"Active","ppv":"Yes","zip":"43512","region":"Ayersville","service packages":"basic package","township":null,"last":"Cattell","stbs allowed":3,"geo_score":0.707,"first":"Ray","ppv limit":"Unlimited","customer id":"C-00563","phone":4193951699,"whdvr":"No","id":"abn5pr6kmkq0","address":"28036 Ayersville Rd.","login":"Cattell","password":1699,"geo_precision":"street","state":"OH","pin":1699},"type":"Feature","geometry":{"type":"Point","coordinates":[-84.323816,41.258725]}},{"properties":{"city":"Defiance","status":"Active","ppv":"Yes","zip":"43512","region":"Ayersville","service packages":"Platinum Bundle,Basic HD","township":null,"last":"Chamberlin","stbs allowed":5,"geo_score":0.902,"first":"John &amp; Karen","ppv limit":"Unlimited","customer id":"C-00250","phone":4193952336,"whdvr":"No","id":"abn5prf2uu0p","address":"27363 Bowman Rd","login":"Chamberlin","password":2336,"geo_precision":"range","state":"OH","pin":2336},"type":"Feature","geometry":{"type":"Point","coordinates":[-84.299575,41.223776]}},{"properties":{"city":"Defiance","status":"Active","ppv":"Yes","zip":"43512","region":"Ayersville","service packages":"Gold Bundle,Basic HD","township":null,"last":"Charbonneau","stbs allowed":4,"geo_score":0.902,"first":"James","ppv limit":"Unlimited","customer id":"C-01170","phone":4193952443,"whdvr":"No","id":"abn5preqv121","address":"14559 Harris Rd.","login":"Charbonneau","password":2443,"geo_precision":"range","state":"OH","pin":2443},"type":"Feature","geometry":{"type":"Point","coordinates":[-84.266165,41.233359]}},{"properties":{"city":"Defiance","status":"Active","ppv":"Yes","zip":"43512","region":"Ayersville","service packages":"Platinum Bundle","township":null,"last":"Clark","stbs allowed":5,"geo_score":0.84,"first":"Sandy","ppv limit":"Unlimited","customer id":"C-000102","phone":4193952672,"whdvr":"No","id":"abn5pr76ltif","address":"11356 Fruit Ridge","login":"Clark","password":2672,"geo_precision":"range","state":"OH","pin":2672},"type":"Feature","geometry":{"type":"Point","coordinates":[-84.295639,41.27481]}},{"properties":{"city":"Defiance","status":"Active","ppv":"Yes","zip":"43512","region":"Ayersville","service packages":"Gold Bundle","township":null,"last":"Colwell","stbs allowed":3,"geo_score":0.84,"first":"Connie","ppv limit":"Unlimited","customer id":"C-01047","phone":4193952663,"whdvr":"No","id":"abn5prgjmurv","address":"12513 Fruit Ridge","login":"Colwell","password":2663,"geo_precision":"range","state":"OH","pin":2663},"type":"Feature","geometry":{"type":"Point","coordinates":[-84.291861,41.259487]}},{"properties":{"city":"Defiance","status":"Inactive","ppv":"Yes","zip":"43512","region":"Ayersville","service packages":"Platinum Bundle","township":null,"last":"Conley","stbs allowed":2,"geo_score":0.902,"first":"Ken","ppv limit":"Unlimited","customer id":"1274","phone":4193951723,"whdvr":"No","id":"abn5pra15wan","address":"15535 Harris Rd.","login":"Conley","password":1723,"geo_precision":"range","state":"OH","pin":1723},"type":"Feature","geometry":{"type":"Point","coordinates":[-84.264536,41.216886]}},{"properties":{"city":"Defiance","status":"Active","ppv":"Yes","zip":"43512","region":"Ayersville","service packages":"Gold Bundle","township":null,"last":"Conley","stbs allowed":3,"geo_score":0.902,"first":"Jerry","ppv limit":"Unlimited","customer id":"C-01182","phone":4193952455,"whdvr":"No","id":"abn5pr9x4hws","address":"15513 Harris Rd.","login":"Conley","password":2455,"geo_precision":"range","state":"OH","pin":2455},"type":"Feature","geometry":{"type":"Point","coordinates":[-84.264525,41.217316]}},{"properties":{"city":"Defiance","status":"Active","ppv":"Yes","zip":"43512","region":"Ayersville","service packages":"Platinum Bundle","township":null,"last":"Corwin","stbs allowed":5,"geo_score":0.605,"first":"Steve","ppv limit":"Unlimited","customer id":"C-00533","phone":4193951999,"whdvr":"No","id":"abn5prejzom8","address":"27789 Ayersville Rd  Apt A","login":"Corwin","password":1999,"geo_precision":"street","state":"OH","pin":1999},"type":"Feature","geometry":{"type":"Point","coordinates":[-84.323816,41.258725]}},{"properties":{"city":"Defiance","status":"Active","ppv":"Yes","zip":"43512","region":"Ayersville","service packages":"basic package","township":null,"last":"Cowle","stbs allowed":3,"geo_score":0.902,"first":"William","ppv limit":"Unlimited","customer id":"C-00328","phone":4193951444,"whdvr":"No","id":"abn5pre7kzu3","address":"27431 Blanchard Rd.","login":"Cowle","password":1444,"geo_precision":"range","state":"OH","pin":1444},"type":"Feature","geometry":{"type":"Point","coordinates":[-84.303532,41.209211]}},{"properties":{"city":"Defiance","status":"Active","ppv":"Yes","zip":"43512","region":"Ayersville","service packages":"Platinum Bundle","township":null,"last":"Craft","stbs allowed":3,"geo_score":0.78,"first":"Jeff","ppv limit":"Unlimited","customer id":"C-00630","phone":4193952309,"whdvr":"No","id":"abn5prd1950v","address":"14598 Dohoney Rd.","login":"Craft","password":2309,"geo_precision":"range","state":"OH","pin":2309},"type":"Feature","geometry":{"type":"Point","coordinates":[-84.323857,41.225999]}},{"properties":{"city":"Ayersville","status":"Active","ppv":"Yes","zip":"43512","region":"Ayersville","service packages":"Platinum Bundle,Basic HD","township":null,"last":"Crockett","stbs allowed":3,"geo_score":0.902,"first":"Milo","ppv limit":"Unlimited","customer id":"3951170","phone":4193951170,"whdvr":"No","id":"abn5prgza4jv","address":"29052 Hagy Rd.","login":"Crockett","password":1170,"geo_precision":"range","state":"OH","pin":1170},"type":"Feature","geometry":{"type":"Point","coordinates":[-84.26515,41.255942]}},{"properties":{"city":"Defiance","status":"Active","ppv":"Yes","zip":"43512","region":"Ayersville","service packages":"Gold Bundle","township":null,"last":"Cromly","stbs allowed":2,"geo_score":0.902,"first":"Steven","ppv limit":"Unlimited","customer id":"C-00845","phone":4193951993,"whdvr":"No","id":"abn5pr5ui8gq","address":"28491 Blanchard Rd.","login":"Cromly","password":1993,"geo_precision":"range","state":"OH","pin":1993},"type":"Feature","geometry":{"type":"Point","coordinates":[-84.283197,41.209307]}},{"properties":{"city":"Defiance","status":"Active","ppv":"Yes","zip":"43512","region":"Ayersville","service packages":"Gold Bundle","township":null,"last":"Culp","stbs allowed":4,"geo_score":0.902,"first":"Jeff","ppv limit":"Unlimited","customer id":"C-01058","phone":4193952327,"whdvr":"No","id":"abn5prgxop9h","address":"14755 Dohoney Rd","login":"Culp","password":2327,"geo_precision":"range","state":"OH","pin":2327},"type":"Feature","geometry":{"type":"Point","coordinates":[-84.323857,41.225987]}},{"properties":{"city":"Defiance","status":"Active","ppv":"Yes","zip":"43512","region":"Ayersville","service packages":"Gold Bundle,ENCORE\\STARS PACKAGE","township":null,"last":"Davenport","stbs allowed":4,"geo_score":0.882,"first":"Bill","ppv limit":"Unlimited","customer id":"C-01329","phone":4193952652,"whdvr":"No","id":"abn5prahfja3","address":"13912 Fruit Ridge Rd.","login":"Davenport","password":2652,"geo_precision":"range","state":"OH","pin":2652},"type":"Feature","geometry":{"type":"Point","coordinates":[-84.285509,41.240169]}},{"properties":{"city":"Defiance","status":"Active","ppv":"Yes","zip":"43512","region":"Ayersville","service packages":"Extended Package,Basic HD","township":"Highland Township","last":"Davenport","stbs allowed":5,"geo_score":0.902,"first":"Brandon","ppv limit":"Unlimited","customer id":"C-00628","phone":4193950187,"whdvr":"No","id":"abn5preaec07","address":"27956 Watson Road","login":"Davenport","password":187,"geo_precision":"range","state":"OH","pin":187},"type":"Feature","geometry":{"type":"Point","coordinates":[-84.286319,41.238226]}},{"properties":{"city":"Defiance","status":"Active","ppv":"Yes","zip":"43512","region":"Ayersville","service packages":"Platinum Bundle","township":null,"last":"Davis","stbs allowed":3,"geo_score":0.902,"first":"Terry","ppv limit":"Unlimited","customer id":"C-00746","phone":4193951885,"whdvr":"No","id":"abn5prhpnrjk","address":"15885 Hill Rd.","login":"Davis","password":1885,"geo_precision":"range","state":"OH","pin":1885},"type":"Feature","geometry":{"type":"Point","coordinates":[-84.275921,41.216309]}},{"properties":{"city":"Defiance","status":"Active","ppv":"Yes","zip":"43512","region":"Ayersville","service packages":"Gold Bundle","township":null,"last":"Delano","stbs allowed":4,"geo_score":0.707,"first":"John","ppv limit":"Unlimited","customer id":"C-00823","phone":4193951971,"whdvr":"No","id":"abn5pr5jwvpm","address":"28655 Ayersville Rd.","login":"Delano","password":1971,"geo_precision":"street","state":"OH","pin":1971},"type":"Feature","geometry":{"type":"Point","coordinates":[-84.323816,41.258725]}},{"properties":{"city":"Defiance","status":"Active","ppv":"Yes","zip":"43512","region":"Ayersville","service packages":"Gold Bundle,Basic HD","township":null,"last":"Delano","stbs allowed":5,"geo_score":0.902,"first":"Dave","ppv limit":"Unlimited","customer id":"C-00106","phone":4193951106,"whdvr":"No","id":"abn5pre4ksje","address":"29652 New Bavaria Rd.","login":"Delano","password":1106,"geo_precision":"range","state":"OH","pin":1106},"type":"Feature","geometry":{"type":"Point","coordinates":[-84.249773,41.250237]}},{"properties":{"city":"Defiance","status":"Active","ppv":"Yes","zip":"43512","region":"Ayersville","service packages":"Gold Bundle","township":"Highland Township","last":"Dinnen","stbs allowed":3,"geo_score":0.707,"first":"Rev. Clarence","ppv limit":"Unlimited","customer id":"C-00475","phone":4193951599,"whdvr":"No","id":"abn5prghsq8d","address":"27770 Ayersville Rd.","login":"Dinnen","password":1599,"geo_precision":"street","state":"OH","pin":1599},"type":"Feature","geometry":{"type":"Point","coordinates":[-84.323816,41.258725]}},{"properties":{"city":"Defiance","status":"Active","ppv":"Yes","zip":"43512","region":"Ayersville","service packages":"Gold Bundle","township":null,"last":"Dockery","stbs allowed":3,"geo_score":0.805,"first":"Tina","ppv limit":"Unlimited","customer id":"C-00050","phone":4193951052,"whdvr":"No","id":"abn5pr9wbepf","address":"14871 Dohoney Rd.","login":"Dockery","password":1052,"geo_precision":"street","state":"OH","pin":1052},"type":"Feature","geometry":{"type":"Point","coordinates":[-84.323857,41.225978]}},{"properties":{"city":"Defiance","status":"Active","ppv":"Yes","zip":"43512","region":"Ayersville","service packages":"basic package","township":null,"last":"Doster","stbs allowed":4,"geo_score":0.902,"first":"Amanda","ppv limit":"Unlimited","customer id":"C-00625","phone":4193951693,"whdvr":"No","id":"abn5prcb7f12","address":"13519 Oris Ave","login":"Doster","password":1693,"geo_precision":"range","state":"OH","pin":1693},"type":"Feature","geometry":{"type":"Point","coordinates":[-84.319464,41.250943]}},{"properties":{"city":"Defiance","status":"Active","ppv":"Yes","zip":"43512","region":"Ayersville","service packages":"Extended Package,Basic HD,CINEMAX &amp; HBO,SHOWTIME AND TMC","township":null,"last":"Dunbar","stbs allowed":4,"geo_score":0.902,"first":"Sara","ppv limit":"Unlimited","customer id":"C-00114","phone":4193950196,"whdvr":"No","id":"abn5prcrzuie","address":"29037 Steinmaier Rd.","login":"Dunbar","password":196,"geo_precision":"range","state":"OH","pin":196},"type":"Feature","geometry":{"type":"Point","coordinates":[-84.257896,41.241516]}},{"properties":{"city":"Defiance","status":"Active","ppv":"Yes","zip":"43512","region":"Ayersville","service packages":"basic package","township":null,"last":"Eagle","stbs allowed":3,"geo_score":0.777,"first":"Michael","ppv limit":"Unlimited","customer id":"1319","phone":4193952110,"whdvr":"No","id":"abn5pr61qhac","address":"27844 Hagy","login":"Eagle","password":2110,"geo_precision":"range","state":"OH","pin":2110},"type":"Feature","geometry":{"type":"Point","coordinates":[-84.28473,41.260682]}},{"properties":{"city":"Defiance","status":"Active","ppv":"Yes","zip":"43512","region":"Ayersville","service packages":"Gold Bundle,Basic HD","township":null,"last":"Elrod","stbs allowed":4,"geo_score":0.756,"first":"Jerry","ppv limit":"Unlimited","customer id":"C-01344","phone":4193951045,"whdvr":"No","id":"abn5pr8c34lk","address":"13635 Oris","login":"Elrod","password":1045,"geo_precision":"range","state":"OH","pin":1045},"type":"Feature","geometry":{"type":"Point","coordinates":[-84.319468,41.250738]}},{"properties":{"city":"Defiance","status":"Active","ppv":"Yes","zip":"43512","region":"Ayersville","service packages":"Platinum Bundle,Basic HD,CINEMAX &amp; HBO,ENCORE\\STARS PACKAGE,SHOWTIME AND TMC","township":null,"last":"Endsley","stbs allowed":4,"geo_score":0.902,"first":"Larry","ppv limit":"Unlimited","customer id":"C-00398","phone":4193951519,"whdvr":"No","id":"abn5pr6xswvk","address":"14622 Harris Road","login":"Endsley","password":1519,"geo_precision":"range","state":"OH","pin":1519},"type":"Feature","geometry":{"type":"Point","coordinates":[-84.266321,41.231951]}},{"properties":{"city":"Defiance","status":"Active","ppv":"Yes","zip":"43512","region":"Ayersville","service packages":"Gold Bundle,CINEMAX &amp; HBO","township":null,"last":"ENGEL","stbs allowed":3,"geo_score":0.84,"first":"RANDY","ppv limit":"Unlimited","customer id":"C-00942","phone":4193951617,"whdvr":"No","id":"abn5pr61uvxl","address":"30475 New Bavaria","login":"ENGEL","password":1617,"geo_precision":"range","state":"OH","pin":1617},"type":"Feature","geometry":{"type":"Point","coordinates":[-84.238075,41.239837]}},{"properties":{"city":"Holgate","status":"Active","ppv":"Yes","zip":"43527","region":"Ayersville","service packages":"Gold Bundle","township":null,"last":"Engel","stbs allowed":2,"geo_score":0.902,"first":"Robert &amp; Kimberly","ppv limit":"Unlimited","customer id":"C-00992","phone":4193952254,"whdvr":"No","id":"abn5pr9cnknp","address":"11576 Snyder Rd.","login":"Engel","password":2254,"geo_precision":"range","state":"OH","pin":2254},"type":"Feature","geometry":{"type":"Point","coordinates":[-84.246821,41.27576]}},{"properties":{"city":"Defiance","status":"Active","ppv":"Yes","zip":"43512","region":"Ayersville","service packages":"Gold Bundle","township":null,"last":"Engel","stbs allowed":2,"geo_score":0.902,"first":"Duane","ppv limit":"Unlimited","customer id":"C-00107","phone":4193951107,"whdvr":"No","id":"abn5prf6qysl","address":"30341 Steinmaier Rd.","login":"Engel","password":1107,"geo_precision":"range","state":"OH","pin":1107},"type":"Feature","geometry":{"type":"Point","coordinates":[-84.239425,41.245747]}},{"properties":{"city":"Defiance","status":"Active","ppv":"Yes","zip":"43512","region":"Ayersville","service packages":"Platinum Bundle,Basic HD","township":null,"last":"Englehart","stbs allowed":5,"geo_score":0.902,"first":"Nick","ppv limit":"Unlimited","customer id":"1260","phone":4193951015,"whdvr":"No","id":"abn5prf4z1ec","address":"26393 Bowman Rd.","login":"Englehart","password":1015,"geo_precision":"range","state":"OH","pin":1015},"type":"Feature","geometry":{"type":"Point","coordinates":[-84.314462,41.223719]}},{"properties":{"city":"Defiance","status":"Active","ppv":"Yes","zip":"43512","region":"Ayersville","service packages":"Platinum Bundle","township":null,"last":"Erickson","stbs allowed":3,"geo_score":0.902,"first":"Leon","ppv limit":"Unlimited","customer id":"C-01071","phone":4193952342,"whdvr":"No","id":"abn5prfn6axa","address":"15487 Harris Rd.","login":"Erickson","password":2222,"geo_precision":"range","state":"OH","pin":2222},"type":"Feature","geometry":{"type":"Point","coordinates":[-84.264692,41.217805]}},{"properties":{"city":"Defiance","status":"Active","ppv":"Yes","zip":"43512","region":"Ayersville","service packages":"Platinum Bundle,Extended HD","township":null,"last":"Ernst","stbs allowed":9,"geo_score":0.902,"first":"James","ppv limit":"Unlimited","customer id":"C-00969","phone":4193951539,"whdvr":"No","id":"abn5prg0i3th","address":"15565 Harris Rd.","login":"Ernst","password":2222,"geo_precision":"range","state":"OH","pin":2222},"type":"Feature","geometry":{"type":"Point","coordinates":[-84.264593,41.216339]}},{"properties":{"city":"Defiance","status":"Active","ppv":"Yes","zip":"43512","region":"Ayersville","service packages":"Platinum Bundle","township":null,"last":"Extine","stbs allowed":3,"geo_score":0.902,"first":"Jon","ppv limit":"Unlimited","customer id":"C-00012","phone":4193951010,"whdvr":"No","id":"abn5pr8ovpji","address":"28215 Hoffman Rd.","login":"Extine","password":1010,"geo_precision":"range","state":"OH","pin":1010},"type":"Feature","geometry":{"type":"Point","coordinates":[-84.282739,41.194782]}},{"properties":{"city":"Defiance","status":"Active","ppv":"Yes","zip":"43512","region":"Ayersville","service packages":"Platinum Bundle","township":null,"last":"Feeney","stbs allowed":3,"geo_score":0.902,"first":"Sue","ppv limit":"Unlimited","customer id":"C-00718","phone":4193951843,"whdvr":"No","id":"abn5prhmwz98","address":"14829 Harris Rd.","login":"Feeney","password":1843,"geo_precision":"range","state":"OH","pin":1843},"type":"Feature","geometry":{"type":"Point","coordinates":[-84.26621,41.227437]}},{"properties":{"city":"Defiance","status":"Active","ppv":"Yes","zip":"43512","region":"Ayersville","service packages":"Gold Bundle","township":null,"last":"Feeney","stbs allowed":3,"geo_score":0.902,"first":"Mark","ppv limit":"Unlimited","customer id":"C-01039","phone":4193952302,"whdvr":"No","id":"abn5prhglyhx","address":"27919 Watson Rd.","login":"Feeney","password":2302,"geo_precision":"range","state":"OH","pin":2302},"type":"Feature","geometry":{"type":"Point","coordinates":[-84.287363,41.238367]}},{"properties":{"city":"Defiance","status":"Active","ppv":"Yes","zip":"43512","region":"Ayersville","service packages":"Gold Bundle","township":null,"last":"Ferguson","stbs allowed":3,"geo_score":0.512,"first":"Pam","ppv limit":"Unlimited","customer id":"C-00331","phone":4193952115,"whdvr":"No","id":"abn5pr8hin7v","address":"15681 Highland Center","login":"Ferguson","password":2115,"geo_precision":"street","state":"OH","pin":2115},"type":"Feature","geometry":{"type":"Point","coordinates":[-84.521982,41.382459]}},{"properties":{"city":"Defiance","status":"Active","ppv":"Yes","zip":"43512","region":"Ayersville","service packages":"Silver Bundle","township":null,"last":"Fickel","stbs allowed":3,"geo_score":0.902,"first":"Vanessa","ppv limit":"Unlimited","customer id":"C-00223","phone":4193952236,"whdvr":"No","id":"abn5prl02kwq","address":"28814 Blanchard Rd","login":"Fickel","password":2236,"geo_precision":"range","state":"OH","pin":2236},"type":"Feature","geometry":{"type":"Point","coordinates":[-84.272326,41.209159]}},{"properties":{"city":"Defiance","status":"Inactive","ppv":"Yes","zip":"43512","region":"Ayersville","service packages":"Lifeline (Locals Package)","township":null,"last":"Fields","stbs allowed":3,"geo_score":0.902,"first":"Arthur","ppv limit":"Unlimited","customer id":"C-00463","phone":4193951587,"whdvr":"No","id":"abn5prbptbu6","address":"25114 Watson Rd.","login":"Fields","password":1587,"geo_precision":"range","state":"OH","pin":1587},"type":"Feature","geometry":{"type":"Point","coordinates":[-84.339956,41.238226]}},{"properties":{"city":"Defiance","status":"Active","ppv":"Yes","zip":"43512","region":"Ayersville","service packages":"Platinum Bundle","township":null,"last":"Firman","stbs allowed":5,"geo_score":0.902,"first":"Donald","ppv limit":"Unlimited","customer id":"C-00196","phone":4193951303,"whdvr":"No","id":"abn5pre8i471","address":"26426 Bowman Rd.","login":"Firman","password":1303,"geo_precision":"range","state":"OH","pin":1303},"type":"Feature","geometry":{"type":"Point","coordinates":[-84.314827,41.223571]}},{"properties":{"city":"Defiance","status":"Active","ppv":"Yes","zip":"43512","region":"Ayersville","service packages":"Gold Bundle,Basic HD","township":null,"last":"Fishpaw","stbs allowed":4,"geo_score":0.902,"first":"Robert","ppv limit":"Unlimited","customer id":"C-00855","phone":4193952106,"whdvr":"No","id":"abn5prk49q91","address":"26650 Blanchard Rd.","login":"Fishpaw","password":2106,"geo_precision":"range","state":"OH","pin":2106},"type":"Feature","geometry":{"type":"Point","coordinates":[-84.307734,41.209058]}},{"properties":{"city":"Defiance","status":"Active","ppv":"Yes","zip":"43512","region":"Ayersville","service packages":"Extended Package,Basic HD","township":null,"last":"Florence","stbs allowed":6,"geo_score":0.902,"first":"Joe","ppv limit":"Unlimited","customer id":"C-00353","phone":4193950104,"whdvr":"No","id":"abn5prij4ww4","address":"27248 Standley Rd.","login":"Florence","password":104,"geo_precision":"range","state":"OH","pin":104},"type":"Feature","geometry":{"type":"Point","coordinates":[-84.300848,41.267833]}},{"properties":{"city":"Defiance","status":"Active","ppv":"Yes","zip":"43512","region":"Ayersville","service packages":"Platinum Bundle","township":null,"last":"Flory","stbs allowed":3,"geo_score":0.902,"first":"Steve","ppv limit":"Unlimited","customer id":"C-01038","phone":4193951014,"whdvr":"No","id":"abn5pr6d7lw6","address":"30541 Steinmaier Rd.","login":"Flory","password":1014,"geo_precision":"range","state":"OH","pin":1014},"type":"Feature","geometry":{"type":"Point","coordinates":[-84.227531,41.24597]}},{"properties":{"city":"Defiance","status":"Active","ppv":"Yes","zip":"43512","region":"Ayersville","service packages":"Platinum Bundle","township":null,"last":"Flory","stbs allowed":8,"geo_score":0.882,"first":"Matt","ppv limit":"Unlimited","customer id":"C-00476","phone":4193951600,"whdvr":"No","id":"abn5pr9c05ep","address":"13783 Fruit Ridge Rd.","login":"Flory","password":1600,"geo_precision":"range","state":"OH","pin":1600},"type":"Feature","geometry":{"type":"Point","coordinates":[-84.285347,41.242285]}},{"properties":{"city":"Defiance","status":"Active","ppv":"Yes","zip":"43512","region":"Ayersville","service packages":"Gold Bundle,Basic HD","township":null,"last":"Forbess","stbs allowed":4,"geo_score":0.707,"first":"Chad","ppv limit":"Unlimited","customer id":"1469","phone":4193952442,"whdvr":"No","id":"abn5pr7sl23d","address":"27632 Ayersville Rd.","login":"Forbess","password":2442,"geo_precision":"street","state":"OH","pin":2442},"type":"Feature","geometry":{"type":"Point","coordinates":[-84.323816,41.258725]}},{"properties":{"city":"Defiance","status":"Active","ppv":"Yes","zip":"43512","region":"Ayersville","service packages":"Platinum Bundle","township":null,"last":"Frederick","stbs allowed":6,"geo_score":0.902,"first":"Dan","ppv limit":"Unlimited","customer id":"C-00583","phone":4193951720,"whdvr":"No","id":"abn5prguxdgz","address":"27872 Watson Rd.","login":"Frederick","password":1720,"geo_precision":"range","state":"OH","pin":1720},"type":"Feature","geometry":{"type":"Point","coordinates":[-84.288096,41.238208]}},{"properties":{"city":"Defiance","status":"Active","ppv":"Yes","zip":"43512","region":"Ayersville","service packages":"Gold Bundle","township":null,"last":"Fritz","stbs allowed":3,"geo_score":0.902,"first":"Alan","ppv limit":"Unlimited","customer id":"C-01175","phone":4193952448,"whdvr":"No","id":"abn5prkojq17","address":"29630 Standley Rd.","login":"Fritz","password":2448,"geo_precision":"range","state":"OH","pin":2448},"type":"Feature","geometry":{"type":"Point","coordinates":[-84.253863,41.267712]}},{"properties":{"city":"Holgate","status":"Active","ppv":"Yes","zip":"43527","region":"Ayersville","service packages":"basic package","township":null,"last":"Fritz","stbs allowed":2,"geo_score":0.482,"first":"Esther","ppv limit":"Unlimited","customer id":"C-00965","phone":4193952229,"whdvr":"No","id":"abn5prkh6n2d","address":"18-447 Cty Rd. G1","login":"Fritz","password":2229,"geo_precision":"street","state":"OH","pin":2229},"type":"Feature","geometry":{"type":"Point","coordinates":[-84.190727,41.260222]}},{"properties":{"city":"Defiance","status":"Active","ppv":"Yes","zip":"43512","region":"Ayersville","service packages":"Platinum Bundle","township":null,"last":"Froelich","stbs allowed":4,"geo_score":0.902,"first":"Barry","ppv limit":"Unlimited","customer id":"C-00467","phone":4193951591,"whdvr":"No","id":"abn5pri08mnp","address":"27622 Hoffman Rd.","login":"Froelich","password":1591,"geo_precision":"range","state":"OH","pin":1591},"type":"Feature","geometry":{"type":"Point","coordinates":[-84.285834,41.194697]}},{"properties":{"city":"Defiance","status":"Active","ppv":"Yes","zip":"43512","region":"Ayersville","service packages":"Platinum Bundle,Basic HD","township":null,"last":"Froelich","stbs allowed":9,"geo_score":0.707,"first":"Michael","ppv limit":"Unlimited","customer id":"C-00513","phone":4193951642,"whdvr":"No","id":"abn5prjw6ddz","address":"28224 Ayersville Rd.","login":"Froelich","password":1642,"geo_precision":"street","state":"OH","pin":1642},"type":"Feature","geometry":{"type":"Point","coordinates":[-84.323816,41.258725]}},{"properties":{"city":"Defiance","status":"Active","ppv":"Yes","zip":"43512","region":"Ayersville","service packages":"Silver Bundle","township":null,"last":"Fruth","stbs allowed":3,"geo_score":0.902,"first":"Randall","ppv limit":"Unlimited","customer id":"C-00918","phone":4193952174,"whdvr":"No","id":"abn5prd1w8uh","address":"16343 Painter Rd.","login":"Fruth","password":2174,"geo_precision":"range","state":"OH","pin":2174},"type":"Feature","geometry":{"type":"Point","coordinates":[-84.295241,41.204486]}},{"properties":{"city":"Defiance","status":"Active","ppv":"Yes","zip":"43512","region":"Ayersville","service packages":"basic package","township":null,"last":"Gause","stbs allowed":4,"geo_score":0.902,"first":"Betty","ppv limit":"Unlimited","customer id":"C-01197","phone":4193952471,"whdvr":"No","id":"abn5pr8k98sr","address":"29220 Standley Rd.","login":"Gause","password":2471,"geo_precision":"range","state":"OH","pin":2471},"type":"Feature","geometry":{"type":"Point","coordinates":[-84.259313,41.267712]}},{"properties":{"city":"Defiance","status":"Active","ppv":"Yes","zip":"43512","region":"Ayersville","service packages":"Gold Bundle","township":null,"last":"Gerken","stbs allowed":2,"geo_score":0.902,"first":"Dan","ppv limit":"Unlimited","customer id":"C-01143","phone":4193951718,"whdvr":"No","id":"abn5pr8uvrgm","address":"27944 Hoffman Rd.","login":"Gerken","password":1718,"geo_precision":"range","state":"OH","pin":1718},"type":"Feature","geometry":{"type":"Point","coordinates":[-84.291707,41.194583]}},{"properties":{"city":"Defiance","status":"Active","ppv":"Yes","zip":"43512","region":"Ayersville","service packages":"Gold Bundle,Basic HD","township":null,"last":"Gerken","stbs allowed":3,"geo_score":0.902,"first":"Douglas","ppv limit":"Unlimited","customer id":"C-00624","phone":4193951762,"whdvr":"No","id":"abn5pr64ke6e","address":"25828 Watson Rd.","login":"Gerken","password":1762,"geo_precision":"range","state":"OH","pin":1762},"type":"Feature","geometry":{"type":"Point","coordinates":[-84.326337,41.238127]}},{"properties":{"city":"Defiance","status":"Active","ppv":"Yes","zip":"43512","region":"Ayersville","service packages":"Platinum Bundle,Basic HD","township":null,"last":"Giesige","stbs allowed":3,"geo_score":0.902,"first":"Aaron","ppv limit":"Unlimited","customer id":"C-00303","phone":4193951199,"whdvr":"No","id":"abn5pr9jneja","address":"17070 Harris Rd.","login":"Giesige","password":1199,"geo_precision":"range","state":"OH","pin":1199},"type":"Feature","geometry":{"type":"Point","coordinates":[-84.266689,41.19375]}},{"properties":{"city":"Defiance","status":"Active","ppv":"Yes","zip":"43512","region":"Ayersville","service packages":"Platinum Bundle","township":null,"last":"Giesige","stbs allowed":3,"geo_score":0.902,"first":"Denny","ppv limit":"Unlimited","customer id":"C-00606","phone":4193951743,"whdvr":"No","id":"abn5prezysv5","address":"28733 Hoffman Rd.","login":"Giesige","password":1743,"geo_precision":"range","state":"OH","pin":1743},"type":"Feature","geometry":{"type":"Point","coordinates":[-84.272389,41.194827]}},{"properties":{"city":"Defiance","status":"Active","ppv":"Yes","zip":"43512","region":"Ayersville","service packages":"Gold Bundle","township":"Highland Township","last":"Giesige","stbs allowed":5,"geo_score":0.707,"first":"Jennifer","ppv limit":"Unlimited","customer id":"1245","phone":4193951331,"whdvr":"No","id":"abn5prdwkkg0","address":"28286 Ayersville Rd.","login":"Giesige","password":1331,"geo_precision":"street","state":"OH","pin":1331},"type":"Feature","geometry":{"type":"Point","coordinates":[-84.323816,41.258725]}},{"properties":{"city":"Defiance","status":"Active","ppv":"Yes","zip":"43512","region":"Ayersville","service packages":"Platinum Bundle","township":null,"last":"Gineman","stbs allowed":2,"geo_score":0.902,"first":"Ray","ppv limit":"Unlimited","customer id":"C-00387","phone":4193952350,"whdvr":"No","id":"abn5pr6ukrsk","address":"12797 Wolf Rd.","login":"Gineman","password":2350,"geo_precision":"range","state":"OH","pin":2350},"type":"Feature","geometry":{"type":"Point","coordinates":[-84.280524,41.250008]}},{"properties":{"city":"Defiance","status":"Active","ppv":"Yes","zip":"43512","region":"Ayersville","service packages":"Gold Bundle","township":null,"last":"Glick","stbs allowed":3,"geo_score":0.902,"first":"Mildred","ppv limit":"Unlimited","customer id":"C-01292","phone":4193952103,"whdvr":"No","id":"abn5prfqb6tt","address":"10971 Stevens Rd.","login":"Glick","password":2103,"geo_precision":"range","state":"OH","pin":2103},"type":"Feature","geometry":{"type":"Point","coordinates":[-84.263983,41.282778]}},{"properties":{"city":"Defiance","status":"Active","ppv":"Yes","zip":"43512","region":"Ayersville","service packages":"Platinum Bundle,Basic HD","township":null,"last":"Goliver","stbs allowed":4,"geo_score":0.902,"first":"Charles","ppv limit":"Unlimited","customer id":"C-00149","phone":4193951154,"whdvr":"No","id":"abn5pr8irgj1","address":"28985 Standley Rd","login":"Goliver","password":1154,"geo_precision":"range","state":"OH","pin":1154},"type":"Feature","geometry":{"type":"Point","coordinates":[-84.26948,41.267888]}},{"properties":{"city":"Defiance","status":"Active","ppv":"Yes","zip":"43512","region":"Ayersville","service packages":"Platinum Bundle,Extended HD","township":null,"last":"Good","stbs allowed":3,"geo_score":0.823,"first":"James","ppv limit":"Unlimited","customer id":"C-00825","phone":4193952381,"whdvr":"No","id":"abn5prgoq7m2","address":"26654 Standley","login":"Good","password":1111,"geo_precision":"range","state":"OH","pin":1111},"type":"Feature","geometry":{"type":"Point","coordinates":[-84.311234,41.267884]}},{"properties":{"city":"Defiance","status":"Active","ppv":"Yes","zip":"43512","region":"Ayersville","service packages":"Platinum Bundle,Basic HD","township":null,"last":"Goodwin","stbs allowed":5,"geo_score":0.902,"first":"Bruce","ppv limit":"Unlimited","customer id":"C-00780","phone":4193951921,"whdvr":"No","id":"abn5pr6onzgn","address":"11932 Harris Rd.","login":"Goodwin","password":1921,"geo_precision":"range","state":"OH","pin":1921},"type":"Feature","geometry":{"type":"Point","coordinates":[-84.266071,41.268728]}},{"properties":{"city":"Defiance","status":"Active","ppv":"Yes","zip":"43512","region":"Ayersville","service packages":"Gold Bundle","township":null,"last":"Greear","stbs allowed":3,"geo_score":0.707,"first":"Jack","ppv limit":"Unlimited","customer id":"C-00034","phone":4193951036,"whdvr":"No","id":"abn5pr6cn89d","address":"29309 Ayersville Rd.","login":"Greear","password":1036,"geo_precision":"street","state":"OH","pin":1036},"type":"Feature","geometry":{"type":"Point","coordinates":[-84.323816,41.258725]}},{"properties":{"city":"Defiance","status":"Active","ppv":"Yes","zip":"43512","region":"Ayersville","service packages":"Platinum Bundle","township":null,"last":"Grennay","stbs allowed":3,"geo_score":0.707,"first":"Heather","ppv limit":"Unlimited","customer id":"C-00663","phone":4193951119,"whdvr":"No","id":"abn5pr7p6lu1","address":"28033 Ayersville Rd.","login":"Grennay","password":1119,"geo_precision":"street","state":"OH","pin":1119},"type":"Feature","geometry":{"type":"Point","coordinates":[-84.323816,41.258725]}},{"properties":{"city":"Holgate","status":"Active","ppv":"Yes","zip":"43527","region":"Ayersville","service packages":"Platinum Bundle,Basic HD","township":null,"last":"Groll","stbs allowed":4,"geo_score":0.832,"first":"Randy","ppv limit":"Unlimited","customer id":"C-00634","phone":4193951771,"whdvr":"No","id":"abn5prk7nyz7","address":"11628 Defiance Henry Co Line","login":"Groll","password":1771,"geo_precision":"range","state":"OH","pin":1771},"type":"Feature","geometry":{"type":"Point","coordinates":[-84.227492,41.273206]}},{"properties":{"city":"Defiance","status":"Active","ppv":"Yes","zip":"43512","region":"Ayersville","service packages":"Gold Bundle","township":null,"last":"Grossheim","stbs allowed":3,"geo_score":0.902,"first":"Harold","ppv limit":"Unlimited","customer id":"C-00164","phone":4193951168,"whdvr":"No","id":"abn5prddtc3v","address":"28610 Standley Rd.","login":"Grossheim","password":1168,"geo_precision":"range","state":"OH","pin":1168},"type":"Feature","geometry":{"type":"Point","coordinates":[-84.272118,41.267766]}},{"properties":{"city":"Defiance","status":"Inactive","ppv":"Yes","zip":"43512","region":"Ayersville","service packages":"Platinum Bundle","township":null,"last":"Grubmiller","stbs allowed":3,"geo_score":0.551,"first":"Kim","ppv limit":"Unlimited","customer id":"1424","phone":4193952621,"whdvr":"No","id":"abn5prgzdav6","address":"13948 Fruit Ridge Rd. Apt C","login":"Grubmiller","password":2621,"geo_precision":"street","state":"OH","pin":2621},"type":"Feature","geometry":{"type":"Point","coordinates":[-84.35928,41.287918]}},{"properties":{"city":"Defiance","status":"Active","ppv":"Yes","zip":"43512","region":"Ayersville","service packages":"Platinum Bundle,Basic HD","township":null,"last":"Gunsch","stbs allowed":5,"geo_score":0.902,"first":"Gregg","ppv limit":"Unlimited","customer id":"C-00509","phone":4193951959,"whdvr":"No","id":"abn5pr8sku5x","address":"28617 Mansfield Rd","login":"Gunsch","password":1959,"geo_precision":"range","state":"OH","pin":1959},"type":"Feature","geometry":{"type":"Point","coordinates":[-84.269325,41.180274]}},{"properties":{"city":"Defiance","status":"Active","ppv":"Yes","zip":"43512","region":"Ayersville","service packages":"Gold Bundle","township":null,"last":"Hackworth","stbs allowed":5,"geo_score":0.902,"first":"Joe","ppv limit":"Unlimited","customer id":"1503","phone":4193951932,"whdvr":"No","id":"abn5pr56mo83","address":"13185 Dohoney Rd","login":"Hacworth","password":1932,"geo_precision":"range","state":"OH","pin":1932},"type":"Feature","geometry":{"type":"Point","coordinates":[-84.323702,41.250243]}},{"properties":{"city":"Defiance","status":"Inactive","ppv":"Yes","zip":"43512","region":"Ayersville","service packages":"Gold Bundle","township":null,"last":"Hagerman","stbs allowed":3,"geo_score":0.589,"first":"Brenda","ppv limit":"Unlimited","customer id":"C-00040","phone":4193952284,"whdvr":"No","id":"abn5prgjmnwl","address":"13536 Fullmer Rd. Lot 9","login":"Hagerman","password":2284,"geo_precision":"street","state":"OH","pin":2284},"type":"Feature","geometry":{"type":"Point","coordinates":[-84.367847,41.277525]}},{"properties":{"city":"Defiance","status":"Inactive","ppv":"Yes","zip":"43512","region":"Ayersville","service packages":"Gold Bundle","township":null,"last":"Hagerman","stbs allowed":2,"geo_score":0.707,"first":"Renee","ppv limit":"Unlimited","customer id":"C-00817","phone":4193951964,"whdvr":"No","id":"abn5prdou0pp","address":"27607 Ayersville Rd.","login":"Hagerman","password":1964,"geo_precision":"street","state":"OH","pin":1964},"type":"Feature","geometry":{"type":"Point","coordinates":[-84.323816,41.258725]}},{"properties":{"city":"Defiance","status":"Active","ppv":"Yes","zip":"43512","region":"Ayersville","service packages":"Gold Bundle,Basic HD","township":null,"last":"Hahn","stbs allowed":3,"geo_score":0.902,"first":"Ordis","ppv limit":"Unlimited","customer id":"C-00590","phone":4193951728,"whdvr":"No","id":"abn5pr8y1t7x","address":"28486 Standley Rd.","login":"Hahn","password":1728,"geo_precision":"range","state":"OH","pin":1728},"type":"Feature","geometry":{"type":"Point","coordinates":[-84.27637,41.267789]}},{"properties":{"city":"Defiance","status":"Active","ppv":"Yes","zip":"43512","region":"Ayersville","service packages":"Platinum Bundle","township":null,"last":"Hall","stbs allowed":2,"geo_score":0.707,"first":"Rex","ppv limit":"Unlimited","customer id":"C-00961","phone":4193952225,"whdvr":"No","id":"abn5prjrwbr1","address":"27810 Ayersville Rd.","login":"Hall","password":2225,"geo_precision":"street","state":"OH","pin":2225},"type":"Feature","geometry":{"type":"Point","coordinates":[-84.323816,41.258725]}},{"properties":{"city":"Defiance","status":"Active","ppv":"Yes","zip":"43512","region":"Ayersville","service packages":"Platinum Bundle,ENCORE\\STARS PACKAGE","township":null,"last":"Hammersmith","stbs allowed":3,"geo_score":0.902,"first":"James","ppv limit":"Unlimited","customer id":"C-00123","phone":4193951126,"whdvr":"No","id":"abn5prgd8ktg","address":"15918 Dohoney Rd.","login":"Hammersmith","password":1126,"geo_precision":"range","state":"OH","pin":1126},"type":"Feature","geometry":{"type":"Point","coordinates":[-84.324162,41.210288]}},{"properties":{"city":"Defiance","status":"Active","ppv":"Yes","zip":"43512","region":"Ayersville","service packages":"Gold Bundle","township":null,"last":"Hammersmith","stbs allowed":2,"geo_score":0.902,"first":"Fred","ppv limit":"Unlimited","customer id":"C-01212","phone":4193952494,"whdvr":"No","id":"abn5pr6bdpwd","address":"25818 Blanchard Rd.","login":"Hammersmith","password":2494,"geo_precision":"range","state":"OH","pin":2494},"type":"Feature","geometry":{"type":"Point","coordinates":[-84.326368,41.209036]}},{"properties":{"city":"Defiance","status":"Active","ppv":"Yes","zip":"43512","region":"Ayersville","service packages":"Platinum Bundle","township":null,"last":"Hancock","stbs allowed":3,"geo_score":0.805,"first":"Deb","ppv limit":"Unlimited","customer id":"C-00267","phone":4193951430,"whdvr":"No","id":"abn5prk8jgh1","address":"11064 Kepler","login":"Hancock","password":1430,"geo_precision":"range","state":"OH","pin":1430},"type":"Feature","geometry":{"type":"Point","coordinates":[-84.294873,41.28001]}},{"properties":{"city":"Defiance","status":"Active","ppv":"Yes","zip":"43512","region":"Ayersville","service packages":"Platinum Bundle","township":null,"last":"Hardy","stbs allowed":4,"geo_score":0.902,"first":"Allen","ppv limit":"Unlimited","customer id":"C-01151","phone":4193951396,"whdvr":"No","id":"abn5prf06ux0","address":"27947 Watson Rd.","login":"Hardy","password":1396,"geo_precision":"range","state":"OH","pin":1396},"type":"Feature","geometry":{"type":"Point","coordinates":[-84.286568,41.238374]}},{"properties":{"city":"Defiance","status":"Active","ppv":"Yes","zip":"43512","region":"Ayersville","service packages":"Gold Bundle,Basic HD","township":null,"last":"Harlos","stbs allowed":5,"geo_score":0.902,"first":"Tim","ppv limit":"Unlimited","customer id":"1416","phone":4193951961,"whdvr":"No","id":"abn5prjhff8r","address":"15666 Hill Rd.","login":"Harlos","password":1961,"geo_precision":"range","state":"OH","pin":1961},"type":"Feature","geometry":{"type":"Point","coordinates":[-84.276063,41.217046]}},{"properties":{"city":"Defiance","status":"Active","ppv":"Yes","zip":"43512","region":"Ayersville","service packages":"Platinum Bundle","township":null,"last":"Harpster","stbs allowed":2,"geo_score":0.512,"first":"Rachel","ppv limit":"Unlimited","customer id":"C-00518","phone":4193952185,"whdvr":"No","id":"abn5pr7aqvgh","address":"14118 Highland Center","login":"Harpster","password":2185,"geo_precision":"street","state":"OH","pin":2185},"type":"Feature","geometry":{"type":"Point","coordinates":[-84.521982,41.382459]}},{"properties":{"city":"Defiance","status":"Active","ppv":"Yes","zip":"43512","region":"Ayersville","service packages":"Platinum Bundle,Basic HD,ENCORE\\STARS PACKAGE","township":null,"last":"Hawkins","stbs allowed":2,"geo_score":0.805,"first":"Michael","ppv limit":"Unlimited","customer id":"26381 Arena Dr","phone":4193950165,"whdvr":"No","id":"abn5pr5s44ew","address":"26380 Arena Dr","login":"Hawkins","password":165,"geo_precision":"range","state":"OH","pin":165},"type":"Feature","geometry":{"type":"Point","coordinates":[-84.322933,41.248092]}},{"properties":{"city":"Defiance","status":"Active","ppv":"Yes","zip":"43512","region":"Ayersville","service packages":"Platinum Bundle","township":null,"last":"Henderson","stbs allowed":3,"geo_score":0.84,"first":"Amanda","ppv limit":"Unlimited","customer id":"C-00557","phone":4193951752,"whdvr":"No","id":"abn5prfo8fwu","address":"12325 Fruit Ridge","login":"Henderson","password":1752,"geo_precision":"range","state":"OH","pin":1752},"type":"Feature","geometry":{"type":"Point","coordinates":[-84.293487,41.262994]}},{"properties":{"city":"Defiance","status":"Active","ppv":"Yes","zip":"43512","region":"Ayersville","service packages":"basic package","township":null,"last":"Herr","stbs allowed":4,"geo_score":0.902,"first":"Terry","ppv limit":"Unlimited","customer id":"C-00159","phone":4193950194,"whdvr":"No","id":"abn5prhbxyyi","address":"29230 Blanchard Rd.","login":"Herr","password":194,"geo_precision":"range","state":"OH","pin":194},"type":"Feature","geometry":{"type":"Point","coordinates":[-84.263079,41.209243]}},{"properties":{"city":"Defiance","status":"Active","ppv":"Yes","zip":"43512","region":"Ayersville","service packages":"Platinum Bundle,Basic HD","township":"Highland Township","last":"Herren","stbs allowed":6,"geo_score":0.882,"first":"Amy","ppv limit":"Unlimited","customer id":"C-00511","phone":4193950171,"whdvr":"No","id":"abn5prjib87i","address":"13670 Fruit Ridge Rd","login":"Herren","password":171,"geo_precision":"range","state":"OH","pin":171},"type":"Feature","geometry":{"type":"Point","coordinates":[-84.285479,41.244189]}},{"properties":{"city":"Defiance","status":"Active","ppv":"Yes","zip":"43512","region":"Ayersville","service packages":"Platinum Bundle","township":null,"last":"Hibbard","stbs allowed":3,"geo_score":0.512,"first":"Ron &amp; Shanda","ppv limit":"Unlimited","customer id":"C-00966","phone":4193952634,"whdvr":"No","id":"abn5prf203al","address":"16060 Highland Center","login":"Hibbard","password":2634,"geo_precision":"street","state":"OH","pin":2634},"type":"Feature","geometry":{"type":"Point","coordinates":[-84.521982,41.382459]}},{"properties":{"city":"Defiance","status":"Active","ppv":"Yes","zip":"43512","region":"Ayersville","service packages":"Gold Bundle","township":null,"last":"Highland Fire Dept.","stbs allowed":3,"geo_score":0.902,"first":null,"ppv limit":"Unlimited","customer id":"C-00944","phone":4193952206,"whdvr":"No","id":"abn5prb4fagt","address":"27723 Watson Rd.","login":"Fire Dept.","password":2206,"geo_precision":"range","state":"OH","pin":2206},"type":"Feature","geometry":{"type":"Point","coordinates":[-84.290397,41.238341]}},{"properties":{"city":"Defiance","status":"Active","ppv":"Yes","zip":"43512","region":"Ayersville","service packages":"Platinum Bundle","township":null,"last":"Hill","stbs allowed":4,"geo_score":0.512,"first":"Truman &amp; Barb","ppv limit":"Unlimited","customer id":"C-00088","phone":4193952344,"whdvr":"No","id":"abn5pre2th83","address":"14236 Highland Center","login":"Hill","password":2344,"geo_precision":"street","state":"OH","pin":2344},"type":"Feature","geometry":{"type":"Point","coordinates":[-84.521982,41.382459]}},{"properties":{"city":"Defiance","status":"Active","ppv":"Yes","zip":"43512","region":"Ayersville","service packages":"Platinum Bundle,Basic HD","township":null,"last":"Hinojosa","stbs allowed":5,"geo_score":0.902,"first":"Jamie","ppv limit":"Unlimited","customer id":"C-00550","phone":4193951684,"whdvr":"No","id":"abn5prfcot3f","address":"28332 Blanchard Rd.","login":"Hinojosa","password":1684,"geo_precision":"range","state":"OH","pin":1684},"type":"Feature","geometry":{"type":"Point","coordinates":[-84.280066,41.20914]}},{"properties":{"city":"Defiance","status":"Active","ppv":"Yes","zip":"43512","region":"Ayersville","service packages":"Platinum Bundle","township":null,"last":"Hoellrich","stbs allowed":3,"geo_score":0.902,"first":"David","ppv limit":"Unlimited","customer id":"C-00870","phone":4193952122,"whdvr":"No","id":"abn5pranns7w","address":"28361 Blanchard Rd.","login":"Hoellrich","password":2122,"geo_precision":"range","state":"OH","pin":2122},"type":"Feature","geometry":{"type":"Point","coordinates":[-84.280629,41.209292]}},{"properties":{"city":"Holgate","status":"Active","ppv":"Yes","zip":"43527","region":"Ayersville","service packages":"Extended Package,Basic","township":null,"last":"Hoellrich","stbs allowed":2,"geo_score":0.876,"first":"Shirley","ppv limit":"Unlimited","customer id":"C-00407","phone":4193951529,"whdvr":"No","id":"abn5prhlg8w5","address":"30511 Theiroff Road","login":"Hoellrich","password":1529,"geo_precision":"range","state":"OH","pin":1529},"type":"Feature","geometry":{"type":"Point","coordinates":[-84.236535,41.260546]}},{"properties":{"city":"Defiance","status":"Active","ppv":"Yes","zip":"43512","region":"Ayersville","service packages":"Platinum Bundle,Basic HD","township":null,"last":"Hoffman","stbs allowed":3,"geo_score":0.902,"first":"Monica","ppv limit":"Unlimited","customer id":"C-01176","phone":4193952449,"whdvr":"No","id":"abn5prb6562c","address":"25786 Bowman Rd","login":"Hoffman","password":2449,"geo_precision":"range","state":"OH","pin":2449},"type":"Feature","geometry":{"type":"Point","coordinates":[-84.327984,41.22358]}},{"properties":{"city":"Defiance","status":"Active","ppv":"Yes","zip":"43512","region":"Ayersville","service packages":"Gold Bundle","township":null,"last":"Hohenberger","stbs allowed":2,"geo_score":0.902,"first":"Jamie","ppv limit":"Unlimited","customer id":"C-00811","phone":4193951957,"whdvr":"No","id":"abn5pr6rqzyr","address":"15358 Fullmer Rd.","login":"Hohenberger","password":1957,"geo_precision":"range","state":"OH","pin":1957},"type":"Feature","geometry":{"type":"Point","coordinates":[-84.314502,41.217643]}},{"properties":{"city":"Defiance","status":"Active","ppv":"Yes","zip":"43512","region":"Ayersville","service packages":"Extended Package,Basic HD","township":null,"last":"Holdings","stbs allowed":2,"geo_score":0.708,"first":"Defiance","ppv limit":"Unlimited","customer id":"3","phone":4193952300,"whdvr":"No","id":"abn5prixml2p","address":"29732 Watson Rd.","login":"Defiance Holdings","password":1111,"geo_precision":"street","state":"OH","pin":1111},"type":"Feature","geometry":{"type":"Point","coordinates":[-84.28544,41.238296]}},{"properties":{"city":"Defiance","status":"Active","ppv":"Yes","zip":"43512","region":"Ayersville","service packages":"Platinum Bundle,Basic HD","township":null,"last":"Hoshock","stbs allowed":4,"geo_score":0.902,"first":"Richard","ppv limit":"Unlimited","customer id":"1423","phone":4193951881,"whdvr":"No","id":"abn5prewmn5h","address":"27837 Bowman Rd.","login":"Hoshock","password":1881,"geo_precision":"range","state":"OH","pin":1881},"type":"Feature","geometry":{"type":"Point","coordinates":[-84.290498,41.223859]}},{"properties":{"city":"Defiance","status":"Active","ppv":"Yes","zip":"43512","region":"Ayersville","service packages":"Platinum Bundle,Basic HD","township":null,"last":"Hoshock","stbs allowed":4,"geo_score":0.902,"first":"Joe","ppv limit":"Unlimited","customer id":"C-01186","phone":4193952459,"whdvr":"No","id":"abn5prenq3vl","address":"27119 Shindler Rd.","login":"Hoshock","password":2459,"geo_precision":"range","state":"OH","pin":2459},"type":"Feature","geometry":{"type":"Point","coordinates":[-84.301621,41.253477]}},{"properties":{"city":"Defiance","status":"Active","ppv":"Yes","zip":"43512","region":"Ayersville","service packages":"Gold Bundle,Basic HD","township":null,"last":"Hoshock","stbs allowed":4,"geo_score":0.902,"first":"Tom","ppv limit":"Unlimited","customer id":"C-00670","phone":4193951804,"whdvr":"No","id":"abn5prelzmtx","address":"27632 Sutphen Road","login":"Hoshock","password":2222,"geo_precision":"range","state":"OH","pin":2222},"type":"Feature","geometry":{"type":"Point","coordinates":[-84.285538,41.230995]}},{"properties":{"city":"Defiance","status":"Active","ppv":"Yes","zip":"43512","region":"Ayersville","service packages":"Platinum Bundle,Basic HD","township":null,"last":"Hoshock","stbs allowed":3,"geo_score":0.882,"first":"John","ppv limit":"Unlimited","customer id":"C-00153","phone":4193951159,"whdvr":"No","id":"abn5prjbh6he","address":"13766 Fruit Ridge Rd.","login":"Hoshock","password":1159,"geo_precision":"range","state":"OH","pin":1159},"type":"Feature","geometry":{"type":"Point","coordinates":[-84.285496,41.2426]}},{"properties":{"city":"Defiance","status":"Active","ppv":"Yes","zip":"43512","region":"Ayersville","service packages":"Extended Package","township":"Highland Township","last":"Hoshock","stbs allowed":5,"geo_score":0.882,"first":"Scott","ppv limit":"Unlimited","customer id":"C-00312","phone":4193950182,"whdvr":"No","id":"abn5pr9n40fo","address":"13550 Fruit Ridge Rd","login":"Hoshock","password":182,"geo_precision":"range","state":"OH","pin":182},"type":"Feature","geometry":{"type":"Point","coordinates":[-84.28482,41.245907]}},{"properties":{"city":"Defiance","status":"Active","ppv":"Yes","zip":"43512","region":"Ayersville","service packages":"Gold Bundle","township":null,"last":"Howard","stbs allowed":4,"geo_score":0.902,"first":"James","ppv limit":"Unlimited","customer id":"C-00778","phone":4193951919,"whdvr":"No","id":"abn5pralzh13","address":"25794 Watson Rd.","login":"Howard","password":1919,"geo_precision":"range","state":"OH","pin":1919},"type":"Feature","geometry":{"type":"Point","coordinates":[-84.326849,41.238127]}},{"properties":{"city":"Defiance","status":"Active","ppv":"Yes","zip":"43512","region":"Ayersville","service packages":"Platinum Bundle","township":null,"last":"Johnson","stbs allowed":3,"geo_score":0.707,"first":"Richard","ppv limit":"Unlimited","customer id":"1362","phone":4193952415,"whdvr":"No","id":"abn5prisb8jo","address":"27888 Ayersville Rd.","login":"Johnson","password":2415,"geo_precision":"street","state":"OH","pin":2415},"type":"Feature","geometry":{"type":"Point","coordinates":[-84.323816,41.258725]}},{"properties":{"city":"Defiance","status":"Active","ppv":"Yes","zip":"43512","region":"Ayersville","service packages":"Platinum Bundle,Basic HD","township":null,"last":"Johnson","stbs allowed":4,"geo_score":0.902,"first":"Ross &amp; Kris","ppv limit":"Unlimited","customer id":"C-00522","phone":4193952623,"whdvr":"No","id":"abn5prgl6ugq","address":"13489 Wolf Rd.","login":"Johnson","password":3262,"geo_precision":"range","state":"OH","pin":3262},"type":"Feature","geometry":{"type":"Point","coordinates":[-84.281723,41.246916]}},{"properties":{"city":"Defiance","status":"Active","ppv":"Yes","zip":"43512","region":"Ayersville","service packages":"Gold Bundle","township":null,"last":"Johnston","stbs allowed":3,"geo_score":0.745,"first":"Doug","ppv limit":"Unlimited","customer id":"1475","phone":4193951086,"whdvr":"No","id":"abn5prekf6wi","address":"28614 SR 281","login":"Johnston","password":1086,"geo_precision":"range","state":"OH","pin":1086},"type":"Feature","geometry":{"type":"Point","coordinates":[-84.273312,41.282311]}},{"properties":{"city":"Defiance","status":"Active","ppv":"Yes","zip":"43512","region":"Ayersville","service packages":"Extended Package,Basic HD","township":null,"last":"Karnes","stbs allowed":3,"geo_score":0.902,"first":"Don","ppv limit":"Unlimited","customer id":"C-00749","phone":4193951888,"whdvr":"No","id":"abn5prk3n6xe","address":"14583 Harris Rd","login":"Karnes","password":1888,"geo_precision":"range","state":"OH","pin":1888},"type":"Feature","geometry":{"type":"Point","coordinates":[-84.266173,41.23283]}},{"properties":{"city":"Defiance","status":"Active","ppv":"Yes","zip":"43512","region":"Ayersville","service packages":"Platinum Bundle","township":null,"last":"Keasler","stbs allowed":3,"geo_score":0.902,"first":"Kendra","ppv limit":"Unlimited","customer id":"C-01084","phone":4193952205,"whdvr":"No","id":"abn5prf1tasm","address":"17410 Harris Rd.","login":"Keasler","password":2205,"geo_precision":"range","state":"OH","pin":2205},"type":"Feature","geometry":{"type":"Point","coordinates":[-84.266735,41.188932]}},{"properties":{"city":"Defiance","status":"Active","ppv":"Yes","zip":"43512","region":"Ayersville","service packages":"Gold Bundle","township":null,"last":"Keller","stbs allowed":3,"geo_score":0.902,"first":"Tom","ppv limit":"Unlimited","customer id":"1448","phone":4193951632,"whdvr":"No","id":"abn5pr5wyls8","address":"25485 Blanchard Rd.","login":"Keller","password":1632,"geo_precision":"range","state":"OH","pin":1632},"type":"Feature","geometry":{"type":"Point","coordinates":[-84.329684,41.209186]}},{"properties":{"city":"Defiance","status":"Active","ppv":"Yes","zip":"43512","region":"Ayersville","service packages":"Gold Bundle,Basic HD","township":null,"last":"Kennedy","stbs allowed":3,"geo_score":0.902,"first":"Larry","ppv limit":"Unlimited","customer id":"C-00229","phone":4193951338,"whdvr":"No","id":"abn5prlabh5n","address":"15310 Dohoney Rd.","login":"Kennedy","password":1338,"geo_precision":"range","state":"OH","pin":1338},"type":"Feature","geometry":{"type":"Point","coordinates":[-84.324111,41.219228]}},{"properties":{"city":"Defiance","status":"Active","ppv":"Yes","zip":"43512","region":"Ayersville","service packages":"basic package","township":null,"last":"Kipp","stbs allowed":4,"geo_score":0.611,"first":"Kenneth","ppv limit":"Unlimited","customer id":"C-01029","phone":4193952292,"whdvr":"No","id":"abn5pritnjcd","address":"30059 ST RT 18","login":"Kipp","password":2292,"geo_precision":"street","state":"OH","pin":2292},"type":"Feature","geometry":{"type":"Point","coordinates":[-84.247916,41.253296]}},{"properties":{"city":"Defiance","status":"Active","ppv":"Yes","zip":"43512","region":"Ayersville","service packages":"Gold Bundle","township":null,"last":"Klinger","stbs allowed":2,"geo_score":0.902,"first":"Kari","ppv limit":"Unlimited","customer id":"C-01353","phone":4193952188,"whdvr":"No","id":"abn5prkomhd6","address":"14783 Harris Rd","login":"Klinger","password":2188,"geo_precision":"range","state":"OH","pin":2188},"type":"Feature","geometry":{"type":"Point","coordinates":[-84.266199,41.228467]}},{"properties":{"city":"Defiance","status":"Active","ppv":"Yes","zip":"43512","region":"Ayersville","service packages":"Extended Package,Basic HD","township":null,"last":"Knapp","stbs allowed":2,"geo_score":0.902,"first":"Terry","ppv limit":"Unlimited","customer id":"C-00020","phone":4193950157,"whdvr":"No","id":"abn5prghbkrp","address":"28948 Blanchard Rd.","login":"Knapp","password":157,"geo_precision":"range","state":"OH","pin":157},"type":"Feature","geometry":{"type":"Point","coordinates":[-84.275038,41.209134]}},{"properties":{"city":"Defiance","status":"Active","ppv":"Yes","zip":"43512","region":"Ayersville","service packages":"Gold Bundle","township":null,"last":"Knisely","stbs allowed":3,"geo_score":0.707,"first":"Denise","ppv limit":"Unlimited","customer id":"C-01056","phone":4193952325,"whdvr":"No","id":"abn5pr9w4xt1","address":"28445 Ayersville Rd.","login":"Knisely","password":2325,"geo_precision":"street","state":"OH","pin":2325},"type":"Feature","geometry":{"type":"Point","coordinates":[-84.323816,41.258725]}},{"properties":{"city":"Defiance","status":"Active","ppv":"Yes","zip":"43512","region":"Ayersville","service packages":"Extended Package","township":null,"last":"Kruse","stbs allowed":3,"geo_score":0.902,"first":"Charles","ppv limit":"Unlimited","customer id":"C-00640","phone":4193951777,"whdvr":"No","id":"abn5prc6nugs","address":"28479 Standley Rd","login":"Kruse","password":1777,"geo_precision":"range","state":"OH","pin":1777},"type":"Feature","geometry":{"type":"Point","coordinates":[-84.274747,41.267932]}},{"properties":{"city":"Defiance","status":"Active","ppv":"Yes","zip":"43512","region":"Ayersville","service packages":"Platinum Bundle","township":null,"last":"Kruse","stbs allowed":3,"geo_score":0.902,"first":"George","ppv limit":"Unlimited","customer id":"C-00970","phone":4193952233,"whdvr":"No","id":"abn5prdxnx3l","address":"28459 Standley Rd.","login":"Kruse","password":2233,"geo_precision":"range","state":"OH","pin":2233},"type":"Feature","geometry":{"type":"Point","coordinates":[-84.274588,41.26793]}},{"properties":{"city":"Defiance","status":"Active","ppv":"Yes","zip":"43512","region":"Ayersville","service packages":"Platinum Bundle,Basic HD","township":null,"last":"Kuhlman","stbs allowed":4,"geo_score":0.902,"first":"Adrian","ppv limit":"Unlimited","customer id":"C-00152","phone":4193951158,"whdvr":"No","id":"abn5pr99lumd","address":"27235 Standley Rd.","login":"Kuhlman","password":1158,"geo_precision":"range","state":"OH","pin":1158},"type":"Feature","geometry":{"type":"Point","coordinates":[-84.301264,41.267984]}},{"properties":{"city":"Defiance","status":"Active","ppv":"Yes","zip":"43512","region":"Ayersville","service packages":"Extended Package,Platinum Bundle,Basic HD","township":null,"last":"Kunesh","stbs allowed":5,"geo_score":0.902,"first":"Dave","ppv limit":"Unlimited","customer id":"C-00962","phone":4193952226,"whdvr":"No","id":"abn5prjgfs4c","address":"27401 Shindler Rd.","login":"Kunesh","password":7721,"geo_precision":"range","state":"OH","pin":7721},"type":"Feature","geometry":{"type":"Point","coordinates":[-84.296206,41.253439]}},{"properties":{"city":"Defiance","status":"Inactive","ppv":"Yes","zip":"43512","region":"Ayersville","service packages":"basic package","township":null,"last":"Lawson","stbs allowed":3,"geo_score":0.707,"first":"Jack","ppv limit":"Unlimited","customer id":"C-00302","phone":4193951560,"whdvr":"No","id":"abn5pr66zbqe","address":"27821 Ayersville Rd.","login":"Lawson","password":1560,"geo_precision":"street","state":"OH","pin":1560},"type":"Feature","geometry":{"type":"Point","coordinates":[-84.323816,41.258725]}},{"properties":{"city":"Defiance","status":"Active","ppv":"Yes","zip":"43512","region":"Ayersville","service packages":"Platinum Bundle","township":null,"last":"Leaders","stbs allowed":3,"geo_score":0.707,"first":"Gary","ppv limit":"Unlimited","customer id":"C-00444","phone":4193951567,"whdvr":"No","id":"abn5prhmxnjl","address":"16450 Kinner Rd.","login":"Leader","password":1567,"geo_precision":"street","state":"OH","pin":1567},"type":"Feature","geometry":{"type":"Point","coordinates":[-84.24694,41.223825]}},{"properties":{"city":"Ayersville","status":"Active","ppv":"Yes","zip":"43512","region":"Ayersville","service packages":"Platinum Bundle,Basic HD,ENCORE\\STARS PACKAGE","township":null,"last":"Limber","stbs allowed":3,"geo_score":0.902,"first":"Dan","ppv limit":"Unlimited","customer id":"3951701","phone":4193951701,"whdvr":"No","id":"abn5pr65rkoj","address":"13800 Fullmer Rd.","login":"Limber","password":1701,"geo_precision":"range","state":"OH","pin":1701},"type":"Feature","geometry":{"type":"Point","coordinates":[-84.314282,41.240147]}},{"properties":{"city":"Defiance","status":"Active","ppv":"Yes","zip":"43512","region":"Ayersville","service packages":"Gold Bundle,Basic HD","township":null,"last":"Limber","stbs allowed":5,"geo_score":0.902,"first":"Mildred","ppv limit":"Unlimited","customer id":"C-00317","phone":4193951433,"whdvr":"No","id":"abn5prfmdijc","address":"27986 Watson Rd.","login":"Limber","password":1433,"geo_precision":"range","state":"OH","pin":1433},"type":"Feature","geometry":{"type":"Point","coordinates":[-84.28573,41.238224]}},{"properties":{"city":"Defiance","status":"Active","ppv":"Yes","zip":"43512","region":"Ayersville","service packages":"Platinum Bundle","township":null,"last":"Limber","stbs allowed":2,"geo_score":0.902,"first":"Jeremy","ppv limit":"Unlimited","customer id":"C-01134","phone":4193951006,"whdvr":"No","id":"abn5pr6e54k0","address":"28585 Rohn Rd.","login":"Limber","password":1006,"geo_precision":"range","state":"OH","pin":1006},"type":"Feature","geometry":{"type":"Point","coordinates":[-84.278797,41.240253]}},{"properties":{"city":"Defiance","status":"Active","ppv":"Yes","zip":"43512","region":"Ayersville","service packages":"Platinum Bundle","township":null,"last":"Limber","stbs allowed":2,"geo_score":0.902,"first":"Ann","ppv limit":"Unlimited","customer id":"C-01036","phone":4193951431,"whdvr":"No","id":"abn5pr6i3fo2","address":"28240 Rohn Rd.","login":"Limber","password":1431,"geo_precision":"range","state":"OH","pin":1431},"type":"Feature","geometry":{"type":"Point","coordinates":[-84.281793,41.238919]}},{"properties":{"city":"Defiance","status":"Active","ppv":"Yes","zip":"43512","region":"Ayersville","service packages":"Gold Bundle","township":null,"last":"Linder","stbs allowed":3,"geo_score":0.902,"first":"Erin","ppv limit":"Unlimited","customer id":"C-00478","phone":4193951033,"whdvr":"No","id":"abn5prioi61m","address":"27012 Shindler Rd.","login":"Riley","password":1033,"geo_precision":"range","state":"OH","pin":1033},"type":"Feature","geometry":{"type":"Point","coordinates":[-84.303585,41.253322]}},{"properties":{"city":"Defiance","status":"Active","ppv":"Yes","zip":"43512","region":"Ayersville","service packages":"Platinum Bundle,Basic HD,SHOWTIME AND TMC","township":null,"last":"Link","stbs allowed":4,"geo_score":0.707,"first":"Eric","ppv limit":"Unlimited","customer id":"C-00487","phone":4193951515,"whdvr":"No","id":"abn5prl4meko","address":"29216 Ayersville Rd.","login":"Link","password":1515,"geo_precision":"street","state":"OH","pin":1515},"type":"Feature","geometry":{"type":"Point","coordinates":[-84.323816,41.258725]}},{"properties":{"city":"Defiance","status":"Active","ppv":"Yes","zip":"43512","region":"Ayersville","service packages":"Platinum Bundle,Basic HD","township":null,"last":"Loeffler","stbs allowed":3,"geo_score":0.84,"first":"Linda &amp; A.J.","ppv limit":"Unlimited","customer id":"C-00893","phone":4193952366,"whdvr":"No","id":"abn5prleewld","address":"12096 Fruit Ridge","login":"Loeffler","password":2366,"geo_precision":"range","state":"OH","pin":2366},"type":"Feature","geometry":{"type":"Point","coordinates":[-84.295091,41.266345]}},{"properties":{"city":"Defiance","status":"Active","ppv":"Yes","zip":"43512","region":"Ayersville","service packages":"Gold Bundle","township":null,"last":"Lolmaugh","stbs allowed":3,"geo_score":0.873,"first":"Skip &amp; Judith","ppv limit":"Unlimited","customer id":"C-00430","phone":4193951553,"whdvr":"No","id":"abn5pr6n4pq2","address":"26270 Eunice Av","login":"Lolmaugh","password":1553,"geo_precision":"range","state":"OH","pin":1553},"type":"Feature","geometry":{"type":"Point","coordinates":[-84.321991,41.249818]}},{"properties":{"city":"Defiance","status":"Active","ppv":"Yes","zip":"43512","region":"Ayersville","service packages":"Extended Package,Basic,Basic HD","township":null,"last":"Maag","stbs allowed":4,"geo_score":0.64,"first":"Alan","ppv limit":"Unlimited","customer id":"C-00719","phone":4193950131,"whdvr":"No","id":"abn5prk22sx9","address":"27914 Ayersville","login":"Maag","password":1853,"geo_precision":"street","state":"OH","pin":1853},"type":"Feature","geometry":{"type":"Point","coordinates":[-84.323816,41.258725]}},{"properties":{"city":"Ayersville","status":"Active","ppv":"Yes","zip":"43512","region":"Ayersville","service packages":"Platinum Bundle,Basic HD","township":null,"last":"Marckel","stbs allowed":4,"geo_score":0.902,"first":"Fred","ppv limit":"Unlimited","customer id":"3951809","phone":4193951809,"whdvr":"No","id":"abn5prj8t25c","address":"28132 Hagy Rd.","login":"Marckel","password":1809,"geo_precision":"range","state":"OH","pin":1809},"type":"Feature","geometry":{"type":"Point","coordinates":[-84.281914,41.260249]}},{"properties":{"city":"Ayersville","status":"Active","ppv":"Yes","zip":"43512","region":"Ayersville","service packages":"Platinum Bundle","township":null,"last":"Marckel","stbs allowed":3,"geo_score":0.902,"first":"Ken","ppv limit":"Unlimited","customer id":"3952422","phone":4193952422,"whdvr":"No","id":"abn5priy08zh","address":"12688 Wolf Rd.","login":"Marckel","password":2422,"geo_precision":"range","state":"OH","pin":2422},"type":"Feature","geometry":{"type":"Point","coordinates":[-84.280661,41.250616]}},{"properties":{"city":"Defiance","status":"Inactive","ppv":"Yes","zip":"43512","region":"Ayersville","service packages":"Platinum Bundle","township":null,"last":"Maxwell","stbs allowed":2,"geo_score":0.902,"first":"Johathon","ppv limit":"Unlimited","customer id":"C-01079","phone":4193952191,"whdvr":"No","id":"abn5pr67530y","address":"13230 Oris Ave.","login":"Maxwell","password":2191,"geo_precision":"range","state":"OH","pin":2191},"type":"Feature","geometry":{"type":"Point","coordinates":[-84.319617,41.25161]}},{"properties":{"city":"Defiance","status":"Active","ppv":"Yes","zip":"43512","region":"Ayersville","service packages":"Gold Bundle","township":null,"last":"MAYS","stbs allowed":2,"geo_score":0.902,"first":"JEANETTE","ppv limit":"Unlimited","customer id":"C-00097","phone":4193951096,"whdvr":"No","id":"abn5pr7oau4f","address":"16806 HARRIS RD.","login":"MAYS","password":1096,"geo_precision":"range","state":"OH","pin":1096},"type":"Feature","geometry":{"type":"Point","coordinates":[-84.266669,41.197057]}},{"properties":{"city":"Defiance","status":"Active","ppv":"Yes","zip":"43512","region":"Ayersville","service packages":"Basic","township":null,"last":"McCloud","stbs allowed":5,"geo_score":0.902,"first":"Melissa","ppv limit":"Unlimited","customer id":"C-01122","phone":4193951066,"whdvr":"No","id":"abn5prf0zjk6","address":"27433 Bowman Rd","login":"McCloud","password":1066,"geo_precision":"range","state":"OH","pin":1066},"type":"Feature","geometry":{"type":"Point","coordinates":[-84.301292,41.223766]}},{"properties":{"city":"Defiance","status":"Active","ppv":"Yes","zip":"43512","region":"Ayersville","service packages":"Lifeline (Locals Package)","township":null,"last":"McCord","stbs allowed":3,"geo_score":0.882,"first":"Frank","ppv limit":"Unlimited","customer id":"1424-1","phone":4193950160,"whdvr":"No","id":"abn5prd2trz5","address":"13948 Fruit Ridge rd","login":"McCord","password":160,"geo_precision":"range","state":"OH","pin":160},"type":"Feature","geometry":{"type":"Point","coordinates":[-84.285508,41.239563]}},{"properties":{"city":"Defiance","status":"Active","ppv":"Yes","zip":"43512","region":"Ayersville","service packages":"basic package","township":null,"last":"McCullough","stbs allowed":3,"geo_score":0.84,"first":"Linda","ppv limit":"Unlimited","customer id":"C-00587","phone":4193951725,"whdvr":"No","id":"abn5praysifu","address":"12826 Fruit Ridge","login":"McCullough","password":1725,"geo_precision":"range","state":"OH","pin":1725},"type":"Feature","geometry":{"type":"Point","coordinates":[-84.289898,41.254799]}},{"properties":{"city":"Defiance","status":"Active","ppv":"Yes","zip":"43512","region":"Ayersville","service packages":"Gold Bundle,Basic HD","township":null,"last":"McDonald","stbs allowed":3,"geo_score":0.902,"first":"Roy","ppv limit":"Unlimited","customer id":"C-01050","phone":4193952316,"whdvr":"No","id":"abn5prazui6o","address":"15293 Harris Rd","login":"McDonald","password":3162,"geo_precision":"range","state":"OH","pin":3162},"type":"Feature","geometry":{"type":"Point","coordinates":[-84.265464,41.219246]}},{"properties":{"city":"Defiance","status":"Active","ppv":"Yes","zip":"43512","region":"Ayersville","service packages":"Platinum Bundle,Basic HD","township":null,"last":"McGhee","stbs allowed":8,"geo_score":0.902,"first":"Tim","ppv limit":"Unlimited","customer id":"C-01302","phone":4193951463,"whdvr":"No","id":"abn5prejez1r","address":"27525 Hoffman Rd.","login":"McGhee","password":1463,"geo_precision":"range","state":"OH","pin":1463},"type":"Feature","geometry":{"type":"Point","coordinates":[-84.293433,41.194727]}},{"properties":{"city":"Defiance","status":"Active","ppv":"Yes","zip":"43512","region":"Ayersville","service packages":"Gold Bundle","township":null,"last":"McKibben","stbs allowed":3,"geo_score":0.758,"first":"Mike","ppv limit":"Unlimited","customer id":"C-00032","phone":4193951655,"whdvr":"No","id":"abn5pr9yw7r0","address":"28678 Steinmier Rd.","login":"McKibben","password":1655,"geo_precision":"range","state":"OH","pin":1655},"type":"Feature","geometry":{"type":"Point","coordinates":[-84.275616,41.238458]}},{"properties":{"city":"Defiance","status":"Active","ppv":"Yes","zip":"43512","region":"Ayersville","service packages":"Gold Bundle","township":null,"last":"McPeak","stbs allowed":3,"geo_score":0.902,"first":"James","ppv limit":"Unlimited","customer id":"C-00889","phone":4193952141,"whdvr":"No","id":"abn5prjkroe0","address":"11482 Harris Rd.","login":"McPond","password":2141,"geo_precision":"range","state":"OH","pin":2141},"type":"Feature","geometry":{"type":"Point","coordinates":[-84.266104,41.275087]}},{"properties":{"city":"Defiance","status":"Active","ppv":"Yes","zip":"43512","region":"Ayersville","service packages":"testing","township":null,"last":"Mefferd","stbs allowed":30,"geo_score":0.561,"first":"Dion","ppv limit":"Unlimited","customer id":"C-01346","phone":4193952200,"whdvr":"No","id":"abn5prg5iwki","address":"15160 Highland Center Rd","login":"MEFFERD","password":2200,"geo_precision":"street","state":"OH","pin":2200},"type":"Feature","geometry":{"type":"Point","coordinates":[-84.521982,41.382459]}},{"properties":{"city":"Holgate","status":"Active","ppv":"Yes","zip":"43527","region":"Ayersville","service packages":"Platinum Bundle","township":null,"last":"Mendoza","stbs allowed":4,"geo_score":0.902,"first":"Daniel","ppv limit":"Unlimited","customer id":"1459","phone":4193952203,"whdvr":"No","id":"abn5pre6rze1","address":"18563 Co Rd H","login":"Mendoza","password":2203,"geo_precision":"range","state":"OH","pin":2203},"type":"Feature","geometry":{"type":"Point","coordinates":[-84.212157,41.267554]}},{"properties":{"city":"Holgate","status":"Active","ppv":"Yes","zip":"43527","region":"Ayersville","service packages":"Platinum Bundle,Basic HD","township":null,"last":"Messer","stbs allowed":4,"geo_score":0.902,"first":"Don","ppv limit":"Unlimited","customer id":"1478","phone":4193951954,"whdvr":"No","id":"abn5prbzije4","address":"18548 Co Rd H","login":"Messer","password":1954,"geo_precision":"range","state":"OH","pin":1954},"type":"Feature","geometry":{"type":"Point","coordinates":[-84.212486,41.267701]}},{"properties":{"city":"Holgate","status":"Active","ppv":"Yes","zip":"43527","region":"Ayersville","service packages":"Platinum Bundle,Basic HD","township":null,"last":"Messer","stbs allowed":5,"geo_score":0.902,"first":"Jill","ppv limit":"Unlimited","customer id":"1472","phone":4193951568,"whdvr":"No","id":"abn5prb80z2p","address":"18941 Co Rd H","login":"Messer","password":1568,"geo_precision":"range","state":"OH","pin":1568},"type":"Feature","geometry":{"type":"Point","coordinates":[-84.226823,41.267565]}},{"properties":{"city":"Defiance","status":"Active","ppv":"Yes","zip":"43512","region":"Ayersville","service packages":"Extended Package","township":null,"last":"Meyer","stbs allowed":2,"geo_score":0.902,"first":"Lawrence","ppv limit":"Unlimited","customer id":"C-00960","phone":4193952224,"whdvr":"No","id":"abn5priccoqi","address":"26692 Watson Rd.","login":"Meyer","password":2224,"geo_precision":"range","state":"OH","pin":2224},"type":"Feature","geometry":{"type":"Point","coordinates":[-84.313099,41.238131]}},{"properties":{"city":"Defiance","status":"Active","ppv":"Yes","zip":"43512","region":"Ayersville","service packages":"Gold Bundle,Basic HD","township":null,"last":"Miller","stbs allowed":3,"geo_score":0.902,"first":"John","ppv limit":"Unlimited","customer id":"C-00816","phone":4193951188,"whdvr":"No","id":"abn5prkmpq6k","address":"12967 Dohoney Rd.","login":"Miller","password":2222,"geo_precision":"range","state":"OH","pin":2222},"type":"Feature","geometry":{"type":"Point","coordinates":[-84.323724,41.253585]}},{"properties":{"city":"Defiance","status":"Active","ppv":"Yes","zip":"43512","region":"Ayersville","service packages":"basic package","township":null,"last":"Miller","stbs allowed":3,"geo_score":0.882,"first":"Elvan","ppv limit":"Unlimited","customer id":"C-01060","phone":4193950109,"whdvr":"No","id":"abn5prd4tzd1","address":"13620 Fruit Ridge Rd","login":"Miller","password":109,"geo_precision":"range","state":"OH","pin":109},"type":"Feature","geometry":{"type":"Point","coordinates":[-84.285482,41.245032]}},{"properties":{"city":"Defiance","status":"Active","ppv":"Yes","zip":"43512","region":"Ayersville","service packages":"Platinum Bundle,Basic HD","township":null,"last":"Miller","stbs allowed":4,"geo_score":0.902,"first":"Richard","ppv limit":"Unlimited","customer id":"C-00391","phone":4193951543,"whdvr":"No","id":"abn5prgurz75","address":"27959 Watson Rd","login":"Miller","password":1543,"geo_precision":"range","state":"OH","pin":1543},"type":"Feature","geometry":{"type":"Point","coordinates":[-84.286279,41.238376]}},{"properties":{"city":"Defiance","status":"Active","ppv":"Yes","zip":"43512","region":"Ayersville","service packages":"basic package","township":null,"last":"Millers","stbs allowed":3,"geo_score":0.561,"first":"Korner Pizza","ppv limit":"Unlimited","customer id":"C-01232","phone":4193952525,"whdvr":"No","id":"abn5prhkyu34","address":"13995 Highland Center Rd","login":"Korner","password":2525,"geo_precision":"street","state":"OH","pin":2525},"type":"Feature","geometry":{"type":"Point","coordinates":[-84.521982,41.382459]}},{"properties":{"city":"Defiance","status":"Active","ppv":"Yes","zip":"43512","region":"Ayersville","service packages":"Platinum Bundle,Basic HD","township":null,"last":"Mock","stbs allowed":3,"geo_score":0.902,"first":"Jeff","ppv limit":"Unlimited","customer id":"C-01314","phone":4193952636,"whdvr":"No","id":"abn5prjay6sz","address":"27981 Watson Rd.","login":"Mock","password":2636,"geo_precision":"range","state":"OH","pin":2636},"type":"Feature","geometry":{"type":"Point","coordinates":[-84.285817,41.238375]}},{"properties":{"city":"Defiance","status":"Inactive","ppv":"Yes","zip":"43512","region":"Ayersville","service packages":"Platinum Bundle","township":null,"last":"Monfette","stbs allowed":3,"geo_score":0.902,"first":"Joy","ppv limit":"Unlimited","customer id":"1333","phone":4193952658,"whdvr":"No","id":"abn5prjh215y","address":"26660 Elizabeth St.","login":"Monfette","password":2658,"geo_precision":"range","state":"OH","pin":2658},"type":"Feature","geometry":{"type":"Point","coordinates":[-84.323155,41.249027]}},{"properties":{"city":"Defiance","status":"Active","ppv":"Yes","zip":"43512","region":"Ayersville","service packages":"Silver Bundle","township":null,"last":"Morehead","stbs allowed":4,"geo_score":0.902,"first":"Ronald","ppv limit":"Unlimited","customer id":"C-00755","phone":4193951895,"whdvr":"No","id":"abn5pr76knkl","address":"17310 Harris Rd","login":"Morehead","password":1895,"geo_precision":"range","state":"OH","pin":1895},"type":"Feature","geometry":{"type":"Point","coordinates":[-84.266712,41.190354]}},{"properties":{"city":"Defiance","status":"Active","ppv":"Yes","zip":"43512","region":"Ayersville","service packages":"Gold Bundle","township":null,"last":"Mottashed","stbs allowed":2,"geo_score":0.902,"first":"Dale","ppv limit":"Unlimited","customer id":"C-00105","phone":4193951105,"whdvr":"No","id":"abn5priefc2x","address":"15604 Hill Rd.","login":"Mottashed","password":1105,"geo_precision":"range","state":"OH","pin":1105},"type":"Feature","geometry":{"type":"Point","coordinates":[-84.276054,41.217668]}},{"properties":{"city":"Defiance","status":"Active","ppv":"Yes","zip":"43512","region":"Ayersville","service packages":"Platinum Bundle","township":null,"last":"Murphy","stbs allowed":2,"geo_score":0.902,"first":"Jim","ppv limit":"Unlimited","customer id":"C-00543","phone":4193951676,"whdvr":"No","id":"abn5pr7jys9m","address":"26864 Sutphen Rd","login":"Murphy","password":1676,"geo_precision":"range","state":"OH","pin":1676},"type":"Feature","geometry":{"type":"Point","coordinates":[-84.306011,41.230862]}},{"properties":{"city":"Defiance","status":"Active","ppv":"Yes","zip":"43512","region":"Ayersville","service packages":"Gold Bundle","township":null,"last":"Nagel","stbs allowed":3,"geo_score":0.902,"first":"David &amp; Bonnie","ppv limit":"Unlimited","customer id":"C-00555","phone":4193951690,"whdvr":"No","id":"abn5prje95o2","address":"15172 Dohoney Rd.","login":"Nagel","password":1690,"geo_precision":"range","state":"OH","pin":1690},"type":"Feature","geometry":{"type":"Point","coordinates":[-84.324077,41.221205]}},{"properties":{"city":"Defiance","status":"Active","ppv":"Yes","zip":"43512","region":"Ayersville","service packages":"Extended Package,Basic HD,Extended HD","township":"Highland Township","last":"Nicholson","stbs allowed":5,"geo_score":0.902,"first":"Tom","ppv limit":"Unlimited","customer id":null,"phone":4193952580,"whdvr":"No","id":"abn5prazjmvq","address":"17117 Hill Rd.","login":"Nicholson","password":2580,"geo_precision":"range","state":"OH","pin":2580},"type":"Feature","geometry":{"type":"Point","coordinates":[-84.276181,41.193408]}},{"properties":{"city":"Defiance","status":"Active","ppv":"Yes","zip":"43512","region":"Ayersville","service packages":"Platinum Bundle,SHOWTIME AND TMC","township":null,"last":"Niese","stbs allowed":4,"geo_score":0.902,"first":"Lori","ppv limit":"Unlimited","customer id":"C-00750","phone":4193951451,"whdvr":"No","id":"abn5prj8jdqc","address":"26329 Bowman Rd.","login":"Niese","password":1451,"geo_precision":"range","state":"OH","pin":1451},"type":"Feature","geometry":{"type":"Point","coordinates":[-84.316671,41.223724]}},{"properties":{"city":"Holgate","status":"Active","ppv":"Yes","zip":"43527","region":"Ayersville","service packages":"Platinum Bundle","township":null,"last":"O'Hara","stbs allowed":8,"geo_score":0.902,"first":"James","ppv limit":"Unlimited","customer id":"C-01137","phone":4193952408,"whdvr":"No","id":"abn5prdzkx6j","address":"30400 Thieroff Rd.","login":"O'Hara","password":2408,"geo_precision":"range","state":"OH","pin":2408},"type":"Feature","geometry":{"type":"Point","coordinates":[-84.238896,41.260417]}},{"properties":{"city":"Defiance","status":"Inactive","ppv":"Yes","zip":"43512","region":"Ayersville","service packages":"Platinum Bundle,Basic HD","township":null,"last":"Olds","stbs allowed":4,"geo_score":0.84,"first":"Lori","ppv limit":"Unlimited","customer id":"C-00361","phone":4193952407,"whdvr":"No","id":"abn5prl0nzgt","address":"13802 Fruit Ridge","login":"Olds","password":2407,"geo_precision":"range","state":"OH","pin":2407},"type":"Feature","geometry":{"type":"Point","coordinates":[-84.285498,41.241988]}},{"properties":{"city":"Defiance","status":"Active","ppv":"Yes","zip":"43512","region":"Ayersville","service packages":"Gold Bundle,Basic HD","township":null,"last":"Ordway","stbs allowed":3,"geo_score":0.812,"first":"Ben","ppv limit":"Unlimited","customer id":"C-00844","phone":4193951992,"whdvr":"No","id":"abn5prevm2cg","address":"29257 St Rt 281","login":"Ordway","password":1992,"geo_precision":"range","state":"OH","pin":1992},"type":"Feature","geometry":{"type":"Point","coordinates":[-84.255875,41.282393]}},{"properties":{"city":"Defiance","status":"Active","ppv":"Yes","zip":"43512","region":"Ayersville","service packages":"Platinum Bundle","township":null,"last":"Ort","stbs allowed":2,"geo_score":0.902,"first":"Mark","ppv limit":"Unlimited","customer id":"1321","phone":4193951013,"whdvr":"No","id":"abn5prbnhaqa","address":"25474 Watson Rd.","login":"Ort","password":1013,"geo_precision":"range","state":"OH","pin":1013},"type":"Feature","geometry":{"type":"Point","coordinates":[-84.332766,41.238125]}},{"properties":{"city":"Defiance","status":"Active","ppv":"Yes","zip":"43512","region":"Ayersville","service packages":"Platinum Bundle","township":null,"last":"Pahl","stbs allowed":6,"geo_score":0.902,"first":"Jeff","ppv limit":"Unlimited","customer id":"C-00521","phone":4193951651,"whdvr":"No","id":"abn5prgb10et","address":"14235 Kinner Rd","login":"Pahl","password":732,"geo_precision":"range","state":"OH","pin":732},"type":"Feature","geometry":{"type":"Point","coordinates":[-84.246858,41.234977]}},{"properties":{"city":"Defiance","status":"Active","ppv":"Yes","zip":"43512","region":"Ayersville","service packages":"Extended Package,Basic HD","township":null,"last":"Pahl","stbs allowed":4,"geo_score":0.902,"first":"Dan","ppv limit":"Unlimited","customer id":"C-00373","phone":4193951495,"whdvr":"No","id":"abn5pr8361f4","address":"28489 Bowman Rd","login":"Pahl","password":1495,"geo_precision":"range","state":"OH","pin":1495},"type":"Feature","geometry":{"type":"Point","coordinates":[-84.275808,41.223798]}},{"properties":{"city":"Defiance","status":"Active","ppv":"Yes","zip":"43512","region":"Ayersville","service packages":"Platinum Bundle,Basic HD","township":null,"last":"Partee","stbs allowed":2,"geo_score":0.805,"first":"Virgil","ppv limit":"Unlimited","customer id":"1331","phone":4193951552,"whdvr":"No","id":"abn5prh1s2dy","address":"16216 Cullen","login":"Partee","password":1552,"geo_precision":"range","state":"OH","pin":1552},"type":"Feature","geometry":{"type":"Point","coordinates":[-84.30496,41.207773]}},{"properties":{"city":"Defiance","status":"Active","ppv":"Yes","zip":"43512","region":"Ayersville","service packages":"Platinum Bundle","township":null,"last":"Perdue","stbs allowed":3,"geo_score":0.84,"first":"William","ppv limit":"Unlimited","customer id":"C-00789","phone":4193952117,"whdvr":"No","id":"abn5pravijix","address":"13226 Fruit Ridge","login":"Perdue","password":2117,"geo_precision":"range","state":"OH","pin":2117},"type":"Feature","geometry":{"type":"Point","coordinates":[-84.288444,41.251835]}},{"properties":{"city":"Defiance","status":"Active","ppv":"Yes","zip":"43512","region":"Ayersville","service packages":"Gold Bundle,Basic HD","township":null,"last":"Pessefall","stbs allowed":3,"geo_score":0.902,"first":"Mike","ppv limit":"Unlimited","customer id":"C-01207","phone":4193952486,"whdvr":"No","id":"abn5prh41xqf","address":"27183 Hoffman Rd.","login":"Pessefall","password":2486,"geo_precision":"range","state":"OH","pin":2486},"type":"Feature","geometry":{"type":"Point","coordinates":[-84.295441,41.194713]}},{"properties":{"city":"Defiance","status":"Inactive","ppv":"Yes","zip":"43512","region":"Ayersville","service packages":"basic package","township":null,"last":"Peters","stbs allowed":4,"geo_score":0.87,"first":"Merle","ppv limit":"Unlimited","customer id":"C-00177","phone":4193951183,"whdvr":"No","id":"abn5prd8zlyw","address":"12236 Harris Dr.","login":"Peters","password":1183,"geo_precision":"range","state":"OH","pin":1183},"type":"Feature","geometry":{"type":"Point","coordinates":[-84.266052,41.261783]}},{"properties":{"city":"Defiance","status":"Active","ppv":"Yes","zip":"43512","region":"Ayersville","service packages":"Gold Bundle","township":null,"last":"Pion","stbs allowed":5,"geo_score":0.512,"first":"Joanne","ppv limit":"Unlimited","customer id":"C-00913","phone":4193951944,"whdvr":"No","id":"abn5prdharjg","address":"14886 Highland Center","login":"Pion","password":1944,"geo_precision":"street","state":"OH","pin":1944},"type":"Feature","geometry":{"type":"Point","coordinates":[-84.521982,41.382459]}},{"properties":{"city":"Defiance","status":"Active","ppv":"Yes","zip":"43512","region":"Ayersville","service packages":"Gold Bundle","township":null,"last":"Pizzo","stbs allowed":2,"geo_score":0.902,"first":"Kerri","ppv limit":"Unlimited","customer id":"C-00950","phone":4197709278,"whdvr":"No","id":"abn5pr7pbir8","address":"26732 Shindler Rd","login":"Pizzo","password":190,"geo_precision":"range","state":"OH","pin":190},"type":"Feature","geometry":{"type":"Point","coordinates":[-84.309224,41.253344]}},{"properties":{"city":"Defiance","status":"Active","ppv":"Yes","zip":"43512","region":"Ayersville","service packages":"Platinum Bundle,Basic HD","township":null,"last":"Pontious","stbs allowed":4,"geo_score":0.902,"first":"Norm","ppv limit":"Unlimited","customer id":"C-00861","phone":4193952112,"whdvr":"No","id":"abn5prfi2y7b","address":"15765 Harris Road","login":"Pontious","password":2112,"geo_precision":"range","state":"OH","pin":2112},"type":"Feature","geometry":{"type":"Point","coordinates":[-84.265395,41.213601]}},{"properties":{"city":"Defiance","status":"Active","ppv":"Yes","zip":"43512","region":"Ayersville","service packages":"Platinum Bundle","township":null,"last":"Porter","stbs allowed":3,"geo_score":0.902,"first":"Ken","ppv limit":"Unlimited","customer id":"C-00686","phone":4193951820,"whdvr":"No","id":"abn5prb9m9lw","address":"30215 New Bavaria Rd.","login":"Porter","password":1820,"geo_precision":"range","state":"OH","pin":1820},"type":"Feature","geometry":{"type":"Point","coordinates":[-84.242198,41.244078]}},{"properties":{"city":"Defiance","status":"Active","ppv":"Yes","zip":"43512","region":"Ayersville","service packages":"Gold Bundle","township":null,"last":"Posey","stbs allowed":3,"geo_score":0.707,"first":"Diana","ppv limit":"Unlimited","customer id":"C-00985","phone":4193951863,"whdvr":"No","id":"abn5pr95k3us","address":"27400 Ayersville Rd.","login":"Posey","password":1551,"geo_precision":"street","state":"OH","pin":1551},"type":"Feature","geometry":{"type":"Point","coordinates":[-84.323816,41.258725]}},{"properties":{"city":"Defiance","status":"Active","ppv":"Yes","zip":"43512","region":"Ayersville","service packages":"basic package,Basic HD","township":null,"last":"Poston","stbs allowed":3,"geo_score":0.902,"first":"Ray","ppv limit":"Unlimited","customer id":"C-00660","phone":4193951194,"whdvr":"No","id":"abn5prbmr8vp","address":"25540 Blanchard Rd.","login":"Poston","password":1194,"geo_precision":"range","state":"OH","pin":1194},"type":"Feature","geometry":{"type":"Point","coordinates":[-84.329195,41.209036]}},{"properties":{"city":"Defiance","status":"Active","ppv":"Yes","zip":"43512","region":"Ayersville","service packages":"Platinum Bundle,Basic HD","township":null,"last":"Poston","stbs allowed":5,"geo_score":0.805,"first":"Jamie","ppv limit":"Unlimited","customer id":"1417","phone":4193951847,"whdvr":"No","id":"abn5prgchr2r","address":"14966 St Rt 15","login":"Poston","password":1847,"geo_precision":"range","state":"OH","pin":1847},"type":"Feature","geometry":{"type":"Point","coordinates":[-84.338561,41.224504]}},{"properties":{"city":"Defiance","status":"Active","ppv":"Yes","zip":"43512","region":"Ayersville","service packages":"Gold Bundle","township":null,"last":"Potter","stbs allowed":3,"geo_score":0.902,"first":"Daniel","ppv limit":"Unlimited","customer id":"C-00941","phone":4193951062,"whdvr":"No","id":"abn5prcltc2r","address":"12985 Fullmer Rd.","login":"Potter","password":1062,"geo_precision":"range","state":"OH","pin":1062},"type":"Feature","geometry":{"type":"Point","coordinates":[-84.314123,41.253856]}},{"properties":{"city":"Defiance","status":"Active","ppv":"Yes","zip":"43512","region":"Ayersville","service packages":"Gold Bundle,Basic HD","township":null,"last":"Raike","stbs allowed":6,"geo_score":0.902,"first":"Michael","ppv limit":"Unlimited","customer id":"C-00976","phone":4193951002,"whdvr":"No","id":"abn5prgi5rzd","address":"11017 Harris Rd.","login":"Raike","password":2222,"geo_precision":"range","state":"OH","pin":2222},"type":"Feature","geometry":{"type":"Point","coordinates":[-84.266012,41.282155]}},{"properties":{"city":"Defiance","status":"Active","ppv":"Yes","zip":"43512","region":"Ayersville","service packages":"Extended Package","township":null,"last":"Ramirez","stbs allowed":4,"geo_score":0.782,"first":"Carlos","ppv limit":"Unlimited","customer id":"1257","phone":4193950185,"whdvr":"No","id":"abn5pris0sv0","address":"13536 Fullmer Rd Lot 13","login":"Ramirez","password":1449,"geo_precision":"range","state":"OH","pin":1449},"type":"Feature","geometry":{"type":"Point","coordinates":[-84.31428,41.244197]}},{"properties":{"city":"Defiance","status":"Active","ppv":"Yes","zip":"43512","region":"Ayersville","service packages":"Extended Package","township":null,"last":"Ramirez","stbs allowed":3,"geo_score":0.902,"first":"Serena","ppv limit":"Unlimited","customer id":"C-00077","phone":4193950191,"whdvr":"No","id":"abn5prb0fwtq","address":"13536 Fullmer Rd.","login":"Ramirez","password":191,"geo_precision":"range","state":"OH","pin":191},"type":"Feature","geometry":{"type":"Point","coordinates":[-84.31428,41.244197]}},{"properties":{"city":"Defiance","status":"Active","ppv":"Yes","zip":"43512","region":"Ayersville","service packages":"Gold Bundle","township":null,"last":"Rayle","stbs allowed":3,"geo_score":0.693,"first":"Edward","ppv limit":"Unlimited","customer id":"C-00147","phone":4193951152,"whdvr":"No","id":"abn5prijxl2e","address":"27233 West Rd.","login":"Rayle","password":1152,"geo_precision":"range","state":"OH","pin":1152},"type":"Feature","geometry":{"type":"Point","coordinates":[-84.289109,41.239093]}},{"properties":{"city":"Defiance","status":"Active","ppv":"Yes","zip":"43512","region":"Ayersville","service packages":"Platinum Bundle,ENCORE\\STARS PACKAGE,HBO,SHOWTIME AND TMC","township":null,"last":"Replogle","stbs allowed":4,"geo_score":0.902,"first":"James","ppv limit":"25","customer id":"C-00235","phone":4193952247,"whdvr":"No","id":"abn5prhjxo1l","address":"25918 Bowman Rd.","login":"Replogle","password":373,"geo_precision":"range","state":"OH","pin":373},"type":"Feature","geometry":{"type":"Point","coordinates":[-84.325486,41.223584]}},{"properties":{"city":"Holgate","status":"Active","ppv":"Yes","zip":"43527","region":"Ayersville","service packages":"Platinum Bundle","township":null,"last":"Retcher","stbs allowed":3,"geo_score":0.902,"first":"Larry","ppv limit":"Unlimited","customer id":"C-00468","phone":4193951592,"whdvr":"No","id":"abn5pr6cuk6a","address":"30620 Weichman Rd","login":"Retcher","password":1592,"geo_precision":"range","state":"OH","pin":1592},"type":"Feature","geometry":{"type":"Point","coordinates":[-84.23139,41.295496]}},{"properties":{"city":"Defiance","status":"Active","ppv":"Yes","zip":"43512","region":"Ayersville","service packages":"Platinum Bundle,Basic HD","township":null,"last":"Retcher","stbs allowed":7,"geo_score":0.84,"first":"Joel and Julie","ppv limit":"Unlimited","customer id":"C-00653","phone":4193951788,"whdvr":"No","id":"abn5prcmp7s6","address":"11807 Fruit Ridge","login":"Retcher","password":2222,"geo_precision":"range","state":"OH","pin":2222},"type":"Feature","geometry":{"type":"Point","coordinates":[-84.295939,41.269972]}},{"properties":{"city":"Defiance","status":"Active","ppv":"Yes","zip":"43512","region":"Ayersville","service packages":"Gold Bundle","township":null,"last":"Reynolds","stbs allowed":3,"geo_score":0.902,"first":"ruth","ppv limit":"Unlimited","customer id":"C-00717","phone":4193951851,"whdvr":"No","id":"abn5priy051u","address":"25317 Bowman Rd","login":"Reynolds","password":1851,"geo_precision":"range","state":"OH","pin":1851},"type":"Feature","geometry":{"type":"Point","coordinates":[-84.33684,41.223727]}},{"properties":{"city":"Defiance","status":"Active","ppv":"Yes","zip":"43512","region":"Ayersville","service packages":"Gold Bundle","township":null,"last":"Riblet","stbs allowed":3,"geo_score":0.805,"first":"Norm","ppv limit":"Unlimited","customer id":"C-00659-1","phone":4193951794,"whdvr":"No","id":"abn5prig5rtt","address":"14572 St Rt 15","login":"Riblet","password":1794,"geo_precision":"range","state":"OH","pin":1794},"type":"Feature","geometry":{"type":"Point","coordinates":[-84.34042,41.232347]}},{"properties":{"city":"Defiance","status":"Active","ppv":"Yes","zip":"43512","region":"Ayersville","service packages":"Silver Bundle","township":null,"last":"Rickenberg","stbs allowed":3,"geo_score":0.902,"first":"Darla","ppv limit":"Unlimited","customer id":"1433","phone":4193952642,"whdvr":"No","id":"abn5prllps00","address":"12723 Wolf Rd.","login":"Rickenberg","password":2642,"geo_precision":"range","state":"OH","pin":2642},"type":"Feature","geometry":{"type":"Point","coordinates":[-84.280515,41.250422]}},{"properties":{"city":"Defiance","status":"Active","ppv":"Yes","zip":"43512","region":"Ayersville","service packages":"Gold Bundle","township":null,"last":"Rieke","stbs allowed":4,"geo_score":0.902,"first":"Dave","ppv limit":"Unlimited","customer id":"C-00654","phone":4193951789,"whdvr":"No","id":"abn5prkf9sqf","address":"12564 Wolf Rd","login":"Rieke","password":1789,"geo_precision":"range","state":"OH","pin":1789},"type":"Feature","geometry":{"type":"Point","coordinates":[-84.280644,41.251309]}},{"properties":{"city":"Defiance","status":"Active","ppv":"Yes","zip":"43512","region":"Ayersville","service packages":"Extended Package,Basic HD","township":null,"last":"Ripke","stbs allowed":2,"geo_score":0.88,"first":"Lora","ppv limit":"Unlimited","customer id":"C-01062","phone":4193950178,"whdvr":"No","id":"abn5prk9yj9q","address":"29015 Stienmaier Rd.","login":"Ripke","password":178,"geo_precision":"range","state":"OH","pin":178},"type":"Feature","geometry":{"type":"Point","coordinates":[-84.25757,41.241746]}},{"properties":{"city":"Defiance","status":"Active","ppv":"Yes","zip":"43512","region":"Ayersville","service packages":"Gold Bundle","township":null,"last":"Rohn","stbs allowed":3,"geo_score":0.902,"first":"William","ppv limit":"Unlimited","customer id":"C-00586","phone":4193951724,"whdvr":"No","id":"abn5prgl5ra8","address":"28797 Rohn Rd.","login":"Rohn","password":1724,"geo_precision":"range","state":"OH","pin":1724},"type":"Feature","geometry":{"type":"Point","coordinates":[-84.276898,41.239728]}},{"properties":{"city":"Defiance","status":"Active","ppv":"Yes","zip":"43512","region":"Ayersville","service packages":"Gold Bundle","township":null,"last":"Rohn","stbs allowed":3,"geo_score":0.902,"first":"Donald","ppv limit":"Unlimited","customer id":"1311","phone":4193952406,"whdvr":"No","id":"abn5prd32i3w","address":"28859 Hagy Rd.","login":"Rohn","password":2406,"geo_precision":"range","state":"OH","pin":2406},"type":"Feature","geometry":{"type":"Point","coordinates":[-84.268593,41.257219]}},{"properties":{"city":"Defiance","status":"Active","ppv":"Yes","zip":"43512","region":"Ayersville","service packages":"Gold Bundle,Basic HD","township":null,"last":"Roth","stbs allowed":6,"geo_score":0.512,"first":"Scott","ppv limit":"Unlimited","customer id":"C-01199","phone":4193952475,"whdvr":"No","id":"abn5pri01a9j","address":"16901 Highland Center","login":"Roth","password":2475,"geo_precision":"street","state":"OH","pin":2475},"type":"Feature","geometry":{"type":"Point","coordinates":[-84.521982,41.382459]}},{"properties":{"city":"Defiance","status":"Active","ppv":"Yes","zip":"43512","region":"Ayersville","service packages":"Platinum Bundle,Basic HD,HBO,CINEMAX [Ayersville]","township":null,"last":"Roth","stbs allowed":3,"geo_score":0.777,"first":"Barry &amp; Audrey","ppv limit":"Unlimited","customer id":"C-00128","phone":4193951132,"whdvr":"No","id":"abn5pr9j0upe","address":"28079 Hagy","login":"Roth","password":1132,"geo_precision":"range","state":"OH","pin":1132},"type":"Feature","geometry":{"type":"Point","coordinates":[-84.282378,41.260422]}},{"properties":{"city":"Defiance","status":"Active","ppv":"Yes","zip":"43512","region":"Ayersville","service packages":"Gold Bundle,Basic HD","township":null,"last":"Roth","stbs allowed":3,"geo_score":0.902,"first":"Duwayne","ppv limit":"Unlimited","customer id":"C-00564","phone":4193951700,"whdvr":"No","id":"abn5pr9ogdys","address":"29516 Blanchard Rd.","login":"Roth","password":1700,"geo_precision":"range","state":"OH","pin":1700},"type":"Feature","geometry":{"type":"Point","coordinates":[-84.254156,41.20924]}},{"properties":{"city":"Defiance","status":"Active","ppv":"Yes","zip":"43512","region":"Ayersville","service packages":"Gold Bundle","township":null,"last":"Rowe","stbs allowed":3,"geo_score":0.777,"first":"Jennifer","ppv limit":"Unlimited","customer id":"C-01216","phone":4193951377,"whdvr":"No","id":"abn5prcgid32","address":"29152 Hagy","login":"Rowe","password":1377,"geo_precision":"range","state":"OH","pin":1377},"type":"Feature","geometry":{"type":"Point","coordinates":[-84.263377,41.255379]}},{"properties":{"city":"Defiance","status":"Active","ppv":"Yes","zip":"43512","region":"Ayersville","service packages":"Gold Bundle,Basic HD","township":null,"last":"RUFENACHT","stbs allowed":3,"geo_score":0.902,"first":"RICK &amp; EILEEN","ppv limit":"Unlimited","customer id":"C-00133","phone":4193951138,"whdvr":"No","id":"abn5pre8m2kh","address":"29139 BOWMAN RD","login":"RUFENACHT","password":1138,"geo_precision":"range","state":"OH","pin":1138},"type":"Feature","geometry":{"type":"Point","coordinates":[-84.265936,41.22052]}},{"properties":{"city":"Defiance","status":"Active","ppv":"Yes","zip":"43512","region":"Ayersville","service packages":"Platinum Bundle,ENCORE\\STARS PACKAGE,Extended HD ,HBO","township":null,"last":"Sandleben","stbs allowed":8,"geo_score":0.512,"first":"Dale","ppv limit":"Unlimited","customer id":"C-00491","phone":4193951766,"whdvr":"No","id":"abn5prkoulz1","address":"15713 Highland Center","login":"Sandleben","password":1766,"geo_precision":"street","state":"OH","pin":1766},"type":"Feature","geometry":{"type":"Point","coordinates":[-84.521982,41.382459]}},{"properties":{"city":"Defiance","status":"Active","ppv":"Yes","zip":"43512","region":"Ayersville","service packages":"Gold Bundle","township":null,"last":"Schafer","stbs allowed":3,"geo_score":0.512,"first":"Greg","ppv limit":"Unlimited","customer id":"C-00878","phone":4193952396,"whdvr":"No","id":"abn5prh68vkd","address":"16861 Highland Center","login":"Schafer","password":1111,"geo_precision":"street","state":"OH","pin":1111},"type":"Feature","geometry":{"type":"Point","coordinates":[-84.521982,41.382459]}},{"properties":{"city":"Defiance","status":"Active","ppv":"Yes","zip":"43512","region":"Ayersville","service packages":"Gold Bundle,Basic HD","township":null,"last":"Scheirer","stbs allowed":4,"geo_score":0.902,"first":"Brandon","ppv limit":"Unlimited","customer id":"C-00734","phone":4193952627,"whdvr":"No","id":"abn5prjv7b0w","address":"15198 Fullmer Rd.","login":"Scheirer","password":2627,"geo_precision":"range","state":"OH","pin":2627},"type":"Feature","geometry":{"type":"Point","coordinates":[-84.314462,41.220182]}},{"properties":{"city":"Defiance","status":"Active","ppv":"Yes","zip":"43512","region":"Ayersville","service packages":"Platinum Bundle","township":null,"last":"Schlachter","stbs allowed":3,"geo_score":0.902,"first":"Tom","ppv limit":"Unlimited","customer id":"C-00884","phone":4193952136,"whdvr":"No","id":"abn5pri6zjmv","address":"15623 Cullen Rd.","login":"Schlachter","password":2136,"geo_precision":"range","state":"OH","pin":2136},"type":"Feature","geometry":{"type":"Point","coordinates":[-84.304776,41.214619]}},{"properties":{"city":"Defiance","status":"Active","ppv":"Yes","zip":"43512","region":"Ayersville","service packages":"basic package","township":null,"last":"School","stbs allowed":3,"geo_score":0.902,"first":"Ayersville","ppv limit":"Unlimited","customer id":"C-01241","phone":4193952537,"whdvr":"No","id":"abn5pr6vko29","address":"28046 Watson Rd.","login":"Ayersville","password":2537,"geo_precision":"range","state":"OH","pin":2537},"type":"Feature","geometry":{"type":"Point","coordinates":[-84.283885,41.238329]}},{"properties":{"city":"Defiance","status":"Active","ppv":"Yes","zip":"43512","region":"Ayersville","service packages":"Platinum Bundle","township":null,"last":"Schwab","stbs allowed":5,"geo_score":0.902,"first":"Doug","ppv limit":"Unlimited","customer id":"C-01109","phone":4193951352,"whdvr":"No","id":"abn5prhdgpvi","address":"28555 Mansfield Rd.","login":"Schwab","password":1352,"geo_precision":"range","state":"OH","pin":1352},"type":"Feature","geometry":{"type":"Point","coordinates":[-84.268147,41.18028]}},{"properties":{"city":"Defiance","status":"Active","ppv":"Yes","zip":"43512","region":"Ayersville","service packages":"Platinum Bundle","township":null,"last":"Schwab","stbs allowed":4,"geo_score":0.902,"first":"John","ppv limit":"Unlimited","customer id":"C-00170","phone":4193951175,"whdvr":"No","id":"abn5pr72ex2t","address":"17512 Harris Rd","login":"Schwab","password":1175,"geo_precision":"range","state":"OH","pin":1175},"type":"Feature","geometry":{"type":"Point","coordinates":[-84.266739,41.187505]}},{"properties":{"city":"Defiance","status":"Active","ppv":"Yes","zip":"43512","region":"Ayersville","service packages":"Platinum Bundle","township":null,"last":"Schwarzman","stbs allowed":3,"geo_score":0.902,"first":"Rodney","ppv limit":"Unlimited","customer id":"C-00424","phone":4193952346,"whdvr":"No","id":"abn5prb6viuy","address":"25676 Blanchard Rd.","login":"Schwarzman","password":2346,"geo_precision":"range","state":"OH","pin":2346},"type":"Feature","geometry":{"type":"Point","coordinates":[-84.328085,41.209037]}},{"properties":{"city":"Defiance","status":"Active","ppv":"Yes","zip":"43512","region":"Ayersville","service packages":"Platinum Bundle,Basic HD","township":null,"last":"Seibert","stbs allowed":6,"geo_score":0.902,"first":"Paul","ppv limit":"Unlimited","customer id":"C-00347","phone":4193951827,"whdvr":"No","id":"abn5priqog9c","address":"27831 Watson Rd.","login":"Seibert","password":1827,"geo_precision":"range","state":"OH","pin":1827},"type":"Feature","geometry":{"type":"Point","coordinates":[-84.288545,41.238354]}},{"properties":{"city":"Defiance","status":"Active","ppv":"Yes","zip":"43512","region":"Ayersville","service packages":"Platinum Bundle","township":null,"last":"Seigman","stbs allowed":4,"geo_score":0.902,"first":"Dennis","ppv limit":"Unlimited","customer id":"1318","phone":4193951150,"whdvr":"No","id":"abn5pr7umdye","address":"15282 Harris Rd.","login":"Seigman","password":1150,"geo_precision":"range","state":"OH","pin":1150},"type":"Feature","geometry":{"type":"Point","coordinates":[-84.265683,41.219261]}},{"properties":{"city":"Defiance","status":"Active","ppv":"Yes","zip":"43512","region":"Ayersville","service packages":"Platinum Bundle","township":null,"last":"Sheets","stbs allowed":3,"geo_score":0.708,"first":"Tom","ppv limit":"Unlimited","customer id":"C-00318","phone":4193951434,"whdvr":"No","id":"abn5prj026xy","address":"30573 Standley Rd.","login":"Sheets","password":1434,"geo_precision":"street","state":"OH","pin":1434},"type":"Feature","geometry":{"type":"Point","coordinates":[-84.246727,41.267784]}},{"properties":{"city":"Defiance","status":"Active","ppv":"Yes","zip":"43512","region":"Ayersville","service packages":"Gold Bundle","township":null,"last":"Sheets","stbs allowed":4,"geo_score":0.902,"first":"Benji","ppv limit":"Unlimited","customer id":"C-01300","phone":4193952163,"whdvr":"No","id":"abn5prctc3ql","address":"15740 Hill Rd.","login":"Sheets","password":1234,"geo_precision":"range","state":"OH","pin":1234},"type":"Feature","geometry":{"type":"Point","coordinates":[-84.276073,41.216128]}},{"properties":{"city":"Defiance","status":"Active","ppv":"Yes","zip":"43512","region":"Ayersville","service packages":"Platinum Bundle","township":null,"last":"Sherry","stbs allowed":5,"geo_score":0.902,"first":"David &amp; Paula","ppv limit":"Unlimited","customer id":"C-00782","phone":4193951923,"whdvr":"No","id":"abn5pr6xq9vj","address":"26326 Marion Street","login":"Sherry","password":1923,"geo_precision":"range","state":"OH","pin":1923},"type":"Feature","geometry":{"type":"Point","coordinates":[-84.320349,41.251032]}},{"properties":{"city":"Defiance","status":"Active","ppv":"Yes","zip":"43512","region":"Ayersville","service packages":"Gold Bundle","township":null,"last":"Shook","stbs allowed":5,"geo_score":0.812,"first":"Marilyn","ppv limit":"Unlimited","customer id":"C-00080","phone":4193951079,"whdvr":"No","id":"abn5pram3wyi","address":"29268 St Rt 281","login":"Shook","password":1079,"geo_precision":"range","state":"OH","pin":1079},"type":"Feature","geometry":{"type":"Point","coordinates":[-84.259872,41.282254]}},{"properties":{"city":"Defiance","status":"Active","ppv":"Yes","zip":"43512","region":"Ayersville","service packages":"Platinum Bundle","township":null,"last":"Shorts","stbs allowed":3,"geo_score":0.902,"first":"Larry","ppv limit":"Unlimited","customer id":"C-01156","phone":4193951666,"whdvr":"No","id":"abn5prdh2ckp","address":"29489 Standley Rd.","login":"Shorts","password":1666,"geo_precision":"range","state":"OH","pin":1666},"type":"Feature","geometry":{"type":"Point","coordinates":[-84.254313,41.267862]}},{"properties":{"city":"Defiance","status":"Active","ppv":"Yes","zip":"43512","region":"Ayersville","service packages":"Platinum Bundle,Basic HD,ENCORE\\STARS PACKAGE","township":null,"last":"Shumaker","stbs allowed":5,"geo_score":0.805,"first":"Randy","ppv limit":"Unlimited","customer id":"1456","phone":4193951869,"whdvr":"No","id":"abn5pri48quo","address":"14924 St Rt 15","login":"Shumaker","password":1869,"geo_precision":"range","state":"OH","pin":1869},"type":"Feature","geometry":{"type":"Point","coordinates":[-84.338829,41.225644]}},{"properties":{"city":"Defiance","status":"Active","ppv":"Yes","zip":"43512","region":"Ayersville","service packages":"basic package,Basic HD","township":null,"last":"Siebeneck","stbs allowed":5,"geo_score":0.902,"first":"Thomas","ppv limit":"Unlimited","customer id":"C-00096","phone":4193951095,"whdvr":"No","id":"abn5prjwxrfk","address":"17268 Harris Rd.","login":"Siebeneck","password":1095,"geo_precision":"range","state":"OH","pin":1095},"type":"Feature","geometry":{"type":"Point","coordinates":[-84.266698,41.190961]}},{"properties":{"city":"Defiance","status":"Active","ppv":"Yes","zip":"43512","region":"Ayersville","service packages":"Platinum Bundle,Basic HD","township":null,"last":"Silliman","stbs allowed":3,"geo_score":0.902,"first":"Mike and Chris","ppv limit":"Unlimited","customer id":"C-01127","phone":4193952400,"whdvr":"No","id":"abn5prdn5af7","address":"28294 Blanchard Rd.","login":"Silliman","password":2400,"geo_precision":"range","state":"OH","pin":2400},"type":"Feature","geometry":{"type":"Point","coordinates":[-84.279395,41.209131]}},{"properties":{"city":"Defiance","status":"Active","ppv":"Yes","zip":"43512","region":"Ayersville","service packages":"Gold Bundle,Basic HD,HBO","township":null,"last":"Sinn","stbs allowed":6,"geo_score":0.902,"first":"Don","ppv limit":"Unlimited","customer id":"C-01331","phone":4193952654,"whdvr":"No","id":"abn5praaj65j","address":"27235 Watson Rd.","login":"Sinn","password":2654,"geo_precision":"range","state":"OH","pin":2654},"type":"Feature","geometry":{"type":"Point","coordinates":[-84.29875,41.238316]}},{"properties":{"city":"Defiance","status":"Active","ppv":"Yes","zip":"43512","region":"Ayersville","service packages":"Platinum Bundle","township":null,"last":"Skiver","stbs allowed":3,"geo_score":0.902,"first":"Allan","ppv limit":"Unlimited","customer id":"C-00785","phone":4193951927,"whdvr":"No","id":"abn5pr7qwyfn","address":"15939 Harris Rd.","login":"Skiver","password":1927,"geo_precision":"range","state":"OH","pin":1927},"type":"Feature","geometry":{"type":"Point","coordinates":[-84.266403,41.210435]}},{"properties":{"city":"Defiance","status":"Active","ppv":"Yes","zip":"43512","region":"Ayersville","service packages":"Gold Bundle,Basic HD","township":null,"last":"Skiver","stbs allowed":4,"geo_score":0.902,"first":"Jerry","ppv limit":"Unlimited","customer id":"1382","phone":4193952255,"whdvr":"No","id":"abn5pr8cqa6a","address":"1558 Standley Rd.","login":"Skiver","password":2255,"geo_precision":"range","state":"OH","pin":2255},"type":"Feature","geometry":{"type":"Point","coordinates":[-84.3297,41.26812]}},{"properties":{"city":"Defiance","status":"Active","ppv":"Yes","zip":"43512","region":"Ayersville","service packages":"Platinum Bundle,Basic HD","township":null,"last":"Smith","stbs allowed":4,"geo_score":0.902,"first":"Mark","ppv limit":"Unlimited","customer id":"C-00431","phone":4193951554,"whdvr":"No","id":"abn5prhrnux6","address":"30098 Weichman Rd","login":"Smith","password":1554,"geo_precision":"range","state":"OH","pin":1554},"type":"Feature","geometry":{"type":"Point","coordinates":[-84.246763,41.285467]}},{"properties":{"city":"Defiance","status":"Active","ppv":"Yes","zip":"43512","region":"Ayersville","service packages":"Platinum Bundle,Basic HD","township":null,"last":"Smith","stbs allowed":4,"geo_score":0.902,"first":"James","ppv limit":"Unlimited","customer id":"C-00459","phone":4193951918,"whdvr":"No","id":"abn5prgqws49","address":"16200 Hill Rd.","login":"Smith","password":1918,"geo_precision":"range","state":"OH","pin":1918},"type":"Feature","geometry":{"type":"Point","coordinates":[-84.276192,41.206302]}},{"properties":{"city":"Defiance","status":"Inactive","ppv":"Yes","zip":"43512","region":"Ayersville","service packages":"Extended Package","township":null,"last":"Snider","stbs allowed":3,"geo_score":0.76,"first":"Phil","ppv limit":"Unlimited","customer id":"C-00288","phone":4193951917,"whdvr":"No","id":"abn5prh7ppkt","address":"12508 Fruit Ridge Rd.","login":"Snider","password":1917,"geo_precision":"range","state":"OH","pin":1917},"type":"Feature","geometry":{"type":"Point","coordinates":[-84.291887,41.259564]}},{"properties":{"city":"Defiance","status":"Active","ppv":"Yes","zip":"43512","region":"Ayersville","service packages":"Gold Bundle","township":null,"last":"Soto","stbs allowed":2,"geo_score":0.512,"first":"Pedro &amp; Jodie Sr.","ppv limit":"Unlimited","customer id":"1307","phone":4193951633,"whdvr":"No","id":"abn5prlelrer","address":"14134 Highland Center","login":"Soto","password":1633,"geo_precision":"street","state":"OH","pin":1633},"type":"Feature","geometry":{"type":"Point","coordinates":[-84.521982,41.382459]}},{"properties":{"city":"Defiance","status":"Active","ppv":"Yes","zip":"43512","region":"Ayersville","service packages":"Gold Bundle","township":null,"last":"Spangler","stbs allowed":4,"geo_score":0.902,"first":"Steve","ppv limit":"Unlimited","customer id":"C-00907","phone":4193952477,"whdvr":"No","id":"abn5prhchjvy","address":"13169 Fullmer Rd.","login":"Spangler","password":2477,"geo_precision":"range","state":"OH","pin":2477},"type":"Feature","geometry":{"type":"Point","coordinates":[-84.314122,41.249848]}},{"properties":{"city":"Defiance","status":"Active","ppv":"Yes","zip":"43512","region":"Ayersville","service packages":"Gold Bundle,Basic HD","township":null,"last":"Sprow","stbs allowed":3,"geo_score":0.902,"first":"Dan","ppv limit":"Unlimited","customer id":"C-00760","phone":4193951900,"whdvr":"No","id":"abn5pr8e7dak","address":"15088 Dohoney Rd.","login":"Sprow","password":1900,"geo_precision":"range","state":"OH","pin":1900},"type":"Feature","geometry":{"type":"Point","coordinates":[-84.324056,41.222403]}},{"properties":{"city":"Defiance","status":"Active","ppv":"Yes","zip":"43512","region":"Ayersville","service packages":"Gold Bundle","township":null,"last":"Sroufe","stbs allowed":3,"geo_score":0.902,"first":"Randy &amp; Laura","ppv limit":"Unlimited","customer id":"C-00253","phone":4193951155,"whdvr":"No","id":"abn5prf75h4l","address":"27742 Watson Rd.","login":"Sroufe","password":1155,"geo_precision":"range","state":"OH","pin":1155},"type":"Feature","geometry":{"type":"Point","coordinates":[-84.290654,41.238189]}},{"properties":{"city":"Defiance","status":"Active","ppv":"Yes","zip":"43512","region":"Ayersville","service packages":"Platinum Bundle","township":null,"last":"Stahl","stbs allowed":6,"geo_score":0.902,"first":"Gary &amp; Sharon","ppv limit":"Unlimited","customer id":"C-01123","phone":4193952681,"whdvr":"No","id":"abn5prb5mkl2","address":"28752 Bowman Rd.","login":"Sharon","password":2681,"geo_precision":"range","state":"OH","pin":2681},"type":"Feature","geometry":{"type":"Point","coordinates":[-84.271153,41.222764]}},{"properties":{"city":"Defiance","status":"Active","ppv":"Yes","zip":"43512","region":"Ayersville","service packages":"Platinum Bundle,Basic HD","township":null,"last":"Starr","stbs allowed":5,"geo_score":0.902,"first":"Lucan","ppv limit":"Unlimited","customer id":"C-01086","phone":4193951768,"whdvr":"No","id":"abn5pri6xt1d","address":"14978 Dohoney Rd.","login":"Starr","password":1768,"geo_precision":"range","state":"OH","pin":1768},"type":"Feature","geometry":{"type":"Point","coordinates":[-84.324035,41.223862]}},{"properties":{"city":"Defiance","status":"Active","ppv":"Yes","zip":"43512","region":"Ayersville","service packages":"Extended Package,Basic HD","township":null,"last":"Stevens","stbs allowed":4,"geo_score":0.84,"first":"Jerry","ppv limit":"Unlimited","customer id":"C-00846","phone":4193951994,"whdvr":"No","id":"abn5pri7rr6g","address":"13835 Fruit Ridge","login":"Stevens","password":1994,"geo_precision":"range","state":"OH","pin":1994},"type":"Feature","geometry":{"type":"Point","coordinates":[-84.285352,41.241454]}},{"properties":{"city":"Defiance","status":"Active","ppv":"Yes","zip":"43512","region":"Ayersville","service packages":"Platinum Bundle","township":null,"last":"Stiltner","stbs allowed":3,"geo_score":0.805,"first":"Charlie","ppv limit":"Unlimited","customer id":"C-01283","phone":4193952600,"whdvr":"No","id":"abn5pr61a2zj","address":"27467 Standley Rd.","login":"Stiltner","password":2600,"geo_precision":"street","state":"OH","pin":2600},"type":"Feature","geometry":{"type":"Point","coordinates":[-84.296511,41.267981]}},{"properties":{"city":"Defiance","status":"Active","ppv":"Yes","zip":"43512","region":"Ayersville","service packages":"Gold Bundle","township":null,"last":"Stiltner","stbs allowed":4,"geo_score":0.815,"first":"Darrell","ppv limit":"Unlimited","customer id":"C-00438","phone":4193951561,"whdvr":"No","id":"abn5prcngn07","address":"26506 Slusser","login":"Stiltner","password":1561,"geo_precision":"range","state":"OH","pin":1561},"type":"Feature","geometry":{"type":"Point","coordinates":[-84.323472,41.246877]}},{"properties":{"city":"Defiance","status":"Active","ppv":"Yes","zip":"43512","region":"Ayersville","service packages":"Platinum Bundle,Basic HD","township":null,"last":"Stiltner","stbs allowed":4,"geo_score":0.902,"first":"Chris","ppv limit":"Unlimited","customer id":"C-01035","phone":4193952298,"whdvr":"No","id":"abn5pr66q3n2","address":"26444 Slusser Dr.","login":"Stiltner","password":2298,"geo_precision":"range","state":"OH","pin":2298},"type":"Feature","geometry":{"type":"Point","coordinates":[-84.323593,41.246871]}},{"properties":{"city":"Defiance","status":"Active","ppv":"Yes","zip":"43512","region":"Ayersville","service packages":"Platinum Bundle","township":null,"last":"Stremmel","stbs allowed":3,"geo_score":0.683,"first":"Robert","ppv limit":"Unlimited","customer id":"C-00745","phone":4193952657,"whdvr":"No","id":"abn5prjy01go","address":"28970 St. Rt. 281 Lot 3","login":"Stremmel","password":2657,"geo_precision":"range","state":"OH","pin":2657},"type":"Feature","geometry":{"type":"Point","coordinates":[-84.355773,41.283112]}},{"properties":{"city":"Defiance","status":"Active","ppv":"Yes","zip":"43512","region":"Ayersville","service packages":"Platinum Bundle","township":null,"last":"Stritt","stbs allowed":3,"geo_score":0.78,"first":"Freda","ppv limit":"Unlimited","customer id":"C-00707","phone":4193951840,"whdvr":"No","id":"abn5pra8426g","address":"15783 Hill Rd.","login":"Stritt","password":1840,"geo_precision":"range","state":"OH","pin":1840},"type":"Feature","geometry":{"type":"Point","coordinates":[-84.276088,41.215005]}},{"properties":{"city":"Defiance","status":"Active","ppv":"Yes","zip":"43512","region":"Ayersville","service packages":"Gold Bundle","township":null,"last":"Thieroff","stbs allowed":3,"geo_score":0.708,"first":"Lavon","ppv limit":"Unlimited","customer id":"C-01007","phone":4193952271,"whdvr":"No","id":"abn5prjb8srm","address":"30297 Standley Rd.","login":"Thieroff","password":2271,"geo_precision":"street","state":"OH","pin":2271},"type":"Feature","geometry":{"type":"Point","coordinates":[-84.246727,41.267784]}},{"properties":{"city":"Defiance","status":"Active","ppv":"Yes","zip":"43512","region":"Ayersville","service packages":"Gold Bundle","township":null,"last":"Thieroff","stbs allowed":3,"geo_score":0.902,"first":"Steve","ppv limit":"Unlimited","customer id":"C-01311","phone":4193952633,"whdvr":"No","id":"abn5prip0tts","address":"12699 Snyder Rd.","login":"Thieroff","password":2633,"geo_precision":"range","state":"OH","pin":2633},"type":"Feature","geometry":{"type":"Point","coordinates":[-84.246659,41.257699]}},{"properties":{"city":"Defiance","status":"Inactive","ppv":"Yes","zip":"43512","region":"Ayersville","service packages":"Extended Package,Basic HD","township":null,"last":"Thomas","stbs allowed":3,"geo_score":0.84,"first":"Bruce","ppv limit":"Unlimited","customer id":"C-00968","phone":4193952167,"whdvr":"No","id":"abn5pri6xi5g","address":"12268 Fruit Ridge","login":"Thomas","password":2167,"geo_precision":"range","state":"OH","pin":2167},"type":"Feature","geometry":{"type":"Point","coordinates":[-84.293923,41.263601]}},{"properties":{"city":"Defiance","status":"Active","ppv":"Yes","zip":"43512","region":"Ayersville","service packages":"Gold Bundle,Basic HD","township":null,"last":"Tijerina","stbs allowed":6,"geo_score":0.902,"first":"Felix &amp; Vonda","ppv limit":"Unlimited","customer id":"C-01090","phone":4193952361,"whdvr":"No","id":"abn5pr8rijny","address":"28355 Rohn Rd.","login":"Tijerina","password":2361,"geo_precision":"range","state":"OH","pin":2361},"type":"Feature","geometry":{"type":"Point","coordinates":[-84.280766,41.239401]}},{"properties":{"city":"Defiance","status":"Active","ppv":"Yes","zip":"43512","region":"Ayersville","service packages":"Gold Bundle","township":null,"last":"Tuttle","stbs allowed":4,"geo_score":0.84,"first":"Ralph","ppv limit":"Unlimited","customer id":"C-00753","phone":4193951893,"whdvr":"No","id":"abn5pr5cf7ua","address":"12064 Fruit Ridge","login":"Tuttle","password":1893,"geo_precision":"range","state":"OH","pin":1893},"type":"Feature","geometry":{"type":"Point","coordinates":[-84.295411,41.26682]}},{"properties":{"city":"Defiance","status":"Active","ppv":"Yes","zip":"43512","region":"Ayersville","service packages":"Gold Bundle","township":null,"last":"Tuttle","stbs allowed":3,"geo_score":0.902,"first":"Dan","ppv limit":"Unlimited","customer id":"C-01131","phone":4193952403,"whdvr":"No","id":"abn5pr9hs117","address":"16611 Harris Rd.","login":"Tuttle","password":2403,"geo_precision":"range","state":"OH","pin":2403},"type":"Feature","geometry":{"type":"Point","coordinates":[-84.266492,41.198905]}},{"properties":{"city":"Defiance","status":"Active","ppv":"Yes","zip":"43512","region":"Ayersville","service packages":"Gold Bundle","township":null,"last":"Tyrrell","stbs allowed":2,"geo_score":0.902,"first":"Mark","ppv limit":"Unlimited","customer id":"C-01164","phone":4193952437,"whdvr":"No","id":"abn5prk22s7y","address":"27723 Hoffman Rd.","login":"Tyrrell","password":2437,"geo_precision":"range","state":"OH","pin":2437},"type":"Feature","geometry":{"type":"Point","coordinates":[-84.287644,41.194748]}},{"properties":{"city":"Defiance","status":"Active","ppv":"Yes","zip":"43512","region":"Ayersville","service packages":"Platinum Bundle","township":null,"last":"Wagner","stbs allowed":5,"geo_score":0.488,"first":"Jimmie","ppv limit":"Unlimited","customer id":"C-00874","phone":4193952127,"whdvr":"No","id":"abn5prfdty73","address":"25898 Bowan Rd.","login":"Wagner","password":2127,"geo_precision":"zip","state":"OH","pin":2127},"type":"Feature","geometry":{"type":"Point","coordinates":[-84.299947,41.297826]}},{"properties":{"city":"Defiance","status":"Active","ppv":"Yes","zip":"43512","region":"Ayersville","service packages":"Gold Bundle","township":null,"last":"Wakeham","stbs allowed":2,"geo_score":0.902,"first":"David","ppv limit":"Unlimited","customer id":"C-01017","phone":4193951884,"whdvr":"No","id":"abn5pr6l2i71","address":"15846 Hill Rd.","login":"Wakeham","password":1884,"geo_precision":"range","state":"OH","pin":1884},"type":"Feature","geometry":{"type":"Point","coordinates":[-84.276107,41.213259]}},{"properties":{"city":"Defiance","status":"Active","ppv":"Yes","zip":"43512","region":"Ayersville","service packages":"Gold Bundle","township":null,"last":"Waldron","stbs allowed":6,"geo_score":0.882,"first":"Steve","ppv limit":"Unlimited","customer id":"C-0085","phone":4193951084,"whdvr":"No","id":"abn5pr924yqr","address":"13847 Fruit Ridge Rd","login":"waldron","password":1084,"geo_precision":"range","state":"OH","pin":1084},"type":"Feature","geometry":{"type":"Point","coordinates":[-84.285354,41.241255]}},{"properties":{"city":"Defiance","status":"Active","ppv":"Yes","zip":"43512","region":"Ayersville","service packages":"Extended Package","township":null,"last":"Walters","stbs allowed":4,"geo_score":0.902,"first":"Harold","ppv limit":"Unlimited","customer id":"C-01458","phone":4193951664,"whdvr":"No","id":"abn5pr9qx6rs","address":"28926 HOFFMAN ROAD","login":"Walters","password":1664,"geo_precision":"range","state":"OH","pin":1664},"type":"Feature","geometry":{"type":"Point","coordinates":[-84.267938,41.194684]}},{"properties":{"city":"Defiance","status":"Active","ppv":"Yes","zip":"43512","region":"Ayersville","service packages":"Platinum Bundle","township":null,"last":"Walters","stbs allowed":4,"geo_score":0.902,"first":"Russ","ppv limit":"Unlimited","customer id":"C00880","phone":4193952131,"whdvr":"No","id":"abn5prjg6ryg","address":"16584 Hill Road","login":"Walters","password":2131,"geo_precision":"range","state":"OH","pin":2131},"type":"Feature","geometry":{"type":"Point","coordinates":[-84.276242,41.200737]}},{"properties":{"city":"Defiance","status":"Active","ppv":"Yes","zip":"43512","region":"Ayersville","service packages":"Platinum Bundle","township":null,"last":"Walters","stbs allowed":3,"geo_score":0.902,"first":"Gary","ppv limit":"Unlimited","customer id":"C-00142","phone":4193951147,"whdvr":"No","id":"abn5priy4jc3","address":"17254 Hill Road","login":"Walters","password":1147,"geo_precision":"range","state":"OH","pin":1147},"type":"Feature","geometry":{"type":"Point","coordinates":[-84.276314,41.191774]}},{"properties":{"city":"Defiance","status":"Active","ppv":"Yes","zip":"43512","region":"Ayersville","service packages":"Platinum Bundle","township":null,"last":"Weber","stbs allowed":5,"geo_score":0.902,"first":"Steve","ppv limit":"Unlimited","customer id":"C-00439","phone":4193952193,"whdvr":"No","id":"abn5prc2v2g7","address":"14793 Dohoney Rd.","login":"Weber","password":2193,"geo_precision":"range","state":"OH","pin":2193},"type":"Feature","geometry":{"type":"Point","coordinates":[-84.323857,41.225984]}},{"properties":{"city":"Defiance","status":"Active","ppv":"Yes","zip":"43512","region":"Ayersville","service packages":"Silver Bundle","township":null,"last":"Weirauch","stbs allowed":3,"geo_score":0.902,"first":"Bruce","ppv limit":"Unlimited","customer id":"C-00048","phone":4193951050,"whdvr":"No","id":"abn5pr6rzabc","address":"17760 Harris Rd.","login":"Weirauch","password":1050,"geo_precision":"range","state":"OH","pin":1050},"type":"Feature","geometry":{"type":"Point","coordinates":[-84.266743,41.184001]}},{"properties":{"city":"Defiance","status":"Active","ppv":"Yes","zip":"43512","region":"Ayersville","service packages":"Platinum Bundle,Basic HD","township":null,"last":"Weisenburger","stbs allowed":7,"geo_score":0.902,"first":"Craig","ppv limit":"Unlimited","customer id":"C-00053","phone":4193951054,"whdvr":"No","id":"abn5preaec6j","address":"28587 Blanchard Rd","login":"Weisenburger","password":1054,"geo_precision":"range","state":"OH","pin":1054},"type":"Feature","geometry":{"type":"Point","coordinates":[-84.2681,41.209359]}},{"properties":{"city":"Defiance","status":"Active","ppv":"Yes","zip":"43512","region":"Ayersville","service packages":"Platinum Bundle,Basic HD","township":null,"last":"Wellman","stbs allowed":5,"geo_score":0.902,"first":"Ron","ppv limit":"Unlimited","customer id":"C-01098","phone":4193952371,"whdvr":"No","id":"abn5pr6qz580","address":"17418 Harris Rd","login":"Wellman","password":2371,"geo_precision":"range","state":"OH","pin":2371},"type":"Feature","geometry":{"type":"Point","coordinates":[-84.266734,41.188811]}},{"properties":{"city":"Defiance","status":"Active","ppv":"Yes","zip":"43512","region":"Ayersville","service packages":"Gold Bundle,Basic HD","township":null,"last":"Welty","stbs allowed":5,"geo_score":0.902,"first":"David","ppv limit":"Unlimited","customer id":"C-00078","phone":4193951077,"whdvr":"No","id":"abn5pratvkqy","address":"28528 Bowman Rd","login":"Welty","password":1077,"geo_precision":"range","state":"OH","pin":1077},"type":"Feature","geometry":{"type":"Point","coordinates":[-84.275362,41.22364]}},{"properties":{"city":"Defiance","status":"Active","ppv":"Yes","zip":"43512","region":"Ayersville","service packages":"Gold Bundle","township":null,"last":"Westrick","stbs allowed":4,"geo_score":0.902,"first":"David","ppv limit":"Unlimited","customer id":"1394","phone":4193951419,"whdvr":"No","id":"abn5prjhzrcj","address":"17086 Harris Rd.","login":"Westrick","password":1419,"geo_precision":"range","state":"OH","pin":1419},"type":"Feature","geometry":{"type":"Point","coordinates":[-84.266612,41.193518]}},{"properties":{"city":"Defiance","status":"Active","ppv":"Yes","zip":"43512","region":"Ayersville","service packages":"Platinum Bundle,Basic HD","township":null,"last":"Whetstone","stbs allowed":5,"geo_score":0.805,"first":"Tom","ppv limit":"Unlimited","customer id":"C-01111","phone":4193952384,"whdvr":"No","id":"abn5prbs1f6z","address":"11645 Snyder","login":"Whetstone","password":2384,"geo_precision":"range","state":"OH","pin":2384},"type":"Feature","geometry":{"type":"Point","coordinates":[-84.246668,41.274989]}},{"properties":{"city":"Holgate","status":"Active","ppv":"Yes","zip":"43527","region":"Ayersville","service packages":"Platinum Bundle,Basic HD","township":null,"last":"Williams","stbs allowed":4,"geo_score":0.488,"first":"Lee","ppv limit":"Unlimited","customer id":"C-00490","phone":4193951614,"whdvr":"No","id":"abn5prjjxcg2","address":"F-942 Rd. 19","login":"Williams","password":1614,"geo_precision":"zip","state":"OH","pin":1614},"type":"Feature","geometry":{"type":"Point","coordinates":[-84.227445,41.267548]}},{"properties":{"city":"Defiance","status":"Active","ppv":"Yes","zip":"43512","region":"Ayersville","service packages":"Platinum Bundle","township":null,"last":"Willitzer Jr.","stbs allowed":3,"geo_score":0.902,"first":"Virgil","ppv limit":"Unlimited","customer id":"C-00045","phone":4193951047,"whdvr":"No","id":"abn5prdlkavz","address":"11486 Hire Rd.","login":"Willitzer","password":1047,"geo_precision":"range","state":"OH","pin":1047},"type":"Feature","geometry":{"type":"Point","coordinates":[-84.314186,41.270986]}},{"properties":{"city":"Defiance","status":"Active","ppv":"Yes","zip":"43512","region":"Ayersville","service packages":"Extended Package","township":null,"last":"Winzeler","stbs allowed":3,"geo_score":0.902,"first":"Joel","ppv limit":"Unlimited","customer id":"C-00449","phone":4193951445,"whdvr":"No","id":"abn5pr5440w8","address":"28262 Blanchard Rd.","login":"Winzeler","password":1445,"geo_precision":"range","state":"OH","pin":1445},"type":"Feature","geometry":{"type":"Point","coordinates":[-84.278745,41.20913]}},{"properties":{"city":"Defiance","status":"Active","ppv":"Yes","zip":"43512","region":"Ayersville","service packages":"basic package,Lifeline (Locals Package)","township":null,"last":"Wiseman","stbs allowed":2,"geo_score":0.902,"first":"Lavon","ppv limit":"Unlimited","customer id":"C-00335","phone":4193951453,"whdvr":"No","id":"abn5prao1cpc","address":"27834 Hoffman Rd","login":"Wiseman","password":1453,"geo_precision":"range","state":"OH","pin":1453},"type":"Feature","geometry":{"type":"Point","coordinates":[-84.289823,41.194602]}},{"properties":{"city":"Defiance","status":"Active","ppv":"Yes","zip":"43512","region":"Ayersville","service packages":"Platinum Bundle,Basic HD","township":null,"last":"Wolf","stbs allowed":4,"geo_score":0.902,"first":"Clifton","ppv limit":"Unlimited","customer id":"C-00498","phone":4193951624,"whdvr":"No","id":"abn5prkoyfxj","address":"28851 Rohn Rd.","login":"Wolf","password":1624,"geo_precision":"range","state":"OH","pin":1624},"type":"Feature","geometry":{"type":"Point","coordinates":[-84.276551,41.239475]}},{"properties":{"city":"Holgate","status":"Active","ppv":"Yes","zip":"43527","region":"Ayersville","service packages":"Basic","township":null,"last":"Wolfe","stbs allowed":3,"geo_score":0.488,"first":"Deb","ppv limit":"Unlimited","customer id":"C-00452","phone":4193951575,"whdvr":"No","id":"abn5pr6518u2","address":"30661 Def-Ayer-Plsnt-Bd","login":"Wolfe","password":1575,"geo_precision":"zip","state":"OH","pin":1575},"type":"Feature","geometry":{"type":"Point","coordinates":[-84.227445,41.267548]}},{"properties":{"city":"Defiance","status":"Active","ppv":"Yes","zip":"43512","region":"Ayersville","service packages":"Platinum Bundle,Basic HD","township":null,"last":"Wolfrum","stbs allowed":3,"geo_score":0.902,"first":"Tom","ppv limit":"Unlimited","customer id":"C-00994","phone":4193952256,"whdvr":"No","id":"abn5prd77xac","address":"15772 Hill Rd.","login":"Wolfrum","password":2256,"geo_precision":"range","state":"OH","pin":2256},"type":"Feature","geometry":{"type":"Point","coordinates":[-84.276082,41.215253]}},{"properties":{"city":"Defiance","status":"Active","ppv":"Yes","zip":"43512","region":"Ayersville","service packages":"Platinum Bundle,Basic HD","township":null,"last":"Wolfrum","stbs allowed":5,"geo_score":0.835,"first":"John","ppv limit":"Unlimited","customer id":"C-00554","phone":4193951689,"whdvr":"No","id":"abn5pr662h29","address":"29799 Steinmaier","login":"Wolfrum","password":1689,"geo_precision":"range","state":"OH","pin":1689},"type":"Feature","geometry":{"type":"Point","coordinates":[-84.253903,41.243771]}},{"properties":{"city":"Defiance","status":"Inactive","ppv":"Yes","zip":"43512","region":"Ayersville","service packages":"Platinum Bundle","township":null,"last":"Wolfrum","stbs allowed":2,"geo_score":0.902,"first":"Patrick","ppv limit":"Unlimited","customer id":"C-01192","phone":4193952466,"whdvr":"No","id":"abn5pr5mi25t","address":"27268 Shindler Rd","login":"Wolfrum","password":2466,"geo_precision":"range","state":"OH","pin":2466},"type":"Feature","geometry":{"type":"Point","coordinates":[-84.298727,41.253306]}},{"properties":{"city":"Defiance","status":"Active","ppv":"Yes","zip":"43512","region":"Ayersville","service packages":"Gold Bundle","township":null,"last":"Worthington","stbs allowed":5,"geo_score":0.902,"first":"Fred","ppv limit":"Unlimited","customer id":"C-00954","phone":4193952218,"whdvr":"No","id":"abn5prldqo2d","address":"27848 Watson Rd.","login":"Worthington","password":2218,"geo_precision":"range","state":"OH","pin":2218},"type":"Feature","geometry":{"type":"Point","coordinates":[-84.288905,41.238277]}},{"properties":{"city":"Defiance","status":"Active","ppv":"Yes","zip":"43512","region":"Ayersville","service packages":"Gold Bundle","township":null,"last":"Youkers","stbs allowed":3,"geo_score":0.902,"first":"Joel","ppv limit":"Unlimited","customer id":"C-00832","phone":4193951980,"whdvr":"No","id":"abn5pr8ta2dh","address":"15591 Harris Rd.","login":"Youkers","password":1980,"geo_precision":"range","state":"OH","pin":1980},"type":"Feature","geometry":{"type":"Point","coordinates":[-84.26464,41.215882]}},{"properties":{"city":"Defiance","status":"Inactive","ppv":"Yes","zip":"43512","region":"Ayersville","service packages":"basic package","township":null,"last":"Young","stbs allowed":3,"geo_score":0.64,"first":"Vernon","ppv limit":"Unlimited","customer id":"C-01146","phone":4193952418,"whdvr":"No","id":"abn5prdzgqrj","address":"27821 Ayersville","login":"Young","password":2418,"geo_precision":"street","state":"OH","pin":2418},"type":"Feature","geometry":{"type":"Point","coordinates":[-84.323816,41.258725]}},{"properties":{"city":"Defiance","status":"Active","ppv":"Yes","zip":"43512","region":"Ayersville","service packages":"Gold Bundle","township":null,"last":"Zachrich","stbs allowed":3,"geo_score":0.902,"first":"Ken","ppv limit":"Unlimited","customer id":"C-01105","phone":4193952379,"whdvr":"No","id":"abn5pr62aahb","address":"27735 Sutphen Rd.","login":"Zachrich","password":2379,"geo_precision":"range","state":"OH","pin":2379},"type":"Feature","geometry":{"type":"Point","coordinates":[-84.2875,41.231139]}},{"properties":{"city":"Defiance","status":"Active","ppv":"Yes","zip":"43512","region":"Ayersville","service packages":"Gold Bundle","township":null,"last":"Zachrich","stbs allowed":4,"geo_score":0.902,"first":"Monti","ppv limit":"Unlimited","customer id":"c-01340","phone":4193952662,"whdvr":"No","id":"abn5prjlexan","address":"28140 Blanchard Rd.","login":"Zachrich","password":2662,"geo_precision":"range","state":"OH","pin":2662},"type":"Feature","geometry":{"type":"Point","coordinates":[-84.276404,41.209121]}},{"properties":{"city":"Defiance","status":"Active","ppv":"Yes","zip":"43512","region":"Ayersville","service packages":"Gold Bundle","township":null,"last":"Zachrich","stbs allowed":3,"geo_score":0.902,"first":"Robert","ppv limit":"Unlimited","customer id":"1435","phone":4193952497,"whdvr":"No","id":"abn5pr7r17q3","address":"28797 Bowman Rd.","login":"Zachrich","password":2497,"geo_precision":"range","state":"OH","pin":2497},"type":"Feature","geometry":{"type":"Point","coordinates":[-84.269927,41.222469]}},{"properties":{"city":"Defiance","status":"Active","ppv":"Yes","zip":"43512","region":"Ayersville","service packages":"Platinum Bundle,ENCORE\\STARS PACKAGE","township":null,"last":"Zachrich","stbs allowed":4,"geo_score":0.902,"first":"John &amp; Cindy","ppv limit":"Unlimited","customer id":"C-00885","phone":4193952137,"whdvr":"No","id":"abn5prfa6sbd","address":"15843 Painter Rd.","login":"Zachrich","password":2137,"geo_precision":"range","state":"OH","pin":2137},"type":"Feature","geometry":{"type":"Point","coordinates":[-84.295108,41.220273]}},{"properties":{"city":"Defiance","status":"Active","ppv":"Yes","zip":"43512","region":"Ayersville","service packages":"Platinum Bundle","township":null,"last":"Zachrich","stbs allowed":4,"geo_score":0.902,"first":"Ed","ppv limit":"Unlimited","customer id":"C-000515","phone":4193952368,"whdvr":"No","id":"abn5pr92p7it","address":"15895 Painter Rd.","login":"Zachrich","password":2368,"geo_precision":"range","state":"OH","pin":2368},"type":"Feature","geometry":{"type":"Point","coordinates":[-84.295189,41.220068]}},{"properties":{"city":"Defiance","status":"Active","ppv":"Yes","zip":"43512","region":"Ayersville","service packages":"Platinum Bundle","township":null,"last":"Zachrich","stbs allowed":4,"geo_score":0.707,"first":"Richard","ppv limit":"Unlimited","customer id":"C-00084","phone":4193951083,"whdvr":"No","id":"abn5pr9izw7d","address":"16269 Kinner Rd.","login":"Zachrich","password":1083,"geo_precision":"street","state":"OH","pin":1083},"type":"Feature","geometry":{"type":"Point","coordinates":[-84.24694,41.223825]}},{"properties":{"city":"Defiance","status":"Inactive","ppv":"Yes","zip":"43512","region":"Ayersville","service packages":"Lifeline (Locals Package)","township":null,"last":"Zachrich","stbs allowed":2,"geo_score":0.512,"first":"Linda","ppv limit":"Unlimited","customer id":"C-00867","phone":4193952118,"whdvr":"No","id":"abn5prfvzpwj","address":"14102 Highland Center","login":"Zachrich","password":2118,"geo_precision":"street","state":"OH","pin":2118},"type":"Feature","geometry":{"type":"Point","coordinates":[-84.521982,41.382459]}},{"properties":{"city":"Defiance","status":"Active","ppv":"Yes","zip":"43512","region":"Ayersville","service packages":"Platinum Bundle","township":null,"last":"Zachrich","stbs allowed":3,"geo_score":0.902,"first":"Larry","ppv limit":"Unlimited","customer id":"C-00822","phone":4193952268,"whdvr":"No","id":"abn5pra22z17","address":"10567 Stevens Rd.","login":"Zachrich","password":2268,"geo_precision":"range","state":"OH","pin":2268},"type":"Feature","geometry":{"type":"Point","coordinates":[-84.264054,41.286626]}},{"properties":{"city":"Defiance","status":"Active","ppv":"Yes","zip":"43512","region":"Ayersville","service packages":"Platinum Bundle,Basic HD","township":null,"last":"Zimmerman","stbs allowed":3,"geo_score":0.902,"first":"Gerald","ppv limit":"Unlimited","customer id":"C-00378","phone":4193951500,"whdvr":"No","id":"abn5prdpk8ch","address":"26519 Standley Rd.","login":"Zimmerman","password":1500,"geo_precision":"range","state":"OH","pin":1500},"type":"Feature","geometry":{"type":"Point","coordinates":[-84.313797,41.268037]}},{"properties":{"city":"Defiance","status":"Active","ppv":"Yes","zip":"43512","region":"Ayersville","service packages":"Platinum Bundle","township":null,"last":"Zimmerman","stbs allowed":4,"geo_score":0.902,"first":"Bob","ppv limit":"Unlimited","customer id":"C-00879","phone":4193952130,"whdvr":"No","id":"abn5pr88dnt1","address":"26435 Standley Rd.","login":"Zimmerman","password":2130,"geo_precision":"range","state":"OH","pin":2130},"type":"Feature","geometry":{"type":"Point","coordinates":[-84.315481,41.268057]}},{"properties":{"city":"Defiance","status":"Active","ppv":"Yes","zip":"43512","region":"Ayersville","service packages":"Gold Bundle","township":null,"last":"Zimmerman","stbs allowed":5,"geo_score":0.902,"first":"Douglas","ppv limit":"Unlimited","customer id":"1439","phone":4193951924,"whdvr":"No","id":"abn5pri3qv9n","address":"11479 hire rd.","login":"Zimmerman","password":1924,"geo_precision":"range","state":"OH","pin":1924},"type":"Feature","geometry":{"type":"Point","coordinates":[-84.314035,41.271077]}}],"is_temporal":false,"author":{"url":"","metadata":null,"contact_name":null,"contact_address":null,"source":null,"contact_phone":null},"source":"","pagination":{"sort":null,"start":0,"total":308,"limit":1000000},"state":"complete","tags":"","published":"2014-08-16T17:46:59-04:00","id":313319}