{"type":"FeatureCollection","data_type":"Dataset","url_type":null,"permissions":[{"permissions":{"download":true,"view":true},"group_id":"everyone"}],"classification":null,"title":"Copy_of_IPTV-BRT-Jan-16-2013_-_CSV","count":44,"stream_id":313321,"contributor":{"url":"http://geocommons.com/users/59404","name":"KatieEtgen"},"data_attributes":null,"calculation_params":null,"icon_link":null,"link":"http://geocommons.com/overlays/313321.json","extent":[-83.8731,40.973,-83.7198,41.0295],"geometry_types":["point"],"unique_name":null,"name":"Copy_of_IPTV-BRT-Jan-16-2013_-_CSV","feature_count":44,"description":"","next_feature":null,"is_raster":false,"short_classification":"Y","stats":{"stbs allowed":{"max":30,"mean":20.0227272727273,"variance":4.67389006342495,"stdev":2.1619181444784,"median":20,"min":10},"ppv limit":{"max":65,"mean":65.0,"variance":0.0,"stdev":0.0,"median":65,"min":65},"phone":{"max":4198599011,"mean":4198592978.77273,"variance":1213585.85412262,"stdev":1101.62872789458,"median":4198592869,"min":4198592020},"password":{"max":1234,"mean":1234.0,"variance":0.0,"stdev":0.0,"median":1234,"min":1234},"login":{"max":1234,"mean":1234.0,"variance":0.0,"stdev":0.0,"median":1234,"min":1234},"pin":{"max":1234,"mean":1234.0,"variance":0.0,"stdev":0.0,"median":1234,"min":1234}},"features":[{"properties":{"city":"Findlay","status":"Active","ppv":"No","zip":"45840","region":"Benton Ridge","service packages":"Gold with HD","township":null,"last":"Bare","stbs allowed":21,"geo_score":0.854,"first":"William","ppv limit":65,"customer id":null,"phone":4198592020,"whdvr":"Yes","id":"abn5q0e0e0r8","address":"6520 TR 83","login":1234,"password":1234,"geo_precision":"range","state":"OH","pin":1234},"type":"Feature","geometry":{"type":"Point","coordinates":[-83.75769,41.015444]}},{"properties":{"city":"Findlay","status":"Active","ppv":"No","zip":"45840","region":"Benton Ridge","service packages":"Stars and Encore standard with HD,Diamond with HD","township":null,"last":"Berkebile","stbs allowed":20,"geo_score":0.902,"first":"Bernie","ppv limit":65,"customer id":null,"phone":4198592242,"whdvr":"Yes","id":"abn5q0rdzub3","address":"6208 Twp Rd 83","login":1234,"password":1234,"geo_precision":"range","state":"OH","pin":1234},"type":"Feature","geometry":{"type":"Point","coordinates":[-83.763752,41.015475]}},{"properties":{"city":"Findlay","status":"Active","ppv":"No","zip":"45840","region":"Benton Ridge","service packages":"Diamond with HD","township":null,"last":"Blakley","stbs allowed":20,"geo_score":0.463,"first":"Jeff","ppv limit":65,"customer id":null,"phone":4198592088,"whdvr":"Yes","id":"abn5q0jhamby","address":"4790 SR 12","login":1234,"password":1234,"geo_precision":"street","state":"OH","pin":1234},"type":"Feature","geometry":{"type":"Point","coordinates":[-83.789513,41.00065]}},{"properties":{"city":"Rawson","status":"Active","ppv":"No","zip":"45881","region":"Benton Ridge","service packages":"Gold with HD","township":null,"last":"Blunk","stbs allowed":20,"geo_score":0.561,"first":"Mark","ppv limit":65,"customer id":null,"phone":4198592958,"whdvr":"Yes","id":"abn5q0l9xqny","address":"3984 SR 12","login":1234,"password":1234,"geo_precision":"street","state":"OH","pin":1234},"type":"Feature","geometry":{"type":"Point","coordinates":[-83.789513,41.00065]}},{"properties":{"city":"MT CORY","status":"Active","ppv":"No","zip":"45868","region":"Benton Ridge","service packages":"Diamond with HD","township":null,"last":"Brewster","stbs allowed":20,"geo_score":0.702,"first":"David","ppv limit":65,"customer id":null,"phone":4198593341,"whdvr":"No","id":"abn5q0mlirb4","address":"766 SR 12","login":1234,"password":1234,"geo_precision":"range","state":"OH","pin":1234},"type":"Feature","geometry":{"type":"Point","coordinates":[-83.870293,40.974513]}},{"properties":{"city":"Benton Ridge","status":"Active","ppv":"No","zip":"45816","region":"Benton Ridge","service packages":"Diamond with HD","township":null,"last":"Burman","stbs allowed":20,"geo_score":0.631,"first":"Greg","ppv limit":65,"customer id":null,"phone":4198592315,"whdvr":"Yes","id":"abn5q0ewwn6g","address":"112 East St","login":1234,"password":1234,"geo_precision":"street","state":"OH","pin":1234},"type":"Feature","geometry":{"type":"Point","coordinates":[-83.793017,41.003398]}},{"properties":{"city":"FINDLAY","status":"Active","ppv":"No","zip":"45840","region":"Benton Ridge","service packages":"Diamond with HD","township":null,"last":"Clymer","stbs allowed":20,"geo_score":0.902,"first":"Thomas","ppv limit":65,"customer id":null,"phone":4198592255,"whdvr":"Yes","id":"abn5q0mo70ve","address":"6480 TWP RD 83","login":1234,"password":1234,"geo_precision":"range","state":"OH","pin":1234},"type":"Feature","geometry":{"type":"Point","coordinates":[-83.75843,41.015448]}},{"properties":{"city":"Findlay","status":"Active","ppv":"No","zip":"45840","region":"Benton Ridge","service packages":"Gold with HD","township":null,"last":"Cramer","stbs allowed":20,"geo_score":0.902,"first":"Marcus","ppv limit":65,"customer id":null,"phone":4198592055,"whdvr":"Yes","id":"abn5q0dwm0ne","address":"10054 Twp Rd 10","login":1234,"password":1234,"geo_precision":"range","state":"OH","pin":1234},"type":"Feature","geometry":{"type":"Point","coordinates":[-83.727438,41.023815]}},{"properties":{"city":"Benton Ridge","status":"Active","ppv":"No","zip":"45816","region":"Benton Ridge","service packages":"Diamond with HD","township":null,"last":"Crawford","stbs allowed":20,"geo_score":0.488,"first":"R J","ppv limit":65,"customer id":null,"phone":4198592322,"whdvr":"Yes","id":"abn5q0lb1mry","address":"105 Jackson Rd","login":1234,"password":1234,"geo_precision":"zip","state":"OH","pin":1234},"type":"Feature","geometry":{"type":"Point","coordinates":[-83.793147,41.003087]}},{"properties":{"city":"Benton Ridge","status":"Active","ppv":"No","zip":"45816","region":"Benton Ridge","service packages":"Gold with HD","township":null,"last":"Dunlap","stbs allowed":20,"geo_score":0.902,"first":"Ray","ppv limit":65,"customer id":null,"phone":4198593778,"whdvr":"Yes","id":"abn5q0g8cdk9","address":"107 Coleman Rd","login":1234,"password":1234,"geo_precision":"range","state":"OH","pin":1234},"type":"Feature","geometry":{"type":"Point","coordinates":[-83.79717,41.005574]}},{"properties":{"city":"Findlay","status":"Active","ppv":"No","zip":"45840","region":"Benton Ridge","service packages":"Diamond with HD","township":null,"last":"Edwards","stbs allowed":20,"geo_score":0.902,"first":"Jeff","ppv limit":65,"customer id":null,"phone":4198592074,"whdvr":"Yes","id":"abn5q0q42zlq","address":"5909 CO RD 84","login":1234,"password":1234,"geo_precision":"range","state":"OH","pin":1234},"type":"Feature","geometry":{"type":"Point","coordinates":[-83.768701,41.008068]}},{"properties":{"city":"Benton Ridge","status":"Active","ppv":"No","zip":"45816","region":"Benton Ridge","service packages":"Gold with HD","township":null,"last":"Epley","stbs allowed":20,"geo_score":0.902,"first":"Darrel","ppv limit":65,"customer id":null,"phone":4198592050,"whdvr":"No","id":"abn5q0fuoktl","address":"151 Main St","login":1234,"password":1234,"geo_precision":"range","state":"OH","pin":1234},"type":"Feature","geometry":{"type":"Point","coordinates":[-83.79372,41.004633]}},{"properties":{"city":"Findlay","status":"Active","ppv":"No","zip":"45840","region":"Benton Ridge","service packages":"Diamond with HD","township":null,"last":"Feehan","stbs allowed":20,"geo_score":0.561,"first":"Dennis","ppv limit":65,"customer id":null,"phone":4198593342,"whdvr":"Yes","id":"abn5q0j6ipx1","address":"5571 SR 12","login":1234,"password":1234,"geo_precision":"street","state":"OH","pin":1234},"type":"Feature","geometry":{"type":"Point","coordinates":[-83.789513,41.00065]}},{"properties":{"city":"Rawson","status":"Active","ppv":"No","zip":"45881","region":"Benton Ridge","service packages":"Diamond with HD","township":null,"last":"Fenstermaker","stbs allowed":20,"geo_score":0.695,"first":"Robert","ppv limit":65,"customer id":null,"phone":4198593311,"whdvr":"No","id":"abn5q0e0jkvs","address":"11831 CR 12","login":1234,"password":1234,"geo_precision":"range","state":"OH","pin":1234},"type":"Feature","geometry":{"type":"Point","coordinates":[-83.786839,40.994927]}},{"properties":{"city":"Findlay","status":"Active","ppv":"No","zip":"45840","region":"Benton Ridge","service packages":"Diamond with HD","township":null,"last":"Fisher","stbs allowed":20,"geo_score":0.902,"first":"Kevin","ppv limit":65,"customer id":null,"phone":4198592830,"whdvr":"Yes","id":"abn5q0gcc2xl","address":"5105 Twp Rd 84","login":1234,"password":1234,"geo_precision":"range","state":"OH","pin":1234},"type":"Feature","geometry":{"type":"Point","coordinates":[-83.78216,41.013813]}},{"properties":{"city":"Rawson","status":"Active","ppv":"No","zip":"45881","region":"Benton Ridge","service packages":"Diamond with HD","township":null,"last":"Fowler","stbs allowed":20,"geo_score":0.902,"first":"Margo","ppv limit":65,"customer id":null,"phone":4198592956,"whdvr":"Yes","id":"abn5q0hruy71","address":"12033 CO RD 12","login":1234,"password":1234,"geo_precision":"range","state":"OH","pin":1234},"type":"Feature","geometry":{"type":"Point","coordinates":[-83.787156,40.993127]}},{"properties":{"city":"Findlay","status":"Active","ppv":"No","zip":"45840","region":"Benton Ridge","service packages":"Gold with HD","township":null,"last":"Heidlebaugh","stbs allowed":20,"geo_score":0.805,"first":"Gary","ppv limit":65,"customer id":null,"phone":4198593394,"whdvr":"No","id":"abn5q0e32vzm","address":"3319 Co RD 86","login":1234,"password":1234,"geo_precision":"street","state":"OH","pin":1234},"type":"Feature","geometry":{"type":"Point","coordinates":[-83.827435,41.02947]}},{"properties":{"city":"Findlay","status":"Active","ppv":"No","zip":"45840","region":"Benton Ridge","service packages":"Gold with HD","township":null,"last":"Holley","stbs allowed":20,"geo_score":0.902,"first":"James","ppv limit":65,"customer id":null,"phone":4198592869,"whdvr":"No","id":"abn5q0knmxge","address":"10590 Twp Rd 130","login":1234,"password":1234,"geo_precision":"range","state":"OH","pin":1234},"type":"Feature","geometry":{"type":"Point","coordinates":[-83.736947,41.019674]}},{"properties":{"city":"Findlay","status":"Active","ppv":"No","zip":"45840","region":"Benton Ridge","service packages":"Gold with HD","township":null,"last":"Jackson","stbs allowed":20,"geo_score":0.902,"first":"Keith","ppv limit":65,"customer id":null,"phone":4198593504,"whdvr":"No","id":"abn5q0hzxj6p","address":"10962 Twp Rd 125","login":1234,"password":1234,"geo_precision":"range","state":"OH","pin":1234},"type":"Feature","geometry":{"type":"Point","coordinates":[-83.799186,41.008686]}},{"properties":{"city":"Findlay","status":"Active","ppv":"No","zip":"45840","region":"Benton Ridge","service packages":"Gold with HD","township":null,"last":"Johnson","stbs allowed":20,"geo_score":0.902,"first":"Tracy","ppv limit":65,"customer id":null,"phone":4198592818,"whdvr":"No","id":"abn5q0e5pi9w","address":"11898 CO RD 54","login":1234,"password":1234,"geo_precision":"range","state":"OH","pin":1234},"type":"Feature","geometry":{"type":"Point","coordinates":[-83.770547,40.993573]}},{"properties":{"city":"Findlay","status":"Active","ppv":"No","zip":"45840","region":"Benton Ridge","service packages":"Diamond with HD","township":null,"last":"Jones","stbs allowed":20,"geo_score":0.902,"first":"William","ppv limit":65,"customer id":null,"phone":4198593535,"whdvr":"No","id":"abn5q0ljb55k","address":"11016 Twp Rd 125","login":1234,"password":1234,"geo_precision":"range","state":"OH","pin":1234},"type":"Feature","geometry":{"type":"Point","coordinates":[-83.79926,41.008448]}},{"properties":{"city":"Rawson","status":"Active","ppv":"No","zip":"45881","region":"Benton Ridge","service packages":"Gold with HD","township":null,"last":"Kuenzli","stbs allowed":20,"geo_score":0.902,"first":"Brent","ppv limit":65,"customer id":null,"phone":4198593772,"whdvr":"No","id":"abn5q0obxikw","address":"5141 Twp Rd 79","login":1234,"password":1234,"geo_precision":"range","state":"OH","pin":1234},"type":"Feature","geometry":{"type":"Point","coordinates":[-83.781786,40.993465]}},{"properties":{"city":"Findlay","status":"Active","ppv":"No","zip":"45840","region":"Benton Ridge","service packages":"Diamond with HD","township":null,"last":"Lieb","stbs allowed":20,"geo_score":0.463,"first":"Gary","ppv limit":65,"customer id":null,"phone":4198592452,"whdvr":"Yes","id":"abn5q0o7rwtv","address":"6656 SR 12","login":1234,"password":1234,"geo_precision":"street","state":"OH","pin":1234},"type":"Feature","geometry":{"type":"Point","coordinates":[-83.789513,41.00065]}},{"properties":{"city":"Mt. Cory","status":"Active","ppv":"No","zip":"45868","region":"Benton Ridge","service packages":"Diamond with HD","township":null,"last":"Lieb","stbs allowed":20,"geo_score":0.754,"first":"Carl","ppv limit":65,"customer id":null,"phone":4198593579,"whdvr":"Yes","id":"abn5q0n979ou","address":"608 CR 78","login":1234,"password":1234,"geo_precision":"range","state":"OH","pin":1234},"type":"Feature","geometry":{"type":"Point","coordinates":[-83.873143,40.993266]}},{"properties":{"city":"Rawson","status":"Active","ppv":"No","zip":"45881","region":"Benton Ridge","service packages":"Gold with HD","township":null,"last":"Moore","stbs allowed":20,"geo_score":0.561,"first":"David","ppv limit":65,"customer id":null,"phone":4198593358,"whdvr":"No","id":"abn5q0hs0yxq","address":"3678 SR 12","login":1234,"password":1234,"geo_precision":"street","state":"OH","pin":1234},"type":"Feature","geometry":{"type":"Point","coordinates":[-83.789513,41.00065]}},{"properties":{"city":"Benton Ridge","status":"Active","ppv":"No","zip":"45816","region":"Benton Ridge","service packages":"Gold with HD","township":null,"last":"Myers","stbs allowed":20,"geo_score":0.902,"first":"Robert","ppv limit":65,"customer id":null,"phone":4198592210,"whdvr":"No","id":"abn5q0gsk9nm","address":"136 Main St","login":1234,"password":1234,"geo_precision":"range","state":"OH","pin":1234},"type":"Feature","geometry":{"type":"Point","coordinates":[-83.795937,41.004629]}},{"properties":{"city":"Benton  Ridge","status":"Active","ppv":"No","zip":"45816","region":"Benton Ridge","service packages":"Diamond with HD","township":null,"last":"Patterson","stbs allowed":20,"geo_score":0.572,"first":"Rusty","ppv limit":65,"customer id":null,"phone":4198592324,"whdvr":"Yes","id":"abn5q0o0pgzw","address":"102 W Main St","login":1234,"password":1234,"geo_precision":"street","state":"OH","pin":1234},"type":"Feature","geometry":{"type":"Point","coordinates":[-83.787328,41.005345]}},{"properties":{"city":"Findlay","status":"Active","ppv":"No","zip":"45840","region":"Benton Ridge","service packages":"Diamond with HD","township":null,"last":"Phillips","stbs allowed":20,"geo_score":0.902,"first":"Terry","ppv limit":65,"customer id":null,"phone":4198593537,"whdvr":"No","id":"abn5q0d4mahu","address":"2789 Twp Rd 82","login":1234,"password":1234,"geo_precision":"range","state":"OH","pin":1234},"type":"Feature","geometry":{"type":"Point","coordinates":[-83.839692,41.007744]}},{"properties":{"city":"Rawson","status":"Active","ppv":"No","zip":"45881","region":"Benton Ridge","service packages":"Gold with HD","township":null,"last":"Price","stbs allowed":20,"geo_score":0.561,"first":"Brent","ppv limit":65,"customer id":null,"phone":4198592432,"whdvr":"No","id":"abn5q0lgvlgi","address":"2476 SR 12","login":1234,"password":1234,"geo_precision":"street","state":"OH","pin":1234},"type":"Feature","geometry":{"type":"Point","coordinates":[-83.789513,41.00065]}},{"properties":{"city":"Benton Ridge","status":"Active","ppv":"Yes","zip":"45816","region":"Benton Ridge","service packages":"Diamond,HBO Standard,HBO Standard with HD,Cinemax Standard,Cinemax Standard with HD,Showtime Standard,Showtime Standard with HD,Stars and Encore Standard,Stars and Encore standard with HD,Diamond with HD","township":null,"last":"Rostorfer","stbs allowed":10,"geo_score":0.902,"first":"Rick","ppv limit":65,"customer id":null,"phone":4198599011,"whdvr":"No","id":"abn5q0fgy3md","address":"140 Main St","login":1234,"password":1234,"geo_precision":"range","state":"OH","pin":1234},"type":"Feature","geometry":{"type":"Point","coordinates":[-83.795148,41.004636]}},{"properties":{"city":"Mt. Cory","status":"Active","ppv":"Yes","zip":"45868","region":"Benton Ridge","service packages":"Diamond with HD","township":null,"last":"Schafer","stbs allowed":20,"geo_score":0.754,"first":"Steven","ppv limit":65,"customer id":"home","phone":4198592833,"whdvr":"Yes","id":"abn5q0iabpq7","address":"13466 CR 53","login":1234,"password":1234,"geo_precision":"range","state":"OH","pin":1234},"type":"Feature","geometry":{"type":"Point","coordinates":[-83.845999,40.97542]}},{"properties":{"city":"Benton Ridge","status":"Active","ppv":"No","zip":"45816","region":"Benton Ridge","service packages":"Gold with HD","township":null,"last":"Schimmoeller","stbs allowed":20,"geo_score":0.902,"first":"Jason","ppv limit":65,"customer id":null,"phone":4198592302,"whdvr":"No","id":"abn5q0nokxrg","address":"114 Main St","login":1234,"password":1234,"geo_precision":"range","state":"OH","pin":1234},"type":"Feature","geometry":{"type":"Point","coordinates":[-83.798008,41.003994]}},{"properties":{"city":"Findlay","status":"Active","ppv":"No","zip":"45840","region":"Benton Ridge","service packages":"Gold with HD","township":null,"last":"Schimmoeller","stbs allowed":20,"geo_score":0.902,"first":"Jeff","ppv limit":65,"customer id":null,"phone":4198592487,"whdvr":"Yes","id":"abn5q0i2otuu","address":"8687 CO RD 84","login":1234,"password":1234,"geo_precision":"range","state":"OH","pin":1234},"type":"Feature","geometry":{"type":"Point","coordinates":[-83.719768,41.008005]}},{"properties":{"city":"Benton Ridge","status":"Active","ppv":"No","zip":"45816","region":"Benton Ridge","service packages":"Gold with HD","township":null,"last":"Schoonover","stbs allowed":20,"geo_score":0.488,"first":"Shari","ppv limit":65,"customer id":null,"phone":4198593309,"whdvr":"Yes","id":"abn5q0k464cp","address":"107 Jackson Rd","login":1234,"password":1234,"geo_precision":"zip","state":"OH","pin":1234},"type":"Feature","geometry":{"type":"Point","coordinates":[-83.793147,41.003087]}},{"properties":{"city":"Findlay","status":"Active","ppv":"No","zip":"45840","region":"Benton Ridge","service packages":"Gold with HD","township":null,"last":"Schoonover","stbs allowed":20,"geo_score":0.61,"first":"Steve","ppv limit":65,"customer id":null,"phone":4198592260,"whdvr":"No","id":"abn5q0k6e1si","address":"6480 cr 84","login":1234,"password":1234,"geo_precision":"street","state":"OH","pin":1234},"type":"Feature","geometry":{"type":"Point","coordinates":[-83.769741,41.007864]}},{"properties":{"city":"Benton Ridge","status":"Active","ppv":"No","zip":"45816","region":"Benton Ridge","service packages":"Gold with HD","township":null,"last":"Schoonover","stbs allowed":20,"geo_score":0.805,"first":"Mike","ppv limit":65,"customer id":null,"phone":4198593517,"whdvr":"Yes","id":"abn5q0mepgu3","address":"128 Brown St","login":1234,"password":1234,"geo_precision":"range","state":"OH","pin":1234},"type":"Feature","geometry":{"type":"Point","coordinates":[-83.794305,41.001303]}},{"properties":{"city":"Rawson","status":"Active","ppv":"No","zip":"45881","region":"Benton Ridge","service packages":"Gold with HD","township":null,"last":"Shank","stbs allowed":20,"geo_score":0.902,"first":"Art","ppv limit":65,"customer id":null,"phone":4198592081,"whdvr":"No","id":"abn5q0k2y3ss","address":"125 Rawson Rd","login":1234,"password":1234,"geo_precision":"range","state":"OH","pin":1234},"type":"Feature","geometry":{"type":"Point","coordinates":[-83.790226,41.001969]}},{"properties":{"city":"Findlay","status":"Active","ppv":"No","zip":"45840","region":"Benton Ridge","service packages":"Gold with HD","township":null,"last":"Sherer","stbs allowed":20,"geo_score":0.902,"first":"Carl","ppv limit":65,"customer id":null,"phone":4198592881,"whdvr":"Yes","id":"abn5q0cegzw8","address":"11218 CO RD 54","login":1234,"password":1234,"geo_precision":"range","state":"OH","pin":1234},"type":"Feature","geometry":{"type":"Point","coordinates":[-83.767936,41.005269]}},{"properties":{"city":"Rawson","status":"Active","ppv":"No","zip":"45881","region":"Benton Ridge","service packages":"Diamond with HD","township":null,"last":"Shick","stbs allowed":20,"geo_score":0.561,"first":"Mark","ppv limit":65,"customer id":null,"phone":4198593336,"whdvr":"Yes","id":"abn5q0ietmyj","address":"2766 SR 12","login":1234,"password":1234,"geo_precision":"street","state":"OH","pin":1234},"type":"Feature","geometry":{"type":"Point","coordinates":[-83.789513,41.00065]}},{"properties":{"city":"Findlay","status":"Active","ppv":"No","zip":"45840","region":"Benton Ridge","service packages":"Gold with HD","township":null,"last":"Sigler","stbs allowed":20,"geo_score":0.902,"first":"Ted","ppv limit":65,"customer id":null,"phone":4198593598,"whdvr":"Yes","id":"abn5q0fsqugi","address":"1195 Twp Rd 82","login":1234,"password":1234,"geo_precision":"range","state":"OH","pin":1234},"type":"Feature","geometry":{"type":"Point","coordinates":[-83.853326,41.007692]}},{"properties":{"city":"BENTON RIDGE","status":"Active","ppv":"Yes","zip":"45816","region":"Benton Ridge","service packages":"HBO Standard with HD,Cinemax Standard with HD,Showtime Standard with HD,Stars and Encore standard with HD,Diamond with HD","township":null,"last":"Telephone Company","stbs allowed":30,"geo_score":0.902,"first":"Benton Ridge","ppv limit":65,"customer id":null,"phone":4198592146,"whdvr":"Yes","id":"abn5q0h5dmjp","address":"140 Main St.","login":1234,"password":1234,"geo_precision":"range","state":"OH","pin":1234},"type":"Feature","geometry":{"type":"Point","coordinates":[-83.795148,41.004636]}},{"properties":{"city":"Findlay","status":"Active","ppv":"No","zip":"45840","region":"Benton Ridge","service packages":"Diamond with HD","township":null,"last":"Waldman","stbs allowed":20,"geo_score":0.805,"first":"Jack","ppv limit":65,"customer id":null,"phone":4198592433,"whdvr":"Yes","id":"abn5q0dgl8c6","address":"10854 CR 128","login":1234,"password":1234,"geo_precision":"range","state":"OH","pin":1234},"type":"Feature","geometry":{"type":"Point","coordinates":[-83.751293,41.008783]}},{"properties":{"city":"Rawson","status":"Active","ppv":"No","zip":"45881","region":"Benton Ridge","service packages":"Gold with HD","township":null,"last":"Waldman","stbs allowed":20,"geo_score":0.805,"first":"George","ppv limit":65,"customer id":null,"phone":4198593765,"whdvr":"No","id":"abn5q0maoi4x","address":"103 Main St","login":1234,"password":1234,"geo_precision":"range","state":"OH","pin":1234},"type":"Feature","geometry":{"type":"Point","coordinates":[-83.798505,41.00364]}},{"properties":{"city":"Mt. Cory","status":"Active","ppv":"No","zip":"45868","region":"Benton Ridge","service packages":"Gold with HD","township":null,"last":"Williams","stbs allowed":20,"geo_score":0.754,"first":"Richard","ppv limit":65,"customer id":null,"phone":4198593386,"whdvr":"No","id":"abn5q0hyo8nj","address":"13654 CR 53","login":1234,"password":1234,"geo_precision":"range","state":"OH","pin":1234},"type":"Feature","geometry":{"type":"Point","coordinates":[-83.8481,40.973026]}}],"is_temporal":false,"author":{"url":"","metadata":null,"contact_name":null,"contact_address":null,"source":null,"contact_phone":null},"source":"","pagination":{"sort":null,"start":0,"total":44,"limit":1000000},"state":"complete","tags":"","published":"2014-08-16T17:48:23-04:00","id":313321}