{"type":"FeatureCollection","data_type":"Dataset","url_type":null,"permissions":[{"permissions":{"download":true,"view":true},"group_id":"everyone"}],"classification":null,"title":"brooklyn_2","count":43,"stream_id":313466,"contributor":{"url":"http://geocommons.com/users/37170","name":"lfuentes"},"data_attributes":null,"calculation_params":null,"icon_link":null,"link":"http://geocommons.com/overlays/313466.json","extent":[-88.2417,40.5749,-73.9088,44.6565],"geometry_types":["point"],"unique_name":null,"name":"brooklyn_2","feature_count":43,"description":"","next_feature":null,"is_raster":false,"short_classification":"Y","stats":{"# of rooms":{"max":45,"mean":12.1162790697674,"variance":148.867109634552,"stdev":12.2011110000094,"median":6,"min":1}},"features":[{"properties":{"city":"Brooklyn","name":"ECONO LODGE TIMES SQUARE (73541)","status":"CHECKED OUT","# of rooms":2,"geo_score":0.61,"id":"abnhopcn2g2r","address":"302 W 47TH ST","geo_precision":"street","state":"New York"},"type":"Feature","geometry":{"type":"Point","coordinates":[-73.933296,40.651606]}},{"properties":{"city":"Brooklyn","name":"AFFINIA MANHATTAN (34200)","status":"CHECKED OUT","# of rooms":1,"geo_score":0.819,"id":"abnhopeuo195","address":"371 7TH AVE","geo_precision":"range","state":"New York"},"type":"Feature","geometry":{"type":"Point","coordinates":[-73.982987,40.665106]}},{"properties":{"city":"Brooklyn","name":"SETON HOTEL (73499)","status":"CHECKED OUT","# of rooms":1,"geo_score":0.837,"id":"abnhopota21q","address":"144 E 40TH ST","geo_precision":"range","state":"New York"},"type":"Feature","geometry":{"type":"Point","coordinates":[-73.940177,40.652234]}},{"properties":{"city":"Brooklyn","name":"THE DUANE STREET HOTEL (73808)","status":"CHECKED OUT","# of rooms":1,"geo_score":0.829,"id":"abnhopc8kxoh","address":"130 DUANE ST","geo_precision":"range","state":"New York"},"type":"Feature","geometry":{"type":"Point","coordinates":[-73.989429,40.687239]}},{"properties":{"city":"Brooklyn","name":"TRIBECA BLU HOTEL (73673)","status":"CHECKED OUT","# of rooms":1,"geo_score":0.611,"id":"abnhopnkobwe","address":"276 CANAL ST","geo_precision":"street","state":"New York"},"type":"Feature","geometry":{"type":"Point","coordinates":[-73.98562,40.583228]}},{"properties":{"city":"Brooklyn","name":"HOWARD JOHNSON MANHATTAN SOHO (73748)","status":"Completed 1.13","# of rooms":18,"geo_score":0.611,"id":"abnhopg4h69v","address":"5 ALLEN ST","geo_precision":"street","state":"New York"},"type":"Feature","geometry":{"type":"Point","coordinates":[-73.9302,40.596675]}},{"properties":{"city":"Brooklyn","name":"BEST WESTERN PLUS PRESIDENT HOTEL (73433)","status":"COMPLETED 1.18","# of rooms":16,"geo_score":0.805,"id":"abnhopkg8aqm","address":"234 W 48TH STREET","geo_precision":"range","state":"New York"},"type":"Feature","geometry":{"type":"Point","coordinates":[-73.932785,40.655259]}},{"properties":{"city":"Brooklyn","name":"HOTEL STANFORD (73367)","status":"Completed 1/14","# of rooms":4,"geo_score":0.642,"id":"abnhopqosnir","address":"43 WEST 32ND STREET","geo_precision":"street","state":"New York"},"type":"Feature","geometry":{"type":"Point","coordinates":[-73.998556,40.575101]}},{"properties":{"city":"Brooklyn","name":"HOTEL PENNSYLVANIA (34208)","status":"Completed 1/14","# of rooms":35,"geo_score":0.677,"id":"abnhopbpifcs","address":"401 7TH AVE BLDG 33","geo_precision":"range","state":"New York"},"type":"Feature","geometry":{"type":"Point","coordinates":[-73.984089,40.663886]}},{"properties":{"city":"Brooklyn","name":"HOTEL INDIGO NYC CHELSEA (73464)","status":"Completed 1/14","# of rooms":17,"geo_score":0.642,"id":"abnhopnyj0mv","address":"127 W 28TH ST","geo_precision":"street","state":"New York"},"type":"Feature","geometry":{"type":"Point","coordinates":[-73.994316,40.575573]}},{"properties":{"city":"Brooklyn","name":"HOLIDAY INN MANHATTAN 6TH AVENUE (73476)","status":"Completed 1/14","# of rooms":6,"geo_score":0.612,"id":"abnhopnol5xf","address":"125 W 26TH ST","geo_precision":"street","state":"New York"},"type":"Feature","geometry":{"type":"Point","coordinates":[-73.952621,40.643006]}},{"properties":{"city":"Brooklyn","name":"HOLIDAY INN EXPRESS NEW YORK CITY FIFTH AVENUE (7","status":"Completed 1/16/13","# of rooms":16,"geo_score":0.613,"id":"abnhopqbh7l3","address":"15 WEST 45TH STREET","geo_precision":"street","state":"New York"},"type":"Feature","geometry":{"type":"Point","coordinates":[-73.935895,40.658001]}},{"properties":{"city":"Brooklyn","name":"ELEMENT NEW YORK TIMES SQUARE WEST (73477)","status":"Completed 1/16/13","# of rooms":15,"geo_score":0.805,"id":"abnhopomindg","address":"311 WEST 39TH STREET","geo_precision":"range","state":"New York"},"type":"Feature","geometry":{"type":"Point","coordinates":[-73.940827,40.651128]}},{"properties":{"city":"Brooklyn","name":"6 COLUMBUS-A THOMPSON HOTEL (73939)","status":"Completed 1/16/13","# of rooms":10,"geo_score":0.829,"id":"abnhopfzwqwx","address":"6 COLUMBUS CIR","geo_precision":"range","state":"New York"},"type":"Feature","geometry":{"type":"Point","coordinates":[-73.922875,40.677151]}},{"properties":{"city":"Brooklyn","name":"GILD HALL- A THOMPSON HOTEL (09894)","status":"COMPLETED, 1/10/13","# of rooms":39,"geo_score":0.721,"id":"abnhopfog67a","address":"15 GOLD ST","geo_precision":"street","state":"New York"},"type":"Feature","geometry":{"type":"Point","coordinates":[-73.982653,40.703623]}},{"properties":{"city":"Brooklyn","name":"CROWNE PLAZA(03594)","status":"COMPLETED, 1/11/13","# of rooms":38,"geo_score":0.902,"id":"abnhopnrj788","address":"1605 BROADWAY","geo_precision":"range","state":"New York"},"type":"Feature","geometry":{"type":"Point","coordinates":[-73.914981,40.685616]}},{"properties":{"city":"Brooklyn","name":"THE WESTIN NEW YORK GRAND CENTRAL (73780)","status":"COMPLETED, 1/11/13","# of rooms":26,"geo_score":0.837,"id":"abnhopo6cztp","address":"212 EAST 42ND STREET","geo_precision":"range","state":"New York"},"type":"Feature","geometry":{"type":"Point","coordinates":[-73.938027,40.650354]}},{"properties":{"city":"Brooklyn","name":"HUDSON HOTEL (03721)","status":"COMPLETED, 1/12/13","# of rooms":24,"geo_score":0.805,"id":"abnhoprbdhca","address":"356 W 58TH ST","geo_precision":"range","state":"New York"},"type":"Feature","geometry":{"type":"Point","coordinates":[-73.922026,40.645334]}},{"properties":{"city":"Brooklyn","name":"60 THOMPSON (73746)","status":"COMPLETED, 1/12/13","# of rooms":23,"geo_score":0.654,"id":"abnhopodli4p","address":"60 THOMPSON ST","geo_precision":"street","state":"New York"},"type":"Feature","geometry":{"type":"Point","coordinates":[-78.763485,42.370909]}},{"properties":{"city":"Brooklyn","name":"FITZPATRICK GRAND CENTRAL HOTEL (73658)","status":"COMPLETED, 1/8/13","# of rooms":5,"geo_score":0.735,"id":"abnhoph2ks96","address":"141 E 44TH ST","geo_precision":"range","state":"New York"},"type":"Feature","geometry":{"type":"Point","coordinates":[-74.014065,40.653053]}},{"properties":{"city":"Brooklyn","name":"DOUBLETREE FINANCIAL DISTRICT (73593)","status":"COMPLETED, 1/9/13","# of rooms":45,"geo_score":0.805,"id":"abnhopor2a1k","address":"8 STONE ST","geo_precision":"range","state":"New York"},"type":"Feature","geometry":{"type":"Point","coordinates":[-73.908824,40.681486]}},{"properties":{"city":"Brooklyn","name":"HOTEL INDIGO NYC CHELSEA (73464)","status":"Duplicate COMPLETED 1.18","# of rooms":17,"geo_score":0.642,"id":"abnhopi7wmet","address":"127 W 28TH ST","geo_precision":"street","state":"New York"},"type":"Feature","geometry":{"type":"Point","coordinates":[-73.994316,40.575573]}},{"properties":{"city":"Brooklyn","name":"BEEKMAN TOWER HOTEL (73786)","status":"Scheduled 1/22","# of rooms":35,"geo_score":0.752,"id":"abnhopphcgui","address":"3 MITCHELL PL","geo_precision":"range","state":"New York"},"type":"Feature","geometry":{"type":"Point","coordinates":[-79.254695,42.264431]}},{"properties":{"city":"Brooklyn","name":"W NEW YORK - DOWNTOWN (73740)","status":null,"# of rooms":22,"geo_score":0.732,"id":"abnhophg1jse","address":"123 WASHINGTON STREET","geo_precision":"street","state":"New York"},"type":"Feature","geometry":{"type":"Point","coordinates":[-73.989695,40.701305]}},{"properties":{"city":"Brooklyn","name":"STAYBRIDGE SUITES TIMES SQUARE (73508)","status":null,"# of rooms":20,"geo_score":0.615,"id":"abnhopjv9wmi","address":"340 W 40TH ST","geo_precision":"street","state":"New York"},"type":"Feature","geometry":{"type":"Point","coordinates":[-73.940024,40.651275]}},{"properties":{"city":"Brooklyn","name":"COMFORT INN (66122)","status":null,"# of rooms":14,"geo_score":0.61,"id":"abnhope52x85","address":"31 W 71ST ST","geo_precision":"street","state":"New York"},"type":"Feature","geometry":{"type":"Point","coordinates":[-73.909106,40.621324]}},{"properties":{"city":"Brooklyn","name":"DISTRIKT HOTEL NEW YORK CITY (73531)","status":null,"# of rooms":11,"geo_score":0.615,"id":"abnhopnid1gm","address":"342 W 40TH ST","geo_precision":"street","state":"New York"},"type":"Feature","geometry":{"type":"Point","coordinates":[-73.940024,40.651275]}},{"properties":{"city":"Brooklyn","name":"WINGATE BY WYNDHAM MANHATTAN MIDTOWN (73605)","status":null,"# of rooms":10,"geo_score":0.642,"id":"abnhopnnt0tk","address":"235 W 35TH ST","geo_precision":"street","state":"New York"},"type":"Feature","geometry":{"type":"Point","coordinates":[-74.000675,40.574867]}},{"properties":{"city":"Brooklyn","name":"ASCEND THE SOLITA SOHO HOTEL (75251)","status":null,"# of rooms":8,"geo_score":0.902,"id":"abnhoplcjp9x","address":"159 GRAND ST","geo_precision":"range","state":"New York"},"type":"Feature","geometry":{"type":"Point","coordinates":[-73.962073,40.715007]}},{"properties":{"city":"Brooklyn","name":"MOUNT ROYAL HOTEL (88302)","status":null,"# of rooms":6,"geo_score":0.805,"id":"abnhopqucc33","address":"315 W 94TH ST","geo_precision":"range","state":"New York"},"type":"Feature","geometry":{"type":"Point","coordinates":[-73.92161,40.659128]}},{"properties":{"city":"Brooklyn","name":"DOUBLETREE TIMES SQUARE SOUTH (73621)","status":null,"# of rooms":5,"geo_score":0.642,"id":"abnhopic32iu","address":"341 W 36TH ST","geo_precision":"street","state":"New York"},"type":"Feature","geometry":{"type":"Point","coordinates":[-74.002569,40.579145]}},{"properties":{"city":"Brooklyn","name":"NH JOLLY MADISON TOWERS HOTEL (73536)","status":null,"# of rooms":5,"geo_score":0.646,"id":"abnhoppf17tr","address":"22 E 38TH ST","geo_precision":"street","state":"New York"},"type":"Feature","geometry":{"type":"Point","coordinates":[-73.942261,40.654624]}},{"properties":{"city":"Brooklyn","name":"FITZPATRICK MANHATTAN (73657)","status":null,"# of rooms":4,"geo_score":0.488,"id":"abnhopoe6ccw","address":"687 LEXINGTON AVE","geo_precision":"city","state":"New York"},"type":"Feature","geometry":{"type":"Point","coordinates":[-73.989319,40.694481]}},{"properties":{"city":"Brooklyn","name":"SUGAR HILL HARLEM INN (73348)","status":null,"# of rooms":4,"geo_score":0.415,"id":"abnhopp5sgej","address":"460 W 141ST ST","geo_precision":"street","state":"New York"},"type":"Feature","geometry":{"type":"Point","coordinates":[-87.970069,44.481918]}},{"properties":{"city":"Brooklyn","name":"HOTEL 373 (73472)","status":null,"# of rooms":3,"geo_score":0.819,"id":"abnhopcjnncv","address":"373 5TH AVE","geo_precision":"range","state":"New York"},"type":"Feature","geometry":{"type":"Point","coordinates":[-73.98446,40.67137]}},{"properties":{"city":"Brooklyn","name":"BEST WESTERN BOWERY HANBEE HOTEL (69531)","status":null,"# of rooms":3,"geo_score":0.902,"id":"abnhopmnhfxa","address":"231 GRAND STREET","geo_precision":"range","state":"New York"},"type":"Feature","geometry":{"type":"Point","coordinates":[-73.958758,40.713609]}},{"properties":{"city":"Brooklyn","name":"COMFORT INN MANHATTAN BRIDGE (73412)","status":null,"# of rooms":2,"geo_score":0.548,"id":"abnhophs2ays","address":"61-63 CHRISTIE ST","geo_precision":"street","state":"New York"},"type":"Feature","geometry":{"type":"Point","coordinates":[-88.241736,44.656501]}},{"properties":{"city":"Brooklyn","name":"COMFORT INN TIMES SQUARE SOUTH (69948)","status":null,"# of rooms":2,"geo_score":0.805,"id":"abnhopone2d4","address":"305 W 39TH STREET","geo_precision":"range","state":"New York"},"type":"Feature","geometry":{"type":"Point","coordinates":[-73.940813,40.650966]}},{"properties":{"city":"Brooklyn","name":"DREAM DOWNTOWN (73580)","status":null,"# of rooms":2,"geo_score":0.642,"id":"abnhopp119bz","address":"355 W 16TH ST","geo_precision":"street","state":"New York"},"type":"Feature","geometry":{"type":"Point","coordinates":[-73.985331,40.586712]}},{"properties":{"city":"Brooklyn","name":"SMYTH TRIBECA (73941)","status":null,"# of rooms":2,"geo_score":0.844,"id":"abnhopivdjzu","address":"85 W BROADWAY","geo_precision":"range","state":"New York"},"type":"Feature","geometry":{"type":"Point","coordinates":[-73.965968,40.710628]}},{"properties":{"city":"Brooklyn","name":"IMPERIAL COURT HOTEL (73660)","status":null,"# of rooms":1,"geo_score":0.611,"id":"abnhopgmraf0","address":"307 W 79TH ST","geo_precision":"street","state":"New York"},"type":"Feature","geometry":{"type":"Point","coordinates":[-73.917654,40.638248]}},{"properties":{"city":"Brooklyn","name":"RADIO CITY APARTMENTS (73614)","status":null,"# of rooms":1,"geo_score":0.805,"id":"abnhopna0svx","address":"142 W 49TH ST","geo_precision":"range","state":"New York"},"type":"Feature","geometry":{"type":"Point","coordinates":[-73.932304,40.659952]}},{"properties":{"city":"Brooklyn","name":"WESTIN NEW YORK TIMES SQUARE (73494)","status":null,"# of rooms":1,"geo_score":0.805,"id":"abnhopnies0t","address":"270 WEST 43RD STREET","geo_precision":"range","state":"New York"},"type":"Feature","geometry":{"type":"Point","coordinates":[-73.936955,40.649078]}}],"is_temporal":false,"author":{"url":"","metadata":null,"contact_name":null,"contact_address":null,"source":null,"contact_phone":null},"source":"","pagination":{"sort":null,"start":0,"total":43,"limit":1000000},"state":"complete","tags":"","published":"2014-08-16T18:01:57-04:00","id":313466}