{"type":"FeatureCollection","data_type":"Dataset","url_type":null,"permissions":[{"permissions":{"download":true,"view":true},"group_id":"everyone"}],"classification":null,"title":"Copy_of_IPTV-Ft","count":104,"stream_id":313764,"contributor":{"url":"http://geocommons.com/users/59404","name":"KatieEtgen"},"data_attributes":null,"calculation_params":null,"icon_link":null,"link":"http://geocommons.com/overlays/313764.json","extent":[-84.3551,40.8178,-84.204,40.9758],"geometry_types":["point"],"unique_name":null,"name":"Copy_of_IPTV-Ft","feature_count":104,"description":"","next_feature":null,"is_raster":false,"short_classification":"Y","stats":{},"features":[{"properties":{"city":"Fort Jennings","zip":"45844","geo_score":0.89,"id":"abo3ztm174zb","address":"65 W Third St","geo_precision":"range","state":"OH"},"type":"Feature","geometry":{"type":"Point","coordinates":[-84.297478,40.904997]}},{"properties":{"city":"Fort Jennings","zip":"45844","geo_score":1.0,"id":"abo3ztdnqmty","address":"19290 Road 20P","geo_precision":"range","state":"OH"},"type":"Feature","geometry":{"type":"Point","coordinates":[-84.279444,40.898976]}},{"properties":{"city":"Delphos","zip":"45833","geo_score":0.585,"id":"abo3ztbqh6m8","address":"1211 Grothause St","geo_precision":"zip","state":"OH"},"type":"Feature","geometry":{"type":"Point","coordinates":[-84.272729,40.817828]}},{"properties":{"city":"Delphos","zip":"45833","geo_score":0.805,"id":"abo3ztdl3vu2","address":"1301 Rose Anna","geo_precision":"street","state":"OH"},"type":"Feature","geometry":{"type":"Point","coordinates":[-84.35507,40.851704]}},{"properties":{"city":"Fort Jennings","zip":"45844","geo_score":1.0,"id":"abo3ztlud8f0","address":"215 Charles St","geo_precision":"range","state":"OH"},"type":"Feature","geometry":{"type":"Point","coordinates":[-84.297168,40.907519]}},{"properties":{"city":"Fort Jennings","zip":"45844","geo_score":0.967,"id":"abo3ztfor9ud","address":"480 N Main St","geo_precision":"range","state":"OH"},"type":"Feature","geometry":{"type":"Point","coordinates":[-84.331012,40.937031]}},{"properties":{"city":"Delphos","zip":"45833","geo_score":1.0,"id":"abo3ztlvqbr2","address":"24836 Rd T","geo_precision":"range","state":"OH"},"type":"Feature","geometry":{"type":"Point","coordinates":[-84.337709,40.888306]}},{"properties":{"city":"Fort Jennings","zip":"45844","geo_score":1.0,"id":"abo3zti43azz","address":"19150 Road 20","geo_precision":"range","state":"OH"},"type":"Feature","geometry":{"type":"Point","coordinates":[-84.244009,40.901067]}},{"properties":{"city":"Fort Jennings","zip":"45844","geo_score":0.842,"id":"abo3ztk5ta9n","address":"18517 SR 190","geo_precision":"range","state":"OH"},"type":"Feature","geometry":{"type":"Point","coordinates":[-84.286738,40.908957]}},{"properties":{"city":"Delphos","zip":"45833","geo_score":1.0,"id":"abo3ztj1c87u","address":"1370 Marsh Ave","geo_precision":"range","state":"OH"},"type":"Feature","geometry":{"type":"Point","coordinates":[-84.32382,40.855578]}},{"properties":{"city":"Fort Jennings","zip":"45844","geo_score":0.842,"id":"abo3zthta9iv","address":"16530 SR 634","geo_precision":"range","state":"OH"},"type":"Feature","geometry":{"type":"Point","coordinates":[-84.292136,40.93599]}},{"properties":{"city":"Fort Jennings","zip":"45844","geo_score":0.585,"id":"abo3ztldzywa","address":"23896 Road T-23","geo_precision":"zip","state":"OH"},"type":"Feature","geometry":{"type":"Point","coordinates":[-84.253283,40.874217]}},{"properties":{"city":"FORT JENNINGS","zip":"45844","geo_score":0.812,"id":"abo3ztbtxdvz","address":"18564 St Rt 189","geo_precision":"street","state":"OH"},"type":"Feature","geometry":{"type":"Point","coordinates":[-84.213669,40.884359]}},{"properties":{"city":"Fort Jennings","zip":"45844","geo_score":1.0,"id":"abo3ztjqdqso","address":"19431 Road 22","geo_precision":"range","state":"OH"},"type":"Feature","geometry":{"type":"Point","coordinates":[-84.282235,40.894502]}},{"properties":{"city":"Fort Jennings","zip":"45844","geo_score":0.967,"id":"abo3ztbr38lh","address":"280 N Main St","geo_precision":"range","state":"OH"},"type":"Feature","geometry":{"type":"Point","coordinates":[-84.336575,40.934478]}},{"properties":{"city":"Fort Jennings","zip":"45844","geo_score":0.805,"id":"abo3ztdbssse","address":"24530 Rd T","geo_precision":"street","state":"OH"},"type":"Feature","geometry":{"type":"Point","coordinates":[-84.291361,40.888427]}},{"properties":{"city":"Fort Jennings","zip":"45844","geo_score":1.0,"id":"abo3ztmo2lth","address":"21500 Rd V","geo_precision":"range","state":"OH"},"type":"Feature","geometry":{"type":"Point","coordinates":[-84.270308,40.859769]}},{"properties":{"city":"Fort Jennings","zip":"45844","geo_score":0.805,"id":"abo3ztizybpc","address":"20174 Rd 21","geo_precision":"street","state":"OH"},"type":"Feature","geometry":{"type":"Point","coordinates":[-84.26278,40.893074]}},{"properties":{"city":"Fort Jennings","zip":"45844","geo_score":1.0,"id":"abo3ztkguav8","address":"8765 Mericle Rd","geo_precision":"range","state":"OH"},"type":"Feature","geometry":{"type":"Point","coordinates":[-84.271262,40.859617]}},{"properties":{"city":"Fort Jennings","zip":"45844","geo_score":0.842,"id":"abo3ztptgywz","address":"18332 SR 190","geo_precision":"range","state":"OH"},"type":"Feature","geometry":{"type":"Point","coordinates":[-84.28371,40.91106]}},{"properties":{"city":"Fort Jennings","zip":"45844","geo_score":0.805,"id":"abo3ztiin66a","address":"21951 Rd 21","geo_precision":"street","state":"OH"},"type":"Feature","geometry":{"type":"Point","coordinates":[-84.26278,40.893074]}},{"properties":{"city":"Fort Jennings","zip":"45844","geo_score":0.805,"id":"abo3ztc7g597","address":"21952 Rd 21","geo_precision":"street","state":"OH"},"type":"Feature","geometry":{"type":"Point","coordinates":[-84.26278,40.893074]}},{"properties":{"city":"Fort Jennings","zip":"45844","geo_score":0.979,"id":"abo3zthe579c","address":"35 JF Kennedy St","geo_precision":"range","state":"OH"},"type":"Feature","geometry":{"type":"Point","coordinates":[-84.297695,40.908281]}},{"properties":{"city":"Fort Jennings","zip":"45844","geo_score":0.624,"id":"abo3ztky0df7","address":"20065 Rd 23-T","geo_precision":"street","state":"OH"},"type":"Feature","geometry":{"type":"Point","coordinates":[-84.330351,40.903715]}},{"properties":{"city":"Fort Jennings","zip":"45844","geo_score":1.0,"id":"abo3ztgzrbez","address":"19502 Rd 22-S","geo_precision":"range","state":"OH"},"type":"Feature","geometry":{"type":"Point","coordinates":[-84.293296,40.893712]}},{"properties":{"city":"Fort Jennings","zip":"45844","geo_score":1.0,"id":"abo3zta04jao","address":"715 N Water St","geo_precision":"range","state":"OH"},"type":"Feature","geometry":{"type":"Point","coordinates":[-84.292432,40.907914]}},{"properties":{"city":"Fort Jennings","zip":"45844","geo_score":1.0,"id":"abo3ztom7zen","address":"240 Maple Lane","geo_precision":"range","state":"OH"},"type":"Feature","geometry":{"type":"Point","coordinates":[-84.300932,40.906816]}},{"properties":{"city":"Delphos","zip":"45833","geo_score":1.0,"id":"abo3ztakwdtp","address":"24596 Road T","geo_precision":"range","state":"OH"},"type":"Feature","geometry":{"type":"Point","coordinates":[-84.340525,40.88857]}},{"properties":{"city":"Fort Jennings","zip":"45844","geo_score":0.91,"id":"abo3ztn4u21c","address":"17806A St Rt 634","geo_precision":"range","state":"OH"},"type":"Feature","geometry":{"type":"Point","coordinates":[-84.292172,40.922813]}},{"properties":{"city":"Fort Jennings","zip":"45844","geo_score":0.967,"id":"abo3ztko298q","address":"365 N Main St","geo_precision":"range","state":"OH"},"type":"Feature","geometry":{"type":"Point","coordinates":[-84.334464,40.935091]}},{"properties":{"city":"Fort Jennings","zip":"45844","geo_score":1.0,"id":"abo3ztak2y30","address":"30 Oak St","geo_precision":"range","state":"OH"},"type":"Feature","geometry":{"type":"Point","coordinates":[-84.296562,40.908945]}},{"properties":{"city":"Fort Jennings","zip":"45844","geo_score":0.805,"id":"abo3ztiuoikq","address":"21009 Rd 21","geo_precision":"street","state":"OH"},"type":"Feature","geometry":{"type":"Point","coordinates":[-84.26278,40.893074]}},{"properties":{"city":"Fort Jennings","zip":"45844","geo_score":1.0,"id":"abo3ztc4ujzm","address":"21222 Rd V","geo_precision":"range","state":"OH"},"type":"Feature","geometry":{"type":"Point","coordinates":[-84.26675,40.859768]}},{"properties":{"city":"Fort Jennings","zip":"45844","geo_score":0.842,"id":"abo3ztlsc527","address":"16847 SR 190","geo_precision":"range","state":"OH"},"type":"Feature","geometry":{"type":"Point","coordinates":[-84.274922,40.933727]}},{"properties":{"city":"Delphos","zip":"45833","geo_score":0.675,"id":"abo3ztltb7z6","address":"1310 Rose Anna Street","geo_precision":"street","state":"OH"},"type":"Feature","geometry":{"type":"Point","coordinates":[-84.35507,40.851704]}},{"properties":{"city":"Fort Jennings","zip":"45844","geo_score":0.967,"id":"abo3ztb7sa9g","address":"235 N Main St","geo_precision":"range","state":"OH"},"type":"Feature","geometry":{"type":"Point","coordinates":[-84.336301,40.934399]}},{"properties":{"city":"Fort Jennings","zip":"45844","geo_score":1.0,"id":"abo3ztdkjb05","address":"18964 Road 21","geo_precision":"range","state":"OH"},"type":"Feature","geometry":{"type":"Point","coordinates":[-84.263567,40.904213]}},{"properties":{"city":"Fort Jennings","zip":"45844","geo_score":0.842,"id":"abo3zte8d63w","address":"17048 SR 190","geo_precision":"range","state":"OH"},"type":"Feature","geometry":{"type":"Point","coordinates":[-84.275574,40.931925]}},{"properties":{"city":"Delphos","zip":"45833","geo_score":1.0,"id":"abo3zthmior1","address":"24550 Road T","geo_precision":"range","state":"OH"},"type":"Feature","geometry":{"type":"Point","coordinates":[-84.33098,40.888377]}},{"properties":{"city":"Fort Jennings","zip":"45844","geo_score":1.0,"id":"abo3ztmw18z7","address":"8433 N Defiance Trail","geo_precision":"range","state":"OH"},"type":"Feature","geometry":{"type":"Point","coordinates":[-84.290271,40.849805]}},{"properties":{"city":"Fort Jennings","zip":"45844","geo_score":1.0,"id":"abo3ztpxxswj","address":"19028 Rd 20P","geo_precision":"range","state":"OH"},"type":"Feature","geometry":{"type":"Point","coordinates":[-84.276993,40.903309]}},{"properties":{"city":"Fort Jennings","zip":"45844","geo_score":0.842,"id":"abo3ztdp6ghq","address":"23242 SR 189","geo_precision":"range","state":"OH"},"type":"Feature","geometry":{"type":"Point","coordinates":[-84.316299,40.918009]}},{"properties":{"city":"Fort Jennings","zip":"45844","geo_score":1.0,"id":"abo3ztc5n9na","address":"23960 Rd R","geo_precision":"range","state":"OH"},"type":"Feature","geometry":{"type":"Point","coordinates":[-84.319718,40.918194]}},{"properties":{"city":"Fort Jennings","zip":"45844","geo_score":1.0,"id":"abo3ztjj2u6s","address":"220 Maple Lane","geo_precision":"range","state":"OH"},"type":"Feature","geometry":{"type":"Point","coordinates":[-84.300807,40.907263]}},{"properties":{"city":"Fort Jennings","zip":"45844","geo_score":1.0,"id":"abo3ztlummus","address":"20277 Rd P","geo_precision":"range","state":"OH"},"type":"Feature","geometry":{"type":"Point","coordinates":[-84.250425,40.947131]}},{"properties":{"city":"Fort Jennings","zip":"45844","geo_score":1.0,"id":"abo3ztjzy601","address":"20600 Road 19","geo_precision":"range","state":"OH"},"type":"Feature","geometry":{"type":"Point","coordinates":[-84.225143,40.878584]}},{"properties":{"city":"Fort Jennings","zip":"45844","geo_score":1.0,"id":"abo3zto14jfp","address":"20916 Rd Q","geo_precision":"range","state":"OH"},"type":"Feature","geometry":{"type":"Point","coordinates":[-84.25646,40.932821]}},{"properties":{"city":"Fort Jennings","zip":"45844","geo_score":0.842,"id":"abo3ztm9icd9","address":"18515 SR 190","geo_precision":"range","state":"OH"},"type":"Feature","geometry":{"type":"Point","coordinates":[-84.286699,40.908967]}},{"properties":{"city":"Fort Jennings","zip":"45844","geo_score":0.624,"id":"abo3ztda3kvf","address":"20821 Rd 23-T","geo_precision":"street","state":"OH"},"type":"Feature","geometry":{"type":"Point","coordinates":[-84.330351,40.903715]}},{"properties":{"city":"Fort Jennings","zip":"45844","geo_score":0.585,"id":"abo3ztmspi67","address":"21927 Rd U-20","geo_precision":"zip","state":"OH"},"type":"Feature","geometry":{"type":"Point","coordinates":[-84.253283,40.874217]}},{"properties":{"city":"Fort Jennings","zip":"45844","geo_score":0.842,"id":"abo3ztpd1oj0","address":"16955 SR 634","geo_precision":"range","state":"OH"},"type":"Feature","geometry":{"type":"Point","coordinates":[-84.291982,40.933977]}},{"properties":{"city":"Fort Jennings","zip":"45844","geo_score":1.0,"id":"abo3ztb0b3df","address":"160 Charles St","geo_precision":"range","state":"OH"},"type":"Feature","geometry":{"type":"Point","coordinates":[-84.296616,40.907717]}},{"properties":{"city":"Fort Jennings","zip":"45844","geo_score":0.854,"id":"abo3ztf8yuqt","address":"235 W First St","geo_precision":"range","state":"OH"},"type":"Feature","geometry":{"type":"Point","coordinates":[-84.301097,40.904592]}},{"properties":{"city":"Fort Jennings","zip":"45844","geo_score":0.967,"id":"abo3ztchs3s1","address":"485 N Main St","geo_precision":"range","state":"OH"},"type":"Feature","geometry":{"type":"Point","coordinates":[-84.332293,40.936172]}},{"properties":{"city":"Fort Jennings","zip":"45844","geo_score":0.805,"id":"abo3ztgcdds8","address":"20626 Rd 21","geo_precision":"street","state":"OH"},"type":"Feature","geometry":{"type":"Point","coordinates":[-84.26278,40.893074]}},{"properties":{"city":"Fort Jennings","zip":"45844","geo_score":0.805,"id":"abo3ztlvschv","address":"19480 Road R","geo_precision":"street","state":"OH"},"type":"Feature","geometry":{"type":"Point","coordinates":[-84.272403,40.91888]}},{"properties":{"city":"Fort Jennings","zip":"45844","geo_score":1.0,"id":"abo3zte2j8e8","address":"125 Charles St","geo_precision":"range","state":"OH"},"type":"Feature","geometry":{"type":"Point","coordinates":[-84.298185,40.907088]}},{"properties":{"city":"Fort Jennings","zip":"45844","geo_score":1.0,"id":"abo3zta04tqi","address":"21122 Rd V","geo_precision":"range","state":"OH"},"type":"Feature","geometry":{"type":"Point","coordinates":[-84.264511,40.859764]}},{"properties":{"city":"Columbus Grove","zip":"45830","geo_score":1.0,"id":"abo3ztn0npfi","address":"19981 Rd 18-R","geo_precision":"range","state":"OH"},"type":"Feature","geometry":{"type":"Point","coordinates":[-84.211425,40.88842]}},{"properties":{"city":"Fort Jennings","zip":"45844","geo_score":0.663,"id":"abo3ztdnbve0","address":"85 W Sixth St","geo_precision":"street","state":"OH"},"type":"Feature","geometry":{"type":"Point","coordinates":[-84.294392,40.906925]}},{"properties":{"city":"Fort Jennings","zip":"45844","geo_score":0.805,"id":"abo3ztd2324u","address":"24266 Road T","geo_precision":"street","state":"OH"},"type":"Feature","geometry":{"type":"Point","coordinates":[-84.291361,40.888427]}},{"properties":{"city":"Delphos","zip":"45833","geo_score":0.958,"id":"abo3ztenz3o4","address":"20799 Rd 24T","geo_precision":"range","state":"OH"},"type":"Feature","geometry":{"type":"Point","coordinates":[-84.336997,40.880883]}},{"properties":{"city":"Fort Jennings","zip":"45844","geo_score":0.854,"id":"abo3ztbl4uvl","address":"65 W First St","geo_precision":"range","state":"OH"},"type":"Feature","geometry":{"type":"Point","coordinates":[-84.29952,40.903958]}},{"properties":{"city":"Fort Jennings","zip":"45844","geo_score":0.842,"id":"abo3ztok3cjq","address":"17912 SR 190","geo_precision":"range","state":"OH"},"type":"Feature","geometry":{"type":"Point","coordinates":[-84.280187,40.919349]}},{"properties":{"city":"Fort Jennings","zip":"45844","geo_score":1.0,"id":"abo3ztncb5ez","address":"21386 Rd 22-S","geo_precision":"range","state":"OH"},"type":"Feature","geometry":{"type":"Point","coordinates":[-84.290136,40.868924]}},{"properties":{"city":"Fort Jennings","zip":"45844","geo_score":0.842,"id":"abo3ztdhodf6","address":"16687 SR 634","geo_precision":"range","state":"OH"},"type":"Feature","geometry":{"type":"Point","coordinates":[-84.291983,40.937014]}},{"properties":{"city":"Columbus Grove","zip":"45830","geo_score":0.842,"id":"abo3ztosl20b","address":"18282 SR 189","geo_precision":"range","state":"OH"},"type":"Feature","geometry":{"type":"Point","coordinates":[-84.20397,40.881111]}},{"properties":{"city":"Fort Jennings","zip":"45844","geo_score":1.0,"id":"abo3ztm52o8s","address":"17587 Rd 20Q","geo_precision":"range","state":"OH"},"type":"Feature","geometry":{"type":"Point","coordinates":[-84.253846,40.921561]}},{"properties":{"city":"Fort Jennings","zip":"45844","geo_score":1.0,"id":"abo3ztk3lj5t","address":"21485 Road T","geo_precision":"range","state":"OH"},"type":"Feature","geometry":{"type":"Point","coordinates":[-84.271855,40.888587]}},{"properties":{"city":"Fort Jennings","zip":"45844","geo_score":0.902,"id":"abo3ztdzwf0g","address":"19599 Road S","geo_precision":"range","state":"OH"},"type":"Feature","geometry":{"type":"Point","coordinates":[-84.235892,40.903841]}},{"properties":{"city":"Fort Jennings","zip":"45844","geo_score":1.0,"id":"abo3zte2joyf","address":"21062 Road T","geo_precision":"range","state":"OH"},"type":"Feature","geometry":{"type":"Point","coordinates":[-84.26375,40.888747]}},{"properties":{"city":"Delphos","zip":"45833","geo_score":0.745,"id":"abo3ztaxywj0","address":"20235 SR 190","geo_precision":"street","state":"OH"},"type":"Feature","geometry":{"type":"Point","coordinates":[-84.325073,40.87963]}},{"properties":{"city":"Fort Jennings","zip":"45844","geo_score":0.722,"id":"abo3zte2au3h","address":"19658 Rd 23-T","geo_precision":"street","state":"OH"},"type":"Feature","geometry":{"type":"Point","coordinates":[-84.330351,40.903715]}},{"properties":{"city":"Fort Jennings","zip":"45844","geo_score":0.659,"id":"abo3ztb1flee","address":"19453 Road 23T","geo_precision":"street","state":"OH"},"type":"Feature","geometry":{"type":"Point","coordinates":[-84.330351,40.903715]}},{"properties":{"city":"Fort Jennings","zip":"45844","geo_score":1.0,"id":"abo3zthi2zvs","address":"20396 Rd U","geo_precision":"range","state":"OH"},"type":"Feature","geometry":{"type":"Point","coordinates":[-84.249568,40.874273]}},{"properties":{"city":"Fort Jennings","zip":"45844","geo_score":0.842,"id":"abo3ztkhlup3","address":"18489 SR 190","geo_precision":"range","state":"OH"},"type":"Feature","geometry":{"type":"Point","coordinates":[-84.286186,40.909102]}},{"properties":{"city":"Columbus Grove","zip":"45830","geo_score":1.0,"id":"abo3zti9hkkw","address":"20209 Rd 18-R","geo_precision":"range","state":"OH"},"type":"Feature","geometry":{"type":"Point","coordinates":[-84.211394,40.886477]}},{"properties":{"city":"Fort Jennings","zip":"45844","geo_score":0.585,"id":"abo3ztla4t52","address":"20 S High St","geo_precision":"zip","state":"OH"},"type":"Feature","geometry":{"type":"Point","coordinates":[-84.253283,40.874217]}},{"properties":{"city":"Fort Jennings","zip":"45844","geo_score":0.842,"id":"abo3ztok8xeh","address":"20087 SR 189","geo_precision":"range","state":"OH"},"type":"Feature","geometry":{"type":"Point","coordinates":[-84.248761,40.885553]}},{"properties":{"city":"Delphos","zip":"45833","geo_score":1.0,"id":"abo3zteuxcxj","address":"1400 Marsh Ave","geo_precision":"range","state":"OH"},"type":"Feature","geometry":{"type":"Point","coordinates":[-84.323929,40.85715]}},{"properties":{"city":"Fort Jennings","zip":"45844","geo_score":0.958,"id":"abo3zth7uw48","address":"20911 Rd 20-S","geo_precision":"range","state":"OH"},"type":"Feature","geometry":{"type":"Point","coordinates":[-84.253109,40.886327]}},{"properties":{"city":"Fort Jennings","zip":"45844","geo_score":0.842,"id":"abo3ztem92vx","address":"17940 SR 190","geo_precision":"range","state":"OH"},"type":"Feature","geometry":{"type":"Point","coordinates":[-84.280309,40.918983]}},{"properties":{"city":"FORT JENNINGS","zip":"45844","geo_score":0.958,"id":"abo3ztg67w3q","address":"17719 Road 20-P","geo_precision":"range","state":"OH"},"type":"Feature","geometry":{"type":"Point","coordinates":[-84.269943,40.922624]}},{"properties":{"city":"Fort Jennings","zip":"45844","geo_score":0.854,"id":"abo3ztkb93uc","address":"215 W Fourth St","geo_precision":"range","state":"OH"},"type":"Feature","geometry":{"type":"Point","coordinates":[-84.297841,40.906364]}},{"properties":{"city":"Fort Jennings","zip":"45844","geo_score":0.854,"id":"abo3zthcgno7","address":"240 W Fourth St","geo_precision":"range","state":"OH"},"type":"Feature","geometry":{"type":"Point","coordinates":[-84.29876,40.906966]}},{"properties":{"city":"Fort Jennings","zip":"45844","geo_score":0.958,"id":"abo3ztcx9f7v","address":"17622 Road 20-P","geo_precision":"range","state":"OH"},"type":"Feature","geometry":{"type":"Point","coordinates":[-84.269885,40.924154]}},{"properties":{"city":"Delphos","zip":"45833","geo_score":0.585,"id":"abo3ztmfnzpb","address":"1305 Hedrick St","geo_precision":"zip","state":"OH"},"type":"Feature","geometry":{"type":"Point","coordinates":[-84.272729,40.817828]}},{"properties":{"city":"Fort Jennings","zip":"45844","geo_score":0.854,"id":"abo3zto8q93z","address":"290 W 4th St","geo_precision":"range","state":"OH"},"type":"Feature","geometry":{"type":"Point","coordinates":[-84.298536,40.906842]}},{"properties":{"city":"Delphos","zip":"45833","geo_score":0.842,"id":"abo3ztd2br0j","address":"1730 SR 190","geo_precision":"range","state":"OH"},"type":"Feature","geometry":{"type":"Point","coordinates":[-84.32952,40.857738]}},{"properties":{"city":"Fort Jennings","zip":"45844","geo_score":0.805,"id":"abo3ztnoxj1x","address":"21761 Rd 21","geo_precision":"street","state":"OH"},"type":"Feature","geometry":{"type":"Point","coordinates":[-84.26278,40.893074]}},{"properties":{"city":"Fort Jennings","zip":"45844","geo_score":0.854,"id":"abo3ztla68d9","address":"135 W Fourth St","geo_precision":"range","state":"OH"},"type":"Feature","geometry":{"type":"Point","coordinates":[-84.298255,40.906594]}},{"properties":{"city":"Fort Jennings","zip":"45844","geo_score":1.0,"id":"abo3ztmsy85y","address":"120 Charles St","geo_precision":"range","state":"OH"},"type":"Feature","geometry":{"type":"Point","coordinates":[-84.29656,40.907771]}},{"properties":{"city":"Columbus Grove","zip":"45830","geo_score":1.0,"id":"abo3ztcrsxjv","address":"20223 Rd 18-R","geo_precision":"range","state":"OH"},"type":"Feature","geometry":{"type":"Point","coordinates":[-84.211393,40.886366]}},{"properties":{"city":"Fort Jennings","zip":"45844","geo_score":1.0,"id":"abo3ztl0ephq","address":"22578 Road R","geo_precision":"range","state":"OH"},"type":"Feature","geometry":{"type":"Point","coordinates":[-84.289413,40.918256]}},{"properties":{"city":"Fort Jennings","zip":"45844","geo_score":0.902,"id":"abo3zta540vi","address":"19620 Road S","geo_precision":"range","state":"OH"},"type":"Feature","geometry":{"type":"Point","coordinates":[-84.236237,40.90399]}},{"properties":{"city":"Fort Jennings","zip":"45844","geo_score":0.958,"id":"abo3ztbf474y","address":"18234 Rd 20-P","geo_precision":"range","state":"OH"},"type":"Feature","geometry":{"type":"Point","coordinates":[-84.271668,40.914829]}},{"properties":{"city":"Cloverdale","zip":"45844","geo_score":0.787,"id":"abo3ztgxmnkn","address":"22703 Rd N","geo_precision":"range","state":"OH"},"type":"Feature","geometry":{"type":"Point","coordinates":[-84.295841,40.975838]}},{"properties":{"city":"Fort Jennings","zip":"45844","geo_score":0.842,"id":"abo3ztb2ujpd","address":"20288 SR 189","geo_precision":"range","state":"OH"},"type":"Feature","geometry":{"type":"Point","coordinates":[-84.251455,40.887021]}},{"properties":{"city":"Fort Jennings","zip":"45844","geo_score":1.0,"id":"abo3ztp31fs2","address":"20636 Road 22-S","geo_precision":"range","state":"OH"},"type":"Feature","geometry":{"type":"Point","coordinates":[-84.290902,40.879329]}},{"properties":{"city":"Fort Jennings","zip":"45844","geo_score":1.0,"id":"abo3ztat9o6u","address":"21086 Rd V","geo_precision":"range","state":"OH"},"type":"Feature","geometry":{"type":"Point","coordinates":[-84.264013,40.859762]}},{"properties":{"city":"Fort Jennings","zip":"45844","geo_score":1.0,"id":"abo3ztld6h2d","address":"19766 Road 22-S","geo_precision":"range","state":"OH"},"type":"Feature","geometry":{"type":"Point","coordinates":[-84.292372,40.891448]}},{"properties":{"city":"Delphos","zip":"45833","geo_score":1.0,"id":"abo3ztbzmveu","address":"10905 Lincoln Hwy","geo_precision":"range","state":"OH"},"type":"Feature","geometry":{"type":"Point","coordinates":[-84.309458,40.846909]}},{"properties":{"city":"Fort Jennings","zip":"45844","geo_score":1.0,"id":"abo3ztcvkodn","address":"19284 Rd 20","geo_precision":"range","state":"OH"},"type":"Feature","geometry":{"type":"Point","coordinates":[-84.243963,40.898537]}},{"properties":{"city":"Delphos","zip":"45833","geo_score":0.585,"id":"abo3zt9ulvo9","address":"23269 Road U-20","geo_precision":"zip","state":"OH"},"type":"Feature","geometry":{"type":"Point","coordinates":[-84.272729,40.817828]}}],"is_temporal":false,"author":{"url":"","metadata":null,"contact_name":null,"contact_address":null,"source":null,"contact_phone":null},"source":"","pagination":{"sort":null,"start":0,"total":104,"limit":1000000},"state":"complete","tags":"","published":"2014-08-16T18:21:09-04:00","id":313764}