{"type":"FeatureCollection","data_type":"Dataset","url_type":null,"permissions":[{"permissions":{"download":true,"view":true},"group_id":"everyone"}],"classification":null,"title":"Copy_of_IPTV-Sherwood-Jan-16-2013_-_CSV","count":488,"stream_id":313774,"contributor":{"url":"http://geocommons.com/users/59404","name":"KatieEtgen"},"data_attributes":null,"calculation_params":null,"icon_link":null,"link":"http://geocommons.com/overlays/313774.json","extent":[-84.6309,41.2017,-84.2999,41.3547],"geometry_types":["point"],"unique_name":null,"name":"Copy_of_IPTV-Sherwood-Jan-16-2013_-_CSV","feature_count":488,"description":"","next_feature":null,"is_raster":false,"short_classification":"Y","stats":{},"features":[{"properties":{"city":"Sherwood","zip":"43556","geo_score":0.625,"id":"abo4170riutj","address":"115 E.Cedar","geo_precision":"street","state":"OH"},"type":"Feature","geometry":{"type":"Point","coordinates":[-84.553412,41.283632]}},{"properties":{"city":"Sherwood","zip":"43556","geo_score":0.61,"id":"abo4179ive1l","address":"201 N. Harrison Apt. A","geo_precision":"street","state":"OH"},"type":"Feature","geometry":{"type":"Point","coordinates":[-84.55343,41.285444]}},{"properties":{"city":"Sherwood","zip":"43556","geo_score":0.59,"id":"abo417aid78m","address":"240 St Rt18","geo_precision":"street","state":"OH"},"type":"Feature","geometry":{"type":"Point","coordinates":[-84.553767,41.254812]}},{"properties":{"city":"Sherwood","zip":"43556","geo_score":1.0,"id":"abo4177fwa4r","address":"12043 Burns Rd.","geo_precision":"range","state":"OH"},"type":"Feature","geometry":{"type":"Point","coordinates":[-84.52485,41.264121]}},{"properties":{"city":"Sherwood","zip":"43556","geo_score":0.625,"id":"abo4175ktbwf","address":"320 E.Pearl","geo_precision":"street","state":"OH"},"type":"Feature","geometry":{"type":"Point","coordinates":[-84.552199,41.285424]}},{"properties":{"city":"Sherwood","zip":"43556","geo_score":0.732,"id":"abo4171cr0cm","address":"13859 SR 18","geo_precision":"street","state":"OH"},"type":"Feature","geometry":{"type":"Point","coordinates":[-84.559735,41.296499]}},{"properties":{"city":"Sherwood","zip":"43556","geo_score":1.0,"id":"abo417c200yb","address":"315 Elm St","geo_precision":"range","state":"OH"},"type":"Feature","geometry":{"type":"Point","coordinates":[-84.550996,41.288011]}},{"properties":{"city":"Sherwood","zip":"43556","geo_score":0.61,"id":"abo417b8quuy","address":"115 N.Harrison","geo_precision":"street","state":"OH"},"type":"Feature","geometry":{"type":"Point","coordinates":[-84.55343,41.285444]}},{"properties":{"city":"Sherwood","zip":"43556","geo_score":0.571,"id":"abo4177utacq","address":"215 W.Pearl","geo_precision":"street","state":"OH"},"type":"Feature","geometry":{"type":"Point","coordinates":[-84.552199,41.285424]}},{"properties":{"city":"Sherwood","zip":"43556","geo_score":0.61,"id":"abo4175m3ds0","address":"114 N.Harrison","geo_precision":"street","state":"OH"},"type":"Feature","geometry":{"type":"Point","coordinates":[-84.55343,41.285444]}},{"properties":{"city":"Sherwood","zip":"43556","geo_score":0.932,"id":"abo416vnt30t","address":"08625 Openlander","geo_precision":"range","state":"OH"},"type":"Feature","geometry":{"type":"Point","coordinates":[-84.592177,41.317036]}},{"properties":{"city":"Sherwood","zip":"43556","geo_score":0.61,"id":"abo4172r5zda","address":"211 N. Harrison Apt. A","geo_precision":"street","state":"OH"},"type":"Feature","geometry":{"type":"Point","coordinates":[-84.55343,41.285444]}},{"properties":{"city":"Sherwood","zip":"43556","geo_score":0.61,"id":"abo4177z3j20","address":"204 S. Harrison","geo_precision":"street","state":"OH"},"type":"Feature","geometry":{"type":"Point","coordinates":[-84.55343,41.285444]}},{"properties":{"city":"Sherwood","zip":"43556","geo_score":0.61,"id":"abo4177fc0by","address":"537 N. Harrison","geo_precision":"street","state":"OH"},"type":"Feature","geometry":{"type":"Point","coordinates":[-84.55343,41.285444]}},{"properties":{"city":"Sherwood","zip":"43556","geo_score":0.59,"id":"abo4177k01i6","address":"11405 St Rt18","geo_precision":"street","state":"OH"},"type":"Feature","geometry":{"type":"Point","coordinates":[-84.553767,41.254812]}},{"properties":{"city":"Defiance","zip":"43512","geo_score":0.92,"id":"abo4179efbyr","address":"10543 Kleinhen","geo_precision":"range","state":"OH"},"type":"Feature","geometry":{"type":"Point","coordinates":[-84.467436,41.290184]}},{"properties":{"city":"Sherwood","zip":"43556","geo_score":0.932,"id":"abo416xaqct6","address":"09851 Openlander","geo_precision":"range","state":"OH"},"type":"Feature","geometry":{"type":"Point","coordinates":[-84.592158,41.29961]}},{"properties":{"city":"Sherwood","zip":"43556","geo_score":0.883,"id":"abo417as61u2","address":"12113 US 127","geo_precision":"range","state":"OH"},"type":"Feature","geometry":{"type":"Point","coordinates":[-84.553541,41.26577]}},{"properties":{"city":"Sherwood","zip":"43556","geo_score":0.61,"id":"abo417az45q8","address":"516 N.Harrison","geo_precision":"street","state":"OH"},"type":"Feature","geometry":{"type":"Point","coordinates":[-84.55343,41.285444]}},{"properties":{"city":"Sherwood","zip":"43556","geo_score":0.61,"id":"abo417afciu2","address":"402 N.Harrison","geo_precision":"street","state":"OH"},"type":"Feature","geometry":{"type":"Point","coordinates":[-84.55343,41.285444]}},{"properties":{"city":"Sherwood","zip":"43556","geo_score":0.61,"id":"abo416zu4m6n","address":"306 S.Harrison","geo_precision":"street","state":"OH"},"type":"Feature","geometry":{"type":"Point","coordinates":[-84.55343,41.285444]}},{"properties":{"city":"Sherwood","zip":"43556","geo_score":0.785,"id":"abo41767fprp","address":"100 Sunset","geo_precision":"street","state":"OH"},"type":"Feature","geometry":{"type":"Point","coordinates":[-84.555197,41.296378]}},{"properties":{"city":"Sherwood","zip":"43556","geo_score":0.585,"id":"abo417c0t385","address":"15118 Buckskin Rd","geo_precision":"zip","state":"OH"},"type":"Feature","geometry":{"type":"Point","coordinates":[-84.569545,41.318045]}},{"properties":{"city":"Sherwood","zip":"43556","geo_score":0.571,"id":"abo4176kmmq8","address":"115 N.Taylor","geo_precision":"street","state":"OH"},"type":"Feature","geometry":{"type":"Point","coordinates":[-84.552222,41.284565]}},{"properties":{"city":"Sherwood","zip":"43556","geo_score":0.61,"id":"abo4177t2wbb","address":"400 N.Harrison","geo_precision":"street","state":"OH"},"type":"Feature","geometry":{"type":"Point","coordinates":[-84.55343,41.285444]}},{"properties":{"city":"Sherwood","zip":"43556","geo_score":0.571,"id":"abo4171kq73i","address":"405 W.Maple","geo_precision":"street","state":"OH"},"type":"Feature","geometry":{"type":"Point","coordinates":[-84.552882,41.284571]}},{"properties":{"city":"Sherwood","zip":"43556","geo_score":1.0,"id":"abo4176x0ntk","address":"117 Barbara Ln.","geo_precision":"range","state":"OH"},"type":"Feature","geometry":{"type":"Point","coordinates":[-84.557537,41.297122]}},{"properties":{"city":"Sherwood","zip":"43556","geo_score":0.912,"id":"abo417ae9ch3","address":"15020 Rolland","geo_precision":"range","state":"OH"},"type":"Feature","geometry":{"type":"Point","coordinates":[-84.537411,41.279979]}},{"properties":{"city":"Sherwood","zip":"43556","geo_score":0.912,"id":"abo416wl5mao","address":"15046 Rolland","geo_precision":"range","state":"OH"},"type":"Feature","geometry":{"type":"Point","coordinates":[-84.534922,41.281179]}},{"properties":{"city":"Sherwood","zip":"43556","geo_score":0.61,"id":"abo416w6r6y6","address":"111 N.Harrison","geo_precision":"street","state":"OH"},"type":"Feature","geometry":{"type":"Point","coordinates":[-84.55343,41.285444]}},{"properties":{"city":"Sherwood","zip":"43556","geo_score":0.912,"id":"abo4173o6mas","address":"110 Elmwood","geo_precision":"range","state":"OH"},"type":"Feature","geometry":{"type":"Point","coordinates":[-84.553392,41.29948]}},{"properties":{"city":"Sherwood","zip":"43556","geo_score":0.571,"id":"abo4176vl7cz","address":"325 W.Maple","geo_precision":"street","state":"OH"},"type":"Feature","geometry":{"type":"Point","coordinates":[-84.552882,41.284571]}},{"properties":{"city":"Sherwood","zip":"43556","geo_score":0.571,"id":"abo4171dn6e8","address":"110 N. Oak","geo_precision":"street","state":"OH"},"type":"Feature","geometry":{"type":"Point","coordinates":[-84.548621,41.287084]}},{"properties":{"city":"Sherwood","zip":"43556","geo_score":0.61,"id":"abo4178ko5dm","address":"536 N.Harrison","geo_precision":"street","state":"OH"},"type":"Feature","geometry":{"type":"Point","coordinates":[-84.55343,41.285444]}},{"properties":{"city":"Cecil","zip":"45821","geo_score":0.708,"id":"abo4177rfdfl","address":"14533 Co Rd 8","geo_precision":"street","state":"OH"},"type":"Feature","geometry":{"type":"Point","coordinates":[-84.525219,41.252807]}},{"properties":{"city":"Sherwood","zip":"43556","geo_score":0.61,"id":"abo417al0xhr","address":"11415 St. Rt. 18","geo_precision":"range","state":"OH"},"type":"Feature","geometry":{"type":"Point","coordinates":[-84.553509,41.292059]}},{"properties":{"city":"Sherwood","zip":"43556","geo_score":0.625,"id":"abo417608ltl","address":"225 E. Maple","geo_precision":"street","state":"OH"},"type":"Feature","geometry":{"type":"Point","coordinates":[-84.552882,41.284571]}},{"properties":{"city":"Sherwood","zip":"43556","geo_score":0.625,"id":"abo4172hmhjk","address":"215 E.Maple","geo_precision":"street","state":"OH"},"type":"Feature","geometry":{"type":"Point","coordinates":[-84.552882,41.284571]}},{"properties":{"city":"Sherwood","zip":"43556","geo_score":0.69,"id":"abo417brlztb","address":"07075 US 127","geo_precision":"street","state":"OH"},"type":"Feature","geometry":{"type":"Point","coordinates":[-84.554154,41.340019]}},{"properties":{"city":"Cecil","zip":"45821","geo_score":0.725,"id":"abo4177uexss","address":"13027 Co Rd 232","geo_precision":"street","state":"OH"},"type":"Feature","geometry":{"type":"Point","coordinates":[-84.601742,41.244865]}},{"properties":{"city":"Sherwoood","zip":"43556","geo_score":0.909,"id":"abo41706po1h","address":"110 Central Ave.","geo_precision":"range","state":"OH"},"type":"Feature","geometry":{"type":"Point","coordinates":[-84.557169,41.284633]}},{"properties":{"city":"Sherwood","zip":"43556","geo_score":0.614,"id":"abo4178n3b5q","address":"225 N. Wilmont","geo_precision":"street","state":"OH"},"type":"Feature","geometry":{"type":"Point","coordinates":[-84.550974,41.286183]}},{"properties":{"city":"Sherwood","zip":"43556","geo_score":0.585,"id":"abo4175t5sfy","address":"15053 US24","geo_precision":"zip","state":"OH"},"type":"Feature","geometry":{"type":"Point","coordinates":[-84.569545,41.318045]}},{"properties":{"city":"Mark Center","zip":"43536","geo_score":0.512,"id":"abo41749xtvu","address":"10583 ST. RT. 18","geo_precision":"range","state":"OH"},"type":"Feature","geometry":{"type":"Point","coordinates":[-84.553509,41.292059]}},{"properties":{"city":"Mark Center","zip":"43536","geo_score":1.0,"id":"abo417aakp2w","address":"09981 Kitterman Rd","geo_precision":"range","state":"OH"},"type":"Feature","geometry":{"type":"Point","coordinates":[-84.63093,41.31806]}},{"properties":{"city":"Sherwood","zip":"43556","geo_score":0.857,"id":"abo4178xt9md","address":"130 S.Rock","geo_precision":"zip","state":"OH"},"type":"Feature","geometry":{"type":"Point","coordinates":[-84.569545,41.318045]}},{"properties":{"city":"Sherwood","zip":"43556","geo_score":0.932,"id":"abo416z58hk4","address":"09607 Openlander","geo_precision":"range","state":"OH"},"type":"Feature","geometry":{"type":"Point","coordinates":[-84.592144,41.305825]}},{"properties":{"city":"Defiance","zip":"43512","geo_score":0.585,"id":"abo4172bt597","address":"10615 Slough","geo_precision":"zip","state":"OH"},"type":"Feature","geometry":{"type":"Point","coordinates":[-84.299947,41.297826]}},{"properties":{"city":"Sherwood","zip":"43556","geo_score":0.61,"id":"abo417c153ms","address":"404 S.Harrison","geo_precision":"street","state":"OH"},"type":"Feature","geometry":{"type":"Point","coordinates":[-84.55343,41.285444]}},{"properties":{"city":"Sherwood","zip":"43556","geo_score":0.571,"id":"abo417akq62n","address":"210 W.Maple","geo_precision":"street","state":"OH"},"type":"Feature","geometry":{"type":"Point","coordinates":[-84.552882,41.284571]}},{"properties":{"city":"Sherwood","zip":"43556","geo_score":0.883,"id":"abo4178oo7ea","address":"107 Sunset","geo_precision":"range","state":"OH"},"type":"Feature","geometry":{"type":"Point","coordinates":[-84.555197,41.296378]}},{"properties":{"city":"Sherwood","zip":"43556","geo_score":0.571,"id":"abo416xb7icj","address":"130 N.Taylor","geo_precision":"street","state":"OH"},"type":"Feature","geometry":{"type":"Point","coordinates":[-84.552222,41.284565]}},{"properties":{"city":"Sherwood","zip":"43556","geo_score":0.902,"id":"abo4176j3pfs","address":"13762 St Rt 18","geo_precision":"range","state":"OH"},"type":"Feature","geometry":{"type":"Point","coordinates":[-84.561601,41.296386]}},{"properties":{"city":"Sherwood","zip":"43556","geo_score":0.878,"id":"abo417bu8jrn","address":"13929 Fountain St","geo_precision":"range","state":"OH"},"type":"Feature","geometry":{"type":"Point","coordinates":[-84.555918,41.281742]}},{"properties":{"city":"Sherwood","zip":"43556","geo_score":0.785,"id":"abo416wnszwp","address":"13404 St Rt18","geo_precision":"range","state":"OH"},"type":"Feature","geometry":{"type":"Point","coordinates":[-84.554552,41.254383]}},{"properties":{"city":"Sherwood","zip":"43556","geo_score":0.643,"id":"abo4174740xz","address":"135 E.Elm","geo_precision":"street","state":"OH"},"type":"Feature","geometry":{"type":"Point","coordinates":[-84.553429,41.287997]}},{"properties":{"city":"Sherwood","zip":"43556","geo_score":0.571,"id":"abo416zaps6l","address":"528.5 N.Harrison","geo_precision":"street","state":"OH"},"type":"Feature","geometry":{"type":"Point","coordinates":[-84.55343,41.285444]}},{"properties":{"city":"Sherwood","zip":"43556","geo_score":1.0,"id":"abo4179nlczc","address":"118 Barbara Ln.","geo_precision":"range","state":"OH"},"type":"Feature","geometry":{"type":"Point","coordinates":[-84.557687,41.297108]}},{"properties":{"city":"Sherwood","zip":"43556","geo_score":0.61,"id":"abo4173o91hj","address":"519 N.Harrison","geo_precision":"street","state":"OH"},"type":"Feature","geometry":{"type":"Point","coordinates":[-84.55343,41.285444]}},{"properties":{"city":"Defiance","zip":"43512","geo_score":0.585,"id":"abo4177zm71w","address":"17120 US24","geo_precision":"zip","state":"OH"},"type":"Feature","geometry":{"type":"Point","coordinates":[-84.299947,41.297826]}},{"properties":{"city":"Sherwood","zip":"43556","geo_score":0.912,"id":"abo41711u1my","address":"14615 Sausman","geo_precision":"range","state":"OH"},"type":"Feature","geometry":{"type":"Point","coordinates":[-84.541207,41.278074]}},{"properties":{"city":"Sherwood","zip":"43556","geo_score":0.585,"id":"abo416ycnpw6","address":"14322 Buckskin","geo_precision":"zip","state":"OH"},"type":"Feature","geometry":{"type":"Point","coordinates":[-84.569545,41.318045]}},{"properties":{"city":"Sherwood","zip":"43556","geo_score":0.785,"id":"abo416xl8rgg","address":"13765 St Rt18","geo_precision":"range","state":"OH"},"type":"Feature","geometry":{"type":"Point","coordinates":[-84.555339,41.254198]}},{"properties":{"city":"Sherwood","zip":"43556","geo_score":0.61,"id":"abo4172605qv","address":"520 N.Harrison","geo_precision":"street","state":"OH"},"type":"Feature","geometry":{"type":"Point","coordinates":[-84.55343,41.285444]}},{"properties":{"city":"Sherwood","zip":"43556","geo_score":0.625,"id":"abo4177tm2ad","address":"110 N.Inman","geo_precision":"street","state":"OH"},"type":"Feature","geometry":{"type":"Point","coordinates":[-84.555893,41.284611]}},{"properties":{"city":"Sherwood","zip":"43556","geo_score":0.61,"id":"abo4178acblc","address":"201 N.Harrison Apt.A","geo_precision":"street","state":"OH"},"type":"Feature","geometry":{"type":"Point","coordinates":[-84.55343,41.285444]}},{"properties":{"city":"Sherwood","zip":"43556","geo_score":0.912,"id":"abo416zy90gj","address":"115 Elmwood","geo_precision":"range","state":"OH"},"type":"Feature","geometry":{"type":"Point","coordinates":[-84.553389,41.29963]}},{"properties":{"city":"Sherwood","zip":"43556","geo_score":0.571,"id":"abo4170v4qm0","address":"310 W.Maple","geo_precision":"street","state":"OH"},"type":"Feature","geometry":{"type":"Point","coordinates":[-84.552882,41.284571]}},{"properties":{"city":"Sherwood","zip":"43556","geo_score":0.61,"id":"abo417713lbp","address":"302 S.Harrison","geo_precision":"street","state":"OH"},"type":"Feature","geometry":{"type":"Point","coordinates":[-84.55343,41.285444]}},{"properties":{"city":"Sherwood","zip":"43556","geo_score":0.571,"id":"abo4170fgcff","address":"205 W. Pearl St.","geo_precision":"street","state":"OH"},"type":"Feature","geometry":{"type":"Point","coordinates":[-84.552199,41.285424]}},{"properties":{"city":"Sherwood","zip":"43556","geo_score":1.0,"id":"abo4177o49ih","address":"12586 Huber Rd","geo_precision":"range","state":"OH"},"type":"Feature","geometry":{"type":"Point","coordinates":[-84.573922,41.33996]}},{"properties":{"city":"Defiance","zip":"43512","geo_score":0.912,"id":"abo4173a7kut","address":"18582 Switzer","geo_precision":"range","state":"OH"},"type":"Feature","geometry":{"type":"Point","coordinates":[-84.461768,41.285833]}},{"properties":{"city":"Defiance","zip":"43512","geo_score":0.92,"id":"abo416wotfbn","address":"12095 The Bend","geo_precision":"range","state":"OH"},"type":"Feature","geometry":{"type":"Point","coordinates":[-84.515306,41.267413]}},{"properties":{"city":"Sherwood","zip":"43556","geo_score":0.61,"id":"abo416xmfzfu","address":"121 S.Harrison","geo_precision":"street","state":"OH"},"type":"Feature","geometry":{"type":"Point","coordinates":[-84.55343,41.285444]}},{"properties":{"city":"Sherwood","zip":"43556","geo_score":0.932,"id":"abo4176r9zj6","address":"06649 Openlander","geo_precision":"range","state":"OH"},"type":"Feature","geometry":{"type":"Point","coordinates":[-84.591952,41.342852]}},{"properties":{"city":"Sherwood","zip":"43556","geo_score":0.87,"id":"abo4178htn1l","address":"14605 US 24","geo_precision":"range","state":"OH"},"type":"Feature","geometry":{"type":"Point","coordinates":[-84.543339,41.258299]}},{"properties":{"city":"Sherwood","zip":"43556","geo_score":1.0,"id":"abo416yli5kn","address":"13761 Fountain St.","geo_precision":"range","state":"OH"},"type":"Feature","geometry":{"type":"Point","coordinates":[-84.563972,41.281935]}},{"properties":{"city":"Sherwood","zip":"43556","geo_score":0.61,"id":"abo4172dtnen","address":"532 N.Harrison","geo_precision":"street","state":"OH"},"type":"Feature","geometry":{"type":"Point","coordinates":[-84.55343,41.285444]}},{"properties":{"city":"Sherwood","zip":"43556","geo_score":0.61,"id":"abo4173b7sqd","address":"114 N. Harrison Apt. B","geo_precision":"street","state":"OH"},"type":"Feature","geometry":{"type":"Point","coordinates":[-84.55343,41.285444]}},{"properties":{"city":"Sherwood","zip":"43556","geo_score":0.61,"id":"abo4177i4uce","address":"201 N.Harrison Apt.C","geo_precision":"street","state":"OH"},"type":"Feature","geometry":{"type":"Point","coordinates":[-84.55343,41.285444]}},{"properties":{"city":"Sherwood","zip":"43556","geo_score":0.92,"id":"abo416zl6pqv","address":"11681 Fountain","geo_precision":"range","state":"OH"},"type":"Feature","geometry":{"type":"Point","coordinates":[-84.594947,41.281829]}},{"properties":{"city":"Sherwood","zip":"43556","geo_score":0.878,"id":"abo4179xpeav","address":"13881 Fountain St.","geo_precision":"range","state":"OH"},"type":"Feature","geometry":{"type":"Point","coordinates":[-84.557119,41.281752]}},{"properties":{"city":"Sherwood","zip":"43556","geo_score":0.61,"id":"abo416xpw88o","address":"201 N.Harrison","geo_precision":"street","state":"OH"},"type":"Feature","geometry":{"type":"Point","coordinates":[-84.55343,41.285444]}},{"properties":{"city":"Defiance","zip":"43512","geo_score":1.0,"id":"abo4174xu9v2","address":"15822 Maumee St.","geo_precision":"range","state":"OH"},"type":"Feature","geometry":{"type":"Point","coordinates":[-84.516664,41.28483]}},{"properties":{"city":"Defiance","zip":"43512","geo_score":0.902,"id":"abo416vwwtc1","address":"15822 Maumee","geo_precision":"range","state":"OH"},"type":"Feature","geometry":{"type":"Point","coordinates":[-84.516664,41.28483]}},{"properties":{"city":"Sherwood","zip":"43556","geo_score":0.61,"id":"abo416zn5myy","address":"18360 St. Rt. 18","geo_precision":"range","state":"OH"},"type":"Feature","geometry":{"type":"Point","coordinates":[-84.553509,41.292059]}},{"properties":{"city":"Sherwood","zip":"43556","geo_score":0.912,"id":"abo4174d53u7","address":"14204 Sausman","geo_precision":"range","state":"OH"},"type":"Feature","geometry":{"type":"Point","coordinates":[-84.548867,41.278047]}},{"properties":{"city":"Sherwood","zip":"43556","geo_score":0.625,"id":"abo416zyjfds","address":"105 E.Maple","geo_precision":"street","state":"OH"},"type":"Feature","geometry":{"type":"Point","coordinates":[-84.552882,41.284571]}},{"properties":{"city":"Sherwood","zip":"43556","geo_score":0.927,"id":"abo41716hjmo","address":"10038 Behnfeldt","geo_precision":"range","state":"OH"},"type":"Feature","geometry":{"type":"Point","coordinates":[-84.572606,41.295823]}},{"properties":{"city":"Defiance","zip":"43512","geo_score":0.474,"id":"abo4174uzyt7","address":"16562 St Rt18","geo_precision":"street","state":"OH"},"type":"Feature","geometry":{"type":"Point","coordinates":[-84.352516,41.286485]}},{"properties":{"city":"Sherwood","zip":"43556","geo_score":0.912,"id":"abo41789jly9","address":"14755 Sausman","geo_precision":"range","state":"OH"},"type":"Feature","geometry":{"type":"Point","coordinates":[-84.542869,41.278092]}},{"properties":{"city":"Sherwood","zip":"43556","geo_score":0.92,"id":"abo416w8pcn5","address":"11139 Fountain","geo_precision":"range","state":"OH"},"type":"Feature","geometry":{"type":"Point","coordinates":[-84.604019,41.281805]}},{"properties":{"city":"Sherwood","zip":"43556","geo_score":0.61,"id":"abo416zh780e","address":"501 N.Harrison","geo_precision":"street","state":"OH"},"type":"Feature","geometry":{"type":"Point","coordinates":[-84.55343,41.285444]}},{"properties":{"city":"Sherwood","zip":"43556","geo_score":0.614,"id":"abo417bcva42","address":"215 N.Wilmont","geo_precision":"street","state":"OH"},"type":"Feature","geometry":{"type":"Point","coordinates":[-84.550974,41.286183]}},{"properties":{"city":"Sherwood","zip":"43556","geo_score":0.883,"id":"abo4171hqucb","address":"118 Sunset","geo_precision":"range","state":"OH"},"type":"Feature","geometry":{"type":"Point","coordinates":[-84.555276,41.29336]}},{"properties":{"city":"Sherwood","zip":"43556","geo_score":0.571,"id":"abo416vzdnl9","address":"305 W.Maple","geo_precision":"street","state":"OH"},"type":"Feature","geometry":{"type":"Point","coordinates":[-84.552882,41.284571]}},{"properties":{"city":"Sherwood","zip":"43556","geo_score":0.61,"id":"abo4177kyytl","address":"529 N.Harisson","geo_precision":"street","state":"OH"},"type":"Feature","geometry":{"type":"Point","coordinates":[-84.55343,41.285444]}},{"properties":{"city":"Sherwood","zip":"43556","geo_score":0.717,"id":"abo4170rr7ux","address":"19636 Switzer","geo_precision":"range","state":"OH"},"type":"Feature","geometry":{"type":"Point","coordinates":[-84.442838,41.287745]}},{"properties":{"city":"Sherwood","zip":"43556","geo_score":0.571,"id":"abo41759o8sz","address":"425 W.Maple","geo_precision":"street","state":"OH"},"type":"Feature","geometry":{"type":"Point","coordinates":[-84.552882,41.284571]}},{"properties":{"city":"Sherwood","zip":"43556","geo_score":0.571,"id":"abo4178pvjm6","address":"425 W. Maple","geo_precision":"street","state":"OH"},"type":"Feature","geometry":{"type":"Point","coordinates":[-84.552882,41.284571]}},{"properties":{"city":"Sherwood","zip":"43556","geo_score":0.614,"id":"abo4177w1ygf","address":"225 N.Wilmont","geo_precision":"street","state":"OH"},"type":"Feature","geometry":{"type":"Point","coordinates":[-84.550974,41.286183]}},{"properties":{"city":"Sherwood","zip":"43556","geo_score":0.643,"id":"abo416wnmwgl","address":"335 E. Elm","geo_precision":"street","state":"OH"},"type":"Feature","geometry":{"type":"Point","coordinates":[-84.553429,41.287997]}},{"properties":{"city":"Sherwood","zip":"43556","geo_score":0.756,"id":"abo4172p1nn9","address":"330 E Elm","geo_precision":"range","state":"OH"},"type":"Feature","geometry":{"type":"Point","coordinates":[-84.54963,41.288008]}},{"properties":{"city":"Sherwood","zip":"43556","geo_score":0.854,"id":"abo4175zqh83","address":"08036 Coy","geo_precision":"range","state":"OH"},"type":"Feature","geometry":{"type":"Point","coordinates":[-84.544838,41.325068]}},{"properties":{"city":"Cecil","zip":"45821","geo_score":0.585,"id":"abo4177oazq5","address":"17901 US127","geo_precision":"zip","state":"OH"},"type":"Feature","geometry":{"type":"Point","coordinates":[-84.571519,41.223404]}},{"properties":{"city":"Sherwood","zip":"43556","geo_score":0.61,"id":"abo4171zr32c","address":"111 N.Harrison","geo_precision":"street","state":"OH"},"type":"Feature","geometry":{"type":"Point","coordinates":[-84.55343,41.285444]}},{"properties":{"city":"Defiance","zip":"43512","geo_score":1.0,"id":"abo416zavj8k","address":"10818 The Bend Rd","geo_precision":"range","state":"OH"},"type":"Feature","geometry":{"type":"Point","coordinates":[-84.515767,41.284388]}},{"properties":{"city":"Sherwood","zip":"43556","geo_score":0.592,"id":"abo416w7yhc2","address":"12904 St Rt18","geo_precision":"street","state":"OH"},"type":"Feature","geometry":{"type":"Point","coordinates":[-84.553767,41.254812]}},{"properties":{"city":"Sherwood","zip":"43556","geo_score":0.61,"id":"abo41796yj4g","address":"410 N.Harrison","geo_precision":"street","state":"OH"},"type":"Feature","geometry":{"type":"Point","coordinates":[-84.55343,41.285444]}},{"properties":{"city":"Sherwood","zip":"43556","geo_score":0.61,"id":"abo416xgxhrt","address":"506 N.Harrison","geo_precision":"street","state":"OH"},"type":"Feature","geometry":{"type":"Point","coordinates":[-84.55343,41.285444]}},{"properties":{"city":"Sherwood","zip":"43556","geo_score":0.571,"id":"abo417869aw6","address":"230 W.Vine","geo_precision":"street","state":"OH"},"type":"Feature","geometry":{"type":"Point","coordinates":[-84.55467,41.287091]}},{"properties":{"city":"Sherwood","zip":"43556","geo_score":0.807,"id":"abo416y4e6p5","address":"10891 Fountain St.","geo_precision":"street","state":"OH"},"type":"Feature","geometry":{"type":"Point","coordinates":[-84.600698,41.281746]}},{"properties":{"city":"Sherwood","zip":"43556","geo_score":0.878,"id":"abo4178jflyk","address":"13791 Fountain St.","geo_precision":"range","state":"OH"},"type":"Feature","geometry":{"type":"Point","coordinates":[-84.55973,41.28176]}},{"properties":{"city":"Sherwood","zip":"43556","geo_score":0.571,"id":"abo416xwsiqb","address":"240 W.Elm","geo_precision":"street","state":"OH"},"type":"Feature","geometry":{"type":"Point","coordinates":[-84.553429,41.287997]}},{"properties":{"city":"Defiance","zip":"43512","geo_score":0.927,"id":"abo417anzc2x","address":"17023 Shoemaker","geo_precision":"range","state":"OH"},"type":"Feature","geometry":{"type":"Point","coordinates":[-84.47715,41.267964]}},{"properties":{"city":"Sherwood","zip":"43556","geo_score":0.725,"id":"abo4172stmto","address":"15218 Bradshaw","geo_precision":"range","state":"OH"},"type":"Feature","geometry":{"type":"Point","coordinates":[-84.532013,41.339839]}},{"properties":{"city":"Sherwood","zip":"43556","geo_score":0.663,"id":"abo417362n1k","address":"15810 St Rt18","geo_precision":"range","state":"OH"},"type":"Feature","geometry":{"type":"Point","coordinates":[-84.518491,41.266679]}},{"properties":{"city":"Sherwood","zip":"43556","geo_score":0.61,"id":"abo4176w8m2q","address":"15810 St. Rt. 18","geo_precision":"range","state":"OH"},"type":"Feature","geometry":{"type":"Point","coordinates":[-84.553509,41.292059]}},{"properties":{"city":"Sherwood","zip":"43556","geo_score":0.932,"id":"abo416woc6u1","address":"07678 Openlander","geo_precision":"range","state":"OH"},"type":"Feature","geometry":{"type":"Point","coordinates":[-84.592168,41.335011]}},{"properties":{"city":"Defiance","zip":"43556","geo_score":0.679,"id":"abo4177aso76","address":"15974 Main","geo_precision":"range","state":"OH"},"type":"Feature","geometry":{"type":"Point","coordinates":[-84.515858,41.283841]}},{"properties":{"city":"Defiance","zip":"43512","geo_score":0.585,"id":"abo416watdez","address":"10262 Slough Rd.","geo_precision":"zip","state":"OH"},"type":"Feature","geometry":{"type":"Point","coordinates":[-84.299947,41.297826]}},{"properties":{"city":"Defiance","zip":"43512","geo_score":0.837,"id":"abo416xmhucy","address":"10841 The Bend Rd","geo_precision":"street","state":"OH"},"type":"Feature","geometry":{"type":"Point","coordinates":[-84.515693,41.283909]}},{"properties":{"city":"Sherwood","zip":"43556","geo_score":0.883,"id":"abo416wc2e1h","address":"09915 US 127","geo_precision":"range","state":"OH"},"type":"Feature","geometry":{"type":"Point","coordinates":[-84.553297,41.301188]}},{"properties":{"city":"Defiance","zip":"43512","geo_score":0.585,"id":"abo417bkkx54","address":"11196 Jacobs Rd","geo_precision":"zip","state":"OH"},"type":"Feature","geometry":{"type":"Point","coordinates":[-84.299947,41.297826]}},{"properties":{"city":"Sherwood","zip":"43556","geo_score":0.963,"id":"abo4176dopp6","address":"11216 Williams Center Cecil","geo_precision":"range","state":"OH"},"type":"Feature","geometry":{"type":"Point","coordinates":[-84.611055,41.27894]}},{"properties":{"city":"Sherwood","zip":"43556","geo_score":0.785,"id":"abo416x6yt1g","address":"13608 St Rt18","geo_precision":"range","state":"OH"},"type":"Feature","geometry":{"type":"Point","coordinates":[-84.554964,41.254201]}},{"properties":{"city":"Sherwood","zip":"43556","geo_score":1.0,"id":"abo4173qt1lm","address":"13823 Fountain St.","geo_precision":"range","state":"OH"},"type":"Feature","geometry":{"type":"Point","coordinates":[-84.563437,41.281925]}},{"properties":{"city":"Sherwood","zip":"43556","geo_score":0.585,"id":"abo416yk72an","address":"09547 Flickinger","geo_precision":"zip","state":"OH"},"type":"Feature","geometry":{"type":"Point","coordinates":[-84.569545,41.318045]}},{"properties":{"city":"Ney","zip":"43549","geo_score":0.875,"id":"abo417bdvpq7","address":"15417 Moon","geo_precision":"range","state":"OH"},"type":"Feature","geometry":{"type":"Point","coordinates":[-84.529615,41.347281]}},{"properties":{"city":"Sherwood","zip":"43556","geo_score":0.585,"id":"abo417bg5k38","address":"15481 Hickory","geo_precision":"zip","state":"OH"},"type":"Feature","geometry":{"type":"Point","coordinates":[-84.569545,41.318045]}},{"properties":{"city":"Sherwood","zip":"43556","geo_score":1.0,"id":"abo4170oc8x0","address":"13224 Fountain St.","geo_precision":"range","state":"OH"},"type":"Feature","geometry":{"type":"Point","coordinates":[-84.569494,41.281841]}},{"properties":{"city":"Sherwood","zip":"43556","geo_score":1.0,"id":"abo4178op3vf","address":"15264 Rolland Rd","geo_precision":"range","state":"OH"},"type":"Feature","geometry":{"type":"Point","coordinates":[-84.533951,41.281622]}},{"properties":{"city":"Sherwood","zip":"43556","geo_score":0.756,"id":"abo4171n9um8","address":"09827 Mulligans Bluff","geo_precision":"range","state":"OH"},"type":"Feature","geometry":{"type":"Point","coordinates":[-84.496711,41.298875]}},{"properties":{"city":"Sherwood","zip":"43556","geo_score":0.727,"id":"abo4172vo7pw","address":"14979 Rd424","geo_precision":"range","state":"OH"},"type":"Feature","geometry":{"type":"Point","coordinates":[-84.541415,41.259001]}},{"properties":{"city":"Sherwood","zip":"43556","geo_score":0.61,"id":"abo4174pc5a2","address":"518 N.Harrison","geo_precision":"street","state":"OH"},"type":"Feature","geometry":{"type":"Point","coordinates":[-84.55343,41.285444]}},{"properties":{"city":"Sherwood","zip":"43556","geo_score":0.92,"id":"abo417atkhdj","address":"10865 The Bend","geo_precision":"range","state":"OH"},"type":"Feature","geometry":{"type":"Point","coordinates":[-84.515598,41.28351]}},{"properties":{"city":"Sherwood","zip":"43556","geo_score":0.625,"id":"abo416ymfoo9","address":"118 E.Cedar","geo_precision":"street","state":"OH"},"type":"Feature","geometry":{"type":"Point","coordinates":[-84.553412,41.283632]}},{"properties":{"city":"Sherwood","zip":"43556","geo_score":0.927,"id":"abo4170frjjo","address":"11986 Behnfeldt","geo_precision":"range","state":"OH"},"type":"Feature","geometry":{"type":"Point","coordinates":[-84.572636,41.267539]}},{"properties":{"city":"Sherwood","zip":"43556","geo_score":0.619,"id":"abo4174yq4y1","address":"120 S.Taylor","geo_precision":"street","state":"OH"},"type":"Feature","geometry":{"type":"Point","coordinates":[-84.552222,41.284565]}},{"properties":{"city":"Sherwood","zip":"43556","geo_score":0.912,"id":"abo4178ehlut","address":"12684 Jericho","geo_precision":"range","state":"OH"},"type":"Feature","geometry":{"type":"Point","coordinates":[-84.572643,41.267264]}},{"properties":{"city":"Sherwood","zip":"43556","geo_score":0.932,"id":"abo41727tgdd","address":"09488 Openlander","geo_precision":"range","state":"OH"},"type":"Feature","geometry":{"type":"Point","coordinates":[-84.592218,41.305966]}},{"properties":{"city":"Sherwood","zip":"43556","geo_score":0.625,"id":"abo417b5n2w4","address":"300 E. Pearl","geo_precision":"street","state":"OH"},"type":"Feature","geometry":{"type":"Point","coordinates":[-84.552199,41.285424]}},{"properties":{"city":"Sherwood","zip":"43556","geo_score":0.785,"id":"abo416wg0otx","address":"13949 St Rt18","geo_precision":"range","state":"OH"},"type":"Feature","geometry":{"type":"Point","coordinates":[-84.55571,41.254034]}},{"properties":{"city":"Sherwood","zip":"43556","geo_score":0.633,"id":"abo4175v6jq8","address":"200 E.Vine","geo_precision":"street","state":"OH"},"type":"Feature","geometry":{"type":"Point","coordinates":[-84.55467,41.287091]}},{"properties":{"city":"Defiance","zip":"43512","geo_score":0.927,"id":"abo4172xcf0o","address":"16540 Mud Creek","geo_precision":"range","state":"OH"},"type":"Feature","geometry":{"type":"Point","coordinates":[-84.503289,41.331215]}},{"properties":{"city":"Sherwood","zip":"43556","geo_score":0.761,"id":"abo4177uykpl","address":"101 Sunset","geo_precision":"street","state":"OH"},"type":"Feature","geometry":{"type":"Point","coordinates":[-84.555197,41.296378]}},{"properties":{"city":"Sherwood","zip":"43556","geo_score":0.61,"id":"abo416wce30m","address":"201 N.Harrison Apt.c","geo_precision":"street","state":"OH"},"type":"Feature","geometry":{"type":"Point","coordinates":[-84.55343,41.285444]}},{"properties":{"city":"Sherwood","zip":"43556","geo_score":0.571,"id":"abo416zk9eks","address":"110 W.Elm","geo_precision":"street","state":"OH"},"type":"Feature","geometry":{"type":"Point","coordinates":[-84.553429,41.287997]}},{"properties":{"city":"Sherwood","zip":"43556","geo_score":0.912,"id":"abo416zcti21","address":"105 Elmwood","geo_precision":"range","state":"OH"},"type":"Feature","geometry":{"type":"Point","coordinates":[-84.553389,41.29963]}},{"properties":{"city":"Sherwood","zip":"43556","geo_score":1.0,"id":"abo4179d96pk","address":"13264 Fountain Street","geo_precision":"range","state":"OH"},"type":"Feature","geometry":{"type":"Point","coordinates":[-84.568756,41.281834]}},{"properties":{"city":"Sherwood","zip":"43556","geo_score":0.912,"id":"abo416zvqcca","address":"14863 Sausman","geo_precision":"range","state":"OH"},"type":"Feature","geometry":{"type":"Point","coordinates":[-84.539403,41.278062]}},{"properties":{"city":"Sherwood","zip":"43556","geo_score":0.585,"id":"abo41703mk6n","address":"12980 Buckskin","geo_precision":"zip","state":"OH"},"type":"Feature","geometry":{"type":"Point","coordinates":[-84.569545,41.318045]}},{"properties":{"city":"Defiance","zip":"43512","geo_score":0.92,"id":"abo416weqzsi","address":"10643 Kleinhen","geo_precision":"range","state":"OH"},"type":"Feature","geometry":{"type":"Point","coordinates":[-84.46744,41.2895]}},{"properties":{"city":"Sherwood","zip":"43556","geo_score":0.633,"id":"abo41724gbs1","address":"305 E. Vine","geo_precision":"street","state":"OH"},"type":"Feature","geometry":{"type":"Point","coordinates":[-84.55467,41.287091]}},{"properties":{"city":"Sherwood","zip":"43556","geo_score":0.756,"id":"abo4173pk4y8","address":"9727 Mulligans Bluff","geo_precision":"range","state":"OH"},"type":"Feature","geometry":{"type":"Point","coordinates":[-84.496699,41.300116]}},{"properties":{"city":"Sherwood","zip":"43556","geo_score":0.625,"id":"abo4172j0r73","address":"303 E.Maple","geo_precision":"street","state":"OH"},"type":"Feature","geometry":{"type":"Point","coordinates":[-84.552882,41.284571]}},{"properties":{"city":"Sherwood","zip":"43556","geo_score":0.625,"id":"abo417bxwk3n","address":"105 E.Cedar","geo_precision":"street","state":"OH"},"type":"Feature","geometry":{"type":"Point","coordinates":[-84.553412,41.283632]}},{"properties":{"city":"Sherwood","zip":"43556","geo_score":0.625,"id":"abo4177ow9qw","address":"310 E. Maple","geo_precision":"street","state":"OH"},"type":"Feature","geometry":{"type":"Point","coordinates":[-84.552882,41.284571]}},{"properties":{"city":"Sherwood","zip":"43556","geo_score":0.932,"id":"abo4174zb0x7","address":"09864 Openlander","geo_precision":"range","state":"OH"},"type":"Feature","geometry":{"type":"Point","coordinates":[-84.592302,41.304617]}},{"properties":{"city":"Sherwood","zip":"43556","geo_score":1.0,"id":"abo416y4iehm","address":"13816 Fountain St.","geo_precision":"range","state":"OH"},"type":"Feature","geometry":{"type":"Point","coordinates":[-84.558945,41.281758]}},{"properties":{"city":"Defiance","zip":"43512","geo_score":0.585,"id":"abo417bpegcb","address":"18129 Buckskin","geo_precision":"zip","state":"OH"},"type":"Feature","geometry":{"type":"Point","coordinates":[-84.299947,41.297826]}},{"properties":{"city":"Sherwood","zip":"43556","geo_score":0.633,"id":"abo4177k2j2j","address":"325 E.Vine","geo_precision":"street","state":"OH"},"type":"Feature","geometry":{"type":"Point","coordinates":[-84.55467,41.287091]}},{"properties":{"city":"Sherwood","zip":"43556","geo_score":0.785,"id":"abo417725t22","address":"13177 St Rt18","geo_precision":"range","state":"OH"},"type":"Feature","geometry":{"type":"Point","coordinates":[-84.554153,41.254723]}},{"properties":{"city":"Sherwood","zip":"43556","geo_score":0.571,"id":"abo4178fmd93","address":"105 W.Pearl","geo_precision":"street","state":"OH"},"type":"Feature","geometry":{"type":"Point","coordinates":[-84.552199,41.285424]}},{"properties":{"city":"Sherwood","zip":"43556","geo_score":0.61,"id":"abo416wmarjd","address":"102 S.Harrison","geo_precision":"street","state":"OH"},"type":"Feature","geometry":{"type":"Point","coordinates":[-84.55343,41.285444]}},{"properties":{"city":"Sherwood","zip":"43556","geo_score":0.823,"id":"abo4172dz5uf","address":"10273 The Bend","geo_precision":"street","state":"OH"},"type":"Feature","geometry":{"type":"Point","coordinates":[-84.515661,41.286701]}},{"properties":{"city":"Sherwood","zip":"43556","geo_score":0.785,"id":"abo416xy0wnk","address":"13230 St Rt18","geo_precision":"range","state":"OH"},"type":"Feature","geometry":{"type":"Point","coordinates":[-84.554201,41.254538]}},{"properties":{"city":"Defiance","zip":"43512","geo_score":0.585,"id":"abo4170w4viv","address":"10384 Slough","geo_precision":"zip","state":"OH"},"type":"Feature","geometry":{"type":"Point","coordinates":[-84.299947,41.297826]}},{"properties":{"city":"Sherwood","zip":"43556","geo_score":0.785,"id":"abo4179mebzq","address":"124 Sunset","geo_precision":"range","state":"OH"},"type":"Feature","geometry":{"type":"Point","coordinates":[-84.555161,41.29286]}},{"properties":{"city":"Defiance","zip":"43512","geo_score":0.902,"id":"abo4170bs9f8","address":"18434 St Rt 18","geo_precision":"range","state":"OH"},"type":"Feature","geometry":{"type":"Point","coordinates":[-84.468308,41.296926]}},{"properties":{"city":"Defiance","zip":"43512","geo_score":0.902,"id":"abo416xx1dd1","address":"18399 St Rt 18","geo_precision":"range","state":"OH"},"type":"Feature","geometry":{"type":"Point","coordinates":[-84.467693,41.297088]}},{"properties":{"city":"Ney","zip":"43549","geo_score":0.92,"id":"abo416wga2m3","address":"15266 Bradshaw","geo_precision":"range","state":"OH"},"type":"Feature","geometry":{"type":"Point","coordinates":[-84.531201,41.339834]}},{"properties":{"city":"Sherwood","zip":"43549","geo_score":0.717,"id":"abo4173ukfsh","address":"14927 Rolland","geo_precision":"range","state":"OH"},"type":"Feature","geometry":{"type":"Point","coordinates":[-84.535046,41.281185]}},{"properties":{"city":"Defiance","zip":"43512","geo_score":0.902,"id":"abo41751dqcr","address":"15242 Maumee","geo_precision":"range","state":"OH"},"type":"Feature","geometry":{"type":"Point","coordinates":[-84.51899,41.28513]}},{"properties":{"city":"Sherwood","zip":"43556","geo_score":0.59,"id":"abo417388rx3","address":"12211 St Rt18","geo_precision":"street","state":"OH"},"type":"Feature","geometry":{"type":"Point","coordinates":[-84.553767,41.254812]}},{"properties":{"city":"Sherwood","zip":"43556","geo_score":0.619,"id":"abo416zv4jni","address":"105 S.Taylor","geo_precision":"street","state":"OH"},"type":"Feature","geometry":{"type":"Point","coordinates":[-84.552222,41.284565]}},{"properties":{"city":"Sherwood","zip":"43556","geo_score":0.61,"id":"abo41782o22n","address":"410 S.Harrison","geo_precision":"street","state":"OH"},"type":"Feature","geometry":{"type":"Point","coordinates":[-84.55343,41.285444]}},{"properties":{"city":"Sherwood","zip":"43556","geo_score":0.883,"id":"abo4176gg3lw","address":"11809 US 127","geo_precision":"range","state":"OH"},"type":"Feature","geometry":{"type":"Point","coordinates":[-84.553428,41.274095]}},{"properties":{"city":"Defiance","zip":"43512","geo_score":0.726,"id":"abo417auh9bm","address":"10509 The Bend","geo_precision":"street","state":"OH"},"type":"Feature","geometry":{"type":"Point","coordinates":[-84.515701,41.28487]}},{"properties":{"city":"Sherwood","zip":"43556","geo_score":0.61,"id":"abo417380q0m","address":"403 S.Harrison","geo_precision":"street","state":"OH"},"type":"Feature","geometry":{"type":"Point","coordinates":[-84.55343,41.285444]}},{"properties":{"city":"Sherwood","zip":"43556","geo_score":0.61,"id":"abo4175h2brr","address":"406 N.Harrison","geo_precision":"street","state":"OH"},"type":"Feature","geometry":{"type":"Point","coordinates":[-84.55343,41.285444]}},{"properties":{"city":"Sherwood","zip":"43556","geo_score":0.585,"id":"abo41745zias","address":"08610 US127","geo_precision":"zip","state":"OH"},"type":"Feature","geometry":{"type":"Point","coordinates":[-84.569545,41.318045]}},{"properties":{"city":"Cecil","zip":"45821","geo_score":1.0,"id":"abo4177rimv9","address":"14724 RD 8","geo_precision":"range","state":"OH"},"type":"Feature","geometry":{"type":"Point","coordinates":[-84.538249,41.252677]}},{"properties":{"city":"Sherwood","zip":"43556","geo_score":0.643,"id":"abo417b0wnv1","address":"105 S.Oak","geo_precision":"street","state":"OH"},"type":"Feature","geometry":{"type":"Point","coordinates":[-84.548621,41.287084]}},{"properties":{"city":"Sherwood","zip":"43556","geo_score":0.571,"id":"abo4172izdqn","address":"215 W.Vine","geo_precision":"street","state":"OH"},"type":"Feature","geometry":{"type":"Point","coordinates":[-84.55467,41.287091]}},{"properties":{"city":"Sherwood","zip":"43556","geo_score":0.571,"id":"abo4170r51i4","address":"310 W.Vine","geo_precision":"street","state":"OH"},"type":"Feature","geometry":{"type":"Point","coordinates":[-84.55467,41.287091]}},{"properties":{"city":"Sherwood","zip":"43556","geo_score":0.883,"id":"abo417971ucd","address":"106 Sunset","geo_precision":"range","state":"OH"},"type":"Feature","geometry":{"type":"Point","coordinates":[-84.555197,41.296378]}},{"properties":{"city":"Sherwood","zip":"43556","geo_score":0.912,"id":"abo4174u5ud3","address":"15785 Downing","geo_precision":"range","state":"OH"},"type":"Feature","geometry":{"type":"Point","coordinates":[-84.516856,41.318331]}},{"properties":{"city":"Sherwood","zip":"43556","geo_score":0.61,"id":"abo417bl635e","address":"206 S.Harrison","geo_precision":"street","state":"OH"},"type":"Feature","geometry":{"type":"Point","coordinates":[-84.55343,41.285444]}},{"properties":{"city":"Sherwood","zip":"43556","geo_score":0.571,"id":"abo4175pc7ma","address":"225 W.Elm","geo_precision":"street","state":"OH"},"type":"Feature","geometry":{"type":"Point","coordinates":[-84.553429,41.287997]}},{"properties":{"city":"Sherwood","zip":"43556","geo_score":0.61,"id":"abo417945k91","address":"533 N.Harrison","geo_precision":"street","state":"OH"},"type":"Feature","geometry":{"type":"Point","coordinates":[-84.55343,41.285444]}},{"properties":{"city":"Sherwood","zip":"43556","geo_score":0.643,"id":"abo4174w7faz","address":"110 S. Oak","geo_precision":"street","state":"OH"},"type":"Feature","geometry":{"type":"Point","coordinates":[-84.548621,41.287084]}},{"properties":{"city":"Sherwood","zip":"43556","geo_score":0.87,"id":"abo4176e78tx","address":"13902 US 24","geo_precision":"range","state":"OH"},"type":"Feature","geometry":{"type":"Point","coordinates":[-84.555557,41.253938]}},{"properties":{"city":"Sherwood","zip":"43556","geo_score":0.61,"id":"abo416xgjy28","address":"528 N.Harrison","geo_precision":"street","state":"OH"},"type":"Feature","geometry":{"type":"Point","coordinates":[-84.55343,41.285444]}},{"properties":{"city":"Sherwood","zip":"43556","geo_score":0.72,"id":"abo4170ffq8b","address":"118 E Cedar","geo_precision":"range","state":"OH"},"type":"Feature","geometry":{"type":"Point","coordinates":[-84.552375,41.283563]}},{"properties":{"city":"Sherwood","zip":"43556","geo_score":0.61,"id":"abo41792m1hp","address":"526 N.Harrison","geo_precision":"street","state":"OH"},"type":"Feature","geometry":{"type":"Point","coordinates":[-84.55343,41.285444]}},{"properties":{"city":"Sherwood","zip":"43556","geo_score":0.585,"id":"abo416wykkry","address":"14356 Buckskin","geo_precision":"zip","state":"OH"},"type":"Feature","geometry":{"type":"Point","coordinates":[-84.569545,41.318045]}},{"properties":{"city":"Sherwood","zip":"43556","geo_score":0.857,"id":"abo416yij9ia","address":"115 S.Rock","geo_precision":"zip","state":"OH"},"type":"Feature","geometry":{"type":"Point","coordinates":[-84.569545,41.318045]}},{"properties":{"city":"Defiance","zip":"43512","geo_score":0.585,"id":"abo41758varw","address":"17639 Buckskin","geo_precision":"zip","state":"OH"},"type":"Feature","geometry":{"type":"Point","coordinates":[-84.299947,41.297826]}},{"properties":{"city":"Sherwood","zip":"43556","geo_score":0.785,"id":"abo417a4iln2","address":"15989 St Rt18","geo_precision":"range","state":"OH"},"type":"Feature","geometry":{"type":"Point","coordinates":[-84.524581,41.264791]}},{"properties":{"city":"Sherwood","zip":"43556","geo_score":0.89,"id":"abo417axjryk","address":"14432 Blair","geo_precision":"range","state":"OH"},"type":"Feature","geometry":{"type":"Point","coordinates":[-84.546541,41.268245]}},{"properties":{"city":"Sherwood","zip":"43556","geo_score":0.625,"id":"abo41778n6te","address":"100 S.Inman","geo_precision":"street","state":"OH"},"type":"Feature","geometry":{"type":"Point","coordinates":[-84.555893,41.284611]}},{"properties":{"city":"Sherwood","zip":"43556","geo_score":0.585,"id":"abo4179mz78c","address":"09902 US127","geo_precision":"zip","state":"OH"},"type":"Feature","geometry":{"type":"Point","coordinates":[-84.569545,41.318045]}},{"properties":{"city":"Sherwood","zip":"43556","geo_score":1.0,"id":"abo4177bocn2","address":"116 Barbara Ln.","geo_precision":"range","state":"OH"},"type":"Feature","geometry":{"type":"Point","coordinates":[-84.557687,41.297125]}},{"properties":{"city":"Sherwood","zip":"43556","geo_score":0.625,"id":"abo41768mmdw","address":"205 E.Maple","geo_precision":"street","state":"OH"},"type":"Feature","geometry":{"type":"Point","coordinates":[-84.552882,41.284571]}},{"properties":{"city":"Sherwood","zip":"43556","geo_score":0.854,"id":"abo4175lneuf","address":"09269 Coy","geo_precision":"range","state":"OH"},"type":"Feature","geometry":{"type":"Point","coordinates":[-84.543126,41.304734]}},{"properties":{"city":"Sherwood","zip":"43556","geo_score":0.571,"id":"abo4171dtpm6","address":"330 W.Maple","geo_precision":"street","state":"OH"},"type":"Feature","geometry":{"type":"Point","coordinates":[-84.552882,41.284571]}},{"properties":{"city":"Sherwood","zip":"43556","geo_score":0.932,"id":"abo416zcpe9e","address":"11014 Openlander","geo_precision":"range","state":"OH"},"type":"Feature","geometry":{"type":"Point","coordinates":[-84.592003,41.275396]}},{"properties":{"city":"Sherwood","zip":"43556","geo_score":0.92,"id":"abo416x07hjv","address":"11768 Fountain","geo_precision":"range","state":"OH"},"type":"Feature","geometry":{"type":"Point","coordinates":[-84.596613,41.281675]}},{"properties":{"city":"Sherwood","zip":"43556","geo_score":0.614,"id":"abo417bl6dcc","address":"210 N.Wilmont","geo_precision":"street","state":"OH"},"type":"Feature","geometry":{"type":"Point","coordinates":[-84.550974,41.286183]}},{"properties":{"city":"Mark Center","zip":"43536","geo_score":0.61,"id":"abo416z4q5g9","address":"10718 Fountain St.","geo_precision":"street","state":"OH"},"type":"Feature","geometry":{"type":"Point","coordinates":[-84.600698,41.281746]}},{"properties":{"city":"Sherwood","zip":"43556","geo_score":0.585,"id":"abo416wu7md6","address":"12113 US127","geo_precision":"zip","state":"OH"},"type":"Feature","geometry":{"type":"Point","coordinates":[-84.569545,41.318045]}},{"properties":{"city":"Sherwood","zip":"43556","geo_score":0.571,"id":"abo4171467d2","address":"125 N.Oak","geo_precision":"street","state":"OH"},"type":"Feature","geometry":{"type":"Point","coordinates":[-84.548621,41.287084]}},{"properties":{"city":"Sherwood","zip":"43556","geo_score":0.815,"id":"abo4173orhwf","address":"200 Wilmont","geo_precision":"street","state":"OH"},"type":"Feature","geometry":{"type":"Point","coordinates":[-84.550978,41.286614]}},{"properties":{"city":"Defiance","zip":"43512","geo_score":0.902,"id":"abo4171oduol","address":"16594 Mudcreek","geo_precision":"range","state":"OH"},"type":"Feature","geometry":{"type":"Point","coordinates":[-84.504468,41.331197]}},{"properties":{"city":"Defiance","zip":"43512","geo_score":0.585,"id":"abo4176rfxxd","address":"09578 Flickinger","geo_precision":"zip","state":"OH"},"type":"Feature","geometry":{"type":"Point","coordinates":[-84.299947,41.297826]}},{"properties":{"city":"Cecil","zip":"45821","geo_score":0.585,"id":"abo41785gdmq","address":"18474 US127","geo_precision":"zip","state":"OH"},"type":"Feature","geometry":{"type":"Point","coordinates":[-84.571519,41.223404]}},{"properties":{"city":"Defiance","zip":"43556","geo_score":0.61,"id":"abo416zsvgs9","address":"15242 Maumee","geo_precision":"street","state":"OH"},"type":"Feature","geometry":{"type":"Point","coordinates":[-84.547575,41.285326]}},{"properties":{"city":"Sherwood","zip":"43556","geo_score":0.61,"id":"abo4178uy27p","address":"405 S.Harrison","geo_precision":"street","state":"OH"},"type":"Feature","geometry":{"type":"Point","coordinates":[-84.55343,41.285444]}},{"properties":{"city":"Sherwood","zip":"43556","geo_score":0.571,"id":"abo4177dcqu3","address":"210 N.Taylor","geo_precision":"street","state":"OH"},"type":"Feature","geometry":{"type":"Point","coordinates":[-84.552222,41.284565]}},{"properties":{"city":"Sherwood","zip":"43556","geo_score":0.61,"id":"abo4174h8no6","address":"121 N. Harrison Apt 2","geo_precision":"street","state":"OH"},"type":"Feature","geometry":{"type":"Point","coordinates":[-84.55343,41.285444]}},{"properties":{"city":"Sherwood","zip":"43556","geo_score":0.585,"id":"abo416vra3zp","address":"14440 Buckskin Rd.","geo_precision":"zip","state":"OH"},"type":"Feature","geometry":{"type":"Point","coordinates":[-84.569545,41.318045]}},{"properties":{"city":"Sherwood","zip":"43556","geo_score":1.0,"id":"abo416vsxxk9","address":"104 Barbara Ln","geo_precision":"range","state":"OH"},"type":"Feature","geometry":{"type":"Point","coordinates":[-84.557685,41.29723]}},{"properties":{"city":"Sherwood","zip":"43556","geo_score":0.61,"id":"abo417ai98wy","address":"543 N.Harrison","geo_precision":"street","state":"OH"},"type":"Feature","geometry":{"type":"Point","coordinates":[-84.55343,41.285444]}},{"properties":{"city":"Sherwood","zip":"43556","geo_score":0.912,"id":"abo4176ull5r","address":"14927 Rolland","geo_precision":"range","state":"OH"},"type":"Feature","geometry":{"type":"Point","coordinates":[-84.535046,41.281185]}},{"properties":{"city":"Defiance","zip":"43512","geo_score":0.875,"id":"abo4170nljbu","address":"10263 Dowe","geo_precision":"range","state":"OH"},"type":"Feature","geometry":{"type":"Point","coordinates":[-84.442717,41.296445]}},{"properties":{"city":"Sherwood","zip":"43556","geo_score":0.883,"id":"abo4179wjtbm","address":"08823 US 127","geo_precision":"range","state":"OH"},"type":"Feature","geometry":{"type":"Point","coordinates":[-84.553146,41.312826]}},{"properties":{"city":"Cecil","zip":"45821","geo_score":1.0,"id":"abo4173a3pvx","address":"18107 Rd 115","geo_precision":"range","state":"OH"},"type":"Feature","geometry":{"type":"Point","coordinates":[-84.553805,41.251119]}},{"properties":{"city":"Sherwood","zip":"43556","geo_score":0.912,"id":"abo417a0rel1","address":"11054 Jericho","geo_precision":"range","state":"OH"},"type":"Feature","geometry":{"type":"Point","coordinates":[-84.599327,41.267211]}},{"properties":{"city":"Sherwood","zip":"43556","geo_score":0.61,"id":"abo417a9gg37","address":"114 N.Harrison Apt.C","geo_precision":"street","state":"OH"},"type":"Feature","geometry":{"type":"Point","coordinates":[-84.55343,41.285444]}},{"properties":{"city":"Sherwood","zip":"43556","geo_score":0.785,"id":"abo4174yu0wh","address":"13647 St Rt18","geo_precision":"range","state":"OH"},"type":"Feature","geometry":{"type":"Point","coordinates":[-84.555101,41.254304]}},{"properties":{"city":"Sherwood","zip":"43556","geo_score":0.61,"id":"abo41700mtcm","address":"213 N.Harrison","geo_precision":"street","state":"OH"},"type":"Feature","geometry":{"type":"Point","coordinates":[-84.55343,41.285444]}},{"properties":{"city":"Sherwood","zip":"43556","geo_score":0.571,"id":"abo416y7g422","address":"220 W.Elm","geo_precision":"street","state":"OH"},"type":"Feature","geometry":{"type":"Point","coordinates":[-84.553429,41.287997]}},{"properties":{"city":"Defiance","zip":"43512","geo_score":1.0,"id":"abo4172rm3mh","address":"15067 Main St","geo_precision":"range","state":"OH"},"type":"Feature","geometry":{"type":"Point","coordinates":[-84.519102,41.284399]}},{"properties":{"city":"Sherwood","zip":"43556","geo_score":0.883,"id":"abo4173iuq31","address":"11859 US 127","geo_precision":"range","state":"OH"},"type":"Feature","geometry":{"type":"Point","coordinates":[-84.553462,41.271455]}},{"properties":{"city":"Defiance","zip":"43512","geo_score":0.585,"id":"abo4178ui18b","address":"10057 Slough Rd","geo_precision":"zip","state":"OH"},"type":"Feature","geometry":{"type":"Point","coordinates":[-84.299947,41.297826]}},{"properties":{"city":"Sherwood","zip":"43556","geo_score":0.571,"id":"abo416xilec4","address":"240 N.Taylor","geo_precision":"street","state":"OH"},"type":"Feature","geometry":{"type":"Point","coordinates":[-84.552222,41.284565]}},{"properties":{"city":"Sherwood","zip":"43556","geo_score":0.585,"id":"abo416z08ujo","address":"15334 Buckskin Rd.","geo_precision":"zip","state":"OH"},"type":"Feature","geometry":{"type":"Point","coordinates":[-84.569545,41.318045]}},{"properties":{"city":"Sherwood","zip":"43556","geo_score":0.866,"id":"abo4171877lw","address":"09584 Williams Center Cecil","geo_precision":"street","state":"OH"},"type":"Feature","geometry":{"type":"Point","coordinates":[-84.611477,41.29985]}},{"properties":{"city":"Sherwood","zip":"43556","geo_score":0.61,"id":"abo416xe0pqc","address":"114 N.Harrison","geo_precision":"street","state":"OH"},"type":"Feature","geometry":{"type":"Point","coordinates":[-84.55343,41.285444]}},{"properties":{"city":"Sherwood","zip":"43556","geo_score":0.61,"id":"abo41756zcce","address":"121 N.Harrison","geo_precision":"street","state":"OH"},"type":"Feature","geometry":{"type":"Point","coordinates":[-84.55343,41.285444]}},{"properties":{"city":"Sherwood","zip":"43556","geo_score":0.61,"id":"abo4178w7lzw","address":"114 S. Harrison Apt. E","geo_precision":"street","state":"OH"},"type":"Feature","geometry":{"type":"Point","coordinates":[-84.55343,41.285444]}},{"properties":{"city":"Defiance","zip":"43512","geo_score":0.912,"id":"abo4179q7cb9","address":"19522 Switzer","geo_precision":"range","state":"OH"},"type":"Feature","geometry":{"type":"Point","coordinates":[-84.456494,41.286239]}},{"properties":{"city":"Defiance","zip":"43512","geo_score":0.92,"id":"abo4176jhbhs","address":"10136 Kleinhen","geo_precision":"range","state":"OH"},"type":"Feature","geometry":{"type":"Point","coordinates":[-84.467585,41.29392]}},{"properties":{"city":"Sherwood","zip":"43556","geo_score":0.571,"id":"abo4172jenc5","address":"205 W.Elm","geo_precision":"street","state":"OH"},"type":"Feature","geometry":{"type":"Point","coordinates":[-84.553429,41.287997]}},{"properties":{"city":"Defiance","zip":"43512","geo_score":0.912,"id":"abo416xhacib","address":"18227 Switzer","geo_precision":"range","state":"OH"},"type":"Feature","geometry":{"type":"Point","coordinates":[-84.471786,41.287643]}},{"properties":{"city":"Sherwood","zip":"43556","geo_score":0.61,"id":"abo416w63qot","address":"412 N.Harrison","geo_precision":"street","state":"OH"},"type":"Feature","geometry":{"type":"Point","coordinates":[-84.55343,41.285444]}},{"properties":{"city":"Sherwood","zip":"43556","geo_score":0.61,"id":"abo416yrzsiz","address":"412 N.Harrison","geo_precision":"street","state":"OH"},"type":"Feature","geometry":{"type":"Point","coordinates":[-84.55343,41.285444]}},{"properties":{"city":"Defiance","zip":"43512","geo_score":0.878,"id":"abo417863u9n","address":"16515  Co Rd 8","geo_precision":"range","state":"OH"},"type":"Feature","geometry":{"type":"Point","coordinates":[-84.506683,41.252961]}},{"properties":{"city":"Cecil","zip":"45821","geo_score":0.585,"id":"abo4178lbzla","address":"18950 US127","geo_precision":"zip","state":"OH"},"type":"Feature","geometry":{"type":"Point","coordinates":[-84.571519,41.223404]}},{"properties":{"city":"Sherwood","zip":"43556","geo_score":0.61,"id":"abo41794litx","address":"503 N.Harrison","geo_precision":"street","state":"OH"},"type":"Feature","geometry":{"type":"Point","coordinates":[-84.55343,41.285444]}},{"properties":{"city":"Sherwood","zip":"43556","geo_score":0.61,"id":"abo41784fsvc","address":"211 N.Harrison","geo_precision":"street","state":"OH"},"type":"Feature","geometry":{"type":"Point","coordinates":[-84.55343,41.285444]}},{"properties":{"city":"Sherwood","zip":"43556","geo_score":0.857,"id":"abo4172lv5wt","address":"210 N.Rock","geo_precision":"zip","state":"OH"},"type":"Feature","geometry":{"type":"Point","coordinates":[-84.569545,41.318045]}},{"properties":{"city":"Sherwood","zip":"43556","geo_score":0.643,"id":"abo4176nk5xs","address":"300 E.Elm","geo_precision":"street","state":"OH"},"type":"Feature","geometry":{"type":"Point","coordinates":[-84.553429,41.287997]}},{"properties":{"city":"Sherwood","zip":"43556","geo_score":0.585,"id":"abo416xmwr2d","address":"09832 US127","geo_precision":"zip","state":"OH"},"type":"Feature","geometry":{"type":"Point","coordinates":[-84.569545,41.318045]}},{"properties":{"city":"Sherwood","zip":"43556","geo_score":0.912,"id":"abo41771doub","address":"15477 Rolland","geo_precision":"range","state":"OH"},"type":"Feature","geometry":{"type":"Point","coordinates":[-84.527711,41.282556]}},{"properties":{"city":"Sherwood","zip":"43556","geo_score":0.614,"id":"abo4178u2w2m","address":"105 N. Wilmont","geo_precision":"street","state":"OH"},"type":"Feature","geometry":{"type":"Point","coordinates":[-84.550974,41.286183]}},{"properties":{"city":"Sherwood","zip":"43556","geo_score":0.61,"id":"abo416y65u31","address":"11896 St. Rt. 127","geo_precision":"range","state":"OH"},"type":"Feature","geometry":{"type":"Point","coordinates":[-84.553359,41.291846]}},{"properties":{"city":"Defiance","zip":"43512","geo_score":0.585,"id":"abo416wdv9y5","address":"9162 Flickinger","geo_precision":"zip","state":"OH"},"type":"Feature","geometry":{"type":"Point","coordinates":[-84.299947,41.297826]}},{"properties":{"city":"Sherwood","zip":"43556","geo_score":0.61,"id":"abo4170phq74","address":"201 N.Harrison Apt.C","geo_precision":"street","state":"OH"},"type":"Feature","geometry":{"type":"Point","coordinates":[-84.55343,41.285444]}},{"properties":{"city":"Sherwood","zip":"43556","geo_score":1.0,"id":"abo4170gp455","address":"14030 Blair Rd.","geo_precision":"range","state":"OH"},"type":"Feature","geometry":{"type":"Point","coordinates":[-84.553261,41.267989]}},{"properties":{"city":"Sherwood","zip":"43556","geo_score":0.902,"id":"abo416x4s4o1","address":"15356 Roland","geo_precision":"range","state":"OH"},"type":"Feature","geometry":{"type":"Point","coordinates":[-84.530018,41.282467]}},{"properties":{"city":"Sherwood","zip":"43556","geo_score":0.61,"id":"abo4171btk0j","address":"114 N.Harrison Apt.B","geo_precision":"street","state":"OH"},"type":"Feature","geometry":{"type":"Point","coordinates":[-84.55343,41.285444]}},{"properties":{"city":"Defiance","zip":"43512","geo_score":0.585,"id":"abo416wdw97p","address":"10349 Bend rd","geo_precision":"zip","state":"OH"},"type":"Feature","geometry":{"type":"Point","coordinates":[-84.299947,41.297826]}},{"properties":{"city":"Sherwood","zip":"43556","geo_score":0.61,"id":"abo4171bek37","address":"205 S.Harrison","geo_precision":"street","state":"OH"},"type":"Feature","geometry":{"type":"Point","coordinates":[-84.55343,41.285444]}},{"properties":{"city":"Sherwood","zip":"43556","geo_score":0.902,"id":"abo4179xtokd","address":"13860 St Rt 18","geo_precision":"range","state":"OH"},"type":"Feature","geometry":{"type":"Point","coordinates":[-84.559722,41.296349]}},{"properties":{"city":"Sherwood","zip":"43556","geo_score":0.927,"id":"abo417ac3lmd","address":"09105 Behnfeldt","geo_precision":"range","state":"OH"},"type":"Feature","geometry":{"type":"Point","coordinates":[-84.572454,41.310143]}},{"properties":{"city":"Sherwood","zip":"43556","geo_score":0.927,"id":"abo416z3t1yi","address":"08270 Behnfeldt","geo_precision":"range","state":"OH"},"type":"Feature","geometry":{"type":"Point","coordinates":[-84.572544,41.316302]}},{"properties":{"city":"Sherwood","zip":"43556","geo_score":0.585,"id":"abo4179taqac","address":"9643","geo_precision":"zip","state":"OH"},"type":"Feature","geometry":{"type":"Point","coordinates":[-84.569545,41.318045]}},{"properties":{"city":"Sherwood","zip":"43556","geo_score":0.857,"id":"abo416werx1k","address":"120 S.Rock","geo_precision":"zip","state":"OH"},"type":"Feature","geometry":{"type":"Point","coordinates":[-84.569545,41.318045]}},{"properties":{"city":"Sherwood","zip":"43556","geo_score":0.625,"id":"abo4170fmdeo","address":"310 E.Maple","geo_precision":"street","state":"OH"},"type":"Feature","geometry":{"type":"Point","coordinates":[-84.552882,41.284571]}},{"properties":{"city":"Cecil","zip":"45821","geo_score":0.585,"id":"abo416z0f28x","address":"13613 US24","geo_precision":"zip","state":"OH"},"type":"Feature","geometry":{"type":"Point","coordinates":[-84.571519,41.223404]}},{"properties":{"city":"Cecil","zip":"45821","geo_score":0.585,"id":"abo417a8vrph","address":"13401 US24","geo_precision":"zip","state":"OH"},"type":"Feature","geometry":{"type":"Point","coordinates":[-84.571519,41.223404]}},{"properties":{"city":"Defiance","zip":"43512","geo_score":0.585,"id":"abo4175sfiyw","address":"10818 Bend Rd","geo_precision":"zip","state":"OH"},"type":"Feature","geometry":{"type":"Point","coordinates":[-84.299947,41.297826]}},{"properties":{"city":"Sherwood","zip":"43556","geo_score":0.61,"id":"abo4173lagbj","address":"502 N.Harrison","geo_precision":"street","state":"OH"},"type":"Feature","geometry":{"type":"Point","coordinates":[-84.55343,41.285444]}},{"properties":{"city":"Sherwood","zip":"43556","geo_score":1.0,"id":"abo4177ljv6s","address":"205 Elmwood Dr","geo_precision":"range","state":"OH"},"type":"Feature","geometry":{"type":"Point","coordinates":[-84.553396,41.29963]}},{"properties":{"city":"Sherwood","zip":"43556","geo_score":0.61,"id":"abo4177pdvxq","address":"404 N.Harrison","geo_precision":"street","state":"OH"},"type":"Feature","geometry":{"type":"Point","coordinates":[-84.55343,41.285444]}},{"properties":{"city":"Sherwood","zip":"43556","geo_score":0.878,"id":"abo417afrdof","address":"08910 Rosebrook Rd","geo_precision":"range","state":"OH"},"type":"Feature","geometry":{"type":"Point","coordinates":[-84.534227,41.312058]}},{"properties":{"city":"Sherwood","zip":"43556","geo_score":0.61,"id":"abo41758ikg0","address":"411 N.Harrison","geo_precision":"street","state":"OH"},"type":"Feature","geometry":{"type":"Point","coordinates":[-84.55343,41.285444]}},{"properties":{"city":"Sherwood","zip":"43556","geo_score":0.585,"id":"abo417a0b89h","address":"13948 US24","geo_precision":"zip","state":"OH"},"type":"Feature","geometry":{"type":"Point","coordinates":[-84.569545,41.318045]}},{"properties":{"city":"Sherwood","zip":"43556","geo_score":0.571,"id":"abo4175zj2u0","address":"300 W. Maple","geo_precision":"street","state":"OH"},"type":"Feature","geometry":{"type":"Point","coordinates":[-84.552882,41.284571]}},{"properties":{"city":"Sherwood","zip":"43556","geo_score":0.92,"id":"abo416x2uhis","address":"08656 The Bend","geo_precision":"range","state":"OH"},"type":"Feature","geometry":{"type":"Point","coordinates":[-84.516001,41.317609]}},{"properties":{"city":"Sherwood","zip":"43556","geo_score":0.625,"id":"abo4170y0l1n","address":"305 E.Maple","geo_precision":"street","state":"OH"},"type":"Feature","geometry":{"type":"Point","coordinates":[-84.552882,41.284571]}},{"properties":{"city":"Sherwood","zip":"43556","geo_score":0.857,"id":"abo417a2c96w","address":"110 S. Rock St.","geo_precision":"zip","state":"OH"},"type":"Feature","geometry":{"type":"Point","coordinates":[-84.569545,41.318045]}},{"properties":{"city":"Sherwood","zip":"43556","geo_score":0.571,"id":"abo416yz8he4","address":"310 W. Maple","geo_precision":"street","state":"OH"},"type":"Feature","geometry":{"type":"Point","coordinates":[-84.552882,41.284571]}},{"properties":{"city":"Sherwood","zip":"43556","geo_score":0.902,"id":"abo4177w2nmd","address":"09866 Rosebrock","geo_precision":"range","state":"OH"},"type":"Feature","geometry":{"type":"Point","coordinates":[-84.534177,41.300101]}},{"properties":{"city":"Sherwood","zip":"43556","geo_score":0.785,"id":"abo416z97cgk","address":"108 Sunset","geo_precision":"street","state":"OH"},"type":"Feature","geometry":{"type":"Point","coordinates":[-84.555197,41.296378]}},{"properties":{"city":"Sherwood","zip":"43556","geo_score":0.61,"id":"abo4178z9ubp","address":"201 N.Harrison","geo_precision":"street","state":"OH"},"type":"Feature","geometry":{"type":"Point","coordinates":[-84.55343,41.285444]}},{"properties":{"city":"Sherwood","zip":"43556","geo_score":0.61,"id":"abo416zmx74u","address":"535 N.Harrison","geo_precision":"street","state":"OH"},"type":"Feature","geometry":{"type":"Point","coordinates":[-84.55343,41.285444]}},{"properties":{"city":"Sherwood","zip":"43556","geo_score":0.625,"id":"abo4179mlyky","address":"401 E.Maple","geo_precision":"street","state":"OH"},"type":"Feature","geometry":{"type":"Point","coordinates":[-84.552882,41.284571]}},{"properties":{"city":"Sherwood","zip":"43556","geo_score":0.643,"id":"abo417bky5yb","address":"230 E. Elm St.","geo_precision":"street","state":"OH"},"type":"Feature","geometry":{"type":"Point","coordinates":[-84.553429,41.287997]}},{"properties":{"city":"Sherwood","zip":"43556","geo_score":0.902,"id":"abo416y1ksys","address":"235 Taylor","geo_precision":"range","state":"OH"},"type":"Feature","geometry":{"type":"Point","coordinates":[-84.552191,41.287081]}},{"properties":{"city":"Sherwood","zip":"43556","geo_score":0.61,"id":"abo416xqz97c","address":"513 N.Harrison","geo_precision":"street","state":"OH"},"type":"Feature","geometry":{"type":"Point","coordinates":[-84.55343,41.285444]}},{"properties":{"city":"Sherwood","zip":"43556","geo_score":0.61,"id":"abo4172jzfqc","address":"209 S.Harrison","geo_precision":"street","state":"OH"},"type":"Feature","geometry":{"type":"Point","coordinates":[-84.55343,41.285444]}},{"properties":{"city":"Sherwood","zip":"43556","geo_score":0.927,"id":"abo416w399di","address":"14288 Mud Creek","geo_precision":"range","state":"OH"},"type":"Feature","geometry":{"type":"Point","coordinates":[-84.550275,41.332677]}},{"properties":{"city":"Sherwood","zip":"43556","geo_score":0.793,"id":"abo417bsqfvj","address":"120 Cedar","geo_precision":"range","state":"OH"},"type":"Feature","geometry":{"type":"Point","coordinates":[-84.552689,41.283554]}},{"properties":{"city":"Defiance","zip":"43512","geo_score":0.474,"id":"abo416vu7qek","address":"16276 St Rt18","geo_precision":"street","state":"OH"},"type":"Feature","geometry":{"type":"Point","coordinates":[-84.352516,41.286485]}},{"properties":{"city":"Sherwood","zip":"43556","geo_score":0.585,"id":"abo416ztd18k","address":"09189 Flickinger","geo_precision":"zip","state":"OH"},"type":"Feature","geometry":{"type":"Point","coordinates":[-84.569545,41.318045]}},{"properties":{"city":"Sherwood","zip":"43556","geo_score":0.585,"id":"abo416vw4t12","address":"09926 US127","geo_precision":"zip","state":"OH"},"type":"Feature","geometry":{"type":"Point","coordinates":[-84.569545,41.318045]}},{"properties":{"city":"Sherwood","zip":"43556","geo_score":0.625,"id":"abo4172zhaj2","address":"110 E.Maple","geo_precision":"street","state":"OH"},"type":"Feature","geometry":{"type":"Point","coordinates":[-84.552882,41.284571]}},{"properties":{"city":"Sherwood","zip":"43556","geo_score":0.857,"id":"abo4175mtyd6","address":"215 N.Rock","geo_precision":"zip","state":"OH"},"type":"Feature","geometry":{"type":"Point","coordinates":[-84.569545,41.318045]}},{"properties":{"city":"Sherwood","zip":"43556","geo_score":0.585,"id":"abo4170vhxzg","address":"11792 Buckskin","geo_precision":"zip","state":"OH"},"type":"Feature","geometry":{"type":"Point","coordinates":[-84.569545,41.318045]}},{"properties":{"city":"Sherwood","zip":"43556","geo_score":0.571,"id":"abo41717i9ez","address":"110 N.Oak","geo_precision":"street","state":"OH"},"type":"Feature","geometry":{"type":"Point","coordinates":[-84.548621,41.287084]}},{"properties":{"city":"Defiance","zip":"43512","geo_score":0.92,"id":"abo417c0ts1i","address":"08524 Glenburg","geo_precision":"range","state":"OH"},"type":"Feature","geometry":{"type":"Point","coordinates":[-84.457959,41.319008]}},{"properties":{"city":"Sherwood","zip":"43556","geo_score":0.785,"id":"abo417374c73","address":"09810 US 127","geo_precision":"street","state":"OH"},"type":"Feature","geometry":{"type":"Point","coordinates":[-84.553422,41.302217]}},{"properties":{"city":"Sherwood","zip":"43556","geo_score":0.571,"id":"abo416vmyprl","address":"100 W.Vine","geo_precision":"street","state":"OH"},"type":"Feature","geometry":{"type":"Point","coordinates":[-84.55467,41.287091]}},{"properties":{"city":"Sherwood","zip":"43556","geo_score":0.571,"id":"abo4177snpit","address":"420 W.Maple","geo_precision":"street","state":"OH"},"type":"Feature","geometry":{"type":"Point","coordinates":[-84.552882,41.284571]}},{"properties":{"city":"Ney","zip":"43549","geo_score":0.92,"id":"abo417bvspuc","address":"15528 Bradshaw","geo_precision":"range","state":"OH"},"type":"Feature","geometry":{"type":"Point","coordinates":[-84.525221,41.339813]}},{"properties":{"city":"Sherwood","zip":"43556","geo_score":0.61,"id":"abo417ahec8g","address":"305 S.Harrison","geo_precision":"street","state":"OH"},"type":"Feature","geometry":{"type":"Point","coordinates":[-84.55343,41.285444]}},{"properties":{"city":"Sherwood","zip":"43556","geo_score":0.61,"id":"abo416x5r3pn","address":"530 N.Harrison","geo_precision":"street","state":"OH"},"type":"Feature","geometry":{"type":"Point","coordinates":[-84.55343,41.285444]}},{"properties":{"city":"Sherwood","zip":"43556","geo_score":1.0,"id":"abo416x6ubsc","address":"14132 Blair Rd","geo_precision":"range","state":"OH"},"type":"Feature","geometry":{"type":"Point","coordinates":[-84.551927,41.26814]}},{"properties":{"city":"Defiance","zip":"43512","geo_score":0.585,"id":"abo4176vbfvi","address":"10215 Jacobs Rd","geo_precision":"zip","state":"OH"},"type":"Feature","geometry":{"type":"Point","coordinates":[-84.299947,41.297826]}},{"properties":{"city":"Sherwood","zip":"43556","geo_score":0.61,"id":"abo416yjae3h","address":"205 S.Harrison Apt.S","geo_precision":"street","state":"OH"},"type":"Feature","geometry":{"type":"Point","coordinates":[-84.55343,41.285444]}},{"properties":{"city":"Sherwood","zip":"43556","geo_score":0.643,"id":"abo417azzn9a","address":"225 E. Elm","geo_precision":"street","state":"OH"},"type":"Feature","geometry":{"type":"Point","coordinates":[-84.553429,41.287997]}},{"properties":{"city":"Sherwood","zip":"43556","geo_score":0.61,"id":"abo416zv9fbn","address":"201 N. Harrison Apt. C","geo_precision":"street","state":"OH"},"type":"Feature","geometry":{"type":"Point","coordinates":[-84.55343,41.285444]}},{"properties":{"city":"Sherwood","zip":"43556","geo_score":0.625,"id":"abo417a9v7cy","address":"210 E.Maple","geo_precision":"street","state":"OH"},"type":"Feature","geometry":{"type":"Point","coordinates":[-84.552882,41.284571]}},{"properties":{"city":"Sherwood","zip":"43556","geo_score":0.61,"id":"abo416ywc08k","address":"303 S.Harrison","geo_precision":"street","state":"OH"},"type":"Feature","geometry":{"type":"Point","coordinates":[-84.55343,41.285444]}},{"properties":{"city":"Defiance","zip":"43512","geo_score":1.0,"id":"abo4179kxmmz","address":"15755 Main St","geo_precision":"range","state":"OH"},"type":"Feature","geometry":{"type":"Point","coordinates":[-84.517249,41.284144]}},{"properties":{"city":"Sherwood","zip":"43556","geo_score":0.614,"id":"abo4175s7z61","address":"220 N.Wilmont","geo_precision":"street","state":"OH"},"type":"Feature","geometry":{"type":"Point","coordinates":[-84.550974,41.286183]}},{"properties":{"city":"Sherwood","zip":"43556","geo_score":0.785,"id":"abo4178xx55a","address":"14168 St Rt18","geo_precision":"range","state":"OH"},"type":"Feature","geometry":{"type":"Point","coordinates":[-84.549488,41.25599]}},{"properties":{"city":"Sherwood","zip":"43556","geo_score":0.643,"id":"abo417a4q3kx","address":"125 S.Oak","geo_precision":"street","state":"OH"},"type":"Feature","geometry":{"type":"Point","coordinates":[-84.548621,41.287084]}},{"properties":{"city":"Sherwood","zip":"43556","geo_score":0.643,"id":"abo4176woksd","address":"205 S.Oak","geo_precision":"street","state":"OH"},"type":"Feature","geometry":{"type":"Point","coordinates":[-84.548621,41.287084]}},{"properties":{"city":"Sherwood","zip":"43556","geo_score":0.571,"id":"abo4172crtk7","address":"215 W.Elm","geo_precision":"street","state":"OH"},"type":"Feature","geometry":{"type":"Point","coordinates":[-84.553429,41.287997]}},{"properties":{"city":"Sherwood","zip":"43556","geo_score":0.92,"id":"abo4170r9b7d","address":"09108 The Bend","geo_precision":"range","state":"OH"},"type":"Feature","geometry":{"type":"Point","coordinates":[-84.515919,41.301102]}},{"properties":{"city":"Sherwood","zip":"43556","geo_score":0.912,"id":"abo41714gqsi","address":"11189 Jericho","geo_precision":"range","state":"OH"},"type":"Feature","geometry":{"type":"Point","coordinates":[-84.601914,41.26736]}},{"properties":{"city":"Sherwood","zip":"43556","geo_score":0.61,"id":"abo416zdzf4u","address":"410 S.harrison","geo_precision":"street","state":"OH"},"type":"Feature","geometry":{"type":"Point","coordinates":[-84.55343,41.285444]}},{"properties":{"city":"Sherwood","zip":"43556","geo_score":0.902,"id":"abo4173n776p","address":"105 Ballpark","geo_precision":"range","state":"OH"},"type":"Feature","geometry":{"type":"Point","coordinates":[-84.547929,41.287481]}},{"properties":{"city":"Sherwood","zip":"43556","geo_score":0.61,"id":"abo4174vqp19","address":"301 S.Harrison","geo_precision":"street","state":"OH"},"type":"Feature","geometry":{"type":"Point","coordinates":[-84.55343,41.285444]}},{"properties":{"city":"Ney","zip":"43549","geo_score":0.854,"id":"abo4170ocpoz","address":"06138 Coy","geo_precision":"range","state":"OH"},"type":"Feature","geometry":{"type":"Point","coordinates":[-84.54489,41.3521]}},{"properties":{"city":"Sherwood","zip":"43556","geo_score":0.659,"id":"abo4176ctcds","address":"06296 Coy","geo_precision":"street","state":"OH"},"type":"Feature","geometry":{"type":"Point","coordinates":[-84.544753,41.346133]}},{"properties":{"city":"Sherwood","zip":"43556","geo_score":0.927,"id":"abo416vv106h","address":"07562 Behnfeldt","geo_precision":"range","state":"OH"},"type":"Feature","geometry":{"type":"Point","coordinates":[-84.5727,41.333656]}},{"properties":{"city":"Sherwood","zip":"43556","geo_score":0.643,"id":"abo4171k48qr","address":"320 E. Elm","geo_precision":"street","state":"OH"},"type":"Feature","geometry":{"type":"Point","coordinates":[-84.553429,41.287997]}},{"properties":{"city":"Sherwood","zip":"43556","geo_score":0.571,"id":"abo417bv95dd","address":"105 W.Maple","geo_precision":"street","state":"OH"},"type":"Feature","geometry":{"type":"Point","coordinates":[-84.552882,41.284571]}},{"properties":{"city":"Sherwood","zip":"43556","geo_score":1.0,"id":"abo416yixneo","address":"11236 Fountain St.","geo_precision":"range","state":"OH"},"type":"Feature","geometry":{"type":"Point","coordinates":[-84.592214,41.281684]}},{"properties":{"city":"Sherwood","zip":"43556","geo_score":0.756,"id":"abo4175weg23","address":"15305 Co Rd424","geo_precision":"street","state":"OH"},"type":"Feature","geometry":{"type":"Point","coordinates":[-84.5439,41.285531]}},{"properties":{"city":"Sherwood","zip":"43556","geo_score":0.61,"id":"abo4177995kx","address":"530 N.Harrison","geo_precision":"street","state":"OH"},"type":"Feature","geometry":{"type":"Point","coordinates":[-84.55343,41.285444]}},{"properties":{"city":"Sherwood","zip":"43556","geo_score":1.0,"id":"abo4172agkyg","address":"13839 Fountain St.","geo_precision":"range","state":"OH"},"type":"Feature","geometry":{"type":"Point","coordinates":[-84.563003,41.281847]}},{"properties":{"city":"Sherwood","zip":"43556","geo_score":0.883,"id":"abo417b4m0t6","address":"102 Sunset","geo_precision":"range","state":"OH"},"type":"Feature","geometry":{"type":"Point","coordinates":[-84.555197,41.296378]}},{"properties":{"city":"Defiance","zip":"43512","geo_score":0.585,"id":"abo417421izq","address":"12916 Bend Rd","geo_precision":"zip","state":"OH"},"type":"Feature","geometry":{"type":"Point","coordinates":[-84.299947,41.297826]}},{"properties":{"city":"Sherwood","zip":"43556","geo_score":0.585,"id":"abo416wjb5bs","address":"13828 Buckskin Rd.","geo_precision":"zip","state":"OH"},"type":"Feature","geometry":{"type":"Point","coordinates":[-84.569545,41.318045]}},{"properties":{"city":"Sherwood","zip":"43556","geo_score":0.625,"id":"abo416vxaz68","address":"100 E.Maple","geo_precision":"street","state":"OH"},"type":"Feature","geometry":{"type":"Point","coordinates":[-84.552882,41.284571]}},{"properties":{"city":"Sherwood","zip":"43556","geo_score":0.571,"id":"abo4173o6b5p","address":"200 W.Maple","geo_precision":"street","state":"OH"},"type":"Feature","geometry":{"type":"Point","coordinates":[-84.552882,41.284571]}},{"properties":{"city":"Sherwood","zip":"43556","geo_score":1.0,"id":"abo4170zqnok","address":"09739 Coy Rd","geo_precision":"range","state":"OH"},"type":"Feature","geometry":{"type":"Point","coordinates":[-84.543451,41.300002]}},{"properties":{"city":"Defiance","zip":"43512","geo_score":0.92,"id":"abo4175b2q3w","address":"10427 Kleinhen","geo_precision":"range","state":"OH"},"type":"Feature","geometry":{"type":"Point","coordinates":[-84.467436,41.290977]}},{"properties":{"city":"Sherwood","zip":"43556","geo_score":0.571,"id":"abo4172lgnav","address":"115 W.Elm","geo_precision":"street","state":"OH"},"type":"Feature","geometry":{"type":"Point","coordinates":[-84.553429,41.287997]}},{"properties":{"city":"Sherwood","zip":"43556","geo_score":0.967,"id":"abo4176gpujw","address":"14245 US Rt 24","geo_precision":"range","state":"OH"},"type":"Feature","geometry":{"type":"Point","coordinates":[-84.550429,41.25573]}},{"properties":{"city":"Sherwood","zip":"43556","geo_score":0.61,"id":"abo417aqlj93","address":"17787 St. Rt. 18","geo_precision":"range","state":"OH"},"type":"Feature","geometry":{"type":"Point","coordinates":[-84.553509,41.292059]}},{"properties":{"city":"Sherwood","zip":"43556","geo_score":0.633,"id":"abo4170vvvcp","address":"355 E.Vine","geo_precision":"street","state":"OH"},"type":"Feature","geometry":{"type":"Point","coordinates":[-84.55467,41.287091]}},{"properties":{"city":"Sherwood","zip":"43556","geo_score":0.61,"id":"abo41781j072","address":"409 N.Harrison","geo_precision":"street","state":"OH"},"type":"Feature","geometry":{"type":"Point","coordinates":[-84.55343,41.285444]}},{"properties":{"city":"Sherwood","zip":"43556","geo_score":0.902,"id":"abo416yu651c","address":"10926 Rosebrock","geo_precision":"range","state":"OH"},"type":"Feature","geometry":{"type":"Point","coordinates":[-84.534418,41.283647]}},{"properties":{"city":"Sherwood","zip":"43556","geo_score":0.61,"id":"abo41701ydaq","address":"113 N.Harrison","geo_precision":"street","state":"OH"},"type":"Feature","geometry":{"type":"Point","coordinates":[-84.55343,41.285444]}},{"properties":{"city":"Sherwood","zip":"43556","geo_score":0.625,"id":"abo4172z0djz","address":"205 N. Inman","geo_precision":"street","state":"OH"},"type":"Feature","geometry":{"type":"Point","coordinates":[-84.555893,41.284611]}},{"properties":{"city":"Sherwood","zip":"43556","geo_score":0.61,"id":"abo4176jopl6","address":"201 S.Harrison","geo_precision":"street","state":"OH"},"type":"Feature","geometry":{"type":"Point","coordinates":[-84.55343,41.285444]}},{"properties":{"city":"Sherwood","zip":"43556","geo_score":0.61,"id":"abo416x1gjpk","address":"210 S.Harrison","geo_precision":"street","state":"OH"},"type":"Feature","geometry":{"type":"Point","coordinates":[-84.55343,41.285444]}},{"properties":{"city":"Sherwood","zip":"43556","geo_score":0.61,"id":"abo4170eq48f","address":"207 S.Harrison","geo_precision":"street","state":"OH"},"type":"Feature","geometry":{"type":"Point","coordinates":[-84.55343,41.285444]}},{"properties":{"city":"Sherwood","zip":"43556","geo_score":0.61,"id":"abo4179g0qfy","address":"201 N.Harrison","geo_precision":"street","state":"OH"},"type":"Feature","geometry":{"type":"Point","coordinates":[-84.55343,41.285444]}},{"properties":{"city":"Sherwood","zip":"43556","geo_score":1.0,"id":"abo4178mlofp","address":"10337 Coy Rd.","geo_precision":"range","state":"OH"},"type":"Feature","geometry":{"type":"Point","coordinates":[-84.543727,41.29152]}},{"properties":{"city":"Sherwood","zip":"43556","geo_score":0.768,"id":"abo4172m4uo9","address":"07275 Williams Center Cecil","geo_precision":"street","state":"OH"},"type":"Feature","geometry":{"type":"Point","coordinates":[-84.611395,41.354683]}},{"properties":{"city":"Sherwood","zip":"43556","geo_score":0.883,"id":"abo4172q5umz","address":"109 Sunset","geo_precision":"range","state":"OH"},"type":"Feature","geometry":{"type":"Point","coordinates":[-84.555197,41.296378]}},{"properties":{"city":"Sherwood","zip":"43556","geo_score":0.785,"id":"abo4176ipu51","address":"112 Sunset","geo_precision":"street","state":"OH"},"type":"Feature","geometry":{"type":"Point","coordinates":[-84.555275,41.294367]}},{"properties":{"city":"Sherwood","zip":"43556","geo_score":0.585,"id":"abo4170poble","address":"100 Spiritualist Dr.","geo_precision":"zip","state":"OH"},"type":"Feature","geometry":{"type":"Point","coordinates":[-84.569545,41.318045]}},{"properties":{"city":"Defiance","zip":"43512","geo_score":0.585,"id":"abo41748y00o","address":"16447 US24","geo_precision":"zip","state":"OH"},"type":"Feature","geometry":{"type":"Point","coordinates":[-84.299947,41.297826]}},{"properties":{"city":"Sherwood","zip":"43556","geo_score":0.585,"id":"abo417abvreh","address":"14511 US24","geo_precision":"zip","state":"OH"},"type":"Feature","geometry":{"type":"Point","coordinates":[-84.569545,41.318045]}},{"properties":{"city":"Sherwood","zip":"43556","geo_score":0.571,"id":"abo41756irv4","address":"235 W.Vine","geo_precision":"street","state":"OH"},"type":"Feature","geometry":{"type":"Point","coordinates":[-84.55467,41.287091]}},{"properties":{"city":"Sherwood","zip":"43556","geo_score":0.571,"id":"abo4170j3aqs","address":"215 N.Taylor","geo_precision":"street","state":"OH"},"type":"Feature","geometry":{"type":"Point","coordinates":[-84.552222,41.284565]}},{"properties":{"city":"Sherwood","zip":"43556","geo_score":0.902,"id":"abo41721qlth","address":"13877 St Rt 18","geo_precision":"range","state":"OH"},"type":"Feature","geometry":{"type":"Point","coordinates":[-84.559344,41.296491]}},{"properties":{"city":"Sherwood","zip":"43556","geo_score":0.571,"id":"abo416xjuplw","address":"210 W.Vine","geo_precision":"street","state":"OH"},"type":"Feature","geometry":{"type":"Point","coordinates":[-84.55467,41.287091]}},{"properties":{"city":"Sherwood","zip":"43556","geo_score":0.571,"id":"abo416x8iqa0","address":"200 W.Cedar","geo_precision":"street","state":"OH"},"type":"Feature","geometry":{"type":"Point","coordinates":[-84.553412,41.283632]}},{"properties":{"city":"Sherwood","zip":"43556","geo_score":0.643,"id":"abo4172k07te","address":"135 E. Elm","geo_precision":"street","state":"OH"},"type":"Feature","geometry":{"type":"Point","coordinates":[-84.553429,41.287997]}},{"properties":{"city":"Sherwood","zip":"43556","geo_score":0.643,"id":"abo416zarot6","address":"325 E.Elm","geo_precision":"street","state":"OH"},"type":"Feature","geometry":{"type":"Point","coordinates":[-84.553429,41.287997]}},{"properties":{"city":"Sherwood","zip":"43556","geo_score":0.571,"id":"abo416ycqozo","address":"105 W.Vine","geo_precision":"street","state":"OH"},"type":"Feature","geometry":{"type":"Point","coordinates":[-84.55467,41.287091]}},{"properties":{"city":"Sherwood","zip":"43556","geo_score":0.89,"id":"abo4176k8hcn","address":"14073 Blair","geo_precision":"range","state":"OH"},"type":"Feature","geometry":{"type":"Point","coordinates":[-84.552206,41.268235]}},{"properties":{"city":"Sherwood","zip":"43556","geo_score":0.61,"id":"abo4171nbwhi","address":"538 N.Harrison","geo_precision":"street","state":"OH"},"type":"Feature","geometry":{"type":"Point","coordinates":[-84.55343,41.285444]}},{"properties":{"city":"Sherwood","zip":"43556","geo_score":1.0,"id":"abo416vwfzxk","address":"10629 Coy Rd","geo_precision":"range","state":"OH"},"type":"Feature","geometry":{"type":"Point","coordinates":[-84.543767,41.28891]}},{"properties":{"city":"Sherwood","zip":"43556","geo_score":0.61,"id":"abo4179znrhz","address":"201 S. Harrison","geo_precision":"street","state":"OH"},"type":"Feature","geometry":{"type":"Point","coordinates":[-84.55343,41.285444]}},{"properties":{"city":"Sherwood","zip":"43556","geo_score":0.61,"id":"abo416wcr4gt","address":"305 S. Harrison","geo_precision":"street","state":"OH"},"type":"Feature","geometry":{"type":"Point","coordinates":[-84.55343,41.285444]}},{"properties":{"city":"Defiance","zip":"43512","geo_score":1.0,"id":"abo41777g1hy","address":"15491 Maumee St.","geo_precision":"range","state":"OH"},"type":"Feature","geometry":{"type":"Point","coordinates":[-84.518085,41.285159]}},{"properties":{"city":"Defiance","zip":"43512","geo_score":0.585,"id":"abo4170z62uw","address":"10336 Slough Rd","geo_precision":"zip","state":"OH"},"type":"Feature","geometry":{"type":"Point","coordinates":[-84.299947,41.297826]}},{"properties":{"city":"Sherwood","zip":"43556","geo_score":0.92,"id":"abo417684dub","address":"08291 The Bend","geo_precision":"range","state":"OH"},"type":"Feature","geometry":{"type":"Point","coordinates":[-84.515881,41.323302]}},{"properties":{"city":"Sherwood","zip":"43556","geo_score":0.902,"id":"abo4173wmkqa","address":"15488 Roland","geo_precision":"range","state":"OH"},"type":"Feature","geometry":{"type":"Point","coordinates":[-84.533163,41.28184]}},{"properties":{"city":"Ney","zip":"43549","geo_score":0.805,"id":"abo4179ritq4","address":"15841 Mudcreek","geo_precision":"street","state":"OH"},"type":"Feature","geometry":{"type":"Point","coordinates":[-84.519754,41.332321]}},{"properties":{"city":"Sherwood","zip":"43556","geo_score":0.725,"id":"abo41778uf32","address":"09134 Kleinhen","geo_precision":"range","state":"OH"},"type":"Feature","geometry":{"type":"Point","coordinates":[-84.4677,41.309652]}},{"properties":{"city":"Ney","zip":"43549","geo_score":0.92,"id":"abo4174eqzvk","address":"15594 Bradshaw","geo_precision":"range","state":"OH"},"type":"Feature","geometry":{"type":"Point","coordinates":[-84.524468,41.33981]}},{"properties":{"city":"Cecil","zip":"45821","geo_score":0.585,"id":"abo41797s230","address":"18308 US127","geo_precision":"zip","state":"OH"},"type":"Feature","geometry":{"type":"Point","coordinates":[-84.571519,41.223404]}},{"properties":{"city":"Sherwood","zip":"43556","geo_score":0.902,"id":"abo417212k9f","address":"13813 St Rt 18","geo_precision":"range","state":"OH"},"type":"Feature","geometry":{"type":"Point","coordinates":[-84.560596,41.296516]}},{"properties":{"city":"Sherwood","zip":"43556","geo_score":0.61,"id":"abo4175exts3","address":"205 E.Lawrence","geo_precision":"street","state":"OH"},"type":"Feature","geometry":{"type":"Point","coordinates":[-84.552189,41.286182]}},{"properties":{"city":"Sherwood","zip":"43556","geo_score":0.585,"id":"abo416yzjyie","address":"15870 Buckskin","geo_precision":"zip","state":"OH"},"type":"Feature","geometry":{"type":"Point","coordinates":[-84.569545,41.318045]}},{"properties":{"city":"Sherwood","zip":"43556","geo_score":0.734,"id":"abo417a6n7ep","address":"09958-G Heritage","geo_precision":"range","state":"OH"},"type":"Feature","geometry":{"type":"Point","coordinates":[-84.543802,41.29691]}},{"properties":{"city":"Sherwood","zip":"43556","geo_score":0.643,"id":"abo417angmm6","address":"110 E.Elm","geo_precision":"street","state":"OH"},"type":"Feature","geometry":{"type":"Point","coordinates":[-84.553429,41.287997]}},{"properties":{"city":"Sherwood","zip":"43556","geo_score":0.857,"id":"abo416vukic5","address":"105 S. Rock","geo_precision":"zip","state":"OH"},"type":"Feature","geometry":{"type":"Point","coordinates":[-84.569545,41.318045]}},{"properties":{"city":"Sherwood","zip":"43556","geo_score":0.61,"id":"abo416vscax3","address":"530 N.Harrison","geo_precision":"street","state":"OH"},"type":"Feature","geometry":{"type":"Point","coordinates":[-84.55343,41.285444]}},{"properties":{"city":"Sherwood","zip":"43556","geo_score":0.585,"id":"abo4176fnafj","address":"18363 Buckskin","geo_precision":"zip","state":"OH"},"type":"Feature","geometry":{"type":"Point","coordinates":[-84.569545,41.318045]}},{"properties":{"city":"Defiance","zip":"43512","geo_score":0.902,"id":"abo417ae5993","address":"16960 Mudcreek","geo_precision":"range","state":"OH"},"type":"Feature","geometry":{"type":"Point","coordinates":[-84.501544,41.331251]}},{"properties":{"city":"Sherwood","zip":"43556","geo_score":0.912,"id":"abo4174hom9g","address":"12684 Jericho","geo_precision":"range","state":"OH"},"type":"Feature","geometry":{"type":"Point","coordinates":[-84.572643,41.267264]}},{"properties":{"city":"Defiance","zip":"43512","geo_score":0.585,"id":"abo4173qv56m","address":"18855 Buckskin","geo_precision":"zip","state":"OH"},"type":"Feature","geometry":{"type":"Point","coordinates":[-84.299947,41.297826]}},{"properties":{"city":"Sherwood","zip":"43556","geo_score":0.61,"id":"abo416z9ickp","address":"201 N.Harrison","geo_precision":"street","state":"OH"},"type":"Feature","geometry":{"type":"Point","coordinates":[-84.55343,41.285444]}},{"properties":{"city":"Sherwood","zip":"43556","geo_score":0.571,"id":"abo4172h0dy0","address":"135 N.Taylor","geo_precision":"street","state":"OH"},"type":"Feature","geometry":{"type":"Point","coordinates":[-84.552222,41.284565]}},{"properties":{"city":"Sherwood","zip":"43556","geo_score":0.854,"id":"abo416vnu4dr","address":"10629 Coy","geo_precision":"range","state":"OH"},"type":"Feature","geometry":{"type":"Point","coordinates":[-84.543767,41.28891]}},{"properties":{"city":"Sherwood","zip":"43556","geo_score":0.883,"id":"abo4173fcubf","address":"115 Sunset","geo_precision":"range","state":"OH"},"type":"Feature","geometry":{"type":"Point","coordinates":[-84.555161,41.29286]}},{"properties":{"city":"Sherwood","zip":"43556","geo_score":0.633,"id":"abo4177unusn","address":"210 E.Vine","geo_precision":"street","state":"OH"},"type":"Feature","geometry":{"type":"Point","coordinates":[-84.55467,41.287091]}},{"properties":{"city":"Sherwood","zip":"43556","geo_score":0.883,"id":"abo4171dpqf0","address":"116 Sunset","geo_precision":"range","state":"OH"},"type":"Feature","geometry":{"type":"Point","coordinates":[-84.555276,41.293864]}},{"properties":{"city":"Sherwood","zip":"43556","geo_score":0.592,"id":"abo416xy5yfs","address":"16135 St Rt18","geo_precision":"street","state":"OH"},"type":"Feature","geometry":{"type":"Point","coordinates":[-84.524954,41.264618]}},{"properties":{"city":"Mark Center","zip":"43536","geo_score":0.951,"id":"abo4170xc8fd","address":"06805 William Center Cecil","geo_precision":"range","state":"OH"},"type":"Feature","geometry":{"type":"Point","coordinates":[-84.611172,41.342075]}},{"properties":{"city":"Sherwood","zip":"43556","geo_score":0.857,"id":"abo416zshtkt","address":"120 S.Rock","geo_precision":"zip","state":"OH"},"type":"Feature","geometry":{"type":"Point","coordinates":[-84.569545,41.318045]}},{"properties":{"city":"Sherwood","zip":"43556","geo_score":0.902,"id":"abo4176y8k57","address":"13794 St Rt 18","geo_precision":"range","state":"OH"},"type":"Feature","geometry":{"type":"Point","coordinates":[-84.560987,41.296374]}},{"properties":{"city":"Sherwood","zip":"43556","geo_score":0.61,"id":"abo4179d97zw","address":"517 N.Harrison","geo_precision":"street","state":"OH"},"type":"Feature","geometry":{"type":"Point","coordinates":[-84.55343,41.285444]}},{"properties":{"city":"Sherwood","zip":"43556","geo_score":0.585,"id":"abo4171ydvr5","address":"14172 Buckskin Rd","geo_precision":"zip","state":"OH"},"type":"Feature","geometry":{"type":"Point","coordinates":[-84.569545,41.318045]}},{"properties":{"city":"Sherwood","zip":"43556","geo_score":0.61,"id":"abo41722pt3s","address":"114 N. Harrison Apt. B","geo_precision":"street","state":"OH"},"type":"Feature","geometry":{"type":"Point","coordinates":[-84.55343,41.285444]}},{"properties":{"city":"Sherwood","zip":"43556","geo_score":0.571,"id":"abo41728yxe7","address":"235 W. Vine","geo_precision":"street","state":"OH"},"type":"Feature","geometry":{"type":"Point","coordinates":[-84.55467,41.287091]}},{"properties":{"city":"Sherwood","zip":"43556","geo_score":0.614,"id":"abo4174go3d4","address":"110 N.Wilmont","geo_precision":"street","state":"OH"},"type":"Feature","geometry":{"type":"Point","coordinates":[-84.550974,41.286183]}},{"properties":{"city":"Sherwood","zip":"43556","geo_score":0.61,"id":"abo416ycumif","address":"7684 St. Rt. 127","geo_precision":"range","state":"OH"},"type":"Feature","geometry":{"type":"Point","coordinates":[-84.553359,41.291846]}},{"properties":{"city":"Sherwood","zip":"43556","geo_score":0.805,"id":"abo4171lfg8n","address":"14974 Bradshaw Rd.","geo_precision":"range","state":"OH"},"type":"Feature","geometry":{"type":"Point","coordinates":[-84.537259,41.339864]}},{"properties":{"city":"Sherwood","zip":"43556","geo_score":1.0,"id":"abo417a4mu1y","address":"110 Barbara Ln.","geo_precision":"range","state":"OH"},"type":"Feature","geometry":{"type":"Point","coordinates":[-84.557686,41.297177]}},{"properties":{"city":"Sherwood","zip":"43556","geo_score":0.571,"id":"abo416xzprq7","address":"305 W.Elm","geo_precision":"street","state":"OH"},"type":"Feature","geometry":{"type":"Point","coordinates":[-84.553429,41.287997]}},{"properties":{"city":"Cecil","zip":"45821","geo_score":1.0,"id":"abo41752l621","address":"18891 rd 115","geo_precision":"range","state":"OH"},"type":"Feature","geometry":{"type":"Point","coordinates":[-84.553702,41.239272]}},{"properties":{"city":"Sherwood","zip":"43556","geo_score":0.571,"id":"abo417aypy9q","address":"220 W. Elm","geo_precision":"street","state":"OH"},"type":"Feature","geometry":{"type":"Point","coordinates":[-84.553429,41.287997]}},{"properties":{"city":"Sherwood","zip":"43556","geo_score":0.571,"id":"abo4174gng9y","address":"105 N.Taylor","geo_precision":"street","state":"OH"},"type":"Feature","geometry":{"type":"Point","coordinates":[-84.552222,41.284565]}},{"properties":{"city":"Sherwood","zip":"43556","geo_score":0.633,"id":"abo4172lxnwq","address":"300 E.Vine","geo_precision":"street","state":"OH"},"type":"Feature","geometry":{"type":"Point","coordinates":[-84.55467,41.287091]}},{"properties":{"city":"Sherwood","zip":"43556","geo_score":0.585,"id":"abo4172oi8os","address":"08345 US127","geo_precision":"zip","state":"OH"},"type":"Feature","geometry":{"type":"Point","coordinates":[-84.569545,41.318045]}},{"properties":{"city":"Sherwood","zip":"43556","geo_score":0.61,"id":"abo4172dpzk3","address":"408 N.Harrison","geo_precision":"street","state":"OH"},"type":"Feature","geometry":{"type":"Point","coordinates":[-84.55343,41.285444]}},{"properties":{"city":"Sherwood","zip":"43556","geo_score":0.643,"id":"abo417apehbm","address":"320 E.Elm","geo_precision":"street","state":"OH"},"type":"Feature","geometry":{"type":"Point","coordinates":[-84.553429,41.287997]}},{"properties":{"city":"Defiance","zip":"43512","geo_score":0.585,"id":"abo416wg4zk9","address":"18238 Buckskin","geo_precision":"zip","state":"OH"},"type":"Feature","geometry":{"type":"Point","coordinates":[-84.299947,41.297826]}},{"properties":{"city":"Sherwood","zip":"43556","geo_score":0.89,"id":"abo41770rtak","address":"12490 Burns","geo_precision":"range","state":"OH"},"type":"Feature","geometry":{"type":"Point","coordinates":[-84.524951,41.258822]}},{"properties":{"city":"Sherwood","zip":"43556","geo_score":0.571,"id":"abo417afiosi","address":"220 W.Vine","geo_precision":"street","state":"OH"},"type":"Feature","geometry":{"type":"Point","coordinates":[-84.55467,41.287091]}},{"properties":{"city":"Sherwood","zip":"43556","geo_score":0.785,"id":"abo4170w8clc","address":"13960 St Rt18","geo_precision":"range","state":"OH"},"type":"Feature","geometry":{"type":"Point","coordinates":[-84.555674,41.253886]}},{"properties":{"city":"Sherwood","zip":"43556","geo_score":0.625,"id":"abo4173zrsor","address":"205 E.Pearl","geo_precision":"street","state":"OH"},"type":"Feature","geometry":{"type":"Point","coordinates":[-84.552199,41.285424]}},{"properties":{"city":"Mark Center","zip":"43536","geo_score":0.916,"id":"abo417bsfx3x","address":"7329 Farmer-Mark","geo_precision":"range","state":"OH"},"type":"Feature","geometry":{"type":"Point","coordinates":[-84.630614,41.332333]}},{"properties":{"city":"Mark Center","zip":"43536","geo_score":1.0,"id":"abo4176bavp0","address":"9625 Farmer Mark Rd.","geo_precision":"range","state":"OH"},"type":"Feature","geometry":{"type":"Point","coordinates":[-84.630787,41.300808]}},{"properties":{"city":"Mark Center","zip":"43536","geo_score":0.937,"id":"abo416wn0muh","address":"07648 Farmer Mark","geo_precision":"range","state":"OH"},"type":"Feature","geometry":{"type":"Point","coordinates":[-84.63079,41.329733]}},{"properties":{"city":"Sherwood","zip":"43556","geo_score":0.785,"id":"abo4177rc7rk","address":"13851 St Rt18","geo_precision":"range","state":"OH"},"type":"Feature","geometry":{"type":"Point","coordinates":[-84.555513,41.254122]}},{"properties":{"city":"Cecil","zip":"45821","geo_score":0.688,"id":"abo416wkqosq","address":"18187 US 127","geo_precision":"street","state":"OH"},"type":"Feature","geometry":{"type":"Point","coordinates":[-84.582658,41.231069]}},{"properties":{"city":"Sherwood","zip":"43556","geo_score":0.61,"id":"abo4173hqcpk","address":"300 N.Harrison","geo_precision":"street","state":"OH"},"type":"Feature","geometry":{"type":"Point","coordinates":[-84.55343,41.285444]}},{"properties":{"city":"Sherwood","zip":"43556","geo_score":0.585,"id":"abo417a9p3dx","address":"14324 Buckskin Rd","geo_precision":"zip","state":"OH"},"type":"Feature","geometry":{"type":"Point","coordinates":[-84.569545,41.318045]}},{"properties":{"city":"Sherwood","zip":"43556","geo_score":0.643,"id":"abo4170rk0ln","address":"125 E.Elm","geo_precision":"street","state":"OH"},"type":"Feature","geometry":{"type":"Point","coordinates":[-84.553429,41.287997]}},{"properties":{"city":"Sherwood","zip":"43556","geo_score":0.61,"id":"abo4171w3f8t","address":"500 N.Harrison","geo_precision":"street","state":"OH"},"type":"Feature","geometry":{"type":"Point","coordinates":[-84.55343,41.285444]}},{"properties":{"city":"Sherwood","zip":"43556","geo_score":0.883,"id":"abo417bmr17l","address":"104 Sunset","geo_precision":"range","state":"OH"},"type":"Feature","geometry":{"type":"Point","coordinates":[-84.555197,41.296378]}},{"properties":{"city":"Defiance","zip":"43512","geo_score":0.951,"id":"abo41743c67u","address":"07720 Mulligans Bluff","geo_precision":"range","state":"OH"},"type":"Feature","geometry":{"type":"Point","coordinates":[-84.497186,41.328935]}},{"properties":{"city":"Sherwood","zip":"43556","geo_score":0.59,"id":"abo416ykrkb3","address":"315 St Rt18","geo_precision":"street","state":"OH"},"type":"Feature","geometry":{"type":"Point","coordinates":[-84.553767,41.254812]}},{"properties":{"city":"Sherwood","zip":"43556","geo_score":0.59,"id":"abo416w1tp29","address":"12232 St Rt18","geo_precision":"street","state":"OH"},"type":"Feature","geometry":{"type":"Point","coordinates":[-84.553767,41.254812]}},{"properties":{"city":"Defiance","zip":"43512","geo_score":0.912,"id":"abo416wp8gje","address":"18244 Switzer","geo_precision":"range","state":"OH"},"type":"Feature","geometry":{"type":"Point","coordinates":[-84.471494,41.28746]}},{"properties":{"city":"Sherwood","zip":"43556","geo_score":0.857,"id":"abo4175rgr7c","address":"100 S.Rock","geo_precision":"zip","state":"OH"},"type":"Feature","geometry":{"type":"Point","coordinates":[-84.569545,41.318045]}},{"properties":{"city":"Sherwood","zip":"43556","geo_score":0.61,"id":"abo416xrfywh","address":"507 N.Harrison","geo_precision":"street","state":"OH"},"type":"Feature","geometry":{"type":"Point","coordinates":[-84.55343,41.285444]}},{"properties":{"city":"Sherwood","zip":"43556","geo_score":0.927,"id":"abo4178j7ffj","address":"105 Ball Park","geo_precision":"range","state":"OH"},"type":"Feature","geometry":{"type":"Point","coordinates":[-84.547929,41.287481]}},{"properties":{"city":"Sherwood","zip":"43556","geo_score":0.932,"id":"abo417bngts4","address":"07700 Openlander","geo_precision":"range","state":"OH"},"type":"Feature","geometry":{"type":"Point","coordinates":[-84.592172,41.334353]}},{"properties":{"city":"Sherwood","zip":"43556","geo_score":0.571,"id":"abo416zn2mea","address":"115 W.Cedar","geo_precision":"street","state":"OH"},"type":"Feature","geometry":{"type":"Point","coordinates":[-84.553412,41.283632]}},{"properties":{"city":"Defiance","zip":"43512","geo_score":0.875,"id":"abo417656j50","address":"15755 Main","geo_precision":"range","state":"OH"},"type":"Feature","geometry":{"type":"Point","coordinates":[-84.517249,41.284144]}},{"properties":{"city":"Sherwood","zip":"43556","geo_score":0.902,"id":"abo4172zdc18","address":"14023 St Rt 18","geo_precision":"range","state":"OH"},"type":"Feature","geometry":{"type":"Point","coordinates":[-84.553129,41.296422]}},{"properties":{"city":"Sherwood","zip":"43556","geo_score":0.857,"id":"abo416wuvonk","address":"110 S.Rock","geo_precision":"zip","state":"OH"},"type":"Feature","geometry":{"type":"Point","coordinates":[-84.569545,41.318045]}},{"properties":{"city":"Sherwood","zip":"43556","geo_score":1.0,"id":"abo417c4uvy7","address":"115 Barbara Ln.","geo_precision":"range","state":"OH"},"type":"Feature","geometry":{"type":"Point","coordinates":[-84.557537,41.297139]}},{"properties":{"city":"Sherwood","zip":"43556","geo_score":0.927,"id":"abo4179x8cw7","address":"09556 Behnfeldt","geo_precision":"range","state":"OH"},"type":"Feature","geometry":{"type":"Point","coordinates":[-84.572602,41.307405]}},{"properties":{"city":"Sherwood","zip":"43556","geo_score":0.593,"id":"abo416y2eyph","address":"12924 St Rt18","geo_precision":"street","state":"OH"},"type":"Feature","geometry":{"type":"Point","coordinates":[-84.553767,41.254812]}},{"properties":{"city":"Sherwood","zip":"43556","geo_score":0.625,"id":"abo416y9jfl5","address":"310 E.Pearl","geo_precision":"street","state":"OH"},"type":"Feature","geometry":{"type":"Point","coordinates":[-84.552199,41.285424]}},{"properties":{"city":"Sherwood","zip":"43556","geo_score":0.883,"id":"abo4176y1r4t","address":"12390 US 127","geo_precision":"range","state":"OH"},"type":"Feature","geometry":{"type":"Point","coordinates":[-84.553765,41.26288]}},{"properties":{"city":"Sherwood","zip":"43556","geo_score":0.883,"id":"abo41738xa1i","address":"119 Sunset","geo_precision":"range","state":"OH"},"type":"Feature","geometry":{"type":"Point","coordinates":[-84.555161,41.29286]}},{"properties":{"city":"Cecil","zip":"45821","geo_score":0.512,"id":"abo4177emt5x","address":"18906 Rd. 115","geo_precision":"street","state":"OH"},"type":"Feature","geometry":{"type":"Point","coordinates":[-84.553472,41.201702]}},{"properties":{"city":"Sherwood","zip":"43556","geo_score":0.571,"id":"abo4171br395","address":"215 W.Maple","geo_precision":"street","state":"OH"},"type":"Feature","geometry":{"type":"Point","coordinates":[-84.552882,41.284571]}},{"properties":{"city":"Sherwood","zip":"43556","geo_score":0.912,"id":"abo417b0qhw8","address":"14769 Sausman","geo_precision":"range","state":"OH"},"type":"Feature","geometry":{"type":"Point","coordinates":[-84.542993,41.278095]}},{"properties":{"city":"Sherwood","zip":"43556","geo_score":0.625,"id":"abo416y0wjaw","address":"200 E. Maple","geo_precision":"street","state":"OH"},"type":"Feature","geometry":{"type":"Point","coordinates":[-84.552882,41.284571]}},{"properties":{"city":"Sherwood","zip":"43556","geo_score":0.625,"id":"abo4177i0tgc","address":"300 E.Pearl","geo_precision":"street","state":"OH"},"type":"Feature","geometry":{"type":"Point","coordinates":[-84.552199,41.285424]}},{"properties":{"city":"Sherwood","zip":"43556","geo_score":0.61,"id":"abo416x6h901","address":"105 W. Lawrence","geo_precision":"street","state":"OH"},"type":"Feature","geometry":{"type":"Point","coordinates":[-84.552189,41.286182]}},{"properties":{"city":"Defiance","zip":"43512","geo_score":0.951,"id":"abo4176uajbt","address":"07882 Mulligans Bluff","geo_precision":"range","state":"OH"},"type":"Feature","geometry":{"type":"Point","coordinates":[-84.497177,41.327137]}},{"properties":{"city":"Sherwood","zip":"43556","geo_score":0.591,"id":"abo417bwa8z7","address":"12241 St Rt127","geo_precision":"street","state":"OH"},"type":"Feature","geometry":{"type":"Point","coordinates":[-84.553767,41.254812]}},{"properties":{"city":"Sherwood","zip":"43556","geo_score":0.61,"id":"abo416z8zqgc","address":"540 N.Harrison","geo_precision":"street","state":"OH"},"type":"Feature","geometry":{"type":"Point","coordinates":[-84.55343,41.285444]}},{"properties":{"city":"Sherwood","zip":"43556","geo_score":0.733,"id":"abo416z24mxo","address":"210 Wilmont","geo_precision":"street","state":"OH"},"type":"Feature","geometry":{"type":"Point","coordinates":[-84.550978,41.286614]}},{"properties":{"city":"Sherwood","zip":"43556","geo_score":0.625,"id":"abo417265mcd","address":"103 E.Pearl","geo_precision":"street","state":"OH"},"type":"Feature","geometry":{"type":"Point","coordinates":[-84.552199,41.285424]}},{"properties":{"city":"Defiance","zip":"43512","geo_score":0.916,"id":"abo416ymklix","address":"15974 Main Rd","geo_precision":"range","state":"OH"},"type":"Feature","geometry":{"type":"Point","coordinates":[-84.515858,41.283841]}},{"properties":{"city":"Sherwood","zip":"43556","geo_score":0.619,"id":"abo416xiaxit","address":"100 S.Taylor","geo_precision":"street","state":"OH"},"type":"Feature","geometry":{"type":"Point","coordinates":[-84.552222,41.284565]}},{"properties":{"city":"Sherwood","zip":"43556","geo_score":0.679,"id":"abo4173anhmr","address":"12115 Defiance Paulding Co. Line","geo_precision":"street","state":"OH"},"type":"Feature","geometry":{"type":"Point","coordinates":[-84.611573,41.296228]}},{"properties":{"city":"Sherwood","zip":"43556","geo_score":0.761,"id":"abo417arrs2t","address":"110 Sunset","geo_precision":"street","state":"OH"},"type":"Feature","geometry":{"type":"Point","coordinates":[-84.555197,41.296378]}},{"properties":{"city":"Sherwood","zip":"43556","geo_score":0.883,"id":"abo4174d7lcq","address":"09087 US 127","geo_precision":"range","state":"OH"},"type":"Feature","geometry":{"type":"Point","coordinates":[-84.553165,41.309346]}},{"properties":{"city":"Sherwood","zip":"43556","geo_score":1.0,"id":"abo416wvm8wv","address":"10935 The Bend Rd","geo_precision":"range","state":"OH"},"type":"Feature","geometry":{"type":"Point","coordinates":[-84.515597,41.282996]}},{"properties":{"city":"Sherwood","zip":"43556","geo_score":0.61,"id":"abo4177pg6kp","address":"308 S.Harrison","geo_precision":"street","state":"OH"},"type":"Feature","geometry":{"type":"Point","coordinates":[-84.55343,41.285444]}},{"properties":{"city":"Sherwood","zip":"43556","geo_score":0.571,"id":"abo417105f3y","address":"103 W.Elm","geo_precision":"street","state":"OH"},"type":"Feature","geometry":{"type":"Point","coordinates":[-84.553429,41.287997]}},{"properties":{"city":"Sherwood","zip":"43556","geo_score":0.61,"id":"abo4175qkokx","address":"524 N.Harrison","geo_precision":"street","state":"OH"},"type":"Feature","geometry":{"type":"Point","coordinates":[-84.55343,41.285444]}},{"properties":{"city":"Sherwood","zip":"43556","geo_score":0.61,"id":"abo416x2jnod","address":"211 N.Harrison","geo_precision":"street","state":"OH"},"type":"Feature","geometry":{"type":"Point","coordinates":[-84.55343,41.285444]}},{"properties":{"city":"Sherwood","zip":"43556","geo_score":0.571,"id":"abo4176s1ojp","address":"231 N.Taylor","geo_precision":"street","state":"OH"},"type":"Feature","geometry":{"type":"Point","coordinates":[-84.552222,41.284565]}},{"properties":{"city":"Sherwood","zip":"43556","geo_score":0.902,"id":"abo416yz3m44","address":"105 Maumee","geo_precision":"range","state":"OH"},"type":"Feature","geometry":{"type":"Point","coordinates":[-84.547575,41.285326]}},{"properties":{"city":"Sherwood","zip":"43556","geo_score":0.625,"id":"abo41761b9r6","address":"300 E.Maple","geo_precision":"street","state":"OH"},"type":"Feature","geometry":{"type":"Point","coordinates":[-84.552882,41.284571]}},{"properties":{"city":"Sherwood","zip":"43556","geo_score":0.571,"id":"abo4179b24r7","address":"231 N.Taylor","geo_precision":"street","state":"OH"},"type":"Feature","geometry":{"type":"Point","coordinates":[-84.552222,41.284565]}},{"properties":{"city":"Sherwood","zip":"43556","geo_score":0.571,"id":"abo417a1iaee","address":"205 N.Taylor","geo_precision":"street","state":"OH"},"type":"Feature","geometry":{"type":"Point","coordinates":[-84.552222,41.284565]}},{"properties":{"city":"Sherwood","zip":"43556","geo_score":0.61,"id":"abo41771toxq","address":"414 N.Harrison","geo_precision":"street","state":"OH"},"type":"Feature","geometry":{"type":"Point","coordinates":[-84.55343,41.285444]}},{"properties":{"city":"Sherwood","zip":"43556","geo_score":0.857,"id":"abo417akonc8","address":"200 S. Rock","geo_precision":"zip","state":"OH"},"type":"Feature","geometry":{"type":"Point","coordinates":[-84.569545,41.318045]}},{"properties":{"city":"Sherwood","zip":"43556","geo_score":1.0,"id":"abo416yd40ed","address":"12055 Openlander Rd.","geo_precision":"range","state":"OH"},"type":"Feature","geometry":{"type":"Point","coordinates":[-84.59186,41.267004]}},{"properties":{"city":"Sherwood","zip":"43556","geo_score":0.625,"id":"abo4179litaf","address":"105 N.Inman","geo_precision":"street","state":"OH"},"type":"Feature","geometry":{"type":"Point","coordinates":[-84.555893,41.284611]}},{"properties":{"city":"Sherwood","zip":"43556","geo_score":0.951,"id":"abo41715iqvo","address":"11283 Williams-Center Cecil","geo_precision":"range","state":"OH"},"type":"Feature","geometry":{"type":"Point","coordinates":[-84.610917,41.278072]}},{"properties":{"city":"Sherwood","zip":"43556","geo_score":0.643,"id":"abo4174inwzz","address":"105 S.Oak","geo_precision":"street","state":"OH"},"type":"Feature","geometry":{"type":"Point","coordinates":[-84.548621,41.287084]}},{"properties":{"city":"Sherwood","zip":"43556","geo_score":0.912,"id":"abo41738zyrg","address":"12684 Jericho","geo_precision":"range","state":"OH"},"type":"Feature","geometry":{"type":"Point","coordinates":[-84.572643,41.267264]}},{"properties":{"city":"Defiance","zip":"43512","geo_score":0.585,"id":"abo4176sngu3","address":"10834 Bend Rd","geo_precision":"zip","state":"OH"},"type":"Feature","geometry":{"type":"Point","coordinates":[-84.299947,41.297826]}}],"is_temporal":false,"author":{"url":"","metadata":null,"contact_name":null,"contact_address":null,"source":null,"contact_phone":null},"source":"","pagination":{"sort":null,"start":0,"total":488,"limit":1000000},"state":"complete","tags":"","published":"2014-08-16T18:22:23-04:00","id":313774}