{"type":"FeatureCollection","data_type":"Dataset","url_type":null,"permissions":[{"permissions":{"download":true,"view":true},"group_id":"everyone"}],"classification":null,"title":"Copy_of_IPTV-Glandorf-Jan-16-2013_-_CSV","count":317,"stream_id":313786,"contributor":{"url":"http://geocommons.com/users/59404","name":"KatieEtgen"},"data_attributes":null,"calculation_params":null,"icon_link":null,"link":"http://geocommons.com/overlays/313786.json","extent":[-88.6394,40.9495,-83.8818,44.3297],"geometry_types":["point"],"unique_name":null,"name":"Copy_of_IPTV-Glandorf-Jan-16-2013_-_CSV","feature_count":317,"description":"","next_feature":null,"is_raster":false,"short_classification":"Y","stats":{},"features":[{"properties":{"city":"Ottawa","zip":"45875","geo_score":0.566,"id":"abo4wg0a74gg","address":"9910 Rd I-9","geo_precision":"street","state":"OH"},"type":"Feature","geometry":{"type":"Point","coordinates":[-84.050924,41.006978]}},{"properties":{"city":"Ottawa","zip":"45875","geo_score":0.805,"id":"abo4wgdvaq6d","address":"10065 Rd I9","geo_precision":"street","state":"OH"},"type":"Feature","geometry":{"type":"Point","coordinates":[-84.116447,41.050199]}},{"properties":{"city":"Ottawa","zip":"45875","geo_score":0.958,"id":"abo4wgbq29j9","address":"12175 Rd 11J","geo_precision":"range","state":"OH"},"type":"Feature","geometry":{"type":"Point","coordinates":[-84.082507,41.004251]}},{"properties":{"city":"Ottawa","zip":"45875","geo_score":1.0,"id":"abo4wgarx8qr","address":"12629 RD J","geo_precision":"range","state":"OH"},"type":"Feature","geometry":{"type":"Point","coordinates":[-84.104429,41.035651]}},{"properties":{"city":"Ottawa","zip":"45875","geo_score":0.958,"id":"abo4wg0udina","address":"14290 Road 11J","geo_precision":"range","state":"OH"},"type":"Feature","geometry":{"type":"Point","coordinates":[-84.082132,40.972945]}},{"properties":{"city":"Ottawa","zip":"45875","geo_score":0.958,"id":"abo4wg97pyja","address":"14274 Rd 11J","geo_precision":"range","state":"OH"},"type":"Feature","geometry":{"type":"Point","coordinates":[-84.082136,40.973162]}},{"properties":{"city":"Ottawa","zip":"45875","geo_score":0.756,"id":"abo4wg055fr3","address":"12537 Rd 10L","geo_precision":"street","state":"OH"},"type":"Feature","geometry":{"type":"Point","coordinates":[-84.053058,40.962968]}},{"properties":{"city":"Ottawa","zip":"45875","geo_score":1.0,"id":"abo4wgd4vm05","address":"10030 Rd 13","geo_precision":"range","state":"OH"},"type":"Feature","geometry":{"type":"Point","coordinates":[-84.111619,41.035196]}},{"properties":{"city":"Ottawa","zip":"45875","geo_score":0.91,"id":"abo4wg5dknhp","address":"12192 St Rt 694","geo_precision":"range","state":"OH"},"type":"Feature","geometry":{"type":"Point","coordinates":[-84.096033,41.028904]}},{"properties":{"city":"Ottawa","zip":"45875","geo_score":0.878,"id":"abo4wga8wesr","address":"12770 Rd 12","geo_precision":"range","state":"OH"},"type":"Feature","geometry":{"type":"Point","coordinates":[-84.092118,40.995859]}},{"properties":{"city":"Ottawa","zip":"45875","geo_score":1.0,"id":"abo4wg3nzf7c","address":"102 Sunrise Ct","geo_precision":"range","state":"OH"},"type":"Feature","geometry":{"type":"Point","coordinates":[-84.074728,41.028077]}},{"properties":{"city":"Ottawa","zip":"45875","geo_score":0.721,"id":"abo4wgckc50h","address":"11600 Rd 14-J","geo_precision":"street","state":"OH"},"type":"Feature","geometry":{"type":"Point","coordinates":[-84.130355,40.991897]}},{"properties":{"city":"Glandorf","zip":"45848","geo_score":0.805,"id":"abo4wg1xurh7","address":"205 Hanover Court","geo_precision":"range","state":"OH"},"type":"Feature","geometry":{"type":"Point","coordinates":[-84.069997,41.024591]}},{"properties":{"city":"Ottawa","zip":"45875","geo_score":0.91,"id":"abo4wfy2ejxu","address":"13772 St Rt 694","geo_precision":"range","state":"OH"},"type":"Feature","geometry":{"type":"Point","coordinates":[-84.126326,41.028492]}},{"properties":{"city":"Ottawa","zip":"45875","geo_score":0.91,"id":"abo4wgd062n7","address":"13013 St Rt 694","geo_precision":"range","state":"OH"},"type":"Feature","geometry":{"type":"Point","coordinates":[-84.111709,41.028296]}},{"properties":{"city":"Ottawa","zip":"45875","geo_score":0.958,"id":"abo4wgbqdei9","address":"12733 Rd 11J","geo_precision":"range","state":"OH"},"type":"Feature","geometry":{"type":"Point","coordinates":[-84.082481,40.996142]}},{"properties":{"city":"Ottawa","zip":"45875","geo_score":0.805,"id":"abo4wg7dgunv","address":"10044 RD I9","geo_precision":"street","state":"OH"},"type":"Feature","geometry":{"type":"Point","coordinates":[-84.116447,41.050199]}},{"properties":{"city":"Ottawa","zip":"45875","geo_score":0.912,"id":"abo4wg474kjq","address":"12622 St Rt 224","geo_precision":"range","state":"OH"},"type":"Feature","geometry":{"type":"Point","coordinates":[-84.104217,41.012782]}},{"properties":{"city":"Ottawa","zip":"45875","geo_score":1.0,"id":"abo4wg2ugrd9","address":"12433 Rd K","geo_precision":"range","state":"OH"},"type":"Feature","geometry":{"type":"Point","coordinates":[-84.100255,41.021173]}},{"properties":{"city":"Ottawa","zip":"45875","geo_score":0.91,"id":"abo4wgdaajyu","address":"14979 St Rt 694","geo_precision":"range","state":"OH"},"type":"Feature","geometry":{"type":"Point","coordinates":[-84.149281,41.028152]}},{"properties":{"city":"Ottawa","zip":"45875","geo_score":1.0,"id":"abo4wgbvazgb","address":"12642 Rd 11","geo_precision":"range","state":"OH"},"type":"Feature","geometry":{"type":"Point","coordinates":[-84.073028,40.995599]}},{"properties":{"city":"Ottawa","zip":"45875","geo_score":1.0,"id":"abo4wg3jieye","address":"12701 Rd K","geo_precision":"range","state":"OH"},"type":"Feature","geometry":{"type":"Point","coordinates":[-84.105548,41.021141]}},{"properties":{"city":"Ottawa","zip":"45875","geo_score":0.958,"id":"abo4wg5k711o","address":"12555 Rd 11J","geo_precision":"range","state":"OH"},"type":"Feature","geometry":{"type":"Point","coordinates":[-84.082482,40.998714]}},{"properties":{"city":"Ottawa","zip":"45875","geo_score":1.0,"id":"abo4wfzd5da2","address":"9332 Rd 15-I","geo_precision":"range","state":"OH"},"type":"Feature","geometry":{"type":"Point","coordinates":[-84.159922,41.043444]}},{"properties":{"city":"Ottawa","zip":"45875","geo_score":1.0,"id":"abo4wg2aeu8a","address":"12369 Rd K","geo_precision":"range","state":"OH"},"type":"Feature","geometry":{"type":"Point","coordinates":[-84.099324,41.021259]}},{"properties":{"city":"Ottawa","zip":"45875","geo_score":1.0,"id":"abo4wg7jd3q7","address":"13121 Rd 13","geo_precision":"range","state":"OH"},"type":"Feature","geometry":{"type":"Point","coordinates":[-84.111336,40.990879]}},{"properties":{"city":"Ottawa","zip":"45875","geo_score":1.0,"id":"abo4wg0olnvl","address":"13376 Rd M","geo_precision":"range","state":"OH"},"type":"Feature","geometry":{"type":"Point","coordinates":[-84.117757,40.992078]}},{"properties":{"city":"Ottawa","zip":"45875","geo_score":1.0,"id":"abo4wfyqwr7g","address":"12096 Rd 12","geo_precision":"range","state":"OH"},"type":"Feature","geometry":{"type":"Point","coordinates":[-84.092287,41.007752]}},{"properties":{"city":"Ottawa","zip":"45875","geo_score":1.0,"id":"abo4wgavo5c6","address":"9331 Rd 13-I","geo_precision":"range","state":"OH"},"type":"Feature","geometry":{"type":"Point","coordinates":[-84.125977,41.045443]}},{"properties":{"city":"Ottawa","zip":"45875","geo_score":1.0,"id":"abo4wg9gor88","address":"11982 Rd 12","geo_precision":"range","state":"OH"},"type":"Feature","geometry":{"type":"Point","coordinates":[-84.092284,41.008883]}},{"properties":{"city":"Ottawa","zip":"45875","geo_score":0.78,"id":"abo4wgbvptji","address":"235 OG Road","geo_precision":"range","state":"OH"},"type":"Feature","geometry":{"type":"Point","coordinates":[-84.047128,41.021107]}},{"properties":{"city":"Ottawa","zip":"45875","geo_score":0.585,"id":"abo4wfxxxvc9","address":"169 Bismarck Dr","geo_precision":"zip","state":"OH"},"type":"Feature","geometry":{"type":"Point","coordinates":[-84.169112,41.020884]}},{"properties":{"city":"Ottawa","zip":"45875","geo_score":1.0,"id":"abo4wg8x6iop","address":"9201 Rd 11","geo_precision":"range","state":"OH"},"type":"Feature","geometry":{"type":"Point","coordinates":[-84.082204,41.049017]}},{"properties":{"city":"Ottawa","zip":"45875","geo_score":0.958,"id":"abo4wg68efx1","address":"12300 Rd 12K","geo_precision":"range","state":"OH"},"type":"Feature","geometry":{"type":"Point","coordinates":[-84.101891,41.002046]}},{"properties":{"city":"Ottawa","zip":"45875","geo_score":0.912,"id":"abo4wg48z5z3","address":"11980 St Rt 224","geo_precision":"range","state":"OH"},"type":"Feature","geometry":{"type":"Point","coordinates":[-84.092002,41.016783]}},{"properties":{"city":"Ottawa","zip":"45875","geo_score":0.756,"id":"abo4wg947iwr","address":"11407 Rd 10K","geo_precision":"street","state":"OH"},"type":"Feature","geometry":{"type":"Point","coordinates":[-84.053666,41.066063]}},{"properties":{"city":"Ottawa","zip":"45875","geo_score":0.878,"id":"abo4wgb9acl3","address":"12808 Rd 12","geo_precision":"range","state":"OH"},"type":"Feature","geometry":{"type":"Point","coordinates":[-84.092112,40.995252]}},{"properties":{"city":"Ottawa","zip":"45875","geo_score":0.958,"id":"abo4wg8lv7eb","address":"11676 Rd 12K","geo_precision":"range","state":"OH"},"type":"Feature","geometry":{"type":"Point","coordinates":[-84.101902,41.010931]}},{"properties":{"city":"Ottawa","zip":"45875","geo_score":1.0,"id":"abo4wgavbghl","address":"13802 RD J","geo_precision":"range","state":"OH"},"type":"Feature","geometry":{"type":"Point","coordinates":[-84.128519,41.035787]}},{"properties":{"city":"Ottawa","zip":"45875","geo_score":1.0,"id":"abo4wg006ysu","address":"200 Blanchard Ave","geo_precision":"range","state":"OH"},"type":"Feature","geometry":{"type":"Point","coordinates":[-84.078049,41.02896]}},{"properties":{"city":"Ottawa","zip":"45875","geo_score":0.764,"id":"abo4wg3q1dok","address":"11206 RD 12K","geo_precision":"street","state":"OH"},"type":"Feature","geometry":{"type":"Point","coordinates":[-84.101837,41.013496]}},{"properties":{"city":"Glandorf","zip":"45848","geo_score":0.87,"id":"abo4wfyi70om","address":"171 S Main","geo_precision":"range","state":"OH"},"type":"Feature","geometry":{"type":"Point","coordinates":[-84.081589,41.032261]}},{"properties":{"city":"Ottawa","zip":"45875","geo_score":1.0,"id":"abo4wgaqwgwr","address":"13884 Road 13","geo_precision":"range","state":"OH"},"type":"Feature","geometry":{"type":"Point","coordinates":[-84.11122,40.981261]}},{"properties":{"city":"Ottawa","zip":"45875","geo_score":1.0,"id":"abo4wgdyl85n","address":"12800 Rd 12-K","geo_precision":"range","state":"OH"},"type":"Feature","geometry":{"type":"Point","coordinates":[-84.101874,40.994934]}},{"properties":{"city":"Ottawa","zip":"45875","geo_score":0.756,"id":"abo4wfyp0lca","address":"13079 RD 10L","geo_precision":"street","state":"OH"},"type":"Feature","geometry":{"type":"Point","coordinates":[-84.053058,40.962968]}},{"properties":{"city":"Ottawa","zip":"45875","geo_score":1.0,"id":"abo4wg2pfv9b","address":"10435 RD M","geo_precision":"range","state":"OH"},"type":"Feature","geometry":{"type":"Point","coordinates":[-84.061807,40.992304]}},{"properties":{"city":"Ottawa","zip":"45875","geo_score":0.585,"id":"abo4wg7fa75m","address":"166 Bismarck Dr","geo_precision":"zip","state":"OH"},"type":"Feature","geometry":{"type":"Point","coordinates":[-84.169112,41.020884]}},{"properties":{"city":"Ottawa","zip":"45875","geo_score":1.0,"id":"abo4wgdtnbdo","address":"333 N Main st","geo_precision":"range","state":"OH"},"type":"Feature","geometry":{"type":"Point","coordinates":[-84.081784,41.032554]}},{"properties":{"city":"Ottawa","zip":"45875","geo_score":1.0,"id":"abo4wgb3g8l6","address":"13492 Rd 14","geo_precision":"range","state":"OH"},"type":"Feature","geometry":{"type":"Point","coordinates":[-84.130181,40.982194]}},{"properties":{"city":"Ottawa","zip":"45875","geo_score":1.0,"id":"abo4wgbko2b3","address":"12437 Rd J","geo_precision":"range","state":"OH"},"type":"Feature","geometry":{"type":"Point","coordinates":[-84.100551,41.035692]}},{"properties":{"city":"Ottawa","zip":"45875","geo_score":1.0,"id":"abo4wg6573b1","address":"117 Carlings Ave","geo_precision":"range","state":"OH"},"type":"Feature","geometry":{"type":"Point","coordinates":[-84.086098,41.03591]}},{"properties":{"city":"Ottawa","zip":"45875","geo_score":1.0,"id":"abo4wgayzlg2","address":"12552 RD K","geo_precision":"range","state":"OH"},"type":"Feature","geometry":{"type":"Point","coordinates":[-84.102866,41.021306]}},{"properties":{"city":"Ottawa","zip":"45875","geo_score":1.0,"id":"abo4wgavucyn","address":"10613 Road M","geo_precision":"range","state":"OH"},"type":"Feature","geometry":{"type":"Point","coordinates":[-84.064564,40.992299]}},{"properties":{"city":"Ottawa","zip":"45875","geo_score":1.0,"id":"abo4wg4lpsvt","address":"14008 Rd I","geo_precision":"range","state":"OH"},"type":"Feature","geometry":{"type":"Point","coordinates":[-84.131211,41.05034]}},{"properties":{"city":"Ottawa","zip":"45875","geo_score":1.0,"id":"abo4wg0fqz0b","address":"10889 Rd M","geo_precision":"range","state":"OH"},"type":"Feature","geometry":{"type":"Point","coordinates":[-84.071766,40.992245]}},{"properties":{"city":"Ottawa","zip":"45875","geo_score":0.958,"id":"abo4wg90nz3m","address":"13928 Rd 11J","geo_precision":"range","state":"OH"},"type":"Feature","geometry":{"type":"Point","coordinates":[-84.082191,40.978134]}},{"properties":{"city":"ottawa","zip":"45875","geo_score":1.0,"id":"abo4wgb229t5","address":"424 E Blake St","geo_precision":"range","state":"OH"},"type":"Feature","geometry":{"type":"Point","coordinates":[-84.082971,41.035892]}},{"properties":{"city":"Ottawa","zip":"45875","geo_score":1.0,"id":"abo4wgchskyv","address":"12305 Rd J","geo_precision":"range","state":"OH"},"type":"Feature","geometry":{"type":"Point","coordinates":[-84.098876,41.035713]}},{"properties":{"city":"Ottawa","zip":"45875","geo_score":1.0,"id":"abo4wfxrpvd4","address":"13868 Rd J","geo_precision":"range","state":"OH"},"type":"Feature","geometry":{"type":"Point","coordinates":[-84.129896,41.035786]}},{"properties":{"city":"OTTAWA","zip":"45875","geo_score":1.0,"id":"abo4wg6o8whu","address":"12806 Rd K","geo_precision":"range","state":"OH"},"type":"Feature","geometry":{"type":"Point","coordinates":[-84.107669,41.021273]}},{"properties":{"city":"Ottawa","zip":"45875","geo_score":0.622,"id":"abo4wg214awa","address":"241 O-G Rd","geo_precision":"street","state":"OH"},"type":"Feature","geometry":{"type":"Point","coordinates":[-84.092238,41.079133]}},{"properties":{"city":"Ottawa","zip":"45875","geo_score":0.756,"id":"abo4wfyd65on","address":"12845 Road 10L","geo_precision":"street","state":"OH"},"type":"Feature","geometry":{"type":"Point","coordinates":[-84.053058,40.962968]}},{"properties":{"city":"Ottawa","zip":"45875","geo_score":1.0,"id":"abo4wg7go0x5","address":"11343 Rd L","geo_precision":"range","state":"OH"},"type":"Feature","geometry":{"type":"Point","coordinates":[-84.078607,41.00674]}},{"properties":{"city":"Ottawa","zip":"45875","geo_score":1.0,"id":"abo4wfyhr13c","address":"12568 Rd 11","geo_precision":"range","state":"OH"},"type":"Feature","geometry":{"type":"Point","coordinates":[-84.073024,40.996357]}},{"properties":{"city":"Glandorf","zip":"45848","geo_score":0.902,"id":"abo4wg418i1h","address":"203 N Main","geo_precision":"range","state":"OH"},"type":"Feature","geometry":{"type":"Point","coordinates":[-84.081589,41.032261]}},{"properties":{"city":"Ottawa","zip":"45875","geo_score":0.566,"id":"abo4wgadcskw","address":"10020 Rd I-9","geo_precision":"street","state":"OH"},"type":"Feature","geometry":{"type":"Point","coordinates":[-84.050924,41.006978]}},{"properties":{"city":"Ottawa","zip":"45875","geo_score":1.0,"id":"abo4wg40pxpu","address":"13293 Rd 12","geo_precision":"range","state":"OH"},"type":"Feature","geometry":{"type":"Point","coordinates":[-84.091767,40.988119]}},{"properties":{"city":"Ottawa","zip":"45875","geo_score":0.805,"id":"abo4wgaa6r0w","address":"10508 Rd I9","geo_precision":"street","state":"OH"},"type":"Feature","geometry":{"type":"Point","coordinates":[-84.116447,41.050199]}},{"properties":{"city":"Ottawa","zip":"45875","geo_score":0.958,"id":"abo4wgbsou71","address":"13027 Rd 11J","geo_precision":"range","state":"OH"},"type":"Feature","geometry":{"type":"Point","coordinates":[-84.082149,40.991858]}},{"properties":{"city":"Ottawa","zip":"45875","geo_score":1.0,"id":"abo4wgbmefht","address":"12674 RD 11","geo_precision":"range","state":"OH"},"type":"Feature","geometry":{"type":"Point","coordinates":[-84.073045,40.995274]}},{"properties":{"city":"Ottawa","zip":"45875","geo_score":1.0,"id":"abo4wg7zslme","address":"11089 Rd 12","geo_precision":"range","state":"OH"},"type":"Feature","geometry":{"type":"Point","coordinates":[-84.092266,41.020005]}},{"properties":{"city":"Ottawa","zip":"45875","geo_score":1.0,"id":"abo4wg92hayf","address":"9899 Road M","geo_precision":"range","state":"OH"},"type":"Feature","geometry":{"type":"Point","coordinates":[-84.05238,40.992333]}},{"properties":{"city":"Ottawa","zip":"45875","geo_score":0.756,"id":"abo4wg1q7i18","address":"11140 Rd 10K","geo_precision":"street","state":"OH"},"type":"Feature","geometry":{"type":"Point","coordinates":[-84.053666,41.066063]}},{"properties":{"city":"Ottawa","zip":"45875","geo_score":0.756,"id":"abo4wg1s4gip","address":"12425 Rd 10L","geo_precision":"street","state":"OH"},"type":"Feature","geometry":{"type":"Point","coordinates":[-84.053058,40.962968]}},{"properties":{"city":"Ottawa","zip":"45875","geo_score":1.0,"id":"abo4wgch8qy4","address":"370 Lakeshore Dr.","geo_precision":"range","state":"OH"},"type":"Feature","geometry":{"type":"Point","coordinates":[-84.082569,41.029996]}},{"properties":{"city":"Ottawa","zip":"45875","geo_score":0.967,"id":"abo4wfzt5ks2","address":"266 S Main St.","geo_precision":"range","state":"OH"},"type":"Feature","geometry":{"type":"Point","coordinates":[-84.049787,41.019225]}},{"properties":{"city":"Glandorf","zip":"45848","geo_score":0.619,"id":"abo4wg0bp0ox","address":"135 S. Main St.","geo_precision":"street","state":"OH"},"type":"Feature","geometry":{"type":"Point","coordinates":[-84.07978,41.029818]}},{"properties":{"city":"Ottawa","zip":"45875","geo_score":1.0,"id":"abo4wg4ovcp9","address":"12915 Rd 12","geo_precision":"range","state":"OH"},"type":"Feature","geometry":{"type":"Point","coordinates":[-84.092109,40.993542]}},{"properties":{"city":"Ottawa","zip":"45875","geo_score":1.0,"id":"abo4wfyixdc9","address":"9655 Rd 15","geo_precision":"range","state":"OH"},"type":"Feature","geometry":{"type":"Point","coordinates":[-84.15002,41.040128]}},{"properties":{"city":"Ottawa","zip":"45875","geo_score":0.776,"id":"abo4wg1hx2df","address":"13501 US Rt 224","geo_precision":"street","state":"OH"},"type":"Feature","geometry":{"type":"Point","coordinates":[-84.11147,41.010295]}},{"properties":{"city":"Glandorf","zip":"45848","geo_score":0.619,"id":"abo4wg66v3dw","address":"320 N. Main St., PO BOX 25","geo_precision":"street","state":"OH"},"type":"Feature","geometry":{"type":"Point","coordinates":[-84.07978,41.029818]}},{"properties":{"city":"Ottawa","zip":"45875","geo_score":0.92,"id":"abo4wgbg2cbv","address":"126 Eastwick","geo_precision":"range","state":"OH"},"type":"Feature","geometry":{"type":"Point","coordinates":[-84.072619,41.024922]}},{"properties":{"city":"Ottawa","zip":"45875","geo_score":1.0,"id":"abo4wg1lyagl","address":"260 Lakeshore Dr","geo_precision":"range","state":"OH"},"type":"Feature","geometry":{"type":"Point","coordinates":[-84.086465,41.033645]}},{"properties":{"city":"Ottawa","zip":"45875","geo_score":0.763,"id":"abo4wg55h7fw","address":"12473 Rd 10-L","geo_precision":"street","state":"OH"},"type":"Feature","geometry":{"type":"Point","coordinates":[-84.061826,41.040995]}},{"properties":{"city":"Ottawa","zip":"45875","geo_score":0.967,"id":"abo4wg1cef8n","address":"162 Bremen Dr.","geo_precision":"range","state":"OH"},"type":"Feature","geometry":{"type":"Point","coordinates":[-84.069588,41.025527]}},{"properties":{"city":"Ottawa","zip":"45875","geo_score":1.0,"id":"abo4wg0uov04","address":"315 N Main St","geo_precision":"range","state":"OH"},"type":"Feature","geometry":{"type":"Point","coordinates":[-84.081966,41.032884]}},{"properties":{"city":"Ottawa","zip":"45875","geo_score":0.805,"id":"abo4wg1csjzq","address":"10100 Rd I9","geo_precision":"street","state":"OH"},"type":"Feature","geometry":{"type":"Point","coordinates":[-84.116447,41.050199]}},{"properties":{"city":"Ottawa","zip":"45875","geo_score":0.805,"id":"abo4wg6xwrtz","address":"10182 Rd I9","geo_precision":"street","state":"OH"},"type":"Feature","geometry":{"type":"Point","coordinates":[-84.116447,41.050199]}},{"properties":{"city":"Ottawa","zip":"45875","geo_score":0.566,"id":"abo4wg2gnmys","address":"10184 Rd I-9","geo_precision":"street","state":"OH"},"type":"Feature","geometry":{"type":"Point","coordinates":[-84.050924,41.006978]}},{"properties":{"city":"Ottawa","zip":"45875","geo_score":1.0,"id":"abo4wg97kjgu","address":"9626 Rd 13-I","geo_precision":"range","state":"OH"},"type":"Feature","geometry":{"type":"Point","coordinates":[-84.126056,41.041133]}},{"properties":{"city":"Ottawa","zip":"45875","geo_score":1.0,"id":"abo4wg5o7z3s","address":"11715 Rd M","geo_precision":"range","state":"OH"},"type":"Feature","geometry":{"type":"Point","coordinates":[-84.082545,40.992178]}},{"properties":{"city":"Glandorf","zip":"45848","geo_score":0.902,"id":"abo4wgcixs0n","address":"280 N Main","geo_precision":"range","state":"OH"},"type":"Feature","geometry":{"type":"Point","coordinates":[-84.082469,41.033294]}},{"properties":{"city":"Ottawa","zip":"45875","geo_score":1.0,"id":"abo4wg3lmcqo","address":"10147 Rd M","geo_precision":"range","state":"OH"},"type":"Feature","geometry":{"type":"Point","coordinates":[-84.056815,40.992318]}},{"properties":{"city":"Ottawa","zip":"45875","geo_score":1.0,"id":"abo4wgcjqebj","address":"10195 Rd 15","geo_precision":"range","state":"OH"},"type":"Feature","geometry":{"type":"Point","coordinates":[-84.149982,41.032667]}},{"properties":{"city":"Ottawa","zip":"45875","geo_score":0.91,"id":"abo4wg46hzfs","address":"14752 St Rt 694","geo_precision":"range","state":"OH"},"type":"Feature","geometry":{"type":"Point","coordinates":[-84.14498,41.028342]}},{"properties":{"city":"Ottawa","zip":"45875","geo_score":1.0,"id":"abo4wg9sfe6u","address":"14862 Rd J","geo_precision":"range","state":"OH"},"type":"Feature","geometry":{"type":"Point","coordinates":[-84.147273,41.035604]}},{"properties":{"city":"Ottawa","zip":"45875","geo_score":1.0,"id":"abo4wfxpg7z4","address":"11949 Rd 11","geo_precision":"range","state":"OH"},"type":"Feature","geometry":{"type":"Point","coordinates":[-84.072926,41.003101]}},{"properties":{"city":"Ottawa","zip":"45875","geo_score":0.756,"id":"abo4wg43fon0","address":"11201 Rd 10K","geo_precision":"street","state":"OH"},"type":"Feature","geometry":{"type":"Point","coordinates":[-84.053666,41.066063]}},{"properties":{"city":"Ottawa","zip":"45875","geo_score":0.958,"id":"abo4wgaktss0","address":"11294 Rd 11J","geo_precision":"range","state":"OH"},"type":"Feature","geometry":{"type":"Point","coordinates":[-84.082683,41.018118]}},{"properties":{"city":"Ottawa","zip":"45875","geo_score":1.0,"id":"abo4wfz2nlse","address":"13748 Rd L","geo_precision":"range","state":"OH"},"type":"Feature","geometry":{"type":"Point","coordinates":[-84.125212,41.006595]}},{"properties":{"city":"Ottawa","zip":"45875","geo_score":0.585,"id":"abo4wgcmxyg0","address":"14271 Rd K-14","geo_precision":"zip","state":"OH"},"type":"Feature","geometry":{"type":"Point","coordinates":[-84.169112,41.020884]}},{"properties":{"city":"Ottawa","zip":"45875","geo_score":0.958,"id":"abo4wg3cxqd6","address":"13642 Road 11J","geo_precision":"range","state":"OH"},"type":"Feature","geometry":{"type":"Point","coordinates":[-84.08223,40.982497]}},{"properties":{"city":"Ottawa","zip":"45875","geo_score":0.958,"id":"abo4wg46lnnf","address":"12674 Rd 11J","geo_precision":"range","state":"OH"},"type":"Feature","geometry":{"type":"Point","coordinates":[-84.082631,40.996989]}},{"properties":{"city":"Ottawa","zip":"45875","geo_score":0.756,"id":"abo4wg5j8tlt","address":"10796 Rd 14J","geo_precision":"street","state":"OH"},"type":"Feature","geometry":{"type":"Point","coordinates":[-84.130355,40.991897]}},{"properties":{"city":"Ottawa","zip":"45875","geo_score":0.912,"id":"abo4wga9bvc9","address":"12201 St Rt 224","geo_precision":"range","state":"OH"},"type":"Feature","geometry":{"type":"Point","coordinates":[-84.095416,41.015315]}},{"properties":{"city":"Ottawa","zip":"45875","geo_score":1.0,"id":"abo4wg1h2iui","address":"284 S Main","geo_precision":"range","state":"OH"},"type":"Feature","geometry":{"type":"Point","coordinates":[-84.075226,41.023955]}},{"properties":{"city":"Ottawa","zip":"45875","geo_score":1.0,"id":"abo4wg5lhw1l","address":"12165 Rd M10","geo_precision":"range","state":"OH"},"type":"Feature","geometry":{"type":"Point","coordinates":[-84.086917,40.992135]}},{"properties":{"city":"Glandorf","zip":"45848","geo_score":1.0,"id":"abo4wg90ivyr","address":"120 N Main St, PO BOX 45","geo_precision":"street","state":"OH"},"type":"Feature","geometry":{"type":"Point","coordinates":[-84.07978,41.029818]}},{"properties":{"city":"Ottawa","zip":"45875","geo_score":1.0,"id":"abo4wfznjc04","address":"13335 Rd M","geo_precision":"range","state":"OH"},"type":"Feature","geometry":{"type":"Point","coordinates":[-84.117152,40.991934]}},{"properties":{"city":"Ottawa","zip":"45875","geo_score":1.0,"id":"abo4wfxo9pmp","address":"12015 Rd J","geo_precision":"range","state":"OH"},"type":"Feature","geometry":{"type":"Point","coordinates":[-84.09572,41.035747]}},{"properties":{"city":"Ottawa","zip":"45875","geo_score":0.92,"id":"abo4wgdvig75","address":"448 Anthony Ave","geo_precision":"range","state":"OH"},"type":"Feature","geometry":{"type":"Point","coordinates":[-84.082927,41.036087]}},{"properties":{"city":"Ottawa","zip":"45875","geo_score":1.0,"id":"abo4wg7k6hez","address":"340 Lakeshore Dr","geo_precision":"range","state":"OH"},"type":"Feature","geometry":{"type":"Point","coordinates":[-84.083533,41.031097]}},{"properties":{"city":"Ottawa","zip":"45875","geo_score":1.0,"id":"abo4wg2cg9bp","address":"13853 Rd J","geo_precision":"range","state":"OH"},"type":"Feature","geometry":{"type":"Point","coordinates":[-84.129714,41.035638]}},{"properties":{"city":"Ottawa","zip":"45875","geo_score":1.0,"id":"abo4wg6bnwa2","address":"13497B Rd M","geo_precision":"range","state":"OH"},"type":"Feature","geometry":{"type":"Point","coordinates":[-84.120774,40.991912]}},{"properties":{"city":"Ottawa","zip":"45875","geo_score":0.722,"id":"abo4wgdvfkn6","address":"14722 Rd I-14","geo_precision":"street","state":"OH"},"type":"Feature","geometry":{"type":"Point","coordinates":[-84.130062,40.972697]}},{"properties":{"city":"Ottawa","zip":"45875","geo_score":1.0,"id":"abo4wg64qdz0","address":"14213 Rd M","geo_precision":"range","state":"OH"},"type":"Feature","geometry":{"type":"Point","coordinates":[-84.133186,40.991801]}},{"properties":{"city":"Ottawa","zip":"45875","geo_score":1.0,"id":"abo4wg4m4sy7","address":"11854 Road 11","geo_precision":"range","state":"OH"},"type":"Feature","geometry":{"type":"Point","coordinates":[-84.073004,41.00685]}},{"properties":{"city":"Ottawa","zip":"45875","geo_score":0.805,"id":"abo4wg1qbq5w","address":"9994 Rd I9","geo_precision":"street","state":"OH"},"type":"Feature","geometry":{"type":"Point","coordinates":[-84.116447,41.050199]}},{"properties":{"city":"Ottawa","zip":"45875","geo_score":1.0,"id":"abo4wg1o4bsq","address":"105 Morman St","geo_precision":"range","state":"OH"},"type":"Feature","geometry":{"type":"Point","coordinates":[-84.082719,41.034115]}},{"properties":{"city":"Ottawa","zip":"45875","geo_score":1.0,"id":"abo4wfyj3qpw","address":"14204 Rd I","geo_precision":"range","state":"OH"},"type":"Feature","geometry":{"type":"Point","coordinates":[-84.135645,41.050138]}},{"properties":{"city":"Ottawa","zip":"45875","geo_score":0.585,"id":"abo4wgbjf5et","address":"142 Bismarck Dr","geo_precision":"zip","state":"OH"},"type":"Feature","geometry":{"type":"Point","coordinates":[-84.169112,41.020884]}},{"properties":{"city":"Ottawa","zip":"45875","geo_score":1.0,"id":"abo4wg4jorc6","address":"136 Washington St","geo_precision":"range","state":"OH"},"type":"Feature","geometry":{"type":"Point","coordinates":[-84.074343,41.023078]}},{"properties":{"city":"Ottawa","zip":"45875","geo_score":1.0,"id":"abo4wg4y6jw8","address":"306 S Main","geo_precision":"range","state":"OH"},"type":"Feature","geometry":{"type":"Point","coordinates":[-84.075036,41.02367]}},{"properties":{"city":"Ottawa","zip":"45875","geo_score":1.0,"id":"abo4wgdy91rs","address":"9060 Rd 11","geo_precision":"range","state":"OH"},"type":"Feature","geometry":{"type":"Point","coordinates":[-84.081648,41.049848]}},{"properties":{"city":"Ottawa","zip":"45875","geo_score":1.0,"id":"abo4wg6uuewg","address":"12369 RD K","geo_precision":"range","state":"OH"},"type":"Feature","geometry":{"type":"Point","coordinates":[-84.099324,41.021259]}},{"properties":{"city":"Ottawa","zip":"45875","geo_score":1.0,"id":"abo4wga07jq1","address":"12124 Rd 11","geo_precision":"range","state":"OH"},"type":"Feature","geometry":{"type":"Point","coordinates":[-84.073067,41.000915]}},{"properties":{"city":"Ottawa","zip":"45875","geo_score":1.0,"id":"abo4wgbtf1az","address":"13753 Rd M13","geo_precision":"range","state":"OH"},"type":"Feature","geometry":{"type":"Point","coordinates":[-84.125488,40.991865]}},{"properties":{"city":"Ottawa","zip":"45875","geo_score":1.0,"id":"abo4wfxnxvsa","address":"214 S Main (Glandorf)","geo_precision":"street","state":"OH"},"type":"Feature","geometry":{"type":"Point","coordinates":[-84.078746,41.028461]}},{"properties":{"city":"Ottawa","zip":"45875","geo_score":1.0,"id":"abo4wg7t2h3e","address":"12792 Rd K","geo_precision":"range","state":"OH"},"type":"Feature","geometry":{"type":"Point","coordinates":[-84.107465,41.021274]}},{"properties":{"city":"Glandorf","zip":"45848","geo_score":0.868,"id":"abo4wg225z1p","address":"279 Blanchard, PO BOX 92","geo_precision":"street","state":"OH"},"type":"Feature","geometry":{"type":"Point","coordinates":[-84.078049,41.02896]}},{"properties":{"city":"Ottawa","zip":"45875","geo_score":0.912,"id":"abo4wg4mu38p","address":"12419 ST Rt 224","geo_precision":"range","state":"OH"},"type":"Feature","geometry":{"type":"Point","coordinates":[-84.100234,41.01394]}},{"properties":{"city":"Ottawa","zip":"45875","geo_score":1.0,"id":"abo4wfy95488","address":"12296 Rd M10","geo_precision":"range","state":"OH"},"type":"Feature","geometry":{"type":"Point","coordinates":[-84.090826,40.992271]}},{"properties":{"city":"Ottawa","zip":"45875","geo_score":1.0,"id":"abo4wg7mzjxe","address":"224 Kennedy St","geo_precision":"range","state":"OH"},"type":"Feature","geometry":{"type":"Point","coordinates":[-84.070118,41.02222]}},{"properties":{"city":"Ottawa","zip":"45875","geo_score":1.0,"id":"abo4wg1x5xui","address":"142 Washington St","geo_precision":"range","state":"OH"},"type":"Feature","geometry":{"type":"Point","coordinates":[-84.072274,41.023171]}},{"properties":{"city":"Ottawa","zip":"45875","geo_score":1.0,"id":"abo4wg738utu","address":"10011 Rd 13-I","geo_precision":"range","state":"OH"},"type":"Feature","geometry":{"type":"Point","coordinates":[-84.125921,41.035554]}},{"properties":{"city":"Ottawa","zip":"45875","geo_score":0.721,"id":"abo4wg6hud8s","address":"16256 Rd I-14","geo_precision":"street","state":"OH"},"type":"Feature","geometry":{"type":"Point","coordinates":[-84.130062,40.972697]}},{"properties":{"city":"Ottawa","zip":"45875","geo_score":0.958,"id":"abo4wgctzd91","address":"11900 Road 12K","geo_precision":"range","state":"OH"},"type":"Feature","geometry":{"type":"Point","coordinates":[-84.101914,41.00776]}},{"properties":{"city":"Ottawa","zip":"45875","geo_score":0.756,"id":"abo4wg5j45ip","address":"11244 Road 10K","geo_precision":"street","state":"OH"},"type":"Feature","geometry":{"type":"Point","coordinates":[-84.053666,41.066063]}},{"properties":{"city":"Ottawa","zip":"45875","geo_score":1.0,"id":"abo4wgbr2jky","address":"11556 Road M","geo_precision":"range","state":"OH"},"type":"Feature","geometry":{"type":"Point","coordinates":[-84.080515,40.992347]}},{"properties":{"city":"Ottawa","zip":"45875","geo_score":1.0,"id":"abo4wg213wnq","address":"11646 Road 12","geo_precision":"range","state":"OH"},"type":"Feature","geometry":{"type":"Point","coordinates":[-84.092292,41.012197]}},{"properties":{"city":"Ottawa","zip":"45875","geo_score":0.756,"id":"abo4wgaqig6v","address":"11374 Rd 10K","geo_precision":"street","state":"OH"},"type":"Feature","geometry":{"type":"Point","coordinates":[-84.053666,41.066063]}},{"properties":{"city":"Ottawa","zip":"45875","geo_score":1.0,"id":"abo4wfxul7tp","address":"11975 Road 11","geo_precision":"range","state":"OH"},"type":"Feature","geometry":{"type":"Point","coordinates":[-84.072925,41.002813]}},{"properties":{"city":"Ottawa","zip":"45875","geo_score":1.0,"id":"abo4wg8pd1u9","address":"12502 Rd 11","geo_precision":"range","state":"OH"},"type":"Feature","geometry":{"type":"Point","coordinates":[-84.073026,40.997054]}},{"properties":{"city":"Ottawa","zip":"45875","geo_score":0.756,"id":"abo4wgbuvfhv","address":"11049 Road 10K","geo_precision":"street","state":"OH"},"type":"Feature","geometry":{"type":"Point","coordinates":[-84.053666,41.066063]}},{"properties":{"city":"Ottawa","zip":"45875","geo_score":0.958,"id":"abo4wg9n26bd","address":"10020 RD 13I","geo_precision":"range","state":"OH"},"type":"Feature","geometry":{"type":"Point","coordinates":[-84.126069,41.035407]}},{"properties":{"city":"Ottawa","zip":"45875","geo_score":1.0,"id":"abo4wg9epr17","address":"10232 Road 13","geo_precision":"range","state":"OH"},"type":"Feature","geometry":{"type":"Point","coordinates":[-84.11162,41.03225]}},{"properties":{"city":"Ottawa","zip":"45875","geo_score":1.0,"id":"abo4wg5q5wb4","address":"171 German St","geo_precision":"range","state":"OH"},"type":"Feature","geometry":{"type":"Point","coordinates":[-84.082576,41.025644]}},{"properties":{"city":"Glandorf","zip":"45848","geo_score":0.393,"id":"abo4wfzvfdj0","address":"108 Dr. thatye Dr, PO Box 132","geo_precision":"street","state":"OH"},"type":"Feature","geometry":{"type":"Point","coordinates":[-83.88175,40.949493]}},{"properties":{"city":"Ottawa","zip":"45875","geo_score":1.0,"id":"abo4wg22f3f9","address":"626 E Blake St","geo_precision":"range","state":"OH"},"type":"Feature","geometry":{"type":"Point","coordinates":[-84.079072,41.035854]}},{"properties":{"city":"Ottawa","zip":"45875","geo_score":0.566,"id":"abo4wg536kd6","address":"10559 Road I-9","geo_precision":"street","state":"OH"},"type":"Feature","geometry":{"type":"Point","coordinates":[-84.050924,41.006978]}},{"properties":{"city":"Ottawa","zip":"45875","geo_score":1.0,"id":"abo4wg4ptfdc","address":"9020 Rd 11","geo_precision":"range","state":"OH"},"type":"Feature","geometry":{"type":"Point","coordinates":[-84.081159,41.050288]}},{"properties":{"city":"Ottawa","zip":"45875","geo_score":1.0,"id":"abo4wg5zpei9","address":"11942 Road 12","geo_precision":"range","state":"OH"},"type":"Feature","geometry":{"type":"Point","coordinates":[-84.092283,41.009279]}},{"properties":{"city":"Ottawa","zip":"45875","geo_score":1.0,"id":"abo4wgatvkpn","address":"13790 Road I","geo_precision":"range","state":"OH"},"type":"Feature","geometry":{"type":"Point","coordinates":[-84.126627,41.05035]}},{"properties":{"city":"Ottawa","zip":"45875","geo_score":1.0,"id":"abo4wg0mlax4","address":"9464 Rd 11","geo_precision":"range","state":"OH"},"type":"Feature","geometry":{"type":"Point","coordinates":[-84.081875,41.04465]}},{"properties":{"city":"Ottawa","zip":"45875","geo_score":0.91,"id":"abo4wg04s4zo","address":"12327 ST Rt 694","geo_precision":"range","state":"OH"},"type":"Feature","geometry":{"type":"Point","coordinates":[-84.098574,41.028741]}},{"properties":{"city":"Ottawa","zip":"45875","geo_score":1.0,"id":"abo4wfxm7xqt","address":"12331 Rd 11","geo_precision":"range","state":"OH"},"type":"Feature","geometry":{"type":"Point","coordinates":[-84.072889,40.998919]}},{"properties":{"city":"Ottawa","zip":"45875","geo_score":0.91,"id":"abo4wg9o2exp","address":"13951 St Rt 694","geo_precision":"range","state":"OH"},"type":"Feature","geometry":{"type":"Point","coordinates":[-84.129801,41.028355]}},{"properties":{"city":"Ottawa","zip":"45875","geo_score":1.0,"id":"abo4wg9tm8dx","address":"13832 Rd 12","geo_precision":"range","state":"OH"},"type":"Feature","geometry":{"type":"Point","coordinates":[-84.091896,40.980573]}},{"properties":{"city":"Ottawa","zip":"45875","geo_score":1.0,"id":"abo4wg7pkv5n","address":"12253 Road 11","geo_precision":"range","state":"OH"},"type":"Feature","geometry":{"type":"Point","coordinates":[-84.072899,40.999764]}},{"properties":{"city":"Ottawa","zip":"45875","geo_score":1.0,"id":"abo4wfztv833","address":"14957 Rd L","geo_precision":"range","state":"OH"},"type":"Feature","geometry":{"type":"Point","coordinates":[-84.148951,41.006294]}},{"properties":{"city":"Ottawa","zip":"45875","geo_score":1.0,"id":"abo4wg83pvdc","address":"212 Washington St","geo_precision":"range","state":"OH"},"type":"Feature","geometry":{"type":"Point","coordinates":[-84.070409,41.023089]}},{"properties":{"city":"Ottawa","zip":"45875","geo_score":1.0,"id":"abo4wg9nmhlw","address":"14189 Rd M","geo_precision":"range","state":"OH"},"type":"Feature","geometry":{"type":"Point","coordinates":[-84.132921,40.991803]}},{"properties":{"city":"Ottawa","zip":"45875","geo_score":1.0,"id":"abo4wg2znw4b","address":"13950 Rd 12","geo_precision":"range","state":"OH"},"type":"Feature","geometry":{"type":"Point","coordinates":[-84.091885,40.978977]}},{"properties":{"city":"Ottawa","zip":"45875","geo_score":0.878,"id":"abo4wg2fd7du","address":"211 Easthaven Dr","geo_precision":"range","state":"OH"},"type":"Feature","geometry":{"type":"Point","coordinates":[-84.068908,41.025576]}},{"properties":{"city":"Ottawa","zip":"45875","geo_score":1.0,"id":"abo4wgb32b6f","address":"215 Park St","geo_precision":"range","state":"OH"},"type":"Feature","geometry":{"type":"Point","coordinates":[-84.08257,41.028545]}},{"properties":{"city":"Ottawa","zip":"45875","geo_score":1.0,"id":"abo4wg4pvd44","address":"13360 Rd 12","geo_precision":"range","state":"OH"},"type":"Feature","geometry":{"type":"Point","coordinates":[-84.09191,40.987168]}},{"properties":{"city":"OTTAWA","zip":"45875","geo_score":0.756,"id":"abo4wg0e178i","address":"11561 Rd 10K","geo_precision":"street","state":"OH"},"type":"Feature","geometry":{"type":"Point","coordinates":[-84.053058,40.962968]}},{"properties":{"city":"Ottawa","zip":"45875","geo_score":1.0,"id":"abo4wg7u09st","address":"12483 Rd 11","geo_precision":"range","state":"OH"},"type":"Feature","geometry":{"type":"Point","coordinates":[-84.072877,40.997271]}},{"properties":{"city":"Ottawa","zip":"45875","geo_score":1.0,"id":"abo4wg6r42f4","address":"12633 Rd M","geo_precision":"range","state":"OH"},"type":"Feature","geometry":{"type":"Point","coordinates":[-84.100839,40.992047]}},{"properties":{"city":"Ottawa","zip":"45875","geo_score":1.0,"id":"abo4wfyk5yw5","address":"12527 Road M","geo_precision":"range","state":"OH"},"type":"Feature","geometry":{"type":"Point","coordinates":[-84.097703,40.99207]}},{"properties":{"city":"Ottawa","zip":"45875","geo_score":0.971,"id":"abo4wfy254xj","address":"11957 US RT 224","geo_precision":"range","state":"OH"},"type":"Feature","geometry":{"type":"Point","coordinates":[-84.091749,41.016812]}},{"properties":{"city":"Ottawa","zip":"45875","geo_score":1.0,"id":"abo4wfyyo7gt","address":"11603 Rd 12-K","geo_precision":"range","state":"OH"},"type":"Feature","geometry":{"type":"Point","coordinates":[-84.101754,41.012005]}},{"properties":{"city":"Ottawa","zip":"45875","geo_score":0.958,"id":"abo4wfzo291e","address":"11629 Road 12K","geo_precision":"range","state":"OH"},"type":"Feature","geometry":{"type":"Point","coordinates":[-84.101753,41.011628]}},{"properties":{"city":"Glandorf","zip":"45848","geo_score":0.614,"id":"abo4wg83uwht","address":"411 Anthony Ave, PO Box 104","geo_precision":"street","state":"OH"},"type":"Feature","geometry":{"type":"Point","coordinates":[-84.082971,41.035892]}},{"properties":{"city":"Ottawa","zip":"45875","geo_score":0.958,"id":"abo4wg09ycxu","address":"12276 Rd 12K","geo_precision":"range","state":"OH"},"type":"Feature","geometry":{"type":"Point","coordinates":[-84.101895,41.002389]}},{"properties":{"city":"Ottawa","zip":"45875","geo_score":1.0,"id":"abo4wg78zs8l","address":"13590 Rd J","geo_precision":"range","state":"OH"},"type":"Feature","geometry":{"type":"Point","coordinates":[-84.117721,41.035732]}},{"properties":{"city":"Ottawa","zip":"45875","geo_score":1.0,"id":"abo4wg316dd6","address":"13497 Rd M","geo_precision":"range","state":"OH"},"type":"Feature","geometry":{"type":"Point","coordinates":[-84.120774,40.991912]}},{"properties":{"city":"Glandorf","zip":"45848","geo_score":0.81,"id":"abo4wg2d3o8k","address":"100 S Main, PO BOX 110","geo_precision":"street","state":"OH"},"type":"Feature","geometry":{"type":"Point","coordinates":[-84.07978,41.029818]}},{"properties":{"city":"Ottawa","zip":"45875","geo_score":1.0,"id":"abo4wgbd2emf","address":"14167 Rd K14","geo_precision":"range","state":"OH"},"type":"Feature","geometry":{"type":"Point","coordinates":[-84.133861,41.02103]}},{"properties":{"city":"Ottawa","zip":"45875","geo_score":0.725,"id":"abo4wg9keoc6","address":"14151 Rd K 14","geo_precision":"street","state":"OH"},"type":"Feature","geometry":{"type":"Point","coordinates":[-84.141296,41.066306]}},{"properties":{"city":"Ottawa","zip":"45875","geo_score":0.688,"id":"abo4wfy9jn3e","address":"14158 US 224","geo_precision":"street","state":"OH"},"type":"Feature","geometry":{"type":"Point","coordinates":[-84.11147,41.010295]}},{"properties":{"city":"Ottawa","zip":"45875","geo_score":1.0,"id":"abo4wgcnp5d2","address":"9406 Road 13","geo_precision":"range","state":"OH"},"type":"Feature","geometry":{"type":"Point","coordinates":[-84.111576,41.044292]}},{"properties":{"city":"Ottawa","zip":"45875","geo_score":1.0,"id":"abo4wfy0y43b","address":"13018 Rd J","geo_precision":"range","state":"OH"},"type":"Feature","geometry":{"type":"Point","coordinates":[-84.117291,41.035729]}},{"properties":{"city":"Ottawa","zip":"45875","geo_score":1.0,"id":"abo4wg1vzdcp","address":"13218 Rd J","geo_precision":"range","state":"OH"},"type":"Feature","geometry":{"type":"Point","coordinates":[-84.112636,41.035709]}},{"properties":{"city":"Ottawa","zip":"45875","geo_score":0.958,"id":"abo4wgahqpwq","address":"9338 Rd 13I","geo_precision":"range","state":"OH"},"type":"Feature","geometry":{"type":"Point","coordinates":[-84.126052,41.045355]}},{"properties":{"city":"Ottawa","zip":"45875","geo_score":0.878,"id":"abo4wgard10m","address":"9338 Rd 13","geo_precision":"range","state":"OH"},"type":"Feature","geometry":{"type":"Point","coordinates":[-84.1115,41.042592]}},{"properties":{"city":"Ottawa","zip":"45875","geo_score":0.756,"id":"abo4wg1f0jpz","address":"12376 Rd 10L","geo_precision":"street","state":"OH"},"type":"Feature","geometry":{"type":"Point","coordinates":[-84.053058,40.962968]}},{"properties":{"city":"Glandorf","zip":"45848","geo_score":0.952,"id":"abo4wg28macl","address":"141 S Main St, PO Box 172","geo_precision":"street","state":"OH"},"type":"Feature","geometry":{"type":"Point","coordinates":[-84.07978,41.029818]}},{"properties":{"city":"Glandorf","zip":"45848","geo_score":0.714,"id":"abo4wfzx8s8t","address":"11878 Rd J, PO BOx 111","geo_precision":"street","state":"OH"},"type":"Feature","geometry":{"type":"Point","coordinates":[-83.894053,41.036721]}},{"properties":{"city":"Ottawa","zip":"45875","geo_score":0.756,"id":"abo4wg61y0px","address":"11671 Rd 10K","geo_precision":"street","state":"OH"},"type":"Feature","geometry":{"type":"Point","coordinates":[-84.053058,40.962968]}},{"properties":{"city":"Glandorf","zip":"45848","geo_score":0.597,"id":"abo4wg8o7zip","address":"138 Westwood, PO BOX 128","geo_precision":"street","state":"OH"},"type":"Feature","geometry":{"type":"Point","coordinates":[-84.076076,41.025142]}},{"properties":{"city":"Ottawa","zip":"45875","geo_score":0.958,"id":"abo4wg0o828w","address":"12523 Rd 11J","geo_precision":"range","state":"OH"},"type":"Feature","geometry":{"type":"Point","coordinates":[-84.082485,40.99918]}},{"properties":{"city":"Ottawa","zip":"45875","geo_score":1.0,"id":"abo4wg6e21xt","address":"9976 Rd M","geo_precision":"range","state":"OH"},"type":"Feature","geometry":{"type":"Point","coordinates":[-84.053445,40.99248]}},{"properties":{"city":"Ottawa","zip":"45875","geo_score":0.722,"id":"abo4wgctujkq","address":"14732 Rd I-14","geo_precision":"street","state":"OH"},"type":"Feature","geometry":{"type":"Point","coordinates":[-84.130062,40.972697]}},{"properties":{"city":"Ottawa","zip":"45875","geo_score":0.721,"id":"abo4wgcrxmej","address":"10643 Rd 14-J","geo_precision":"street","state":"OH"},"type":"Feature","geometry":{"type":"Point","coordinates":[-84.130767,41.057573]}},{"properties":{"city":"Ottawa","zip":"45875","geo_score":1.0,"id":"abo4wg9bifsl","address":"13986 Rd J","geo_precision":"range","state":"OH"},"type":"Feature","geometry":{"type":"Point","coordinates":[-84.131567,41.035773]}},{"properties":{"city":"Glandorf","zip":"45848","geo_score":1.0,"id":"abo4wg2f8d3g","address":"109 N Main St","geo_precision":"range","state":"OH"},"type":"Feature","geometry":{"type":"Point","coordinates":[-84.07978,41.029818]}},{"properties":{"city":"Ottawa","zip":"45875","geo_score":1.0,"id":"abo4wg5yw1dn","address":"13531 Rd 12","geo_precision":"range","state":"OH"},"type":"Feature","geometry":{"type":"Point","coordinates":[-84.091759,40.984794]}},{"properties":{"city":"Ottawa","zip":"45875","geo_score":1.0,"id":"abo4wgclixxf","address":"13016 Rd 12","geo_precision":"range","state":"OH"},"type":"Feature","geometry":{"type":"Point","coordinates":[-84.091861,40.991954]}},{"properties":{"city":"Ottawa","zip":"45875","geo_score":1.0,"id":"abo4wg2pm6uu","address":"12433 Rd 13","geo_precision":"range","state":"OH"},"type":"Feature","geometry":{"type":"Point","coordinates":[-84.111376,41.000117]}},{"properties":{"city":"Ottawa","zip":"45875","geo_score":1.0,"id":"abo4wg2a74pk","address":"12761 Rd K","geo_precision":"range","state":"OH"},"type":"Feature","geometry":{"type":"Point","coordinates":[-84.106709,41.021131]}},{"properties":{"city":"Ottawa","zip":"45875","geo_score":0.958,"id":"abo4wgaxujzq","address":"11762 Rd 12 K","geo_precision":"range","state":"OH"},"type":"Feature","geometry":{"type":"Point","coordinates":[-84.101901,41.009684]}},{"properties":{"city":"Ottawa","zip":"45875","geo_score":1.0,"id":"abo4wg2ev8lo","address":"12888 Rd 12","geo_precision":"range","state":"OH"},"type":"Feature","geometry":{"type":"Point","coordinates":[-84.092257,40.99336]}},{"properties":{"city":"Ottawa","zip":"45875","geo_score":0.89,"id":"abo4wgdgdxih","address":"368 Park Ave","geo_precision":"range","state":"OH"},"type":"Feature","geometry":{"type":"Point","coordinates":[-84.083793,41.027095]}},{"properties":{"city":"Ottawa","zip":"45875","geo_score":0.878,"id":"abo4wg9g7t5k","address":"12782 Rd 12","geo_precision":"range","state":"OH"},"type":"Feature","geometry":{"type":"Point","coordinates":[-84.092118,40.995667]}},{"properties":{"city":"Ottawa","zip":"45875","geo_score":1.0,"id":"abo4wfxrzjxr","address":"11329 Rd L","geo_precision":"range","state":"OH"},"type":"Feature","geometry":{"type":"Point","coordinates":[-84.078415,41.006742]}},{"properties":{"city":"Ottawa","zip":"45875","geo_score":1.0,"id":"abo4wgaq5eze","address":"12327 Rd M","geo_precision":"range","state":"OH"},"type":"Feature","geometry":{"type":"Point","coordinates":[-84.091605,40.992122]}},{"properties":{"city":"Ottawa","zip":"45875","geo_score":1.0,"id":"abo4wg634cdg","address":"16402 Rd J","geo_precision":"range","state":"OH"},"type":"Feature","geometry":{"type":"Point","coordinates":[-84.17693,41.035444]}},{"properties":{"city":"Ottawa","zip":"45875","geo_score":1.0,"id":"abo4wfynais2","address":"13622 Rd L","geo_precision":"range","state":"OH"},"type":"Feature","geometry":{"type":"Point","coordinates":[-84.121815,41.006624]}},{"properties":{"city":"Ottawa","zip":"45875","geo_score":1.0,"id":"abo4wfzzqib8","address":"16331 Rd J","geo_precision":"range","state":"OH"},"type":"Feature","geometry":{"type":"Point","coordinates":[-84.17411,41.0353]}},{"properties":{"city":"Ottawa","zip":"45875","geo_score":0.756,"id":"abo4wg00yvi6","address":"11180 Rd 10K","geo_precision":"street","state":"OH"},"type":"Feature","geometry":{"type":"Point","coordinates":[-84.053666,41.066063]}},{"properties":{"city":"Ottawa","zip":"45875","geo_score":0.91,"id":"abo4wgcf14ip","address":"13109 St Rt 694","geo_precision":"range","state":"OH"},"type":"Feature","geometry":{"type":"Point","coordinates":[-84.113562,41.028299]}},{"properties":{"city":"Ottawa","zip":"45875","geo_score":0.878,"id":"abo4wfyxukal","address":"217 Easthaven Dr","geo_precision":"street","state":"OH"},"type":"Feature","geometry":{"type":"Point","coordinates":[-84.068958,41.025518]}},{"properties":{"city":"Ottawa","zip":"45875","geo_score":1.0,"id":"abo4wg4tgb37","address":"8841 RD 15","geo_precision":"range","state":"OH"},"type":"Feature","geometry":{"type":"Point","coordinates":[-84.150154,41.053313]}},{"properties":{"city":"Ottawa","zip":"45875","geo_score":1.0,"id":"abo4wg76z0gj","address":"10540 Rd 15","geo_precision":"range","state":"OH"},"type":"Feature","geometry":{"type":"Point","coordinates":[-84.150088,41.027636]}},{"properties":{"city":"Ottawa","zip":"45875","geo_score":1.0,"id":"abo4wgdan92a","address":"8991 Rd 15","geo_precision":"range","state":"OH"},"type":"Feature","geometry":{"type":"Point","coordinates":[-84.150122,41.051222]}},{"properties":{"city":"Ottawa","zip":"45875","geo_score":0.902,"id":"abo4wg0ft2gg","address":"109 Walnut","geo_precision":"range","state":"OH"},"type":"Feature","geometry":{"type":"Point","coordinates":[-84.068654,41.029639]}},{"properties":{"city":"Glandorf","zip":"45848","geo_score":0.847,"id":"abo4wgana84j","address":"223 Brunswick  PO Box 175","geo_precision":"range","state":"OH"},"type":"Feature","geometry":{"type":"Point","coordinates":[-84.072561,41.025362]}},{"properties":{"city":"Ottawa","zip":"45875","geo_score":1.0,"id":"abo4wg8azg0q","address":"13478 Rd 14","geo_precision":"range","state":"OH"},"type":"Feature","geometry":{"type":"Point","coordinates":[-84.130267,40.982467]}},{"properties":{"city":"Ottawa","zip":"45875","geo_score":1.0,"id":"abo4wg2qq13u","address":"13632 Rd 12","geo_precision":"range","state":"OH"},"type":"Feature","geometry":{"type":"Point","coordinates":[-84.091903,40.983369]}},{"properties":{"city":"Ottawa","zip":"45875","geo_score":1.0,"id":"abo4wg6lui6g","address":"13560 Rd 12","geo_precision":"range","state":"OH"},"type":"Feature","geometry":{"type":"Point","coordinates":[-84.091906,40.984373]}},{"properties":{"city":"Glandorf","zip":"45848","geo_score":0.571,"id":"abo4wg3nfdhl","address":"222 Brunswick Dr, PO BOX 157","geo_precision":"street","state":"OH"},"type":"Feature","geometry":{"type":"Point","coordinates":[-84.072488,41.024995]}},{"properties":{"city":"Ottawa","zip":"45875","geo_score":1.0,"id":"abo4wgdr1iz0","address":"108 Sunrise Ct","geo_precision":"range","state":"OH"},"type":"Feature","geometry":{"type":"Point","coordinates":[-84.074646,41.028077]}},{"properties":{"city":"Ottawa","zip":"45875","geo_score":1.0,"id":"abo4wg6j1ac7","address":"12176 Rd K","geo_precision":"range","state":"OH"},"type":"Feature","geometry":{"type":"Point","coordinates":[-84.095633,41.021341]}},{"properties":{"city":"Ottawa","zip":"45875","geo_score":1.0,"id":"abo4wgbbpg4d","address":"12332 Rd K","geo_precision":"range","state":"OH"},"type":"Feature","geometry":{"type":"Point","coordinates":[-84.098633,41.021331]}},{"properties":{"city":"Ottawa","zip":"45875","geo_score":0.756,"id":"abo4wgbykmf6","address":"11690 Rd 14J","geo_precision":"street","state":"OH"},"type":"Feature","geometry":{"type":"Point","coordinates":[-84.130355,40.991897]}},{"properties":{"city":"Glandorf","zip":"45848","geo_score":1.0,"id":"abo4wg8ee4sj","address":"269 N Main St, PO BOX 176","geo_precision":"street","state":"OH"},"type":"Feature","geometry":{"type":"Point","coordinates":[-84.07978,41.029818]}},{"properties":{"city":"Ottawa","zip":"45875","geo_score":1.0,"id":"abo4wg84mbyc","address":"16275 Rd J","geo_precision":"range","state":"OH"},"type":"Feature","geometry":{"type":"Point","coordinates":[-84.173299,41.035304]}},{"properties":{"city":"Ottawa","zip":"45875","geo_score":1.0,"id":"abo4wg0jtwvn","address":"12377 Rd 12","geo_precision":"range","state":"OH"},"type":"Feature","geometry":{"type":"Point","coordinates":[-84.09214,41.002458]}},{"properties":{"city":"Ottawa","zip":"45875","geo_score":0.958,"id":"abo4wg8wcaul","address":"13457 RD 11J","geo_precision":"range","state":"OH"},"type":"Feature","geometry":{"type":"Point","coordinates":[-84.082105,40.985298]}},{"properties":{"city":"OTTAWA","zip":"45875","geo_score":1.0,"id":"abo4wfywnz5k","address":"12012 Rd 12","geo_precision":"range","state":"OH"},"type":"Feature","geometry":{"type":"Point","coordinates":[-84.092285,41.008585]}},{"properties":{"city":"Ottawa","zip":"45875","geo_score":1.0,"id":"abo4wfy6xw2j","address":"339 N Main St","geo_precision":"range","state":"OH"},"type":"Feature","geometry":{"type":"Point","coordinates":[-84.081648,41.032444]}},{"properties":{"city":"Ottawa","zip":"45875","geo_score":1.0,"id":"abo4wg4r4o8p","address":"16532 Rd J","geo_precision":"range","state":"OH"},"type":"Feature","geometry":{"type":"Point","coordinates":[-84.179423,41.035435]}},{"properties":{"city":"Ottawa","zip":"45875","geo_score":0.624,"id":"abo4wg9njiml","address":"13497-D Road M","geo_precision":"street","state":"OH"},"type":"Feature","geometry":{"type":"Point","coordinates":[-88.639427,44.329673]}},{"properties":{"city":"Ottawa","zip":"45875","geo_score":0.912,"id":"abo4wg52t2e8","address":"12899 St Rt 224","geo_precision":"range","state":"OH"},"type":"Feature","geometry":{"type":"Point","coordinates":[-84.109521,41.010849]}},{"properties":{"city":"Glandorf","zip":"45848","geo_score":0.597,"id":"abo4wg7hm6pc","address":"120 Westwood, PO Box 96","geo_precision":"street","state":"OH"},"type":"Feature","geometry":{"type":"Point","coordinates":[-84.076076,41.025142]}},{"properties":{"city":"Ottawa","zip":"45875","geo_score":0.91,"id":"abo4wgalqwsv","address":"14517 ST Rt 694","geo_precision":"range","state":"OH"},"type":"Feature","geometry":{"type":"Point","coordinates":[-84.140282,41.028241]}},{"properties":{"city":"Ottawa","zip":"45875","geo_score":1.0,"id":"abo4wgd6qlha","address":"10472 Office Dr","geo_precision":"range","state":"OH"},"type":"Feature","geometry":{"type":"Point","coordinates":[-84.06291,41.040278]}},{"properties":{"city":"Ottawa","zip":"45875","geo_score":1.0,"id":"abo4wg3ws0pa","address":"14024 RD J","geo_precision":"range","state":"OH"},"type":"Feature","geometry":{"type":"Point","coordinates":[-84.131996,41.035769]}},{"properties":{"city":"Ottawa","zip":"45875","geo_score":1.0,"id":"abo4wg21hkpf","address":"13973 Rd I","geo_precision":"range","state":"OH"},"type":"Feature","geometry":{"type":"Point","coordinates":[-84.13063,41.050209]}},{"properties":{"city":"Ottawa","zip":"45875","geo_score":1.0,"id":"abo4wgdi7ie7","address":"14274 RD J","geo_precision":"range","state":"OH"},"type":"Feature","geometry":{"type":"Point","coordinates":[-84.136171,41.035737]}},{"properties":{"city":"Ottawa","zip":"45875","geo_score":1.0,"id":"abo4wga88wzx","address":"14118 Road L","geo_precision":"range","state":"OH"},"type":"Feature","geometry":{"type":"Point","coordinates":[-84.134969,41.006541]}},{"properties":{"city":"Ottawa","zip":"45875","geo_score":0.566,"id":"abo4wg4bqjiz","address":"10746 Rd I-9","geo_precision":"street","state":"OH"},"type":"Feature","geometry":{"type":"Point","coordinates":[-84.050924,41.006978]}},{"properties":{"city":"Ottawa","zip":"45875","geo_score":1.0,"id":"abo4wg6vwc6k","address":"13710 Rd I","geo_precision":"range","state":"OH"},"type":"Feature","geometry":{"type":"Point","coordinates":[-84.125719,41.050343]}},{"properties":{"city":"Ottawa","zip":"45875","geo_score":0.958,"id":"abo4wgcxvuj8","address":"11092 Road 11J","geo_precision":"range","state":"OH"},"type":"Feature","geometry":{"type":"Point","coordinates":[-84.082686,41.019548]}},{"properties":{"city":"Ottawa","zip":"45875","geo_score":0.756,"id":"abo4wg7k68vr","address":"9353 Rd 14I","geo_precision":"street","state":"OH"},"type":"Feature","geometry":{"type":"Point","coordinates":[-84.130767,41.057573]}},{"properties":{"city":"Ottawa","zip":"45875","geo_score":0.721,"id":"abo4wg0g8qhd","address":"9478 Road 14-I","geo_precision":"street","state":"OH"},"type":"Feature","geometry":{"type":"Point","coordinates":[-84.130767,41.057573]}},{"properties":{"city":"Ottawa","zip":"45875","geo_score":1.0,"id":"abo4wg5g36xy","address":"13795 Rd I","geo_precision":"range","state":"OH"},"type":"Feature","geometry":{"type":"Point","coordinates":[-84.126692,41.0502]}},{"properties":{"city":"Ottawa","zip":"45875","geo_score":0.756,"id":"abo4wgaw9tq7","address":"9604 Road 14I","geo_precision":"street","state":"OH"},"type":"Feature","geometry":{"type":"Point","coordinates":[-84.130767,41.057573]}},{"properties":{"city":"Ottawa","zip":"45875","geo_score":0.958,"id":"abo4wgdan7q0","address":"9490 Rd 13I","geo_precision":"range","state":"OH"},"type":"Feature","geometry":{"type":"Point","coordinates":[-84.126041,41.043127]}},{"properties":{"city":"Ottawa","zip":"45875","geo_score":1.0,"id":"abo4wg5tuioe","address":"13562 Rd J","geo_precision":"range","state":"OH"},"type":"Feature","geometry":{"type":"Point","coordinates":[-84.118319,41.035738]}},{"properties":{"city":"Ottawa","zip":"45875","geo_score":0.91,"id":"abo4wg3sbk8x","address":"13394 St Rt 694","geo_precision":"range","state":"OH"},"type":"Feature","geometry":{"type":"Point","coordinates":[-84.119028,41.028462]}},{"properties":{"city":"Ottawa","zip":"45875","geo_score":0.958,"id":"abo4wfy3eiqe","address":"9400 Rd 13I","geo_precision":"range","state":"OH"},"type":"Feature","geometry":{"type":"Point","coordinates":[-84.126047,41.044445]}},{"properties":{"city":"Ottawa","zip":"45875","geo_score":0.91,"id":"abo4wfzgdmca","address":"12176 St Rt 694","geo_precision":"range","state":"OH"},"type":"Feature","geometry":{"type":"Point","coordinates":[-84.095629,41.028904]}},{"properties":{"city":"Ottawa","zip":"45875","geo_score":0.717,"id":"abo4wgc024se","address":"14215 St Rt 224","geo_precision":"street","state":"OH"},"type":"Feature","geometry":{"type":"Point","coordinates":[-84.11147,41.010295]}},{"properties":{"city":"Ottawa","zip":"45875","geo_score":0.958,"id":"abo4wg6tpx8q","address":"9278 Rd 13I","geo_precision":"range","state":"OH"},"type":"Feature","geometry":{"type":"Point","coordinates":[-84.126051,41.046204]}},{"properties":{"city":"Ottawa","zip":"45875","geo_score":1.0,"id":"abo4wge0ak30","address":"9481 Rd 13","geo_precision":"range","state":"OH"},"type":"Feature","geometry":{"type":"Point","coordinates":[-84.111491,41.041044]}},{"properties":{"city":"Ottawa","zip":"45875","geo_score":1.0,"id":"abo4wg8iqbbv","address":"13934 Rd K","geo_precision":"range","state":"OH"},"type":"Feature","geometry":{"type":"Point","coordinates":[-84.129322,41.021225]}},{"properties":{"city":"Ottawa","zip":"45875","geo_score":1.0,"id":"abo4wgdqdixs","address":"13884 Rd I","geo_precision":"range","state":"OH"},"type":"Feature","geometry":{"type":"Point","coordinates":[-84.128753,41.05036]}},{"properties":{"city":"Ottawa","zip":"45875","geo_score":1.0,"id":"abo4wg3o72zb","address":"11092 Rd 12","geo_precision":"range","state":"OH"},"type":"Feature","geometry":{"type":"Point","coordinates":[-84.092266,41.020005]}},{"properties":{"city":"Ottawa","zip":"45875","geo_score":1.0,"id":"abo4wg2vf412","address":"13514 Road I","geo_precision":"range","state":"OH"},"type":"Feature","geometry":{"type":"Point","coordinates":[-84.119968,41.050291]}},{"properties":{"city":"Ottawa","zip":"45875","geo_score":0.958,"id":"abo4wg1tmmeh","address":"9088 Rd 13I","geo_precision":"range","state":"OH"},"type":"Feature","geometry":{"type":"Point","coordinates":[-84.12606,41.048984]}},{"properties":{"city":"Ottawa","zip":"45875","geo_score":1.0,"id":"abo4wg9mx11x","address":"620 E Blake St.","geo_precision":"range","state":"OH"},"type":"Feature","geometry":{"type":"Point","coordinates":[-84.078906,41.03585]}},{"properties":{"city":"Ottawa","zip":"45875","geo_score":1.0,"id":"abo4wg5ljw6b","address":"13204 Rd I","geo_precision":"range","state":"OH"},"type":"Feature","geometry":{"type":"Point","coordinates":[-84.112471,41.050248]}},{"properties":{"city":"Ottawa","zip":"45875","geo_score":1.0,"id":"abo4wg32zw4o","address":"11678 Rd M","geo_precision":"range","state":"OH"},"type":"Feature","geometry":{"type":"Point","coordinates":[-84.081844,40.992335]}},{"properties":{"city":"OTTAWA","zip":"45848","geo_score":0.805,"id":"abo4wfz8o2rp","address":"131 W Blake St","geo_precision":"street","state":"OH"},"type":"Feature","geometry":{"type":"Point","coordinates":[-84.083968,41.035464]}},{"properties":{"city":"Ottawa","zip":"45875","geo_score":1.0,"id":"abo4wg36xmol","address":"16606 RD J","geo_precision":"range","state":"OH"},"type":"Feature","geometry":{"type":"Point","coordinates":[-84.180469,41.035432]}},{"properties":{"city":"Ottawa","zip":"45875","geo_score":0.91,"id":"abo4wg6p0eok","address":"12907 St Rt 694","geo_precision":"range","state":"OH"},"type":"Feature","geometry":{"type":"Point","coordinates":[-84.109443,41.028312]}},{"properties":{"city":"Ottawa","zip":"45875","geo_score":1.0,"id":"abo4wg19o1mq","address":"11764 Rd J","geo_precision":"range","state":"OH"},"type":"Feature","geometry":{"type":"Point","coordinates":[-84.093991,41.03585]}},{"properties":{"city":"Ottawa","zip":"45875","geo_score":1.0,"id":"abo4wfxuwlxu","address":"16732 RD J","geo_precision":"range","state":"OH"},"type":"Feature","geometry":{"type":"Point","coordinates":[-84.183168,41.035432]}},{"properties":{"city":"Ottawa","zip":"45875","geo_score":0.756,"id":"abo4wg3vnu9d","address":"12276 Rd 10L","geo_precision":"street","state":"OH"},"type":"Feature","geometry":{"type":"Point","coordinates":[-84.053058,40.962968]}},{"properties":{"city":"Ottawa","zip":"45875","geo_score":0.756,"id":"abo4wg1incpz","address":"12055 Rd 14J","geo_precision":"street","state":"OH"},"type":"Feature","geometry":{"type":"Point","coordinates":[-84.130355,40.991897]}},{"properties":{"city":"Ottawa","zip":"45875","geo_score":0.912,"id":"abo4wg4fr3m2","address":"12863 St Rt 224","geo_precision":"range","state":"OH"},"type":"Feature","geometry":{"type":"Point","coordinates":[-84.108242,41.011068]}},{"properties":{"city":"Ottawa","zip":"45875","geo_score":1.0,"id":"abo4wg47hg9i","address":"13655 Rd K","geo_precision":"range","state":"OH"},"type":"Feature","geometry":{"type":"Point","coordinates":[-84.123941,41.021103]}},{"properties":{"city":"Ottawa","zip":"45875","geo_score":0.585,"id":"abo4wgadg4yy","address":"366 Bucktown Rd","geo_precision":"zip","state":"OH"},"type":"Feature","geometry":{"type":"Point","coordinates":[-84.169112,41.020884]}},{"properties":{"city":"Ottawa","zip":"45875","geo_score":1.0,"id":"abo4wg9hvi1p","address":"11505 Road 12","geo_precision":"range","state":"OH"},"type":"Feature","geometry":{"type":"Point","coordinates":[-84.092146,41.013619]}},{"properties":{"city":"Ottawa","zip":"45875","geo_score":1.0,"id":"abo4wfz7pvcg","address":"11754 Rd 12","geo_precision":"range","state":"OH"},"type":"Feature","geometry":{"type":"Point","coordinates":[-84.092294,41.011144]}},{"properties":{"city":"Ottawa","zip":"45875","geo_score":1.0,"id":"abo4wg5suj1f","address":"13768 Road K","geo_precision":"range","state":"OH"},"type":"Feature","geometry":{"type":"Point","coordinates":[-84.126075,41.021242]}},{"properties":{"city":"Ottawa","zip":"45875","geo_score":0.91,"id":"abo4wg16kg61","address":"13458 St Rt 694","geo_precision":"range","state":"OH"},"type":"Feature","geometry":{"type":"Point","coordinates":[-84.120348,41.028467]}},{"properties":{"city":"Ottawa","zip":"45875","geo_score":0.756,"id":"abo4wg8f5vwu","address":"10531 Road 14J","geo_precision":"street","state":"OH"},"type":"Feature","geometry":{"type":"Point","coordinates":[-84.130767,41.057573]}},{"properties":{"city":"Ottawa","zip":"45875","geo_score":0.958,"id":"abo4wg4kzf1z","address":"11467 Rd 11J","geo_precision":"range","state":"OH"},"type":"Feature","geometry":{"type":"Point","coordinates":[-84.08253,41.016714]}},{"properties":{"city":"O","zip":"45875","geo_score":0.675,"id":"abo4wg3uu048","address":"12823 Rd 10L","geo_precision":"street","state":"OH"},"type":"Feature","geometry":{"type":"Point","coordinates":[-84.053058,40.962968]}},{"properties":{"city":"Ottawa","zip":"45875","geo_score":0.717,"id":"abo4wg931onb","address":"13531 St Rt 224","geo_precision":"street","state":"OH"},"type":"Feature","geometry":{"type":"Point","coordinates":[-84.11147,41.010295]}},{"properties":{"city":"Ottawa","zip":"45875","geo_score":1.0,"id":"abo4wg2mnflr","address":"12972 Rd K","geo_precision":"range","state":"OH"},"type":"Feature","geometry":{"type":"Point","coordinates":[-84.110708,41.021229]}},{"properties":{"city":"Ottawa","zip":"45875","geo_score":0.777,"id":"abo4wgbmxqmf","address":"13116 US Rt 224","geo_precision":"street","state":"OH"},"type":"Feature","geometry":{"type":"Point","coordinates":[-84.11147,41.010295]}},{"properties":{"city":"Ottawa","zip":"45875","geo_score":0.951,"id":"abo4wg8kc4s0","address":"293 N Main","geo_precision":"range","state":"OH"},"type":"Feature","geometry":{"type":"Point","coordinates":[-84.073433,41.021699]}},{"properties":{"city":"Ottawa","zip":"45875","geo_score":0.757,"id":"abo4wg7138p5","address":"13249 Rd 11M","geo_precision":"street","state":"OH"},"type":"Feature","geometry":{"type":"Point","coordinates":[-84.07495,40.992297]}},{"properties":{"city":"Ottawa","zip":"45875","geo_score":0.91,"id":"abo4wg5jsub1","address":"13266 St Rt 694","geo_precision":"range","state":"OH"},"type":"Feature","geometry":{"type":"Point","coordinates":[-84.116213,41.028447]}},{"properties":{"city":"Ottawa","zip":"45875","geo_score":1.0,"id":"abo4wg0k93d4","address":"10741 RD M","geo_precision":"range","state":"OH"},"type":"Feature","geometry":{"type":"Point","coordinates":[-84.067326,40.992271]}},{"properties":{"city":"Ottawa","zip":"45875","geo_score":1.0,"id":"abo4wg6rfv5m","address":"14513 Rd K","geo_precision":"range","state":"OH"},"type":"Feature","geometry":{"type":"Point","coordinates":[-84.13983,41.020954]}},{"properties":{"city":"Ottawa","zip":"45875","geo_score":0.958,"id":"abo4wgb1x33m","address":"12705 Rd 11J","geo_precision":"range","state":"OH"},"type":"Feature","geometry":{"type":"Point","coordinates":[-84.082478,40.996551]}},{"properties":{"city":"Ottawa","zip":"45875","geo_score":0.763,"id":"abo4wg7129jr","address":"12472 Rd 10-L","geo_precision":"street","state":"OH"},"type":"Feature","geometry":{"type":"Point","coordinates":[-84.061826,41.040995]}},{"properties":{"city":"Ottawa","zip":"45875","geo_score":1.0,"id":"abo4wg0v4w60","address":"261 Blanchard Ave.","geo_precision":"range","state":"OH"},"type":"Feature","geometry":{"type":"Point","coordinates":[-84.077503,41.029058]}},{"properties":{"city":"Ottawa","zip":"45875","geo_score":0.805,"id":"abo4wg79rxqv","address":"10384 Rd I9","geo_precision":"street","state":"OH"},"type":"Feature","geometry":{"type":"Point","coordinates":[-84.116447,41.050199]}},{"properties":{"city":"Glandorf","zip":"45848","geo_score":0.81,"id":"abo4wg1h6po3","address":"136 S Main, PO Box 60","geo_precision":"street","state":"OH"},"type":"Feature","geometry":{"type":"Point","coordinates":[-84.07978,41.029818]}},{"properties":{"city":"Ottawa","zip":"45875","geo_score":0.91,"id":"abo4wg6po4fe","address":"13417 St rt 694","geo_precision":"range","state":"OH"},"type":"Feature","geometry":{"type":"Point","coordinates":[-84.119347,41.028314]}},{"properties":{"city":"Glandorf","zip":"45848","geo_score":0.619,"id":"abo4wg6zrxx9","address":"117 N. Main St.","geo_precision":"street","state":"OH"},"type":"Feature","geometry":{"type":"Point","coordinates":[-84.07978,41.029818]}},{"properties":{"city":"Glandorf","zip":"45848","geo_score":0.81,"id":"abo4wg2gmclf","address":"136 S Main, PO Box 1","geo_precision":"street","state":"OH"},"type":"Feature","geometry":{"type":"Point","coordinates":[-84.07978,41.029818]}},{"properties":{"city":"Glandorf","zip":"45848","geo_score":0.868,"id":"abo4wgc38w1w","address":"231 Blanchard, PO Box 16","geo_precision":"street","state":"OH"},"type":"Feature","geometry":{"type":"Point","coordinates":[-84.078049,41.02896]}},{"properties":{"city":"Ottawa","zip":"45875","geo_score":1.0,"id":"abo4wg1g5us3","address":"12224 Rd J","geo_precision":"range","state":"OH"},"type":"Feature","geometry":{"type":"Point","coordinates":[-84.097856,41.035872]}},{"properties":{"city":"Glandorf","zip":"45848","geo_score":0.714,"id":"abo4wfzkmuhr","address":"11485 Rd 12, PO BOX 97","geo_precision":"street","state":"OH"},"type":"Feature","geometry":{"type":"Point","coordinates":[-84.09255,41.11842]}},{"properties":{"city":"Ottawa","zip":"45875","geo_score":1.0,"id":"abo4wg3tthtr","address":"13729  Road K","geo_precision":"range","state":"OH"},"type":"Feature","geometry":{"type":"Point","coordinates":[-84.125509,41.021171]}},{"properties":{"city":"Ottawa","zip":"45875","geo_score":1.0,"id":"abo4wgaakn5o","address":"13969 Rd 13","geo_precision":"range","state":"OH"},"type":"Feature","geometry":{"type":"Point","coordinates":[-84.111178,40.982545]}},{"properties":{"city":"Ottawa","zip":"45875","geo_score":0.91,"id":"abo4wgdi7zqt","address":"12791 St Rt 694","geo_precision":"range","state":"OH"},"type":"Feature","geometry":{"type":"Point","coordinates":[-84.107496,41.028505]}},{"properties":{"city":"Ottawa","zip":"45875","geo_score":0.756,"id":"abo4wg9vsl5j","address":"12085 RD 14J","geo_precision":"street","state":"OH"},"type":"Feature","geometry":{"type":"Point","coordinates":[-84.130355,40.991897]}},{"properties":{"city":"Ottawa","zip":"45875","geo_score":1.0,"id":"abo4wg0yawwe","address":"218 Brunswick Dr","geo_precision":"range","state":"OH"},"type":"Feature","geometry":{"type":"Point","coordinates":[-84.072411,41.02538]}},{"properties":{"city":"Ottawa","zip":"45875","geo_score":1.0,"id":"abo4wg50qitg","address":"14237 Rd 13","geo_precision":"range","state":"OH"},"type":"Feature","geometry":{"type":"Point","coordinates":[-84.11108,40.978393]}},{"properties":{"city":"Ottawa","zip":"45875","geo_score":1.0,"id":"abo4wg3jhr7x","address":"11477 Rd L","geo_precision":"range","state":"OH"},"type":"Feature","geometry":{"type":"Point","coordinates":[-84.081922,41.006713]}},{"properties":{"city":"Ottawa","zip":"45875","geo_score":1.0,"id":"abo4wg428tp3","address":"178 S Main","geo_precision":"range","state":"OH"},"type":"Feature","geometry":{"type":"Point","coordinates":[-84.076777,41.025898]}},{"properties":{"city":"Ottawa","zip":"45875","geo_score":0.756,"id":"abo4wg3g67o2","address":"12543 Rd 10L","geo_precision":"street","state":"OH"},"type":"Feature","geometry":{"type":"Point","coordinates":[-84.053058,40.962968]}},{"properties":{"city":"Ottawa","zip":"45875","geo_score":0.756,"id":"abo4wgb21a4j","address":"12013 Rd 14J","geo_precision":"street","state":"OH"},"type":"Feature","geometry":{"type":"Point","coordinates":[-84.130355,40.991897]}},{"properties":{"city":"Ottawa","zip":"45875","geo_score":1.0,"id":"abo4wg240trd","address":"13426 Rd M","geo_precision":"range","state":"OH"},"type":"Feature","geometry":{"type":"Point","coordinates":[-84.118476,40.99207]}},{"properties":{"city":"Ottawa","zip":"45875","geo_score":0.958,"id":"abo4wgcrbsa9","address":"11620 Rd 12K","geo_precision":"range","state":"OH"},"type":"Feature","geometry":{"type":"Point","coordinates":[-84.101903,41.011744]}},{"properties":{"city":"Ottawa","zip":"45875","geo_score":0.756,"id":"abo4wg744dew","address":"11491 Rd 10K","geo_precision":"street","state":"OH"},"type":"Feature","geometry":{"type":"Point","coordinates":[-84.053666,41.066063]}},{"properties":{"city":"Ottawa","zip":"45875","geo_score":0.763,"id":"abo4wg9yu3zy","address":"11471 Rd 10-K","geo_precision":"street","state":"OH"},"type":"Feature","geometry":{"type":"Point","coordinates":[-84.061826,41.040995]}},{"properties":{"city":"Ottawa","zip":"45875","geo_score":1.0,"id":"abo4wg35a7bp","address":"10810 Rd 13","geo_precision":"range","state":"OH"},"type":"Feature","geometry":{"type":"Point","coordinates":[-84.111577,41.023897]}},{"properties":{"city":"Ottawa","zip":"45875","geo_score":0.91,"id":"abo4wg93yugz","address":"13512 St Rt 694","geo_precision":"range","state":"OH"},"type":"Feature","geometry":{"type":"Point","coordinates":[-84.121176,41.028472]}}],"is_temporal":false,"author":{"url":"","metadata":null,"contact_name":null,"contact_address":null,"source":null,"contact_phone":null},"source":"","pagination":{"sort":null,"start":0,"total":317,"limit":1000000},"state":"complete","tags":"","published":"2014-08-16T18:23:57-04:00","id":313786}