{"type":"FeatureCollection","data_type":"Dataset","url_type":null,"permissions":[{"permissions":{"download":true,"view":true},"group_id":"everyone"}],"classification":null,"title":"Copy_of_IPTV-Ayersville-Jan-16-2013_-_CSV","count":308,"stream_id":313759,"contributor":{"url":"http://geocommons.com/users/59404","name":"KatieEtgen"},"data_attributes":null,"calculation_params":null,"icon_link":null,"link":"http://geocommons.com/overlays/313759.json","extent":[-84.522,41.1803,-84.1907,41.3825],"geometry_types":["point"],"unique_name":null,"name":"Copy_of_IPTV-Ayersville-Jan-16-2013_-_CSV","feature_count":308,"description":"","next_feature":null,"is_raster":false,"short_classification":"Y","stats":{},"features":[{"properties":{"city":"Defiance","zip":"43512","geo_score":0.585,"id":"abo3yhdx45bl","address":"28147 Blachard Rd.","geo_precision":"zip","state":"OH"},"type":"Feature","geometry":{"type":"Point","coordinates":[-84.299947,41.297826]}},{"properties":{"city":"Holgate","zip":"43527","geo_score":0.919,"id":"abo3yh4vqq4n","address":"11172 Defiance-Henry Co Line","geo_precision":"range","state":"OH"},"type":"Feature","geometry":{"type":"Point","coordinates":[-84.227402,41.279782]}},{"properties":{"city":"Defiance","zip":"43512","geo_score":1.0,"id":"abo3yhgrqer8","address":"27726 Watson Rd.","geo_precision":"range","state":"OH"},"type":"Feature","geometry":{"type":"Point","coordinates":[-84.290425,41.238191]}},{"properties":{"city":"Defiaince","zip":"43512","geo_score":0.989,"id":"abo3yhalxcu9","address":"15862 Painter Rd.","geo_precision":"range","state":"OH"},"type":"Feature","geometry":{"type":"Point","coordinates":[-84.295294,41.213254]}},{"properties":{"city":"Defiance","zip":"43512","geo_score":0.586,"id":"abo3yhhdysra","address":"28970 St. Rt. 281 Lot 8","geo_precision":"street","state":"OH"},"type":"Feature","geometry":{"type":"Point","coordinates":[-84.367122,41.278624]}},{"properties":{"city":"Defiance","zip":"43512","geo_score":1.0,"id":"abo3yhem58ui","address":"28323 Rohn Rd.","geo_precision":"range","state":"OH"},"type":"Feature","geometry":{"type":"Point","coordinates":[-84.281049,41.239304]}},{"properties":{"city":"Defiance","zip":"43512","geo_score":1.0,"id":"abo3yhfliwdu","address":"29141 Steinmaier Rd.","geo_precision":"range","state":"OH"},"type":"Feature","geometry":{"type":"Point","coordinates":[-84.259833,41.240811]}},{"properties":{"city":"Defiance","zip":"43512","geo_score":1.0,"id":"abo3yhcd9jqu","address":"1576 Standley Rd.","geo_precision":"range","state":"OH"},"type":"Feature","geometry":{"type":"Point","coordinates":[-84.328633,41.268115]}},{"properties":{"city":"Defiance","zip":"43512","geo_score":0.92,"id":"abo3yh2jgtz4","address":"26172 Standley","geo_precision":"range","state":"OH"},"type":"Feature","geometry":{"type":"Point","coordinates":[-84.321,41.267937]}},{"properties":{"city":"Defiance","zip":"43512","geo_score":1.0,"id":"abo3yh6a3hek","address":"28292 Rohn Rd.","geo_precision":"range","state":"OH"},"type":"Feature","geometry":{"type":"Point","coordinates":[-84.281309,41.239075]}},{"properties":{"city":"Defiance","zip":"43512","geo_score":0.805,"id":"abo3yh1s2m9q","address":"27986 Ayersville Rd.","geo_precision":"street","state":"OH"},"type":"Feature","geometry":{"type":"Point","coordinates":[-84.323816,41.258725]}},{"properties":{"city":"Defiance","zip":"43512","geo_score":1.0,"id":"abo3yhdrh548","address":"27932 Watson Road","geo_precision":"range","state":"OH"},"type":"Feature","geometry":{"type":"Point","coordinates":[-84.286821,41.23822]}},{"properties":{"city":"Ayersville","zip":"43512","geo_score":1.0,"id":"abo3yh1e0n2l","address":"27932 Watson Rd","geo_precision":"range","state":"OH"},"type":"Feature","geometry":{"type":"Point","coordinates":[-84.286821,41.23822]}},{"properties":{"city":"Defiance","zip":"43512","geo_score":1.0,"id":"abo3yhbuqfc0","address":"15386 Dohoney Rd.","geo_precision":"range","state":"OH"},"type":"Feature","geometry":{"type":"Point","coordinates":[-84.324097,41.218144]}},{"properties":{"city":"Defiance","zip":"43512","geo_score":0.805,"id":"abo3yh9fwhyv","address":"27759 Ayersville Rd.","geo_precision":"street","state":"OH"},"type":"Feature","geometry":{"type":"Point","coordinates":[-84.323816,41.258725]}},{"properties":{"city":"Holgate","zip":"43512","geo_score":0.732,"id":"abo3yhen9gy9","address":"30705 Standley Rd.","geo_precision":"street","state":"OH"},"type":"Feature","geometry":{"type":"Point","coordinates":[-84.246727,41.267784]}},{"properties":{"city":"Defiance","zip":"43512","geo_score":0.737,"id":"abo3yhdpptm1","address":"27418 Ayersville","geo_precision":"street","state":"OH"},"type":"Feature","geometry":{"type":"Point","coordinates":[-84.323816,41.258725]}},{"properties":{"city":"Defiance","zip":"43512","geo_score":0.805,"id":"abo3yhheu3rj","address":"28202 Ayersville Rd.","geo_precision":"street","state":"OH"},"type":"Feature","geometry":{"type":"Point","coordinates":[-84.323816,41.258725]}},{"properties":{"city":"Defiance","zip":"43512","geo_score":1.0,"id":"abo3yhgpz4gu","address":"27890 Watson Rd","geo_precision":"range","state":"OH"},"type":"Feature","geometry":{"type":"Point","coordinates":[-84.287815,41.238212]}},{"properties":{"city":"Defiance","zip":"43512","geo_score":1.0,"id":"abo3yh5f7hcg","address":"14727 Harris Rd.","geo_precision":"range","state":"OH"},"type":"Feature","geometry":{"type":"Point","coordinates":[-84.266198,41.229664]}},{"properties":{"city":"Defiance","zip":"43512","geo_score":1.0,"id":"abo3yhb7d76o","address":"28411 Blanchard Rd.","geo_precision":"range","state":"OH"},"type":"Feature","geometry":{"type":"Point","coordinates":[-84.281571,41.209301]}},{"properties":{"city":"Defiance","zip":"43512","geo_score":0.805,"id":"abo3yhdti59n","address":"27936 Ayersville Rd","geo_precision":"street","state":"OH"},"type":"Feature","geometry":{"type":"Point","coordinates":[-84.323816,41.258725]}},{"properties":{"city":"Defiance","zip":"43512","geo_score":1.0,"id":"abo3yh8aq80g","address":"14950 Dohoney Rd","geo_precision":"range","state":"OH"},"type":"Feature","geometry":{"type":"Point","coordinates":[-84.324027,41.224147]}},{"properties":{"city":"Defiance","zip":"43512","geo_score":1.0,"id":"abo3yhfkkkkb","address":"28243 Blanchard Rd","geo_precision":"range","state":"OH"},"type":"Feature","geometry":{"type":"Point","coordinates":[-84.278325,41.209275]}},{"properties":{"city":"Holgate","zip":"43527","geo_score":1.0,"id":"abo3yhembdzz","address":"30115 Standley Rd.","geo_precision":"range","state":"OH"},"type":"Feature","geometry":{"type":"Point","coordinates":[-84.244347,41.267851]}},{"properties":{"city":"Defiance","zip":"43512","geo_score":1.0,"id":"abo3yh9e5fe5","address":"28814 Blanchard Rd","geo_precision":"range","state":"OH"},"type":"Feature","geometry":{"type":"Point","coordinates":[-84.272326,41.209159]}},{"properties":{"city":"Defiance","zip":"43512","geo_score":1.0,"id":"abo3yhgib8ir","address":"28383 Bowman Rd.","geo_precision":"range","state":"OH"},"type":"Feature","geometry":{"type":"Point","coordinates":[-84.285118,41.223874]}},{"properties":{"city":"Defiance","zip":"43512","geo_score":1.0,"id":"abo3yh8cl34c","address":"28821 Blanchard Rd","geo_precision":"range","state":"OH"},"type":"Feature","geometry":{"type":"Point","coordinates":[-84.272616,41.209307]}},{"properties":{"city":"Defiance","zip":"43512","geo_score":0.912,"id":"abo3yhbzydig","address":"15526 Dohoney","geo_precision":"range","state":"OH"},"type":"Feature","geometry":{"type":"Point","coordinates":[-84.324126,41.216077]}},{"properties":{"city":"Defiance","zip":"43512","geo_score":1.0,"id":"abo3yh4jx2ez","address":"25732 Blanchard Rd","geo_precision":"range","state":"OH"},"type":"Feature","geometry":{"type":"Point","coordinates":[-84.32707,41.209037]}},{"properties":{"city":"Defiance","zip":"43512","geo_score":1.0,"id":"abo3yh133f11","address":"14689 Harris Rd.","geo_precision":"range","state":"OH"},"type":"Feature","geometry":{"type":"Point","coordinates":[-84.26619,41.230498]}},{"properties":{"city":"Defiance","zip":"43512","geo_score":0.878,"id":"abo3yh1fpou9","address":"14646 Dohoney Rd.","geo_precision":"range","state":"OH"},"type":"Feature","geometry":{"type":"Point","coordinates":[-84.323857,41.225996]}},{"properties":{"city":"Defiance","zip":"43512","geo_score":1.0,"id":"abo3yhhbk2jk","address":"29023 Steinmaier Road","geo_precision":"range","state":"OH"},"type":"Feature","geometry":{"type":"Point","coordinates":[-84.257686,41.241657]}},{"properties":{"city":"Defiance","zip":"43512","geo_score":0.937,"id":"abo3yh5avt1w","address":"12417 Fruit Ridge","geo_precision":"range","state":"OH"},"type":"Feature","geometry":{"type":"Point","coordinates":[-84.292906,41.26163]}},{"properties":{"city":"Defiance","zip":"43512","geo_score":1.0,"id":"abo3yhd2q4k1","address":"28328 Rohn Rd.","geo_precision":"range","state":"OH"},"type":"Feature","geometry":{"type":"Point","coordinates":[-84.280929,41.239179]}},{"properties":{"city":"Defiance","zip":"43512","geo_score":1.0,"id":"abo3yh41awmq","address":"17426 Harris Rd.","geo_precision":"range","state":"OH"},"type":"Feature","geometry":{"type":"Point","coordinates":[-84.266733,41.188691]}},{"properties":{"city":"Defiance","zip":"43512","geo_score":1.0,"id":"abo3yh7wilph","address":"17825 HILL ROAD","geo_precision":"range","state":"OH"},"type":"Feature","geometry":{"type":"Point","coordinates":[-84.276208,41.183023]}},{"properties":{"city":"Defiance","zip":"43512","geo_score":1.0,"id":"abo3yh5x1i7l","address":"26845 Slusser Dr.","geo_precision":"range","state":"OH"},"type":"Feature","geometry":{"type":"Point","coordinates":[-84.321898,41.247045]}},{"properties":{"city":"Defiance","zip":"43512","geo_score":0.415,"id":"abo3yhc3r703","address":"16077 Highland Center","geo_precision":"street","state":"OH"},"type":"Feature","geometry":{"type":"Point","coordinates":[-84.521982,41.382459]}},{"properties":{"city":"Defiance","zip":"43512","geo_score":0.937,"id":"abo3yh31pprp","address":"11201 Fruit Ridge","geo_precision":"range","state":"OH"},"type":"Feature","geometry":{"type":"Point","coordinates":[-84.295263,41.276473]}},{"properties":{"city":"Defiance","zip":"43512","geo_score":0.879,"id":"abo3yh4s6dgd","address":"13536 Fullmer Rd Lot 15","geo_precision":"range","state":"OH"},"type":"Feature","geometry":{"type":"Point","coordinates":[-84.31428,41.244197]}},{"properties":{"city":"Defiance","zip":"43512","geo_score":1.0,"id":"abo3yh1zxaks","address":"27789 Watson Rd.","geo_precision":"range","state":"OH"},"type":"Feature","geometry":{"type":"Point","coordinates":[-84.29168,41.238338]}},{"properties":{"city":"Defiance","zip":"43512","geo_score":0.805,"id":"abo3yhg85utw","address":"28036 Ayersville Rd.","geo_precision":"street","state":"OH"},"type":"Feature","geometry":{"type":"Point","coordinates":[-84.323816,41.258725]}},{"properties":{"city":"Defiance","zip":"43512","geo_score":1.0,"id":"abo3yh2jb15x","address":"27363 Bowman Rd","geo_precision":"range","state":"OH"},"type":"Feature","geometry":{"type":"Point","coordinates":[-84.299575,41.223776]}},{"properties":{"city":"Defiance","zip":"43512","geo_score":1.0,"id":"abo3yhdafk1f","address":"14559 Harris Rd.","geo_precision":"range","state":"OH"},"type":"Feature","geometry":{"type":"Point","coordinates":[-84.266165,41.233359]}},{"properties":{"city":"Defiance","zip":"43512","geo_score":0.937,"id":"abo3yh9e26l7","address":"11356 Fruit Ridge","geo_precision":"range","state":"OH"},"type":"Feature","geometry":{"type":"Point","coordinates":[-84.295639,41.27481]}},{"properties":{"city":"Defiance","zip":"43512","geo_score":0.937,"id":"abo3yhcek1fh","address":"12513 Fruit Ridge","geo_precision":"range","state":"OH"},"type":"Feature","geometry":{"type":"Point","coordinates":[-84.291861,41.259487]}},{"properties":{"city":"Defiance","zip":"43512","geo_score":1.0,"id":"abo3yhhbg3do","address":"15535 Harris Rd.","geo_precision":"range","state":"OH"},"type":"Feature","geometry":{"type":"Point","coordinates":[-84.264536,41.216886]}},{"properties":{"city":"Defiance","zip":"43512","geo_score":1.0,"id":"abo3yh11tbhj","address":"15513 Harris Rd.","geo_precision":"range","state":"OH"},"type":"Feature","geometry":{"type":"Point","coordinates":[-84.264525,41.217316]}},{"properties":{"city":"Defiance","zip":"43512","geo_score":0.702,"id":"abo3yhf9za0s","address":"27789 Ayersville Rd  Apt A","geo_precision":"street","state":"OH"},"type":"Feature","geometry":{"type":"Point","coordinates":[-84.323816,41.258725]}},{"properties":{"city":"Defiance","zip":"43512","geo_score":1.0,"id":"abo3yh4psmci","address":"27431 Blanchard Rd.","geo_precision":"range","state":"OH"},"type":"Feature","geometry":{"type":"Point","coordinates":[-84.303532,41.209211]}},{"properties":{"city":"Defiance","zip":"43512","geo_score":0.878,"id":"abo3yh5xedgs","address":"14598 Dohoney Rd.","geo_precision":"range","state":"OH"},"type":"Feature","geometry":{"type":"Point","coordinates":[-84.323857,41.225999]}},{"properties":{"city":"Ayersville","zip":"43512","geo_score":1.0,"id":"abo3yhe0yzk7","address":"29052 Hagy Rd.","geo_precision":"range","state":"OH"},"type":"Feature","geometry":{"type":"Point","coordinates":[-84.26515,41.255942]}},{"properties":{"city":"Defiance","zip":"43512","geo_score":1.0,"id":"abo3yh9ee6o7","address":"28491 Blanchard Rd.","geo_precision":"range","state":"OH"},"type":"Feature","geometry":{"type":"Point","coordinates":[-84.283197,41.209307]}},{"properties":{"city":"Defiance","zip":"43512","geo_score":1.0,"id":"abo3yhgdh6qv","address":"14755 Dohoney Rd","geo_precision":"range","state":"OH"},"type":"Feature","geometry":{"type":"Point","coordinates":[-84.323857,41.225987]}},{"properties":{"city":"Defiance","zip":"43512","geo_score":0.979,"id":"abo3yh8t74pw","address":"13912 Fruit Ridge Rd.","geo_precision":"range","state":"OH"},"type":"Feature","geometry":{"type":"Point","coordinates":[-84.285509,41.240169]}},{"properties":{"city":"Defiance","zip":"43512","geo_score":1.0,"id":"abo3yh44vsrh","address":"27956 Watson Road","geo_precision":"range","state":"OH"},"type":"Feature","geometry":{"type":"Point","coordinates":[-84.286319,41.238226]}},{"properties":{"city":"Defiance","zip":"43512","geo_score":1.0,"id":"abo3yh165lof","address":"15885 Hill Rd.","geo_precision":"range","state":"OH"},"type":"Feature","geometry":{"type":"Point","coordinates":[-84.275921,41.216309]}},{"properties":{"city":"Defiance","zip":"43512","geo_score":0.805,"id":"abo3yhgtnmga","address":"28655 Ayersville Rd.","geo_precision":"street","state":"OH"},"type":"Feature","geometry":{"type":"Point","coordinates":[-84.323816,41.258725]}},{"properties":{"city":"Defiance","zip":"43512","geo_score":1.0,"id":"abo3yh9tukcz","address":"29652 New Bavaria Rd.","geo_precision":"range","state":"OH"},"type":"Feature","geometry":{"type":"Point","coordinates":[-84.249773,41.250237]}},{"properties":{"city":"Defiance","zip":"43512","geo_score":0.805,"id":"abo3yhek7ga3","address":"27770 Ayersville Rd.","geo_precision":"street","state":"OH"},"type":"Feature","geometry":{"type":"Point","coordinates":[-84.323816,41.258725]}},{"properties":{"city":"Defiance","zip":"43512","geo_score":0.902,"id":"abo3yhfo2thq","address":"14871 Dohoney Rd.","geo_precision":"street","state":"OH"},"type":"Feature","geometry":{"type":"Point","coordinates":[-84.323857,41.225978]}},{"properties":{"city":"Defiance","zip":"43512","geo_score":1.0,"id":"abo3yh2nohip","address":"13519 Oris Ave","geo_precision":"range","state":"OH"},"type":"Feature","geometry":{"type":"Point","coordinates":[-84.319464,41.250943]}},{"properties":{"city":"Defiance","zip":"43512","geo_score":1.0,"id":"abo3yheqob6j","address":"29037 Steinmaier Rd.","geo_precision":"range","state":"OH"},"type":"Feature","geometry":{"type":"Point","coordinates":[-84.257896,41.241516]}},{"properties":{"city":"Defiance","zip":"43512","geo_score":0.875,"id":"abo3yh65zrwg","address":"27844 Hagy","geo_precision":"range","state":"OH"},"type":"Feature","geometry":{"type":"Point","coordinates":[-84.28473,41.260682]}},{"properties":{"city":"Defiance","zip":"43512","geo_score":0.854,"id":"abo3yhdcql4v","address":"13635 Oris","geo_precision":"range","state":"OH"},"type":"Feature","geometry":{"type":"Point","coordinates":[-84.319468,41.250738]}},{"properties":{"city":"Defiance","zip":"43512","geo_score":1.0,"id":"abo3yh1iqlmh","address":"14622 Harris Road","geo_precision":"range","state":"OH"},"type":"Feature","geometry":{"type":"Point","coordinates":[-84.266321,41.231951]}},{"properties":{"city":"Defiance","zip":"43512","geo_score":0.937,"id":"abo3yh2dact9","address":"30475 New Bavaria","geo_precision":"range","state":"OH"},"type":"Feature","geometry":{"type":"Point","coordinates":[-84.238075,41.239837]}},{"properties":{"city":"Holgate","zip":"43527","geo_score":1.0,"id":"abo3yh52heje","address":"11576 Snyder Rd.","geo_precision":"range","state":"OH"},"type":"Feature","geometry":{"type":"Point","coordinates":[-84.246821,41.27576]}},{"properties":{"city":"Defiance","zip":"43512","geo_score":1.0,"id":"abo3yh8sp1bv","address":"30341 Steinmaier Rd.","geo_precision":"range","state":"OH"},"type":"Feature","geometry":{"type":"Point","coordinates":[-84.239425,41.245747]}},{"properties":{"city":"Defiance","zip":"43512","geo_score":1.0,"id":"abo3yhgpoa9m","address":"26393 Bowman Rd.","geo_precision":"range","state":"OH"},"type":"Feature","geometry":{"type":"Point","coordinates":[-84.314462,41.223719]}},{"properties":{"city":"Defiance","zip":"43512","geo_score":1.0,"id":"abo3yhaoeqnm","address":"15487 Harris Rd.","geo_precision":"range","state":"OH"},"type":"Feature","geometry":{"type":"Point","coordinates":[-84.264692,41.217805]}},{"properties":{"city":"Defiance","zip":"43512","geo_score":1.0,"id":"abo3yhayvmq2","address":"15565 Harris Rd.","geo_precision":"range","state":"OH"},"type":"Feature","geometry":{"type":"Point","coordinates":[-84.264593,41.216339]}},{"properties":{"city":"Defiance","zip":"43512","geo_score":1.0,"id":"abo3yheyitrx","address":"28215 Hoffman Rd.","geo_precision":"range","state":"OH"},"type":"Feature","geometry":{"type":"Point","coordinates":[-84.282739,41.194782]}},{"properties":{"city":"Defiance","zip":"43512","geo_score":1.0,"id":"abo3yh22bmgz","address":"14829 Harris Rd.","geo_precision":"range","state":"OH"},"type":"Feature","geometry":{"type":"Point","coordinates":[-84.26621,41.227437]}},{"properties":{"city":"Defiance","zip":"43512","geo_score":1.0,"id":"abo3yh9jqmgc","address":"27919 Watson Rd.","geo_precision":"range","state":"OH"},"type":"Feature","geometry":{"type":"Point","coordinates":[-84.287363,41.238367]}},{"properties":{"city":"Defiance","zip":"43512","geo_score":0.415,"id":"abo3yhaswact","address":"15681 Highland Center","geo_precision":"street","state":"OH"},"type":"Feature","geometry":{"type":"Point","coordinates":[-84.521982,41.382459]}},{"properties":{"city":"Defiance","zip":"43512","geo_score":1.0,"id":"abo3yh5d596f","address":"28814 Blanchard Rd","geo_precision":"range","state":"OH"},"type":"Feature","geometry":{"type":"Point","coordinates":[-84.272326,41.209159]}},{"properties":{"city":"Defiance","zip":"43512","geo_score":1.0,"id":"abo3yh2bpkg6","address":"25114 Watson Rd.","geo_precision":"range","state":"OH"},"type":"Feature","geometry":{"type":"Point","coordinates":[-84.339956,41.238226]}},{"properties":{"city":"Defiance","zip":"43512","geo_score":1.0,"id":"abo3yhbmcvmg","address":"26426 Bowman Rd.","geo_precision":"range","state":"OH"},"type":"Feature","geometry":{"type":"Point","coordinates":[-84.314827,41.223571]}},{"properties":{"city":"Defiance","zip":"43512","geo_score":1.0,"id":"abo3yh52y7fn","address":"26650 Blanchard Rd.","geo_precision":"range","state":"OH"},"type":"Feature","geometry":{"type":"Point","coordinates":[-84.307734,41.209058]}},{"properties":{"city":"Defiance","zip":"43512","geo_score":1.0,"id":"abo3yh9uxn0l","address":"27248 Standley Rd.","geo_precision":"range","state":"OH"},"type":"Feature","geometry":{"type":"Point","coordinates":[-84.300848,41.267833]}},{"properties":{"city":"Defiance","zip":"43512","geo_score":1.0,"id":"abo3yh5z5ddk","address":"30541 Steinmaier Rd.","geo_precision":"range","state":"OH"},"type":"Feature","geometry":{"type":"Point","coordinates":[-84.227531,41.24597]}},{"properties":{"city":"Defiance","zip":"43512","geo_score":0.979,"id":"abo3yh2n7oxw","address":"13783 Fruit Ridge Rd.","geo_precision":"range","state":"OH"},"type":"Feature","geometry":{"type":"Point","coordinates":[-84.285347,41.242285]}},{"properties":{"city":"Defiance","zip":"43512","geo_score":0.805,"id":"abo3yh4gxae7","address":"27632 Ayersville Rd.","geo_precision":"street","state":"OH"},"type":"Feature","geometry":{"type":"Point","coordinates":[-84.323816,41.258725]}},{"properties":{"city":"Defiance","zip":"43512","geo_score":1.0,"id":"abo3yh8d2lr7","address":"27872 Watson Rd.","geo_precision":"range","state":"OH"},"type":"Feature","geometry":{"type":"Point","coordinates":[-84.288096,41.238208]}},{"properties":{"city":"Defiance","zip":"43512","geo_score":1.0,"id":"abo3yh9pj101","address":"29630 Standley Rd.","geo_precision":"range","state":"OH"},"type":"Feature","geometry":{"type":"Point","coordinates":[-84.253863,41.267712]}},{"properties":{"city":"Holgate","zip":"43527","geo_score":0.625,"id":"abo3yh6vqbnn","address":"18-447 Cty Rd. G1","geo_precision":"street","state":"OH"},"type":"Feature","geometry":{"type":"Point","coordinates":[-84.190727,41.260222]}},{"properties":{"city":"Defiance","zip":"43512","geo_score":1.0,"id":"abo3yh79ladl","address":"27622 Hoffman Rd.","geo_precision":"range","state":"OH"},"type":"Feature","geometry":{"type":"Point","coordinates":[-84.285834,41.194697]}},{"properties":{"city":"Defiance","zip":"43512","geo_score":0.805,"id":"abo3yh7wfw1j","address":"28224 Ayersville Rd.","geo_precision":"street","state":"OH"},"type":"Feature","geometry":{"type":"Point","coordinates":[-84.323816,41.258725]}},{"properties":{"city":"Defiance","zip":"43512","geo_score":1.0,"id":"abo3yhcha3pz","address":"16343 Painter Rd.","geo_precision":"range","state":"OH"},"type":"Feature","geometry":{"type":"Point","coordinates":[-84.295241,41.204486]}},{"properties":{"city":"Defiance","zip":"43512","geo_score":1.0,"id":"abo3yh3rgnfv","address":"29220 Standley Rd.","geo_precision":"range","state":"OH"},"type":"Feature","geometry":{"type":"Point","coordinates":[-84.259313,41.267712]}},{"properties":{"city":"Defiance","zip":"43512","geo_score":1.0,"id":"abo3yhfoz4wv","address":"27944 Hoffman Rd.","geo_precision":"range","state":"OH"},"type":"Feature","geometry":{"type":"Point","coordinates":[-84.291707,41.194583]}},{"properties":{"city":"Defiance","zip":"43512","geo_score":1.0,"id":"abo3yhgesd1a","address":"25828 Watson Rd.","geo_precision":"range","state":"OH"},"type":"Feature","geometry":{"type":"Point","coordinates":[-84.326337,41.238127]}},{"properties":{"city":"Defiance","zip":"43512","geo_score":1.0,"id":"abo3yhelnv8i","address":"17070 Harris Rd.","geo_precision":"range","state":"OH"},"type":"Feature","geometry":{"type":"Point","coordinates":[-84.266689,41.19375]}},{"properties":{"city":"Defiance","zip":"43512","geo_score":1.0,"id":"abo3yh461bj3","address":"28733 Hoffman Rd.","geo_precision":"range","state":"OH"},"type":"Feature","geometry":{"type":"Point","coordinates":[-84.272389,41.194827]}},{"properties":{"city":"Defiance","zip":"43512","geo_score":0.805,"id":"abo3yh773gby","address":"28286 Ayersville Rd.","geo_precision":"street","state":"OH"},"type":"Feature","geometry":{"type":"Point","coordinates":[-84.323816,41.258725]}},{"properties":{"city":"Defiance","zip":"43512","geo_score":1.0,"id":"abo3yhgcz5xh","address":"12797 Wolf Rd.","geo_precision":"range","state":"OH"},"type":"Feature","geometry":{"type":"Point","coordinates":[-84.280524,41.250008]}},{"properties":{"city":"Defiance","zip":"43512","geo_score":1.0,"id":"abo3yh5qloeu","address":"10971 Stevens Rd.","geo_precision":"range","state":"OH"},"type":"Feature","geometry":{"type":"Point","coordinates":[-84.263983,41.282778]}},{"properties":{"city":"Defiance","zip":"43512","geo_score":1.0,"id":"abo3yhaf49a7","address":"28985 Standley Rd","geo_precision":"range","state":"OH"},"type":"Feature","geometry":{"type":"Point","coordinates":[-84.26948,41.267888]}},{"properties":{"city":"Defiance","zip":"43512","geo_score":0.92,"id":"abo3yh8ide0h","address":"26654 Standley","geo_precision":"range","state":"OH"},"type":"Feature","geometry":{"type":"Point","coordinates":[-84.311234,41.267884]}},{"properties":{"city":"Defiance","zip":"43512","geo_score":1.0,"id":"abo3yh7uuasn","address":"11932 Harris Rd.","geo_precision":"range","state":"OH"},"type":"Feature","geometry":{"type":"Point","coordinates":[-84.266071,41.268728]}},{"properties":{"city":"Defiance","zip":"43512","geo_score":0.805,"id":"abo3yh6in8cl","address":"29309 Ayersville Rd.","geo_precision":"street","state":"OH"},"type":"Feature","geometry":{"type":"Point","coordinates":[-84.323816,41.258725]}},{"properties":{"city":"Defiance","zip":"43512","geo_score":0.805,"id":"abo3yh2w7fat","address":"28033 Ayersville Rd.","geo_precision":"street","state":"OH"},"type":"Feature","geometry":{"type":"Point","coordinates":[-84.323816,41.258725]}},{"properties":{"city":"Holgate","zip":"43527","geo_score":0.929,"id":"abo3yh235m6m","address":"11628 Defiance Henry Co Line","geo_precision":"range","state":"OH"},"type":"Feature","geometry":{"type":"Point","coordinates":[-84.227492,41.273206]}},{"properties":{"city":"Defiance","zip":"43512","geo_score":1.0,"id":"abo3yha95eop","address":"28610 Standley Rd.","geo_precision":"range","state":"OH"},"type":"Feature","geometry":{"type":"Point","coordinates":[-84.272118,41.267766]}},{"properties":{"city":"Defiance","zip":"43512","geo_score":0.694,"id":"abo3yhapqoo2","address":"13948 Fruit Ridge Rd. Apt C","geo_precision":"street","state":"OH"},"type":"Feature","geometry":{"type":"Point","coordinates":[-84.35928,41.287918]}},{"properties":{"city":"Defiance","zip":"43512","geo_score":1.0,"id":"abo3yhb18iy8","address":"28617 Mansfield Rd","geo_precision":"range","state":"OH"},"type":"Feature","geometry":{"type":"Point","coordinates":[-84.269325,41.180274]}},{"properties":{"city":"Defiance","zip":"43512","geo_score":1.0,"id":"abo3yhchsahr","address":"13185 Dohoney Rd","geo_precision":"range","state":"OH"},"type":"Feature","geometry":{"type":"Point","coordinates":[-84.323702,41.250243]}},{"properties":{"city":"Defiance","zip":"43512","geo_score":0.732,"id":"abo3yhd8okns","address":"13536 Fullmer Rd. Lot 9","geo_precision":"street","state":"OH"},"type":"Feature","geometry":{"type":"Point","coordinates":[-84.367847,41.277525]}},{"properties":{"city":"Defiance","zip":"43512","geo_score":0.805,"id":"abo3yh1jl3wy","address":"27607 Ayersville Rd.","geo_precision":"street","state":"OH"},"type":"Feature","geometry":{"type":"Point","coordinates":[-84.323816,41.258725]}},{"properties":{"city":"Defiance","zip":"43512","geo_score":1.0,"id":"abo3yh5msmta","address":"28486 Standley Rd.","geo_precision":"range","state":"OH"},"type":"Feature","geometry":{"type":"Point","coordinates":[-84.27637,41.267789]}},{"properties":{"city":"Defiance","zip":"43512","geo_score":0.805,"id":"abo3yhdc3cu8","address":"27810 Ayersville Rd.","geo_precision":"street","state":"OH"},"type":"Feature","geometry":{"type":"Point","coordinates":[-84.323816,41.258725]}},{"properties":{"city":"Defiance","zip":"43512","geo_score":1.0,"id":"abo3yhdwhfiv","address":"15918 Dohoney Rd.","geo_precision":"range","state":"OH"},"type":"Feature","geometry":{"type":"Point","coordinates":[-84.324162,41.210288]}},{"properties":{"city":"Defiance","zip":"43512","geo_score":1.0,"id":"abo3yh6gp1mh","address":"25818 Blanchard Rd.","geo_precision":"range","state":"OH"},"type":"Feature","geometry":{"type":"Point","coordinates":[-84.326368,41.209036]}},{"properties":{"city":"Defiance","zip":"43512","geo_score":0.902,"id":"abo3yh6jcc4a","address":"11064 Kepler","geo_precision":"range","state":"OH"},"type":"Feature","geometry":{"type":"Point","coordinates":[-84.294873,41.28001]}},{"properties":{"city":"Defiance","zip":"43512","geo_score":1.0,"id":"abo3yh9fhbe8","address":"27947 Watson Rd.","geo_precision":"range","state":"OH"},"type":"Feature","geometry":{"type":"Point","coordinates":[-84.286568,41.238374]}},{"properties":{"city":"Defiance","zip":"43512","geo_score":1.0,"id":"abo3yh5zb8ii","address":"15666 Hill Rd.","geo_precision":"range","state":"OH"},"type":"Feature","geometry":{"type":"Point","coordinates":[-84.276063,41.217046]}},{"properties":{"city":"Defiance","zip":"43512","geo_score":0.415,"id":"abo3yh3wfowh","address":"14118 Highland Center","geo_precision":"street","state":"OH"},"type":"Feature","geometry":{"type":"Point","coordinates":[-84.521982,41.382459]}},{"properties":{"city":"Defiance","zip":"43512","geo_score":0.902,"id":"abo3yhcev0rz","address":"26380 Arena Dr","geo_precision":"range","state":"OH"},"type":"Feature","geometry":{"type":"Point","coordinates":[-84.322933,41.248092]}},{"properties":{"city":"Defiance","zip":"43512","geo_score":0.937,"id":"abo3yhdotxhc","address":"12325 Fruit Ridge","geo_precision":"range","state":"OH"},"type":"Feature","geometry":{"type":"Point","coordinates":[-84.293487,41.262994]}},{"properties":{"city":"Defiance","zip":"43512","geo_score":1.0,"id":"abo3yhg43i5x","address":"29230 Blanchard Rd.","geo_precision":"range","state":"OH"},"type":"Feature","geometry":{"type":"Point","coordinates":[-84.263079,41.209243]}},{"properties":{"city":"Defiance","zip":"43512","geo_score":0.979,"id":"abo3yh33svq3","address":"13670 Fruit Ridge Rd","geo_precision":"range","state":"OH"},"type":"Feature","geometry":{"type":"Point","coordinates":[-84.285479,41.244189]}},{"properties":{"city":"Defiance","zip":"43512","geo_score":0.415,"id":"abo3yh4pfmuy","address":"16060 Highland Center","geo_precision":"street","state":"OH"},"type":"Feature","geometry":{"type":"Point","coordinates":[-84.521982,41.382459]}},{"properties":{"city":"Defiance","zip":"43512","geo_score":1.0,"id":"abo3yhhf5ccw","address":"27723 Watson Rd.","geo_precision":"range","state":"OH"},"type":"Feature","geometry":{"type":"Point","coordinates":[-84.290397,41.238341]}},{"properties":{"city":"Defiance","zip":"43512","geo_score":0.415,"id":"abo3yhbn6xuj","address":"14236 Highland Center","geo_precision":"street","state":"OH"},"type":"Feature","geometry":{"type":"Point","coordinates":[-84.521982,41.382459]}},{"properties":{"city":"Defiance","zip":"43512","geo_score":1.0,"id":"abo3yh5mc3j4","address":"28332 Blanchard Rd.","geo_precision":"range","state":"OH"},"type":"Feature","geometry":{"type":"Point","coordinates":[-84.280066,41.20914]}},{"properties":{"city":"Defiance","zip":"43512","geo_score":1.0,"id":"abo3yhbn1cjp","address":"28361 Blanchard Rd.","geo_precision":"range","state":"OH"},"type":"Feature","geometry":{"type":"Point","coordinates":[-84.280629,41.209292]}},{"properties":{"city":"Holgate","zip":"43527","geo_score":0.973,"id":"abo3yh299gcj","address":"30511 Theiroff Road","geo_precision":"range","state":"OH"},"type":"Feature","geometry":{"type":"Point","coordinates":[-84.236535,41.260546]}},{"properties":{"city":"Defiance","zip":"43512","geo_score":1.0,"id":"abo3yh26gza2","address":"25786 Bowman Rd","geo_precision":"range","state":"OH"},"type":"Feature","geometry":{"type":"Point","coordinates":[-84.327984,41.22358]}},{"properties":{"city":"Defiance","zip":"43512","geo_score":1.0,"id":"abo3yh5tvpsc","address":"15358 Fullmer Rd.","geo_precision":"range","state":"OH"},"type":"Feature","geometry":{"type":"Point","coordinates":[-84.314502,41.217643]}},{"properties":{"city":"Defiance","zip":"43512","geo_score":0.805,"id":"abo3yh4nx0gp","address":"29732 Watson Rd.","geo_precision":"street","state":"OH"},"type":"Feature","geometry":{"type":"Point","coordinates":[-84.28544,41.238296]}},{"properties":{"city":"Defiance","zip":"43512","geo_score":1.0,"id":"abo3yhabvjat","address":"27837 Bowman Rd.","geo_precision":"range","state":"OH"},"type":"Feature","geometry":{"type":"Point","coordinates":[-84.290498,41.223859]}},{"properties":{"city":"Defiance","zip":"43512","geo_score":1.0,"id":"abo3yh5bz6xr","address":"27119 Shindler Rd.","geo_precision":"range","state":"OH"},"type":"Feature","geometry":{"type":"Point","coordinates":[-84.301621,41.253477]}},{"properties":{"city":"Defiance","zip":"43512","geo_score":1.0,"id":"abo3yh98p3cs","address":"27632 Sutphen Road","geo_precision":"range","state":"OH"},"type":"Feature","geometry":{"type":"Point","coordinates":[-84.285538,41.230995]}},{"properties":{"city":"Defiance","zip":"43512","geo_score":0.979,"id":"abo3yh39uzw0","address":"13766 Fruit Ridge Rd.","geo_precision":"range","state":"OH"},"type":"Feature","geometry":{"type":"Point","coordinates":[-84.285496,41.2426]}},{"properties":{"city":"Defiance","zip":"43512","geo_score":0.979,"id":"abo3yhg94uhh","address":"13550 Fruit Ridge Rd","geo_precision":"range","state":"OH"},"type":"Feature","geometry":{"type":"Point","coordinates":[-84.28482,41.245907]}},{"properties":{"city":"Defiance","zip":"43512","geo_score":1.0,"id":"abo3yhhet2qx","address":"25794 Watson Rd.","geo_precision":"range","state":"OH"},"type":"Feature","geometry":{"type":"Point","coordinates":[-84.326849,41.238127]}},{"properties":{"city":"Defiance","zip":"43512","geo_score":0.805,"id":"abo3yh3lnokv","address":"27888 Ayersville Rd.","geo_precision":"street","state":"OH"},"type":"Feature","geometry":{"type":"Point","coordinates":[-84.323816,41.258725]}},{"properties":{"city":"Defiance","zip":"43512","geo_score":1.0,"id":"abo3yh2a2x66","address":"13489 Wolf Rd.","geo_precision":"range","state":"OH"},"type":"Feature","geometry":{"type":"Point","coordinates":[-84.281723,41.246916]}},{"properties":{"city":"Defiance","zip":"43512","geo_score":0.842,"id":"abo3yh5tz9pv","address":"28614 SR 281","geo_precision":"range","state":"OH"},"type":"Feature","geometry":{"type":"Point","coordinates":[-84.273312,41.282311]}},{"properties":{"city":"Defiance","zip":"43512","geo_score":1.0,"id":"abo3yhdo5sx9","address":"14583 Harris Rd","geo_precision":"range","state":"OH"},"type":"Feature","geometry":{"type":"Point","coordinates":[-84.266173,41.23283]}},{"properties":{"city":"Defiance","zip":"43512","geo_score":1.0,"id":"abo3yhbvrg3v","address":"17410 Harris Rd.","geo_precision":"range","state":"OH"},"type":"Feature","geometry":{"type":"Point","coordinates":[-84.266735,41.188932]}},{"properties":{"city":"Defiance","zip":"43512","geo_score":1.0,"id":"abo3yh930j07","address":"25485 Blanchard Rd.","geo_precision":"range","state":"OH"},"type":"Feature","geometry":{"type":"Point","coordinates":[-84.329684,41.209186]}},{"properties":{"city":"Defiance","zip":"43512","geo_score":1.0,"id":"abo3yhanncnh","address":"15310 Dohoney Rd.","geo_precision":"range","state":"OH"},"type":"Feature","geometry":{"type":"Point","coordinates":[-84.324111,41.219228]}},{"properties":{"city":"Defiance","zip":"43512","geo_score":0.709,"id":"abo3yhenbmes","address":"30059 ST RT 18","geo_precision":"street","state":"OH"},"type":"Feature","geometry":{"type":"Point","coordinates":[-84.247916,41.253296]}},{"properties":{"city":"Defiance","zip":"43512","geo_score":1.0,"id":"abo3yhc947ms","address":"14783 Harris Rd","geo_precision":"range","state":"OH"},"type":"Feature","geometry":{"type":"Point","coordinates":[-84.266199,41.228467]}},{"properties":{"city":"Defiance","zip":"43512","geo_score":1.0,"id":"abo3yh6roxjg","address":"28948 Blanchard Rd.","geo_precision":"range","state":"OH"},"type":"Feature","geometry":{"type":"Point","coordinates":[-84.275038,41.209134]}},{"properties":{"city":"Defiance","zip":"43512","geo_score":0.805,"id":"abo3yhgyn8kj","address":"28445 Ayersville Rd.","geo_precision":"street","state":"OH"},"type":"Feature","geometry":{"type":"Point","coordinates":[-84.323816,41.258725]}},{"properties":{"city":"Defiance","zip":"43512","geo_score":1.0,"id":"abo3yh24o9ic","address":"28479 Standley Rd","geo_precision":"range","state":"OH"},"type":"Feature","geometry":{"type":"Point","coordinates":[-84.274747,41.267932]}},{"properties":{"city":"Defiance","zip":"43512","geo_score":1.0,"id":"abo3yhfh9hl5","address":"28459 Standley Rd.","geo_precision":"range","state":"OH"},"type":"Feature","geometry":{"type":"Point","coordinates":[-84.274588,41.26793]}},{"properties":{"city":"Defiance","zip":"43512","geo_score":1.0,"id":"abo3yhbm5164","address":"27235 Standley Rd.","geo_precision":"range","state":"OH"},"type":"Feature","geometry":{"type":"Point","coordinates":[-84.301264,41.267984]}},{"properties":{"city":"Defiance","zip":"43512","geo_score":1.0,"id":"abo3yh9y9s4a","address":"27401 Shindler Rd.","geo_precision":"range","state":"OH"},"type":"Feature","geometry":{"type":"Point","coordinates":[-84.296206,41.253439]}},{"properties":{"city":"Defiance","zip":"43512","geo_score":0.805,"id":"abo3yh1506co","address":"27821 Ayersville Rd.","geo_precision":"street","state":"OH"},"type":"Feature","geometry":{"type":"Point","coordinates":[-84.323816,41.258725]}},{"properties":{"city":"Defiance","zip":"43512","geo_score":0.805,"id":"abo3yhfu542m","address":"16450 Kinner Rd.","geo_precision":"street","state":"OH"},"type":"Feature","geometry":{"type":"Point","coordinates":[-84.24694,41.223825]}},{"properties":{"city":"Ayersville","zip":"43512","geo_score":1.0,"id":"abo3yheaupjz","address":"13800 Fullmer Rd.","geo_precision":"range","state":"OH"},"type":"Feature","geometry":{"type":"Point","coordinates":[-84.314282,41.240147]}},{"properties":{"city":"Defiance","zip":"43512","geo_score":1.0,"id":"abo3yhgom09m","address":"27986 Watson Rd.","geo_precision":"range","state":"OH"},"type":"Feature","geometry":{"type":"Point","coordinates":[-84.28573,41.238224]}},{"properties":{"city":"Defiance","zip":"43512","geo_score":1.0,"id":"abo3yhaz4zvb","address":"28585 Rohn Rd.","geo_precision":"range","state":"OH"},"type":"Feature","geometry":{"type":"Point","coordinates":[-84.278797,41.240253]}},{"properties":{"city":"Defiance","zip":"43512","geo_score":1.0,"id":"abo3yhapuudy","address":"28240 Rohn Rd.","geo_precision":"range","state":"OH"},"type":"Feature","geometry":{"type":"Point","coordinates":[-84.281793,41.238919]}},{"properties":{"city":"Defiance","zip":"43512","geo_score":1.0,"id":"abo3yhb5jm2r","address":"27012 Shindler Rd.","geo_precision":"range","state":"OH"},"type":"Feature","geometry":{"type":"Point","coordinates":[-84.303585,41.253322]}},{"properties":{"city":"Defiance","zip":"43512","geo_score":0.805,"id":"abo3yh3vt2xx","address":"29216 Ayersville Rd.","geo_precision":"street","state":"OH"},"type":"Feature","geometry":{"type":"Point","coordinates":[-84.323816,41.258725]}},{"properties":{"city":"Defiance","zip":"43512","geo_score":0.937,"id":"abo3yharynao","address":"12096 Fruit Ridge","geo_precision":"range","state":"OH"},"type":"Feature","geometry":{"type":"Point","coordinates":[-84.295091,41.266345]}},{"properties":{"city":"Defiance","zip":"43512","geo_score":0.971,"id":"abo3yhftrw2r","address":"26270 Eunice Av","geo_precision":"range","state":"OH"},"type":"Feature","geometry":{"type":"Point","coordinates":[-84.321991,41.249818]}},{"properties":{"city":"Defiance","zip":"43512","geo_score":0.737,"id":"abo3yhaixbhw","address":"27914 Ayersville","geo_precision":"street","state":"OH"},"type":"Feature","geometry":{"type":"Point","coordinates":[-84.323816,41.258725]}},{"properties":{"city":"Ayersville","zip":"43512","geo_score":1.0,"id":"abo3yhaukst7","address":"28132 Hagy Rd.","geo_precision":"range","state":"OH"},"type":"Feature","geometry":{"type":"Point","coordinates":[-84.281914,41.260249]}},{"properties":{"city":"Ayersville","zip":"43512","geo_score":1.0,"id":"abo3yh9awcdz","address":"12688 Wolf Rd.","geo_precision":"range","state":"OH"},"type":"Feature","geometry":{"type":"Point","coordinates":[-84.280661,41.250616]}},{"properties":{"city":"Defiance","zip":"43512","geo_score":1.0,"id":"abo3yh4qx9ap","address":"13230 Oris Ave.","geo_precision":"range","state":"OH"},"type":"Feature","geometry":{"type":"Point","coordinates":[-84.319617,41.25161]}},{"properties":{"city":"Defiance","zip":"43512","geo_score":1.0,"id":"abo3yh9dscs6","address":"16806 HARRIS RD.","geo_precision":"range","state":"OH"},"type":"Feature","geometry":{"type":"Point","coordinates":[-84.266669,41.197057]}},{"properties":{"city":"Defiance","zip":"43512","geo_score":1.0,"id":"abo3yh3l1dnk","address":"27433 Bowman Rd","geo_precision":"range","state":"OH"},"type":"Feature","geometry":{"type":"Point","coordinates":[-84.301292,41.223766]}},{"properties":{"city":"Defiance","zip":"43512","geo_score":0.979,"id":"abo3yh637egv","address":"13948 Fruit Ridge rd","geo_precision":"range","state":"OH"},"type":"Feature","geometry":{"type":"Point","coordinates":[-84.285508,41.239563]}},{"properties":{"city":"Defiance","zip":"43512","geo_score":0.937,"id":"abo3yh40alaj","address":"12826 Fruit Ridge","geo_precision":"range","state":"OH"},"type":"Feature","geometry":{"type":"Point","coordinates":[-84.289898,41.254799]}},{"properties":{"city":"Defiance","zip":"43512","geo_score":1.0,"id":"abo3yhbuzcxv","address":"15293 Harris Rd","geo_precision":"range","state":"OH"},"type":"Feature","geometry":{"type":"Point","coordinates":[-84.265464,41.219246]}},{"properties":{"city":"Defiance","zip":"43512","geo_score":1.0,"id":"abo3yhh1w6l3","address":"27525 Hoffman Rd.","geo_precision":"range","state":"OH"},"type":"Feature","geometry":{"type":"Point","coordinates":[-84.293433,41.194727]}},{"properties":{"city":"Defiance","zip":"43512","geo_score":0.856,"id":"abo3yh3c45bz","address":"28678 Steinmier Rd.","geo_precision":"range","state":"OH"},"type":"Feature","geometry":{"type":"Point","coordinates":[-84.275616,41.238458]}},{"properties":{"city":"Defiance","zip":"43512","geo_score":1.0,"id":"abo3yhfo7wls","address":"11482 Harris Rd.","geo_precision":"range","state":"OH"},"type":"Feature","geometry":{"type":"Point","coordinates":[-84.266104,41.275087]}},{"properties":{"city":"Defiance","zip":"43512","geo_score":0.463,"id":"abo3yh4m8iet","address":"15160 Highland Center Rd","geo_precision":"street","state":"OH"},"type":"Feature","geometry":{"type":"Point","coordinates":[-84.521982,41.382459]}},{"properties":{"city":"Holgate","zip":"43527","geo_score":1.0,"id":"abo3yhtxqcv2","address":"18563 Co Rd H","geo_precision":"range","state":"OH"},"type":"Feature","geometry":{"type":"Point","coordinates":[-84.212157,41.267554]}},{"properties":{"city":"Holgate","zip":"43527","geo_score":1.0,"id":"abo3yhwyv6wm","address":"18548 Co Rd H","geo_precision":"range","state":"OH"},"type":"Feature","geometry":{"type":"Point","coordinates":[-84.212486,41.267701]}},{"properties":{"city":"Holgate","zip":"43527","geo_score":1.0,"id":"abo3yhokonac","address":"18941 Co Rd H","geo_precision":"range","state":"OH"},"type":"Feature","geometry":{"type":"Point","coordinates":[-84.226823,41.267565]}},{"properties":{"city":"Defiance","zip":"43512","geo_score":1.0,"id":"abo3yhr8ub47","address":"26692 Watson Rd.","geo_precision":"range","state":"OH"},"type":"Feature","geometry":{"type":"Point","coordinates":[-84.313099,41.238131]}},{"properties":{"city":"Defiance","zip":"43512","geo_score":1.0,"id":"abo3yhpfz5yo","address":"12967 Dohoney Rd.","geo_precision":"range","state":"OH"},"type":"Feature","geometry":{"type":"Point","coordinates":[-84.323724,41.253585]}},{"properties":{"city":"Defiance","zip":"43512","geo_score":0.979,"id":"abo3yhlogob9","address":"13620 Fruit Ridge Rd","geo_precision":"range","state":"OH"},"type":"Feature","geometry":{"type":"Point","coordinates":[-84.285482,41.245032]}},{"properties":{"city":"Defiance","zip":"43512","geo_score":1.0,"id":"abo3yhrwdfi0","address":"27959 Watson Rd","geo_precision":"range","state":"OH"},"type":"Feature","geometry":{"type":"Point","coordinates":[-84.286279,41.238376]}},{"properties":{"city":"Defiance","zip":"43512","geo_score":0.463,"id":"abo3yht31nxs","address":"13995 Highland Center Rd","geo_precision":"street","state":"OH"},"type":"Feature","geometry":{"type":"Point","coordinates":[-84.521982,41.382459]}},{"properties":{"city":"Defiance","zip":"43512","geo_score":1.0,"id":"abo3yhi4ihkt","address":"27981 Watson Rd.","geo_precision":"range","state":"OH"},"type":"Feature","geometry":{"type":"Point","coordinates":[-84.285817,41.238375]}},{"properties":{"city":"Defiance","zip":"43512","geo_score":1.0,"id":"abo3yhqmj8e5","address":"26660 Elizabeth St.","geo_precision":"range","state":"OH"},"type":"Feature","geometry":{"type":"Point","coordinates":[-84.323155,41.249027]}},{"properties":{"city":"Defiance","zip":"43512","geo_score":1.0,"id":"abo3yhpmiz5k","address":"17310 Harris Rd","geo_precision":"range","state":"OH"},"type":"Feature","geometry":{"type":"Point","coordinates":[-84.266712,41.190354]}},{"properties":{"city":"Defiance","zip":"43512","geo_score":1.0,"id":"abo3yhjly0hv","address":"15604 Hill Rd.","geo_precision":"range","state":"OH"},"type":"Feature","geometry":{"type":"Point","coordinates":[-84.276054,41.217668]}},{"properties":{"city":"Defiance","zip":"43512","geo_score":1.0,"id":"abo3yhhthu81","address":"26864 Sutphen Rd","geo_precision":"range","state":"OH"},"type":"Feature","geometry":{"type":"Point","coordinates":[-84.306011,41.230862]}},{"properties":{"city":"Defiance","zip":"43512","geo_score":1.0,"id":"abo3yhv8zu4u","address":"15172 Dohoney Rd.","geo_precision":"range","state":"OH"},"type":"Feature","geometry":{"type":"Point","coordinates":[-84.324077,41.221205]}},{"properties":{"city":"Defiance","zip":"43512","geo_score":1.0,"id":"abo3yhtgfb1j","address":"17117 Hill Rd.","geo_precision":"range","state":"OH"},"type":"Feature","geometry":{"type":"Point","coordinates":[-84.276181,41.193408]}},{"properties":{"city":"Defiance","zip":"43512","geo_score":1.0,"id":"abo3yht2i4sz","address":"26329 Bowman Rd.","geo_precision":"range","state":"OH"},"type":"Feature","geometry":{"type":"Point","coordinates":[-84.316671,41.223724]}},{"properties":{"city":"Holgate","zip":"43527","geo_score":1.0,"id":"abo3yhtpd1fw","address":"30400 Thieroff Rd.","geo_precision":"range","state":"OH"},"type":"Feature","geometry":{"type":"Point","coordinates":[-84.238896,41.260417]}},{"properties":{"city":"Defiance","zip":"43512","geo_score":0.937,"id":"abo3yhuad0gw","address":"13802 Fruit Ridge","geo_precision":"range","state":"OH"},"type":"Feature","geometry":{"type":"Point","coordinates":[-84.285498,41.241988]}},{"properties":{"city":"Defiance","zip":"43512","geo_score":0.91,"id":"abo3yhj2600c","address":"29257 St Rt 281","geo_precision":"range","state":"OH"},"type":"Feature","geometry":{"type":"Point","coordinates":[-84.255875,41.282393]}},{"properties":{"city":"Defiance","zip":"43512","geo_score":1.0,"id":"abo3yhsxbl9p","address":"25474 Watson Rd.","geo_precision":"range","state":"OH"},"type":"Feature","geometry":{"type":"Point","coordinates":[-84.332766,41.238125]}},{"properties":{"city":"Defiance","zip":"43512","geo_score":1.0,"id":"abo3yhlxxzpb","address":"14235 Kinner Rd","geo_precision":"range","state":"OH"},"type":"Feature","geometry":{"type":"Point","coordinates":[-84.246858,41.234977]}},{"properties":{"city":"Defiance","zip":"43512","geo_score":1.0,"id":"abo3yhj01mze","address":"28489 Bowman Rd","geo_precision":"range","state":"OH"},"type":"Feature","geometry":{"type":"Point","coordinates":[-84.275808,41.223798]}},{"properties":{"city":"Defiance","zip":"43512","geo_score":0.902,"id":"abo3yhpk022n","address":"16216 Cullen","geo_precision":"range","state":"OH"},"type":"Feature","geometry":{"type":"Point","coordinates":[-84.30496,41.207773]}},{"properties":{"city":"Defiance","zip":"43512","geo_score":0.937,"id":"abo3yht7odud","address":"13226 Fruit Ridge","geo_precision":"range","state":"OH"},"type":"Feature","geometry":{"type":"Point","coordinates":[-84.288444,41.251835]}},{"properties":{"city":"Defiance","zip":"43512","geo_score":1.0,"id":"abo3yhpzgmhq","address":"27183 Hoffman Rd.","geo_precision":"range","state":"OH"},"type":"Feature","geometry":{"type":"Point","coordinates":[-84.295441,41.194713]}},{"properties":{"city":"Defiance","zip":"43512","geo_score":0.967,"id":"abo3yhmwrkny","address":"12236 Harris Dr.","geo_precision":"range","state":"OH"},"type":"Feature","geometry":{"type":"Point","coordinates":[-84.266052,41.261783]}},{"properties":{"city":"Defiance","zip":"43512","geo_score":0.415,"id":"abo3yhnaoa8r","address":"14886 Highland Center","geo_precision":"street","state":"OH"},"type":"Feature","geometry":{"type":"Point","coordinates":[-84.521982,41.382459]}},{"properties":{"city":"Defiance","zip":"43512","geo_score":1.0,"id":"abo3yhjuya4h","address":"26732 Shindler Rd","geo_precision":"range","state":"OH"},"type":"Feature","geometry":{"type":"Point","coordinates":[-84.309224,41.253344]}},{"properties":{"city":"Defiance","zip":"43512","geo_score":1.0,"id":"abo3yhib3r1j","address":"15765 Harris Road","geo_precision":"range","state":"OH"},"type":"Feature","geometry":{"type":"Point","coordinates":[-84.265395,41.213601]}},{"properties":{"city":"Defiance","zip":"43512","geo_score":1.0,"id":"abo3yhi2rt2d","address":"30215 New Bavaria Rd.","geo_precision":"range","state":"OH"},"type":"Feature","geometry":{"type":"Point","coordinates":[-84.242198,41.244078]}},{"properties":{"city":"Defiance","zip":"43512","geo_score":0.805,"id":"abo3yhxgvknu","address":"27400 Ayersville Rd.","geo_precision":"street","state":"OH"},"type":"Feature","geometry":{"type":"Point","coordinates":[-84.323816,41.258725]}},{"properties":{"city":"Defiance","zip":"43512","geo_score":1.0,"id":"abo3yhhv1y3s","address":"25540 Blanchard Rd.","geo_precision":"range","state":"OH"},"type":"Feature","geometry":{"type":"Point","coordinates":[-84.329195,41.209036]}},{"properties":{"city":"Defiance","zip":"43512","geo_score":0.902,"id":"abo3yhlc940q","address":"14966 St Rt 15","geo_precision":"range","state":"OH"},"type":"Feature","geometry":{"type":"Point","coordinates":[-84.338561,41.224504]}},{"properties":{"city":"Defiance","zip":"43512","geo_score":1.0,"id":"abo3yhnrw4jn","address":"12985 Fullmer Rd.","geo_precision":"range","state":"OH"},"type":"Feature","geometry":{"type":"Point","coordinates":[-84.314123,41.253856]}},{"properties":{"city":"Defiance","zip":"43512","geo_score":1.0,"id":"abo3yhs1t7bw","address":"11017 Harris Rd.","geo_precision":"range","state":"OH"},"type":"Feature","geometry":{"type":"Point","coordinates":[-84.266012,41.282155]}},{"properties":{"city":"Defiance","zip":"43512","geo_score":0.879,"id":"abo3yhnguoyp","address":"13536 Fullmer Rd Lot 13","geo_precision":"range","state":"OH"},"type":"Feature","geometry":{"type":"Point","coordinates":[-84.31428,41.244197]}},{"properties":{"city":"Defiance","zip":"43512","geo_score":1.0,"id":"abo3yhi5ah29","address":"13536 Fullmer Rd.","geo_precision":"range","state":"OH"},"type":"Feature","geometry":{"type":"Point","coordinates":[-84.31428,41.244197]}},{"properties":{"city":"Defiance","zip":"43512","geo_score":0.791,"id":"abo3yhszcw0b","address":"27233 West Rd.","geo_precision":"range","state":"OH"},"type":"Feature","geometry":{"type":"Point","coordinates":[-84.289109,41.239093]}},{"properties":{"city":"Defiance","zip":"43512","geo_score":1.0,"id":"abo3yhnx45o6","address":"25918 Bowman Rd.","geo_precision":"range","state":"OH"},"type":"Feature","geometry":{"type":"Point","coordinates":[-84.325486,41.223584]}},{"properties":{"city":"Holgate","zip":"43527","geo_score":1.0,"id":"abo3yhmqebuu","address":"30620 Weichman Rd","geo_precision":"range","state":"OH"},"type":"Feature","geometry":{"type":"Point","coordinates":[-84.23139,41.295496]}},{"properties":{"city":"Defiance","zip":"43512","geo_score":0.937,"id":"abo3yhosk8lp","address":"11807 Fruit Ridge","geo_precision":"range","state":"OH"},"type":"Feature","geometry":{"type":"Point","coordinates":[-84.295939,41.269972]}},{"properties":{"city":"Defiance","zip":"43512","geo_score":1.0,"id":"abo3yhsk9fcl","address":"25317 Bowman Rd","geo_precision":"range","state":"OH"},"type":"Feature","geometry":{"type":"Point","coordinates":[-84.33684,41.223727]}},{"properties":{"city":"Defiance","zip":"43512","geo_score":0.902,"id":"abo3yhmhty72","address":"14572 St Rt 15","geo_precision":"range","state":"OH"},"type":"Feature","geometry":{"type":"Point","coordinates":[-84.34042,41.232347]}},{"properties":{"city":"Defiance","zip":"43512","geo_score":1.0,"id":"abo3yhjzbtcj","address":"12723 Wolf Rd.","geo_precision":"range","state":"OH"},"type":"Feature","geometry":{"type":"Point","coordinates":[-84.280515,41.250422]}},{"properties":{"city":"Defiance","zip":"43512","geo_score":1.0,"id":"abo3yhnfw83i","address":"12564 Wolf Rd","geo_precision":"range","state":"OH"},"type":"Feature","geometry":{"type":"Point","coordinates":[-84.280644,41.251309]}},{"properties":{"city":"Defiance","zip":"43512","geo_score":0.977,"id":"abo3yhi7vj2d","address":"29015 Stienmaier Rd.","geo_precision":"range","state":"OH"},"type":"Feature","geometry":{"type":"Point","coordinates":[-84.25757,41.241746]}},{"properties":{"city":"Defiance","zip":"43512","geo_score":1.0,"id":"abo3yhvt3yf2","address":"28797 Rohn Rd.","geo_precision":"range","state":"OH"},"type":"Feature","geometry":{"type":"Point","coordinates":[-84.276898,41.239728]}},{"properties":{"city":"Defiance","zip":"43512","geo_score":1.0,"id":"abo3yhvxpriw","address":"28859 Hagy Rd.","geo_precision":"range","state":"OH"},"type":"Feature","geometry":{"type":"Point","coordinates":[-84.268593,41.257219]}},{"properties":{"city":"Defiance","zip":"43512","geo_score":0.415,"id":"abo3yhplhecs","address":"16901 Highland Center","geo_precision":"street","state":"OH"},"type":"Feature","geometry":{"type":"Point","coordinates":[-84.521982,41.382459]}},{"properties":{"city":"Defiance","zip":"43512","geo_score":0.875,"id":"abo3yhse38w5","address":"28079 Hagy","geo_precision":"range","state":"OH"},"type":"Feature","geometry":{"type":"Point","coordinates":[-84.282378,41.260422]}},{"properties":{"city":"Defiance","zip":"43512","geo_score":1.0,"id":"abo3yhtvfaii","address":"29516 Blanchard Rd.","geo_precision":"range","state":"OH"},"type":"Feature","geometry":{"type":"Point","coordinates":[-84.254156,41.20924]}},{"properties":{"city":"Defiance","zip":"43512","geo_score":0.875,"id":"abo3yhjawgdn","address":"29152 Hagy","geo_precision":"range","state":"OH"},"type":"Feature","geometry":{"type":"Point","coordinates":[-84.263377,41.255379]}},{"properties":{"city":"Defiance","zip":"43512","geo_score":1.0,"id":"abo3yhuq1c6g","address":"29139 BOWMAN RD","geo_precision":"range","state":"OH"},"type":"Feature","geometry":{"type":"Point","coordinates":[-84.265936,41.22052]}},{"properties":{"city":"Defiance","zip":"43512","geo_score":0.415,"id":"abo3yhwvy0jl","address":"15713 Highland Center","geo_precision":"street","state":"OH"},"type":"Feature","geometry":{"type":"Point","coordinates":[-84.521982,41.382459]}},{"properties":{"city":"Defiance","zip":"43512","geo_score":0.415,"id":"abo3yhmlqomb","address":"16861 Highland Center","geo_precision":"street","state":"OH"},"type":"Feature","geometry":{"type":"Point","coordinates":[-84.521982,41.382459]}},{"properties":{"city":"Defiance","zip":"43512","geo_score":1.0,"id":"abo3yhok4eq6","address":"15198 Fullmer Rd.","geo_precision":"range","state":"OH"},"type":"Feature","geometry":{"type":"Point","coordinates":[-84.314462,41.220182]}},{"properties":{"city":"Defiance","zip":"43512","geo_score":1.0,"id":"abo3yhnlljsl","address":"15623 Cullen Rd.","geo_precision":"range","state":"OH"},"type":"Feature","geometry":{"type":"Point","coordinates":[-84.304776,41.214619]}},{"properties":{"city":"Defiance","zip":"43512","geo_score":1.0,"id":"abo3yhn6cj3o","address":"28046 Watson Rd.","geo_precision":"range","state":"OH"},"type":"Feature","geometry":{"type":"Point","coordinates":[-84.283885,41.238329]}},{"properties":{"city":"Defiance","zip":"43512","geo_score":1.0,"id":"abo3yht2avto","address":"28555 Mansfield Rd.","geo_precision":"range","state":"OH"},"type":"Feature","geometry":{"type":"Point","coordinates":[-84.268147,41.18028]}},{"properties":{"city":"Defiance","zip":"43512","geo_score":1.0,"id":"abo3yhuy1trc","address":"17512 Harris Rd","geo_precision":"range","state":"OH"},"type":"Feature","geometry":{"type":"Point","coordinates":[-84.266739,41.187505]}},{"properties":{"city":"Defiance","zip":"43512","geo_score":1.0,"id":"abo3yhvvva0u","address":"25676 Blanchard Rd.","geo_precision":"range","state":"OH"},"type":"Feature","geometry":{"type":"Point","coordinates":[-84.328085,41.209037]}},{"properties":{"city":"Defiance","zip":"43512","geo_score":1.0,"id":"abo3yhn0cbzf","address":"27831 Watson Rd.","geo_precision":"range","state":"OH"},"type":"Feature","geometry":{"type":"Point","coordinates":[-84.288545,41.238354]}},{"properties":{"city":"Defiance","zip":"43512","geo_score":1.0,"id":"abo3yhoay8bg","address":"15282 Harris Rd.","geo_precision":"range","state":"OH"},"type":"Feature","geometry":{"type":"Point","coordinates":[-84.265683,41.219261]}},{"properties":{"city":"Defiance","zip":"43512","geo_score":0.805,"id":"abo3yhnb5owq","address":"30573 Standley Rd.","geo_precision":"street","state":"OH"},"type":"Feature","geometry":{"type":"Point","coordinates":[-84.246727,41.267784]}},{"properties":{"city":"Defiance","zip":"43512","geo_score":1.0,"id":"abo3yhmr8z8l","address":"15740 Hill Rd.","geo_precision":"range","state":"OH"},"type":"Feature","geometry":{"type":"Point","coordinates":[-84.276073,41.216128]}},{"properties":{"city":"Defiance","zip":"43512","geo_score":1.0,"id":"abo3yhtd0mi1","address":"26326 Marion Street","geo_precision":"range","state":"OH"},"type":"Feature","geometry":{"type":"Point","coordinates":[-84.320349,41.251032]}},{"properties":{"city":"Defiance","zip":"43512","geo_score":0.91,"id":"abo3yht5yk3r","address":"29268 St Rt 281","geo_precision":"range","state":"OH"},"type":"Feature","geometry":{"type":"Point","coordinates":[-84.259872,41.282254]}},{"properties":{"city":"Defiance","zip":"43512","geo_score":1.0,"id":"abo3yhpdm67x","address":"29489 Standley Rd.","geo_precision":"range","state":"OH"},"type":"Feature","geometry":{"type":"Point","coordinates":[-84.254313,41.267862]}},{"properties":{"city":"Defiance","zip":"43512","geo_score":0.902,"id":"abo3yhrj7gyo","address":"14924 St Rt 15","geo_precision":"range","state":"OH"},"type":"Feature","geometry":{"type":"Point","coordinates":[-84.338829,41.225644]}},{"properties":{"city":"Defiance","zip":"43512","geo_score":1.0,"id":"abo3yhve6f5f","address":"17268 Harris Rd.","geo_precision":"range","state":"OH"},"type":"Feature","geometry":{"type":"Point","coordinates":[-84.266698,41.190961]}},{"properties":{"city":"Defiance","zip":"43512","geo_score":1.0,"id":"abo3yhoxvp87","address":"28294 Blanchard Rd.","geo_precision":"range","state":"OH"},"type":"Feature","geometry":{"type":"Point","coordinates":[-84.279395,41.209131]}},{"properties":{"city":"Defiance","zip":"43512","geo_score":1.0,"id":"abo3yhjole0c","address":"27235 Watson Rd.","geo_precision":"range","state":"OH"},"type":"Feature","geometry":{"type":"Point","coordinates":[-84.29875,41.238316]}},{"properties":{"city":"Defiance","zip":"43512","geo_score":1.0,"id":"abo3yhl9k0k8","address":"15939 Harris Rd.","geo_precision":"range","state":"OH"},"type":"Feature","geometry":{"type":"Point","coordinates":[-84.266403,41.210435]}},{"properties":{"city":"Defiance","zip":"43512","geo_score":1.0,"id":"abo3yhk6zpj3","address":"1558 Standley Rd.","geo_precision":"range","state":"OH"},"type":"Feature","geometry":{"type":"Point","coordinates":[-84.3297,41.26812]}},{"properties":{"city":"Defiance","zip":"43512","geo_score":0.805,"id":"abo3yhrgvvri","address":"30098 Weichman Rd","geo_precision":"range","state":"OH"},"type":"Feature","geometry":{"type":"Point","coordinates":[-84.246763,41.285467]}},{"properties":{"city":"Defiance","zip":"43512","geo_score":1.0,"id":"abo3yhqp9yoo","address":"16200 Hill Rd.","geo_precision":"range","state":"OH"},"type":"Feature","geometry":{"type":"Point","coordinates":[-84.276192,41.206302]}},{"properties":{"city":"Defiance","zip":"43512","geo_score":0.857,"id":"abo3yhwods92","address":"12508 Fruit Ridge Rd.","geo_precision":"range","state":"OH"},"type":"Feature","geometry":{"type":"Point","coordinates":[-84.291887,41.259564]}},{"properties":{"city":"Defiance","zip":"43512","geo_score":0.415,"id":"abo3yhrtmpc3","address":"14134 Highland Center","geo_precision":"street","state":"OH"},"type":"Feature","geometry":{"type":"Point","coordinates":[-84.521982,41.382459]}},{"properties":{"city":"Defiance","zip":"43512","geo_score":1.0,"id":"abo3yhwanw0q","address":"13169 Fullmer Rd.","geo_precision":"range","state":"OH"},"type":"Feature","geometry":{"type":"Point","coordinates":[-84.314122,41.249848]}},{"properties":{"city":"Defiance","zip":"43512","geo_score":1.0,"id":"abo3yhmplzbw","address":"15088 Dohoney Rd.","geo_precision":"range","state":"OH"},"type":"Feature","geometry":{"type":"Point","coordinates":[-84.324056,41.222403]}},{"properties":{"city":"Defiance","zip":"43512","geo_score":1.0,"id":"abo3yhwlxh47","address":"27742 Watson Rd.","geo_precision":"range","state":"OH"},"type":"Feature","geometry":{"type":"Point","coordinates":[-84.290654,41.238189]}},{"properties":{"city":"Defiance","zip":"43512","geo_score":1.0,"id":"abo3yhmbwcjr","address":"28752 Bowman Rd.","geo_precision":"range","state":"OH"},"type":"Feature","geometry":{"type":"Point","coordinates":[-84.271153,41.222764]}},{"properties":{"city":"Defiance","zip":"43512","geo_score":1.0,"id":"abo3yhma586w","address":"14978 Dohoney Rd.","geo_precision":"range","state":"OH"},"type":"Feature","geometry":{"type":"Point","coordinates":[-84.324035,41.223862]}},{"properties":{"city":"Defiance","zip":"43512","geo_score":0.937,"id":"abo3yhjhfkx7","address":"13835 Fruit Ridge","geo_precision":"range","state":"OH"},"type":"Feature","geometry":{"type":"Point","coordinates":[-84.285352,41.241454]}},{"properties":{"city":"Defiance","zip":"43512","geo_score":0.902,"id":"abo3yhwqp319","address":"27467 Standley Rd.","geo_precision":"street","state":"OH"},"type":"Feature","geometry":{"type":"Point","coordinates":[-84.296511,41.267981]}},{"properties":{"city":"Defiance","zip":"43512","geo_score":0.912,"id":"abo3yhudc5kd","address":"26506 Slusser","geo_precision":"range","state":"OH"},"type":"Feature","geometry":{"type":"Point","coordinates":[-84.323472,41.246877]}},{"properties":{"city":"Defiance","zip":"43512","geo_score":1.0,"id":"abo3yhq9pir6","address":"26444 Slusser Dr.","geo_precision":"range","state":"OH"},"type":"Feature","geometry":{"type":"Point","coordinates":[-84.323593,41.246871]}},{"properties":{"city":"Defiance","zip":"43512","geo_score":0.78,"id":"abo3yhvm9x98","address":"28970 St. Rt. 281 Lot 3","geo_precision":"range","state":"OH"},"type":"Feature","geometry":{"type":"Point","coordinates":[-84.355773,41.283112]}},{"properties":{"city":"Defiance","zip":"43512","geo_score":0.878,"id":"abo3yhpra6h2","address":"15783 Hill Rd.","geo_precision":"range","state":"OH"},"type":"Feature","geometry":{"type":"Point","coordinates":[-84.276088,41.215005]}},{"properties":{"city":"Defiance","zip":"43512","geo_score":0.806,"id":"abo3yhi02inn","address":"30297 Standley Rd.","geo_precision":"street","state":"OH"},"type":"Feature","geometry":{"type":"Point","coordinates":[-84.246727,41.267784]}},{"properties":{"city":"Defiance","zip":"43512","geo_score":0.805,"id":"abo3yhnrxoy3","address":"12699 Snyder Rd.","geo_precision":"range","state":"OH"},"type":"Feature","geometry":{"type":"Point","coordinates":[-84.246659,41.257699]}},{"properties":{"city":"Defiance","zip":"43512","geo_score":0.937,"id":"abo3yhxia5tn","address":"12268 Fruit Ridge","geo_precision":"range","state":"OH"},"type":"Feature","geometry":{"type":"Point","coordinates":[-84.293923,41.263601]}},{"properties":{"city":"Defiance","zip":"43512","geo_score":1.0,"id":"abo3yhkn9n6z","address":"28355 Rohn Rd.","geo_precision":"range","state":"OH"},"type":"Feature","geometry":{"type":"Point","coordinates":[-84.280766,41.239401]}},{"properties":{"city":"Defiance","zip":"43512","geo_score":0.937,"id":"abo3yhhw1zvg","address":"12064 Fruit Ridge","geo_precision":"range","state":"OH"},"type":"Feature","geometry":{"type":"Point","coordinates":[-84.295411,41.26682]}},{"properties":{"city":"Defiance","zip":"43512","geo_score":1.0,"id":"abo3yhvl3iyx","address":"16611 Harris Rd.","geo_precision":"range","state":"OH"},"type":"Feature","geometry":{"type":"Point","coordinates":[-84.266492,41.198905]}},{"properties":{"city":"Defiance","zip":"43512","geo_score":1.0,"id":"abo3yhnuc3s0","address":"27723 Hoffman Rd.","geo_precision":"range","state":"OH"},"type":"Feature","geometry":{"type":"Point","coordinates":[-84.287644,41.194748]}},{"properties":{"city":"Defiance","zip":"43512","geo_score":0.585,"id":"abo3yhi9jwp4","address":"25898 Bowan Rd.","geo_precision":"zip","state":"OH"},"type":"Feature","geometry":{"type":"Point","coordinates":[-84.299947,41.297826]}},{"properties":{"city":"Defiance","zip":"43512","geo_score":1.0,"id":"abo3yhuaaysq","address":"15846 Hill Rd.","geo_precision":"range","state":"OH"},"type":"Feature","geometry":{"type":"Point","coordinates":[-84.276107,41.213259]}},{"properties":{"city":"Defiance","zip":"43512","geo_score":0.979,"id":"abo3yhr4rsre","address":"13847 Fruit Ridge Rd","geo_precision":"range","state":"OH"},"type":"Feature","geometry":{"type":"Point","coordinates":[-84.285354,41.241255]}},{"properties":{"city":"Defiance","zip":"43512","geo_score":1.0,"id":"abo3yhqdqtqe","address":"28926 HOFFMAN ROAD","geo_precision":"range","state":"OH"},"type":"Feature","geometry":{"type":"Point","coordinates":[-84.267938,41.194684]}},{"properties":{"city":"Defiance","zip":"43512","geo_score":1.0,"id":"abo3yhhzpirj","address":"16584 Hill Road","geo_precision":"range","state":"OH"},"type":"Feature","geometry":{"type":"Point","coordinates":[-84.276242,41.200737]}},{"properties":{"city":"Defiance","zip":"43512","geo_score":1.0,"id":"abo3yhpb3z5b","address":"17254 Hill Road","geo_precision":"range","state":"OH"},"type":"Feature","geometry":{"type":"Point","coordinates":[-84.276314,41.191774]}},{"properties":{"city":"Defiance","zip":"43512","geo_score":1.0,"id":"abo3yhsdx8ls","address":"14793 Dohoney Rd.","geo_precision":"range","state":"OH"},"type":"Feature","geometry":{"type":"Point","coordinates":[-84.323857,41.225984]}},{"properties":{"city":"Defiance","zip":"43512","geo_score":1.0,"id":"abo3yhqv8cml","address":"17760 Harris Rd.","geo_precision":"range","state":"OH"},"type":"Feature","geometry":{"type":"Point","coordinates":[-84.266743,41.184001]}},{"properties":{"city":"Defiance","zip":"43512","geo_score":1.0,"id":"abo3yhqv13ug","address":"28587 Blanchard Rd","geo_precision":"range","state":"OH"},"type":"Feature","geometry":{"type":"Point","coordinates":[-84.2681,41.209359]}},{"properties":{"city":"Defiance","zip":"43512","geo_score":1.0,"id":"abo3yhooqv7a","address":"17418 Harris Rd","geo_precision":"range","state":"OH"},"type":"Feature","geometry":{"type":"Point","coordinates":[-84.266734,41.188811]}},{"properties":{"city":"Defiance","zip":"43512","geo_score":1.0,"id":"abo3yhou88oi","address":"28528 Bowman Rd","geo_precision":"range","state":"OH"},"type":"Feature","geometry":{"type":"Point","coordinates":[-84.275362,41.22364]}},{"properties":{"city":"Defiance","zip":"43512","geo_score":1.0,"id":"abo3yhn466a8","address":"17086 Harris Rd.","geo_precision":"range","state":"OH"},"type":"Feature","geometry":{"type":"Point","coordinates":[-84.266612,41.193518]}},{"properties":{"city":"Defiance","zip":"43512","geo_score":0.707,"id":"abo3yhja4mgk","address":"11645 Snyder","geo_precision":"range","state":"OH"},"type":"Feature","geometry":{"type":"Point","coordinates":[-84.246668,41.274989]}},{"properties":{"city":"Holgate","zip":"43527","geo_score":0.585,"id":"abo3yhxt6iup","address":"F-942 Rd. 19","geo_precision":"zip","state":"OH"},"type":"Feature","geometry":{"type":"Point","coordinates":[-84.227445,41.267548]}},{"properties":{"city":"Defiance","zip":"43512","geo_score":1.0,"id":"abo3yht6hhjz","address":"11486 Hire Rd.","geo_precision":"range","state":"OH"},"type":"Feature","geometry":{"type":"Point","coordinates":[-84.314186,41.270986]}},{"properties":{"city":"Defiance","zip":"43512","geo_score":1.0,"id":"abo3yhkhd5tr","address":"28262 Blanchard Rd.","geo_precision":"range","state":"OH"},"type":"Feature","geometry":{"type":"Point","coordinates":[-84.278745,41.20913]}},{"properties":{"city":"Defiance","zip":"43512","geo_score":1.0,"id":"abo3yhqhsma4","address":"27834 Hoffman Rd","geo_precision":"range","state":"OH"},"type":"Feature","geometry":{"type":"Point","coordinates":[-84.289823,41.194602]}},{"properties":{"city":"Defiance","zip":"43512","geo_score":1.0,"id":"abo3yhk88big","address":"28851 Rohn Rd.","geo_precision":"range","state":"OH"},"type":"Feature","geometry":{"type":"Point","coordinates":[-84.276551,41.239475]}},{"properties":{"city":"Holgate","zip":"43527","geo_score":0.585,"id":"abo3yhoe2948","address":"30661 Def-Ayer-Plsnt-Bd","geo_precision":"zip","state":"OH"},"type":"Feature","geometry":{"type":"Point","coordinates":[-84.227445,41.267548]}},{"properties":{"city":"Defiance","zip":"43512","geo_score":1.0,"id":"abo3yhmu9s47","address":"15772 Hill Rd.","geo_precision":"range","state":"OH"},"type":"Feature","geometry":{"type":"Point","coordinates":[-84.276082,41.215253]}},{"properties":{"city":"Defiance","zip":"43512","geo_score":0.932,"id":"abo3yht1k7hw","address":"29799 Steinmaier","geo_precision":"range","state":"OH"},"type":"Feature","geometry":{"type":"Point","coordinates":[-84.253903,41.243771]}},{"properties":{"city":"Defiance","zip":"43512","geo_score":1.0,"id":"abo3yhutlcsx","address":"27268 Shindler Rd","geo_precision":"range","state":"OH"},"type":"Feature","geometry":{"type":"Point","coordinates":[-84.298727,41.253306]}},{"properties":{"city":"Defiance","zip":"43512","geo_score":1.0,"id":"abo3yhlbwzta","address":"27848 Watson Rd.","geo_precision":"range","state":"OH"},"type":"Feature","geometry":{"type":"Point","coordinates":[-84.288905,41.238277]}},{"properties":{"city":"Defiance","zip":"43512","geo_score":1.0,"id":"abo3yhu5ub44","address":"15591 Harris Rd.","geo_precision":"range","state":"OH"},"type":"Feature","geometry":{"type":"Point","coordinates":[-84.26464,41.215882]}},{"properties":{"city":"Defiance","zip":"43512","geo_score":0.737,"id":"abo3yhmami6o","address":"27821 Ayersville","geo_precision":"street","state":"OH"},"type":"Feature","geometry":{"type":"Point","coordinates":[-84.323816,41.258725]}},{"properties":{"city":"Defiance","zip":"43512","geo_score":1.0,"id":"abo3yht2td7t","address":"27735 Sutphen Rd.","geo_precision":"range","state":"OH"},"type":"Feature","geometry":{"type":"Point","coordinates":[-84.2875,41.231139]}},{"properties":{"city":"Defiance","zip":"43512","geo_score":1.0,"id":"abo3yhkuaei3","address":"28140 Blanchard Rd.","geo_precision":"range","state":"OH"},"type":"Feature","geometry":{"type":"Point","coordinates":[-84.276404,41.209121]}},{"properties":{"city":"Defiance","zip":"43512","geo_score":1.0,"id":"abo3yhnzyx9b","address":"28797 Bowman Rd.","geo_precision":"range","state":"OH"},"type":"Feature","geometry":{"type":"Point","coordinates":[-84.269927,41.222469]}},{"properties":{"city":"Defiance","zip":"43512","geo_score":1.0,"id":"abo3yhkq10mb","address":"15843 Painter Rd.","geo_precision":"range","state":"OH"},"type":"Feature","geometry":{"type":"Point","coordinates":[-84.295108,41.220273]}},{"properties":{"city":"Defiance","zip":"43512","geo_score":1.0,"id":"abo3yhptdd5y","address":"15895 Painter Rd.","geo_precision":"range","state":"OH"},"type":"Feature","geometry":{"type":"Point","coordinates":[-84.295189,41.220068]}},{"properties":{"city":"Defiance","zip":"43512","geo_score":0.805,"id":"abo3yhiiwo3x","address":"16269 Kinner Rd.","geo_precision":"street","state":"OH"},"type":"Feature","geometry":{"type":"Point","coordinates":[-84.24694,41.223825]}},{"properties":{"city":"Defiance","zip":"43512","geo_score":0.415,"id":"abo3yhuckm4z","address":"14102 Highland Center","geo_precision":"street","state":"OH"},"type":"Feature","geometry":{"type":"Point","coordinates":[-84.521982,41.382459]}},{"properties":{"city":"Defiance","zip":"43512","geo_score":1.0,"id":"abo3yhufn8wp","address":"10567 Stevens Rd.","geo_precision":"range","state":"OH"},"type":"Feature","geometry":{"type":"Point","coordinates":[-84.264054,41.286626]}},{"properties":{"city":"Defiance","zip":"43512","geo_score":1.0,"id":"abo3yhisklau","address":"26519 Standley Rd.","geo_precision":"range","state":"OH"},"type":"Feature","geometry":{"type":"Point","coordinates":[-84.313797,41.268037]}},{"properties":{"city":"Defiance","zip":"43512","geo_score":1.0,"id":"abo3yhryqduj","address":"26435 Standley Rd.","geo_precision":"range","state":"OH"},"type":"Feature","geometry":{"type":"Point","coordinates":[-84.315481,41.268057]}},{"properties":{"city":"Defiance","zip":"43512","geo_score":1.0,"id":"abo3yhksynqf","address":"11479 hire rd.","geo_precision":"range","state":"OH"},"type":"Feature","geometry":{"type":"Point","coordinates":[-84.314035,41.271077]}}],"is_temporal":false,"author":{"url":"","metadata":null,"contact_name":null,"contact_address":null,"source":null,"contact_phone":null},"source":"","pagination":{"sort":null,"start":0,"total":308,"limit":1000000},"state":"complete","tags":"","published":"2014-08-16T18:20:53-04:00","id":313759}