{"type":"FeatureCollection","data_type":"Dataset","url_type":null,"permissions":[{"permissions":{"download":true,"view":true},"group_id":"everyone"}],"classification":null,"title":"Copy_of_IPTV-Waldron-Jan-16-2013_-_CSV","count":41,"stream_id":313779,"contributor":{"url":"http://geocommons.com/users/59404","name":"KatieEtgen"},"data_attributes":null,"calculation_params":null,"icon_link":null,"link":"http://geocommons.com/overlays/313779.json","extent":[-84.4969,41.7051,-84.3171,42.2979],"geometry_types":["point"],"unique_name":null,"name":"Copy_of_IPTV-Waldron-Jan-16-2013_-_CSV","feature_count":41,"description":"","next_feature":null,"is_raster":false,"short_classification":"Y","stats":{},"features":[{"properties":{"city":"Waldron","zip":"49288","geo_score":1.0,"id":"abo42bb9egzb","address":"12411 Hartley Rd","geo_precision":"range","state":"MI"},"type":"Feature","geometry":{"type":"Point","coordinates":[-84.401012,41.738636]}},{"properties":{"city":"waldron","zip":"49288","geo_score":0.707,"id":"abo42be5airz","address":"10211 E Territorial Rd","geo_precision":"street","state":"MI"},"type":"Feature","geometry":{"type":"Point","coordinates":[-84.496929,41.709485]}},{"properties":{"city":"Hudson","zip":"49247","geo_score":1.0,"id":"abo42bjsxbth","address":"17001 Lime Creek Rd","geo_precision":"range","state":"MI"},"type":"Feature","geometry":{"type":"Point","coordinates":[-84.348703,41.765311]}},{"properties":{"city":"Waldron","zip":"49288","geo_score":1.0,"id":"abo42bbddfiv","address":"142 S Main St","geo_precision":"range","state":"MI"},"type":"Feature","geometry":{"type":"Point","coordinates":[-84.418932,41.726723]}},{"properties":{"city":"Waldron","zip":"49288","geo_score":0.475,"id":"abo42blwlr9k","address":"120 S Mackinaw St","geo_precision":"street","state":"MI"},"type":"Feature","geometry":{"type":"Point","coordinates":[-84.430149,42.297857]}},{"properties":{"city":"Hudson","zip":"49288","geo_score":0.805,"id":"abo42bmeule0","address":"16193 Lime Creek Rd","geo_precision":"range","state":"MI"},"type":"Feature","geometry":{"type":"Point","coordinates":[-84.332067,41.765485]}},{"properties":{"city":"Waldron","zip":"49288","geo_score":0.935,"id":"abo42bg9bgqf","address":"406 Mill St","geo_precision":"range","state":"MI"},"type":"Feature","geometry":{"type":"Point","coordinates":[-84.423104,41.725287]}},{"properties":{"city":"Waldron","zip":"49288","geo_score":1.0,"id":"abo42bpz9sxh","address":"14051 Hartley Rd","geo_precision":"range","state":"MI"},"type":"Feature","geometry":{"type":"Point","coordinates":[-84.380162,41.738789]}},{"properties":{"city":"Waldron","zip":"49288","geo_score":1.0,"id":"abo42beyi962","address":"110 Emerson St","geo_precision":"range","state":"MI"},"type":"Feature","geometry":{"type":"Point","coordinates":[-84.421347,41.727589]}},{"properties":{"city":"Waldron","zip":"49288","geo_score":0.947,"id":"abo42bmhz72h","address":"13251 E Camden Rd","geo_precision":"range","state":"MI"},"type":"Feature","geometry":{"type":"Point","coordinates":[-84.393413,41.753057]}},{"properties":{"city":"Waldron","zip":"49288","geo_score":0.854,"id":"abo42bqcai93","address":"10700 South Rd","geo_precision":"range","state":"MI"},"type":"Feature","geometry":{"type":"Point","coordinates":[-84.450312,41.716779]}},{"properties":{"city":"Waldron","zip":"49288","geo_score":0.87,"id":"abo42bmkzrue","address":"141 S East St","geo_precision":"range","state":"MI"},"type":"Feature","geometry":{"type":"Point","coordinates":[-84.417578,41.728492]}},{"properties":{"city":"Waldron","zip":"49288","geo_score":1.0,"id":"abo42bpiforh","address":"125 Emerson St","geo_precision":"range","state":"MI"},"type":"Feature","geometry":{"type":"Point","coordinates":[-84.421194,41.727191]}},{"properties":{"city":"Waldron","zip":"49288","geo_score":0.902,"id":"abo42boioqwo","address":"221 N East St","geo_precision":"range","state":"MI"},"type":"Feature","geometry":{"type":"Point","coordinates":[-84.417587,41.72952]}},{"properties":{"city":"Waldron","zip":"49288","geo_score":1.0,"id":"abo42br9upq6","address":"108 Marcus St","geo_precision":"range","state":"MI"},"type":"Feature","geometry":{"type":"Point","coordinates":[-84.422637,41.727339]}},{"properties":{"city":"Waldron","zip":"49288","geo_score":0.947,"id":"abo42bcm9sdu","address":"112 W Center St","geo_precision":"range","state":"MI"},"type":"Feature","geometry":{"type":"Point","coordinates":[-84.419961,41.727908]}},{"properties":{"city":"Waldron","zip":"49288","geo_score":1.0,"id":"abo42bmgkkon","address":"421 Bruce Ct","geo_precision":"range","state":"MI"},"type":"Feature","geometry":{"type":"Point","coordinates":[-84.424361,41.726766]}},{"properties":{"city":"Morenci","zip":"49256","geo_score":1.0,"id":"abo42bck9yyc","address":"13856 Munson HWY","geo_precision":"range","state":"MI"},"type":"Feature","geometry":{"type":"Point","coordinates":[-84.328611,41.711251]}},{"properties":{"city":"Waldron","zip":"49288","geo_score":0.805,"id":"abo42bmh9ihm","address":"9500 E Territorial Rd","geo_precision":"street","state":"MI"},"type":"Feature","geometry":{"type":"Point","coordinates":[-84.496929,41.709485]}},{"properties":{"city":"Waldron","zip":"49288","geo_score":1.0,"id":"abo42biig4x8","address":"302 N Main Street","geo_precision":"range","state":"MI"},"type":"Feature","geometry":{"type":"Point","coordinates":[-84.418861,41.729652]}},{"properties":{"city":"Pittsford","zip":"49271","geo_score":1.0,"id":"abo42bmba541","address":"10631 Burt Rd","geo_precision":"range","state":"MI"},"type":"Feature","geometry":{"type":"Point","coordinates":[-84.446213,41.767501]}},{"properties":{"city":"Waldron","zip":"49288","geo_score":0.875,"id":"abo42bl3a97s","address":"106 West Street","geo_precision":"range","state":"MI"},"type":"Feature","geometry":{"type":"Point","coordinates":[-84.420144,41.727419]}},{"properties":{"city":"Waldron","zip":"49288","geo_score":1.0,"id":"abo42bn0nmyv","address":"14751 Coman Rd","geo_precision":"range","state":"MI"},"type":"Feature","geometry":{"type":"Point","coordinates":[-84.399471,41.710389]}},{"properties":{"city":"Waldron","zip":"49288","geo_score":1.0,"id":"abo42bp4dh47","address":"12920 S Waldron Rd","geo_precision":"range","state":"MI"},"type":"Feature","geometry":{"type":"Point","coordinates":[-84.419066,41.739797]}},{"properties":{"city":"Waldron","zip":"49288","geo_score":1.0,"id":"abo42bnddj1k","address":"421 S Main St","geo_precision":"range","state":"MI"},"type":"Feature","geometry":{"type":"Point","coordinates":[-84.418911,41.720427]}},{"properties":{"city":"Waldron","zip":"49288","geo_score":0.947,"id":"abo42bfpkmav","address":"435 W Center St","geo_precision":"range","state":"MI"},"type":"Feature","geometry":{"type":"Point","coordinates":[-84.426499,41.727742]}},{"properties":{"city":"Waldron","zip":"49288","geo_score":1.0,"id":"abo42bq85vor","address":"12080 Hartley Rd","geo_precision":"range","state":"MI"},"type":"Feature","geometry":{"type":"Point","coordinates":[-84.414003,41.738787]}},{"properties":{"city":"Hudson","zip":"49247","geo_score":1.0,"id":"abo42bmv97u9","address":"15180 Lime Creek Rd","geo_precision":"range","state":"MI"},"type":"Feature","geometry":{"type":"Point","coordinates":[-84.317137,41.766166]}},{"properties":{"city":"Waldron","zip":"49288","geo_score":0.902,"id":"abo42be3kgsj","address":"200 N Main","geo_precision":"range","state":"MI"},"type":"Feature","geometry":{"type":"Point","coordinates":[-84.418861,41.729652]}},{"properties":{"city":"Waldron","zip":"49288","geo_score":0.902,"id":"abo42bjy1o1r","address":"115 South Main","geo_precision":"range","state":"MI"},"type":"Feature","geometry":{"type":"Point","coordinates":[-84.41879,41.727479]}},{"properties":{"city":"Waldron","zip":"49288","geo_score":1.0,"id":"abo42bp4yprm","address":"13060 Broom Rd","geo_precision":"range","state":"MI"},"type":"Feature","geometry":{"type":"Point","coordinates":[-84.384993,41.724384]}},{"properties":{"city":"Waldron","zip":"49288","geo_score":1.0,"id":"abo42bc51vc3","address":"11800 Camden Road","geo_precision":"range","state":"MI"},"type":"Feature","geometry":{"type":"Point","coordinates":[-84.434448,41.753167]}},{"properties":{"city":"Morenci","zip":"49256","geo_score":0.959,"id":"abo42bguay1k","address":"16275 Morence Rd","geo_precision":"range","state":"MI"},"type":"Feature","geometry":{"type":"Point","coordinates":[-84.33152,41.709758]}},{"properties":{"city":"Waldron","zip":"49288","geo_score":0.585,"id":"abo42bc4l0jd","address":"14080 lickley rd","geo_precision":"zip","state":"MI"},"type":"Feature","geometry":{"type":"Point","coordinates":[-84.447488,41.743114]}},{"properties":{"city":"Waldron","zip":"49288","geo_score":1.0,"id":"abo42bqgklgt","address":"10320 Hartley Rd","geo_precision":"range","state":"MI"},"type":"Feature","geometry":{"type":"Point","coordinates":[-84.455405,41.738817]}},{"properties":{"city":"Waldron","zip":"49288","geo_score":1.0,"id":"abo42bcjmv9b","address":"11685 Tuttle Rd","geo_precision":"range","state":"MI"},"type":"Feature","geometry":{"type":"Point","coordinates":[-84.438433,41.757616]}},{"properties":{"city":"Waldron","zip":"49288","geo_score":1.0,"id":"abo42bhtibb2","address":"118 Emerson Street","geo_precision":"range","state":"MI"},"type":"Feature","geometry":{"type":"Point","coordinates":[-84.421346,41.727395]}},{"properties":{"city":"Waldron","zip":"49288","geo_score":0.902,"id":"abo42bdeyyhu","address":"201 N Main St","geo_precision":"street","state":"MI"},"type":"Feature","geometry":{"type":"Point","coordinates":[-84.418869,41.727855]}},{"properties":{"city":"Waldron","zip":"49288","geo_score":1.0,"id":"abo42boryr4c","address":"308 W Mill St","geo_precision":"range","state":"MI"},"type":"Feature","geometry":{"type":"Point","coordinates":[-84.422444,41.725289]}},{"properties":{"city":"waldron","zip":"49288","geo_score":1.0,"id":"abo42brhv1s8","address":"11400 Territorial Rd","geo_precision":"range","state":"MI"},"type":"Feature","geometry":{"type":"Point","coordinates":[-84.428313,41.705148]}},{"properties":{"city":"Waldron","zip":"49288","geo_score":0.676,"id":"abo42boyo0ix","address":"308 S Main St, Apt A104","geo_precision":"street","state":"MI"},"type":"Feature","geometry":{"type":"Point","coordinates":[-84.418861,41.728933]}}],"is_temporal":false,"author":{"url":"","metadata":null,"contact_name":null,"contact_address":null,"source":null,"contact_phone":null},"source":"","pagination":{"sort":null,"start":0,"total":41,"limit":1000000},"state":"complete","tags":"","published":"2014-08-16T18:23:26-04:00","id":313779}