{"type":"FeatureCollection","data_type":"Dataset","url_type":null,"permissions":[{"permissions":{"download":true,"view":true},"group_id":"everyone"}],"classification":null,"title":"Alabama Summer Meals Sponsors 2012","count":46,"stream_id":315097,"contributor":{"url":"http://geocommons.com/users/32742","name":"mnash"},"data_attributes":null,"calculation_params":null,"icon_link":null,"link":"http://geocommons.com/overlays/315097.json","extent":[-88.19,30.5423,-84.8871,34.7431],"geometry_types":["point"],"unique_name":null,"name":"Alabama Summer Meals Sponsors 2012","feature_count":46,"description":"","next_feature":null,"is_raster":false,"short_classification":"Y","stats":{},"features":[{"properties":{"city":"Normal","geo_score":0.475,"zip code":"35762","sponsor name":"Ala A&amp;M University Upward Bound","id":"abrs70y6w4wd","address":"4900 Meridian St N","geo_precision":"street"},"type":"Feature","geometry":{"type":"Point","coordinates":[-86.027411,34.670986]}},{"properties":{"city":"Andalusia","geo_score":0.697,"zip code":"36420","sponsor name":"Andalusia City Board of Education","id":"abrs70yvjsq6","address":"122 6th Avenue","geo_precision":"range"},"type":"Feature","geometry":{"type":"Point","coordinates":[-86.477326,31.310079]}},{"properties":{"city":"Arab","geo_score":0.902,"zip code":"35016","sponsor name":"Arab City Board of Education","id":"abrs70y71g62","address":"750 Arabian Dr NE","geo_precision":"range"},"type":"Feature","geometry":{"type":"Point","coordinates":[-86.488291,34.327761]}},{"properties":{"city":"Theodore","geo_score":0.654,"zip code":"36582","sponsor name":"Bay Area Food Bank, Inc.","id":"abrs710kos0i","address":"5248 Mobile South Street","geo_precision":"street"},"type":"Feature","geometry":{"type":"Point","coordinates":[-88.173977,30.542346]}},{"properties":{"city":"Bessemer","geo_score":0.837,"zip code":"35020","sponsor name":"Bessemer City Board of Education","id":"abrs70xxyky3","address":"1621 5th Ave N","geo_precision":"range"},"type":"Feature","geometry":{"type":"Point","coordinates":[-86.957472,33.401272]}},{"properties":{"city":"Birmingham","geo_score":0.385,"zip code":"35231","sponsor name":"Bethel Community  Learning Center","id":"abrs70vfs8up","address":"Po Box 310665","geo_precision":"street"},"type":"Feature","geometry":{"type":"Point","coordinates":[-86.733218,33.471184]}},{"properties":{"city":"Huntsville","geo_score":0.902,"zip code":"35801","sponsor name":"Boys &amp; Girls Clubs of North Alabama","id":"abrs70lp2gwi","address":"203 Eastside Square","geo_precision":"range"},"type":"Feature","geometry":{"type":"Point","coordinates":[-86.584229,34.730142]}},{"properties":{"city":"Union Springs","geo_score":0.78,"zip code":"36089","sponsor name":"Bullock County Commission","id":"abrs710wke9z","address":"106 Conecuh Avenue","geo_precision":"street"},"type":"Feature","geometry":{"type":"Point","coordinates":[-85.715931,32.14618]}},{"properties":{"city":"Birmingham","geo_score":0.837,"zip code":"35203","sponsor name":"City of Birmingham","id":"abrs710283fi","address":"1608 7th Avenue N","geo_precision":"range"},"type":"Feature","geometry":{"type":"Point","coordinates":[-86.814077,33.51839]}},{"properties":{"city":"Decatur","geo_score":0.78,"zip code":"35601","sponsor name":"City of Decatur","id":"abrs70t7xyys","address":"402 Lee Street NE","geo_precision":"range"},"type":"Feature","geometry":{"type":"Point","coordinates":[-86.984693,34.605733]}},{"properties":{"city":"Dothan","geo_score":0.451,"zip code":"36303","sponsor name":"City of Dothan, Dept. of Leisures","id":"abrs70l681vw","address":"126 N. Saint Andrews Street","geo_precision":"street"},"type":"Feature","geometry":{"type":"Point","coordinates":[-85.380922,31.251946]}},{"properties":{"city":"Enterprise","geo_score":0.286,"zip code":"36331","sponsor name":"City of Enterprise","id":"abrs70psey6k","address":"P.O. Box 311000","geo_precision":"street"},"type":"Feature","geometry":{"type":"Point","coordinates":[-85.390965,31.247546]}},{"properties":{"city":"Gadsden","geo_score":0.902,"zip code":"35901","sponsor name":"City of Gadsden","id":"abrs70z5nd7s","address":"90 Broad Street","geo_precision":"range"},"type":"Feature","geometry":{"type":"Point","coordinates":[-85.998851,34.010704]}},{"properties":{"city":"Greenville","geo_score":0.71,"zip code":"36037","sponsor name":"City of Greenville","id":"abrs70x1ancd","address":"119 East Commerce Street","geo_precision":"street"},"type":"Feature","geometry":{"type":"Point","coordinates":[-86.622575,31.829583]}},{"properties":{"city":"Montgomery","geo_score":0.902,"zip code":"36104","sponsor name":"City of Montgomery","id":"abrs70ywhzyk","address":"103 North Perry St","geo_precision":"range"},"type":"Feature","geometry":{"type":"Point","coordinates":[-86.307656,32.379777]}},{"properties":{"city":"Ozark","geo_score":0.902,"zip code":"36360","sponsor name":"City of Ozark","id":"abrs70mtnaxr","address":"275 North Union Avenue","geo_precision":"range"},"type":"Feature","geometry":{"type":"Point","coordinates":[-85.640667,31.460849]}},{"properties":{"city":"Russellville","geo_score":0.714,"zip code":"35653","sponsor name":"City of Russellville","id":"abrs710161gv","address":"400 N. Jackson","geo_precision":"zip"},"type":"Feature","geometry":{"type":"Point","coordinates":[-87.927259,34.450096]}},{"properties":{"city":"Selma","geo_score":0.612,"zip code":"36702","sponsor name":"City of Selma","id":"abrs70qug4kz","address":"1000 Selma Avenue","geo_precision":"street"},"type":"Feature","geometry":{"type":"Point","coordinates":[-87.019589,32.409397]}},{"properties":{"city":"Talladega","geo_score":0.329,"zip code":"35161","sponsor name":"City of Talladega","id":"abrs70ohsrxt","address":"203 W. South Street","geo_precision":"street"},"type":"Feature","geometry":{"type":"Point","coordinates":[-86.104424,33.432344]}},{"properties":{"city":"Troy","geo_score":0.464,"zip code":"36081","sponsor name":"City of Troy","id":"abrs70yzfzsy","address":"306 E. Academy Street","geo_precision":"street"},"type":"Feature","geometry":{"type":"Point","coordinates":[-85.972158,31.809184]}},{"properties":{"city":"Tuscaloosa","geo_score":0.902,"zip code":"35401","sponsor name":"City of Tuscaloosa","id":"abrs70pkkcgi","address":"2201 University Blvd","geo_precision":"range"},"type":"Feature","geometry":{"type":"Point","coordinates":[-87.566499,33.21037]}},{"properties":{"city":"Valley","geo_score":0.902,"zip code":"36854","sponsor name":"City of Valley","id":"abrs70zpkh5y","address":"20 Fob James Drive","geo_precision":"range"},"type":"Feature","geometry":{"type":"Point","coordinates":[-85.17279,32.817146]}},{"properties":{"city":"Selma","geo_score":0.708,"zip code":"36701","sponsor name":"Dallas County Commission","id":"abrs70sz2nw4","address":"102 Church St","geo_precision":"street"},"type":"Feature","geometry":{"type":"Point","coordinates":[-87.023845,32.410244]}},{"properties":{"city":"Dothan","geo_score":0.805,"zip code":"36301","sponsor name":"Faith Deliverance Evangelistic Church of God ,Inc","id":"abrs711a13cf","address":"103 Sixth Ave","geo_precision":"range"},"type":"Feature","geometry":{"type":"Point","coordinates":[-85.374265,31.219956]}},{"properties":{"city":"Columbus","geo_score":0.902,"zip code":"31909","sponsor name":"Feeding The Valley, Inc","id":"abrs70pdf9dx","address":"5928 Coca Cola Blvd","geo_precision":"range"},"type":"Feature","geometry":{"type":"Point","coordinates":[-84.887059,32.529106]}},{"properties":{"city":"Gadsden","geo_score":0.902,"zip code":"35903","sponsor name":"Gadsden State Community College","id":"abrs70nygin7","address":"1001 George Wallace Dr","geo_precision":"range"},"type":"Feature","geometry":{"type":"Point","coordinates":[-85.989098,33.994145]}},{"properties":{"city":"Opelika","geo_score":0.513,"zip code":"36081","sponsor name":"Greater Peace Comm. Devt. Corp.","id":"abrs711h1oyf","address":"650 Jeter Ave","geo_precision":"street"},"type":"Feature","geometry":{"type":"Point","coordinates":[-85.783465,32.428922]}},{"properties":{"city":"Scottsboro","geo_score":0.582,"zip code":"35768","sponsor name":"Jackson County Board of Education","id":"abrs70r800b5","address":"16003 Alabama HWY 35","geo_precision":"street"},"type":"Feature","geometry":{"type":"Point","coordinates":[-86.024802,34.677256]}},{"properties":{"city":"Theodore","geo_score":0.902,"zip code":"36582","sponsor name":"Lighthouse Baptist Church","id":"abrs70ycw37i","address":"6905 Nan Gray Davis Rd","geo_precision":"range"},"type":"Feature","geometry":{"type":"Point","coordinates":[-88.19004,30.545755]}},{"properties":{"city":"Hayneville","geo_score":0.902,"zip code":"36040","sponsor name":"Lowndes County Commission","id":"abrs70q2ubcf","address":"104 Tyson Rd","geo_precision":"range"},"type":"Feature","geometry":{"type":"Point","coordinates":[-86.566258,32.184916]}},{"properties":{"city":"Huntsville","geo_score":0.823,"zip code":"35801","sponsor name":"Madison County Commission d/b/a Neaves Davis Center for Children","id":"abrs70mfxoxx","address":"817 Cook Avenue","geo_precision":"range"},"type":"Feature","geometry":{"type":"Point","coordinates":[-86.597803,34.743124]}},{"properties":{"city":"Linden","geo_score":0.709,"zip code":"36748","sponsor name":"Marengo County Commission","id":"abrs70txnuo0","address":"20055 US Highway 43","geo_precision":"street"},"type":"Feature","geometry":{"type":"Point","coordinates":[-87.79503,32.268985]}},{"properties":{"city":"Montgomery","geo_score":0.902,"zip code":"36117","sponsor name":"Montgomery YMCA","id":"abrs70mjpmct","address":"2435 Bell Rd","geo_precision":"range"},"type":"Feature","geometry":{"type":"Point","coordinates":[-86.19393,32.346587]}},{"properties":{"city":"Dothan","geo_score":0.889,"zip code":"36301","sponsor name":"Mt. Olive Christian Fellowship Church","id":"abrs70lvycfp","address":"701 S Appletree St","geo_precision":"range"},"type":"Feature","geometry":{"type":"Point","coordinates":[-85.388184,31.213821]}},{"properties":{"city":"Maplesville","geo_score":0.902,"zip code":"36750","sponsor name":"New Convert Baptist Church","id":"abrs70p9vago","address":"861 County Road 380","geo_precision":"range"},"type":"Feature","geometry":{"type":"Point","coordinates":[-86.838041,32.8203]}},{"properties":{"city":"Birmingham","geo_score":0.837,"zip code":"35206","sponsor name":"P.E.E.R, Inc.","id":"abrs70y743br","address":"7753 1st Avenue South","geo_precision":"range"},"type":"Feature","geometry":{"type":"Point","coordinates":[-86.725835,33.560943]}},{"properties":{"city":"Marion","geo_score":0.669,"zip code":"36756","sponsor name":"Perry County Commission","id":"abrs70pyznxy","address":"1710 South Washington Street","geo_precision":"street"},"type":"Feature","geometry":{"type":"Point","coordinates":[-87.317589,32.619549]}},{"properties":{"city":"Atmore","geo_score":0.585,"zip code":"36502","sponsor name":"Poarch Band of Creek Indians","id":"abrs70rg1soe","address":"3022 Alabama 21","geo_precision":"range"},"type":"Feature","geometry":{"type":"Point","coordinates":[-87.482697,31.078681]}},{"properties":{"city":"Birmingham","geo_score":0.536,"zip code":"35228","sponsor name":"Project Hopewell, Inc","id":"abrs70wqammr","address":"P. O. Box 28066","geo_precision":"street"},"type":"Feature","geometry":{"type":"Point","coordinates":[-86.888663,33.478662]}},{"properties":{"city":"Huntsville","geo_score":0.902,"zip code":"35801","sponsor name":"St. John AME Church","id":"abrs70p9snmb","address":"229 Church St NW","geo_precision":"range"},"type":"Feature","geometry":{"type":"Point","coordinates":[-86.589311,34.731593]}},{"properties":{"city":"Tuscaloosa","geo_score":0.902,"zip code":"35401","sponsor name":"Stillman College - Upward Bound","id":"abrs70yxn8ct","address":"3601 Stillman Blvd","geo_precision":"range"},"type":"Feature","geometry":{"type":"Point","coordinates":[-87.583128,33.200865]}},{"properties":{"city":"Livingston","geo_score":0.863,"zip code":"35470","sponsor name":"Sumter County Commission","id":"abrs70urqcov","address":"318 Washington Street","geo_precision":"range"},"type":"Feature","geometry":{"type":"Point","coordinates":[-88.189122,32.58286]}},{"properties":{"city":"Talladega","geo_score":0.708,"zip code":"35160","sponsor name":"Talladega College - Upward Bound","id":"abrs70omu4dq","address":"627 Battle St W","geo_precision":"street"},"type":"Feature","geometry":{"type":"Point","coordinates":[-86.1094,33.433431]}},{"properties":{"city":"Jasper","geo_score":0.902,"zip code":"35503","sponsor name":"The Sanctuary Church of God","id":"abrs70uyaplk","address":"205 Fall City Rd","geo_precision":"range"},"type":"Feature","geometry":{"type":"Point","coordinates":[-87.297322,33.916276]}},{"properties":{"city":"Montgomery","geo_score":0.488,"zip code":"36111","sponsor name":"Unity United Church of Christ","id":"abrs70o1i1np","address":"2311 Oxford Drive","geo_precision":"zip"},"type":"Feature","geometry":{"type":"Point","coordinates":[-86.267317,32.342438]}},{"properties":{"city":"Camden","geo_score":0.709,"zip code":"36726","sponsor name":"Wilcox County Commission","id":"abrs70xz1u3k","address":"108 Water St","geo_precision":"street"},"type":"Feature","geometry":{"type":"Point","coordinates":[-87.288564,31.991134]}}],"is_temporal":false,"author":{"url":"","metadata":"","contact_name":"","contact_address":"","source":"","contact_phone":""},"source":"","pagination":{"sort":null,"start":0,"total":46,"limit":1000000},"state":"complete","tags":"","published":"2014-08-16T19:58:04-04:00","id":315097}