{"type":"FeatureCollection","data_type":"Dataset","url_type":null,"permissions":[{"permissions":{"download":true,"view":true},"group_id":"everyone"}],"classification":null,"title":"Chicago Police Stations","count":23,"stream_id":315216,"contributor":{"url":"http://geocommons.com/users/10732","name":"stevevance"},"data_attributes":null,"calculation_params":null,"icon_link":null,"link":"http://geocommons.com/overlays/315216.json","extent":[-87.7698,41.6917,-87.5687,41.9998],"geometry_types":["point"],"unique_name":null,"name":"Chicago Police Stations","feature_count":23,"description":"A list of all the police stations in Chicago. ","next_feature":null,"is_raster":false,"short_classification":"Y","stats":{},"features":[{"properties":{"city":"Chicago","zip":"60653","district":"Headquarters","tty":null,"geo_score":1.0,"website":"https://portal.chicagopolice.org/portal/page/portal/ClearPath","phone":null,"fax":null,"id":"abshkqnrgbkb","address":"3510 S Michigan Ave","geo_precision":"range","state":"IL","location":"3510 S Michigan Ave Chicago, IL 60653 (41.83086072588734, -87.62330200626332)"},"type":"Feature","geometry":{"type":"Point","coordinates":[-87.623299,41.829757]}},{"properties":{"city":"Chicago","zip":"60616","district":"1","tty":"312-745-3693","geo_score":1.0,"website":"https://portal.chicagopolice.org/portal/page/portal/ClearPath/Communities/Districts/District1","phone":"312-745-4290","fax":"312-745-3694","id":"abshkqtmv48f","address":"1718 S State St","geo_precision":"range","state":"IL","location":"1718 State St\nChicago, IL 60616\n(41.85882087432612, -87.62734256712464)"},"type":"Feature","geometry":{"type":"Point","coordinates":[-87.627203,41.85808]}},{"properties":{"city":"Chicago","zip":"60609","district":"2","tty":"312-747-6656","geo_score":0.708,"website":"https://portal.chicagopolice.org/portal/page/portal/ClearPath/Communities/Districts/District2","phone":"312-747-8366","fax":"312-747-5396","id":"abshkqo71f80","address":"5101 S Wentworth Ave","geo_precision":"street","state":"IL","location":"5101 Wentworth Ave\nChicago, IL 60609\n(41.8017738753714, -87.630663656445)"},"type":"Feature","geometry":{"type":"Point","coordinates":[-87.632425,41.809492]}},{"properties":{"city":"Chicago","zip":"60637","district":"3","tty":"312-747-9168","geo_score":0.487,"website":"https://portal.chicagopolice.org/portal/page/portal/ClearPath/Communities/Districts/District3","phone":"312-747-8201","fax":"312-747-5479","id":"abshkqk3g8dk","address":"7040 S Cottage Grove Ave","geo_precision":"street","state":"IL","location":"7040 Cottage Grove Ave\nChicago, IL 60637\n(41.76697112291843, -87.6056617928308)"},"type":"Feature","geometry":{"type":"Point","coordinates":[-87.64226,41.849545]}},{"properties":{"city":"Chicago","zip":"60617","district":"4","tty":"312-747-9169","geo_score":1.0,"website":"https://portal.chicagopolice.org/portal/page/portal/ClearPath/Communities/Districts/District4","phone":"312-747-7581","fax":"312-747-5276","id":"abshkqylyfrk","address":"2255 E 103rd St","geo_precision":"range","state":"IL","location":"2255 103rd St\nChicago, IL 60617\n(41.70778489172678, -87.56718279470178)"},"type":"Feature","geometry":{"type":"Point","coordinates":[-87.568682,41.707962]}},{"properties":{"city":"Chicago","zip":"60628","district":"5","tty":"312-747-9170","geo_score":1.0,"website":"https://portal.chicagopolice.org/portal/page/portal/ClearPath/Communities/Districts/District5","phone":"312-747-8210","fax":"312-747-5935","id":"abshkqsc2ywi","address":"727 E 111th St","geo_precision":"range","state":"IL","location":"727 111th St\nChicago, IL 60628\n(41.69279473591493, -87.60536435875626)"},"type":"Feature","geometry":{"type":"Point","coordinates":[-87.601486,41.692802]}},{"properties":{"city":"Chicago","zip":"60620","district":"6","tty":"312-745-3639","geo_score":1.0,"website":"https://portal.chicagopolice.org/portal/page/portal/ClearPath/Communities/Districts/District6","phone":"312-745-3617","fax":"312-745-3649","id":"abshkqw8957n","address":"7808 S Halsted St","geo_precision":"range","state":"IL","location":"7808 Halsted St\nChicago, IL 60620\n(41.7522817574851, -87.64414141672431)"},"type":"Feature","geometry":{"type":"Point","coordinates":[-87.64413,41.751172]}},{"properties":{"city":"Chicago","zip":"60636","district":"7","tty":"312-747-6652","geo_score":0.935,"website":"https://portal.chicagopolice.org/portal/page/portal/ClearPath/Communities/Districts/District7","phone":"312-747-8223","fax":"312-747-6558","id":"abshkqysohab","address":"1438 W 63rd St","geo_precision":"range","state":"IL","location":"1438 63rd St\nChicago, IL 60636\n(41.77965870830844, -87.65945323490796)"},"type":"Feature","geometry":{"type":"Point","coordinates":[-87.661679,41.779584]}},{"properties":{"city":"Chicago","zip":"60629","district":"8","tty":"312-747-8116","geo_score":0.935,"website":"https://portal.chicagopolice.org/portal/page/portal/ClearPath/Communities/Districts/District8","phone":"312-747-8730","fax":"312-747-8545","id":"abshkqvp5hia","address":"3420 W 63rd St","geo_precision":"range","state":"IL","location":"3420 63rd St\nChicago, IL 60629\n(41.77899321000677, -87.70878104821506)"},"type":"Feature","geometry":{"type":"Point","coordinates":[-87.70992,41.778936]}},{"properties":{"city":"Chicago","zip":"60608","district":"9","tty":"312-747-9172","geo_score":1.0,"website":"https://portal.chicagopolice.org/portal/page/portal/ClearPath/Communities/Districts/District9","phone":"312-747-8227","fax":"312-747-5329","id":"abshkqsu2ww3","address":"3120 S Halsted St","geo_precision":"range","state":"IL","location":"3120 Halsted St\nChicago, IL 60608\n(41.83750310123302, -87.64661990954984)"},"type":"Feature","geometry":{"type":"Point","coordinates":[-87.64632,41.836782]}},{"properties":{"city":"Chicago","zip":"60623","district":"10","tty":"312-747-7471","geo_score":1.0,"website":"https://portal.chicagopolice.org/portal/page/portal/ClearPath/Communities/Districts/District10","phone":"312-747-7511","fax":"312-747-7429","id":"abshkqsb1eyw","address":"3315 W Ogden Ave","geo_precision":"range","state":"IL","location":"3315 Ogden Ave\nChicago, IL 60623\n(41.85636188418744, -87.70840333296276)"},"type":"Feature","geometry":{"type":"Point","coordinates":[-87.708549,41.856805]}},{"properties":{"city":"Chicago","zip":"60612","district":"11","tty":"312-746-5151","geo_score":1.0,"website":"https://portal.chicagopolice.org/portal/page/portal/ClearPath/Communities/Districts/District11","phone":"312-746-8386","fax":"312-746-4281","id":"abshkqx267np","address":"3151 W Harrison St","geo_precision":"range","state":"IL","location":"3151 Harrison St\nChicago, IL 60612\n(41.873690811457, -87.70519897133927)"},"type":"Feature","geometry":{"type":"Point","coordinates":[-87.704859,41.873624]}},{"properties":{"city":"Chicago","zip":"60607","district":"12","tty":"312-746-9868","geo_score":1.0,"website":"https://portal.chicagopolice.org/portal/page/portal/ClearPath/Communities/Districts/District12","phone":"312-746-8309","fax":"312-746-4248","id":"abshkqwa8aot","address":"100 S Racine Ave","geo_precision":"range","state":"IL","location":"100 Racine Ave\nChicago, IL 60607\n(41.88031148430877, -87.65715796324291)"},"type":"Feature","geometry":{"type":"Point","coordinates":[-87.65708,41.879692]}},{"properties":{"city":"Chicago","zip":"60647","district":"14","tty":"312-744-8260","geo_score":1.0,"website":"https://portal.chicagopolice.org/portal/page/portal/ClearPath/Communities/Districts/District14","phone":"312-744-8250","fax":"312-744-2422","id":"abshkqogp964","address":"2150 N California Ave","geo_precision":"range","state":"IL","location":"2150 California Ave\nChicago, IL 60647\n(41.92125066466082, -87.69732502896069)"},"type":"Feature","geometry":{"type":"Point","coordinates":[-87.697374,41.920934]}},{"properties":{"city":"Chicago","zip":"60644","district":"15","tty":"312-743-1485","geo_score":1.0,"website":"https://portal.chicagopolice.org/portal/page/portal/ClearPath/Communities/Districts/District15","phone":"312-743-1440","fax":"312-743-1366","id":"abshkqzwwvuq","address":"5701 W Madison St","geo_precision":"range","state":"IL","location":"5701 Madison St\nChicago, IL 60644\n(41.87978022983041, -87.76818126825033)"},"type":"Feature","geometry":{"type":"Point","coordinates":[-87.769759,41.880167]}},{"properties":{"city":"Chicago","zip":"60630","district":"16","tty":"312-742-4423","geo_score":0.878,"website":"https://portal.chicagopolice.org/portal/page/portal/ClearPath/Communities/Districts/District16","phone":"312-742-4480","fax":"312-742-4421","id":"abshkqudy71t","address":"5151 N Milwaukee Ave","geo_precision":"range","state":"IL","location":"5151 Milwaukee Ave\nChicago, IL 60630\n(41.974188798165315, -87.76623800785116)"},"type":"Feature","geometry":{"type":"Point","coordinates":[-87.765778,41.973225]}},{"properties":{"city":"Chicago","zip":"60630","district":"17","tty":"312-742-5451","geo_score":1.0,"website":"https://portal.chicagopolice.org/portal/page/portal/ClearPath/Communities/Districts/District17","phone":"312-742-4410","fax":"312-742-5411","id":"abshkqorvwvr","address":"4650 N Pulaski Rd","geo_precision":"range","state":"IL","location":"4650 Pulaski Rd\nChicago, IL 60630\n(41.966052192101166, -87.72816143794648)"},"type":"Feature","geometry":{"type":"Point","coordinates":[-87.728047,41.966261]}},{"properties":{"city":"Chicago","zip":"60610","district":"18","tty":"312-742-5773","geo_score":1.0,"website":"https://portal.chicagopolice.org/portal/page/portal/ClearPath/Communities/Districts/District18","phone":"312-742-5870","fax":"312-742-5771","id":"abshkqqyxvsl","address":"1160 N Larrabee St","geo_precision":"range","state":"IL","location":"1160 Larrabee St\nChicago, IL 60610\n(41.90311763649074, -87.64353523498934)"},"type":"Feature","geometry":{"type":"Point","coordinates":[-87.643282,41.903346]}},{"properties":{"city":"Chicago","zip":"60613","district":"19","tty":"312-744-8011","geo_score":1.0,"website":"https://portal.chicagopolice.org/portal/page/portal/ClearPath/Communities/Districts/District23","phone":"312-744-8320","fax":"312-744-4481","id":"abshkqs8klg9","address":"850 W Addison St","geo_precision":"range","state":"IL","location":"3600 Halsted St\nChicago, IL 60613\n(41.94665927496925, -87.64947786133158)"},"type":"Feature","geometry":{"type":"Point","coordinates":[-87.650926,41.947374]}},{"properties":{"city":"Chicago","zip":"60625","district":"20","tty":"312-742-8841","geo_score":1.0,"website":"https://portal.chicagopolice.org/portal/page/portal/ClearPath/Communities/Districts/District20","phone":"312-742-8714","fax":"312-742-8803","id":"abshkqtc3i96","address":"5400 N Lincoln Ave","geo_precision":"range","state":"IL","location":"5400 Lincoln Ave\nChicago, IL 60625\n(41.97954202254066, -87.69301593304144)"},"type":"Feature","geometry":{"type":"Point","coordinates":[-87.692765,41.980419]}},{"properties":{"city":"Chicago","zip":"60643","district":"22","tty":"312-745-0569","geo_score":1.0,"website":"https://portal.chicagopolice.org/portal/page/portal/ClearPath/Communities/Districts/District22","phone":"312-745-0710","fax":"312-745-0814","id":"abshkqwfz5pk","address":"1900 W Monterey Ave","geo_precision":"range","state":"IL","location":"1900 Monterey Ave\nChicago, IL 60643\n(41.691350048962875, -87.66855780581959)"},"type":"Feature","geometry":{"type":"Point","coordinates":[-87.66976,41.691711]}},{"properties":{"city":"Chicago","zip":"60626","district":"24","tty":"312-744-7603","geo_score":1.0,"website":"https://portal.chicagopolice.org/portal/page/portal/ClearPath/Communities/Districts/District24","phone":"312-744-5907","fax":"312-744-6928","id":"abshkqwzo54p","address":"6464 N Clark St","geo_precision":"range","state":"IL","location":"6464 Clark St\nChicago, IL 60626\n(41.99944797184307, -87.67118638353655)"},"type":"Feature","geometry":{"type":"Point","coordinates":[-87.671268,41.999782]}},{"properties":{"city":"Chicago","zip":"60639","district":"25","tty":"312-746-8383","geo_score":1.0,"website":"https://portal.chicagopolice.org/portal/page/portal/ClearPath/Communities/Districts/District25","phone":"312-746-8605","fax":"312-746-4353","id":"abshkqwo0xs5","address":"5555 W Grand Ave","geo_precision":"range","state":"IL","location":"5555 Grand Ave\nChicago, IL 60639\n(41.91848587824693, -87.76465420759772)"},"type":"Feature","geometry":{"type":"Point","coordinates":[-87.761661,41.917903]}}],"is_temporal":false,"author":{"url":"https://data.cityofchicago.org/Public-Safety/Police-Stations/z8bn-74gv","metadata":"","contact_name":"","contact_address":"","source":"City of Chicago","contact_phone":""},"source":"https://data.cityofchicago.org/Public-Safety/Police-Stations/z8bn-74gv","pagination":{"sort":null,"start":0,"total":23,"limit":1000000},"state":"complete","tags":"chicago","published":"2014-08-16T20:12:56-04:00","id":315216}