{"type":"FeatureCollection","data_type":"Dataset","url_type":null,"permissions":[{"permissions":{"download":true,"view":true},"group_id":"everyone"}],"classification":null,"title":"Alabama Summer Meals Sites 2012 II","count":54,"stream_id":315220,"contributor":{"url":"http://geocommons.com/users/32742","name":"mnash"},"data_attributes":null,"calculation_params":null,"icon_link":null,"link":"http://geocommons.com/overlays/315220.json","extent":[-86.8918,31.3054,-85.1698,33.1558],"geometry_types":["point"],"unique_name":null,"name":"Alabama Summer Meals Sites 2012 II","feature_count":54,"description":"","next_feature":null,"is_raster":false,"short_classification":"Y","stats":{},"features":[{"properties":{"city":"Minter","site name":"B &amp; B Quick Stop","geo_score":0.78,"zip code":"36761","id":"absi0fe7ecx2","address":"660 Waller Rd","geo_precision":"range"},"type":"Feature","geometry":{"type":"Point","coordinates":[-86.763886,32.042047]}},{"properties":{"city":"Letohatchee","site name":"Calhoun High School","geo_score":0.707,"zip code":"36047","id":"absi0fhsgua5","address":"8213 County Road 33","geo_precision":"street"},"type":"Feature","geometry":{"type":"Point","coordinates":[-86.566985,32.089526]}},{"properties":{"city":"Hayneville","site name":"Central High School","geo_score":0.902,"zip code":"36040","id":"absi0fa2z9pc","address":"145 Main Street","geo_precision":"range"},"type":"Feature","geometry":{"type":"Point","coordinates":[-86.682859,32.147852]}},{"properties":{"city":"Tyler","site name":"Collerine Youth Recreation","geo_score":0.679,"zip code":"36785","id":"absi0f5g5r4i","address":"4919 Collerine Cutoff Rd","geo_precision":"street"},"type":"Feature","geometry":{"type":"Point","coordinates":[-86.787705,32.209913]}},{"properties":{"city":"Minter","site name":"First Baptist Church","geo_score":0.589,"zip code":"36761","id":"absi0fijp87n","address":"Hwy 63","geo_precision":"street"},"type":"Feature","geometry":{"type":"Point","coordinates":[-86.891841,32.077948]}},{"properties":{"city":"Hayneville","site name":"First Baptist Church Hayneville","geo_score":0.902,"zip code":"36040","id":"absi0fjvqw06","address":"789 Pine St","geo_precision":"range"},"type":"Feature","geometry":{"type":"Point","coordinates":[-86.585487,32.172215]}},{"properties":{"city":"Fort Deposit","site name":"Fort Deposit Elementary School","geo_score":0.399,"zip code":"36032","id":"absi0fbihofg","address":"200 Gilmer Hill Road","geo_precision":"street"},"type":"Feature","geometry":{"type":"Point","coordinates":[-86.571671,31.983459]}},{"properties":{"city":"Hayneville","site name":"Gordonsville Town Hall","geo_score":0.78,"zip code":"36040","id":"absi0fdci42p","address":"404 Wall St","geo_precision":"range"},"type":"Feature","geometry":{"type":"Point","coordinates":[-86.680566,32.142543]}},{"properties":{"city":"Hayneville","site name":"Hayneville Middle School","geo_score":0.709,"zip code":"36040","id":"absi0f5bkkt2","address":"101 W Lafayette St","geo_precision":"street"},"type":"Feature","geometry":{"type":"Point","coordinates":[-86.584021,32.183329]}},{"properties":{"city":"Hayneville","site name":"Jackson-Steele Elementary School","geo_score":0.805,"zip code":"36040","id":"absi0fldah8w","address":"570 Freedom Rd","geo_precision":"range"},"type":"Feature","geometry":{"type":"Point","coordinates":[-86.713488,32.305838]}},{"properties":{"city":"Letohatchee","site name":"Lily Missionary Baptist Church","geo_score":0.536,"zip code":"36047","id":"absi0fhmgape","address":"Highway 97","geo_precision":"street"},"type":"Feature","geometry":{"type":"Point","coordinates":[-86.567709,32.1701]}},{"properties":{"city":"Fort Deposit","site name":"Lownedes Middle School","geo_score":0.488,"zip code":"36032","id":"absi0fb6hylx","address":"301 School Drive","geo_precision":"zip"},"type":"Feature","geometry":{"type":"Point","coordinates":[-86.701367,32.060146]}},{"properties":{"city":"Hayneville","site name":"Mosses Apartments","geo_score":0.902,"zip code":"36040","id":"absi0ffdkfw3","address":"200 Brewer Drive","geo_precision":"range"},"type":"Feature","geometry":{"type":"Point","coordinates":[-86.569653,32.175334]}},{"properties":{"city":"Hayneville","site name":"Mount Teamon Baptist Church","geo_score":0.317,"zip code":"36040","id":"absi0ffnu7ms","address":"820 State Hwy. 21 N.","geo_precision":"street"},"type":"Feature","geometry":{"type":"Point","coordinates":[-85.953415,31.794455]}},{"properties":{"city":"Hayneville","site name":"Mt. Moriah No. 2 Church","geo_score":0.546,"zip code":"36040","id":"absi0feuh9sg","address":"117 Bracy Hill Dr","geo_precision":"street"},"type":"Feature","geometry":{"type":"Point","coordinates":[-86.671694,32.181567]}},{"properties":{"city":"Hope Hull","site name":"Owens Community","geo_score":0.902,"zip code":"36043","id":"absi0fkv8wnm","address":"136 Owens Drive N","geo_precision":"range"},"type":"Feature","geometry":{"type":"Point","coordinates":[-86.422773,32.232658]}},{"properties":{"city":"Letohatchee","site name":"Rehobeth Church","geo_score":0.446,"zip code":"36047","id":"absi0f9glasf","address":"Hickory Grove Road","geo_precision":"street"},"type":"Feature","geometry":{"type":"Point","coordinates":[-85.70832,32.460865]}},{"properties":{"city":"Hayneville","site name":"Saint Paul CME Church","geo_score":0.902,"zip code":"36040","id":"absi0fif7g29","address":"3558 County Road 17","geo_precision":"range"},"type":"Feature","geometry":{"type":"Point","coordinates":[-86.730475,32.198815]}},{"properties":{"city":"Ft Deposit","site name":"Snow Hill Christian Church","geo_score":0.413,"zip code":"36032","id":"absi0fftfvax","address":"126 Snow Hill Dr","geo_precision":"street"},"type":"Feature","geometry":{"type":"Point","coordinates":[-86.571671,31.983459]}},{"properties":{"city":"Enterprise","site name":"Coppinville Jr. High School","geo_score":0.902,"zip code":"36330","id":"absi0f6jztpe","address":"301 North Ouida Street","geo_precision":"range"},"type":"Feature","geometry":{"type":"Point","coordinates":[-85.837764,31.311787]}},{"properties":{"city":"Enterprise","site name":"Dept. of Parks &amp; Recreation","geo_score":0.902,"zip code":"36330","id":"absi0fdtgey5","address":"421 E Lee St","geo_precision":"range"},"type":"Feature","geometry":{"type":"Point","coordinates":[-85.850155,31.319153]}},{"properties":{"city":"Enterprise","site name":"Enterprise High School","geo_score":0.708,"zip code":"36330","id":"absi0f8bbq6k","address":"1801 Boll Weevil Cir","geo_precision":"street"},"type":"Feature","geometry":{"type":"Point","coordinates":[-85.830244,31.315796]}},{"properties":{"city":"Enterprise","site name":"Enterprise Jr. High","geo_score":0.902,"zip code":"36330","id":"absi0fbqoo1v","address":"401 West College Street","geo_precision":"range"},"type":"Feature","geometry":{"type":"Point","coordinates":[-85.857826,31.312103]}},{"properties":{"city":"Enterprise","site name":"First Baptist Church","geo_score":0.902,"zip code":"36330","id":"absi0fjomu1i","address":"302 North Main Street","geo_precision":"range"},"type":"Feature","geometry":{"type":"Point","coordinates":[-85.85636,31.317357]}},{"properties":{"city":"Enterprise","site name":"First United Methodist Church","geo_score":0.78,"zip code":"36330","id":"absi0fdtzpi1","address":"217 S Main St","geo_precision":"range"},"type":"Feature","geometry":{"type":"Point","coordinates":[-85.851078,31.310793]}},{"properties":{"city":"Enterprise","site name":"Hillcrest Baptist Church","geo_score":0.902,"zip code":"36330","id":"absi0fj64wtc","address":"500 Alberta St","geo_precision":"range"},"type":"Feature","geometry":{"type":"Point","coordinates":[-85.85376,31.327973]}},{"properties":{"city":"Enterprise","site name":"Hillcrest Elem School","geo_score":0.823,"zip code":"36330","id":"absi0fcql8ux","address":"400 East Watts Avenue","geo_precision":"range"},"type":"Feature","geometry":{"type":"Point","coordinates":[-85.854328,31.322329]}},{"properties":{"city":"Enterprise","site name":"John Chapel AME Church","geo_score":0.902,"zip code":"36330","id":"absi0f7ugztb","address":"601 Geneva Hwy","geo_precision":"range"},"type":"Feature","geometry":{"type":"Point","coordinates":[-85.851083,31.305384]}},{"properties":{"city":"Enterprise","site name":"YMCA","geo_score":0.708,"zip code":"36330","id":"absi0fg7h8ug","address":"904 Ozark Hwy","geo_precision":"street"},"type":"Feature","geometry":{"type":"Point","coordinates":[-85.837409,31.345875]}},{"properties":{"city":"Banks","site name":"Antioch Baptist Church","geo_score":0.406,"zip code":"36005","id":"absi0famuis6","address":"333 Al Highway 223","geo_precision":"street"},"type":"Feature","geometry":{"type":"Point","coordinates":[-86.273614,32.602452]}},{"properties":{"city":"Troy","site name":"Bethel Baptist Church","geo_score":0.467,"zip code":"36079","id":"absi0fl6vznf","address":"300 L C McMillian Ave","geo_precision":"street"},"type":"Feature","geometry":{"type":"Point","coordinates":[-85.966754,31.773909]}},{"properties":{"city":"Brantley","site name":"Brantley Pentecostal Church of Christ","geo_score":0.902,"zip code":"36009","id":"absi0fh61l5u","address":"274 E Mill Ave","geo_precision":"range"},"type":"Feature","geometry":{"type":"Point","coordinates":[-86.249778,31.58728]}},{"properties":{"city":"Troy","site name":"Charles Henderson High School","geo_score":0.872,"zip code":"36081","id":"absi0ffrx6ji","address":"150 George Wallace Dr","geo_precision":"range"},"type":"Feature","geometry":{"type":"Point","coordinates":[-85.949092,31.804786]}},{"properties":{"city":"Troy","site name":"Charles Henderson Middle School","geo_score":0.805,"zip code":"36081","id":"absi0fe5qmzn","address":"800 Elm St","geo_precision":"range"},"type":"Feature","geometry":{"type":"Point","coordinates":[-85.956753,31.807382]}},{"properties":{"city":"Troy","site name":"Deliverance Church","geo_score":0.707,"zip code":"36081","id":"absi0fb1wa99","address":"22432 Us Highway 231","geo_precision":"street"},"type":"Feature","geometry":{"type":"Point","coordinates":[-85.841253,31.73339]}},{"properties":{"city":"Troy","site name":"Dunbar  Projects-Family Life Center","geo_score":0.902,"zip code":"36081","id":"absi0fbwtiq0","address":"314 W Walnut St","geo_precision":"range"},"type":"Feature","geometry":{"type":"Point","coordinates":[-85.977167,31.808538]}},{"properties":{"city":"Troy","site name":"First Missionary Baptist Church","geo_score":0.427,"zip code":"36081","id":"absi0fdsku9j","address":"319 Alphonsa Byrd Dr","geo_precision":"street"},"type":"Feature","geometry":{"type":"Point","coordinates":[-86.413331,31.615745]}},{"properties":{"city":"Troy","site name":"Lily Baptist Church","geo_score":0.902,"zip code":"36081","id":"absi0f79p17g","address":"199 Dean St","geo_precision":"range"},"type":"Feature","geometry":{"type":"Point","coordinates":[-85.980946,31.805317]}},{"properties":{"city":"Troy","site name":"Mt. Nebo Church","geo_score":0.707,"zip code":"36081","id":"absi0fkwqwwa","address":"12234 Us Highway 231","geo_precision":"street"},"type":"Feature","geometry":{"type":"Point","coordinates":[-85.841253,31.73339]}},{"properties":{"city":"Troy","site name":"New Life Christian Academy","geo_score":0.709,"zip code":"36081","id":"absi0fd9rkt9","address":"601 Union Hill Rd","geo_precision":"street"},"type":"Feature","geometry":{"type":"Point","coordinates":[-85.926507,31.826573]}},{"properties":{"city":"Troy","site name":"Outreach Endtime Deliverance Church","geo_score":0.707,"zip code":"36081","id":"absi0f5wmyye","address":"22432 Us Highway 231","geo_precision":"street"},"type":"Feature","geometry":{"type":"Point","coordinates":[-85.841253,31.73339]}},{"properties":{"city":"Troy","site name":"Springhill Housing Project","geo_score":0.42,"zip code":"36081","id":"absi0faqkd3i","address":"64 County Road 3350","geo_precision":"street"},"type":"Feature","geometry":{"type":"Point","coordinates":[-85.979877,31.804586]}},{"properties":{"city":"Troy","site name":"Troy Elementary School","geo_score":0.708,"zip code":"36081","id":"absi0fhtdtws","address":"503 Gibbs St","geo_precision":"street"},"type":"Feature","geometry":{"type":"Point","coordinates":[-85.957461,31.821599]}},{"properties":{"city":"Troy","site name":"Troy Parks and Recreation","geo_score":0.78,"zip code":"36079","id":"absi0f5kxtw1","address":"601 Enzor Rd","geo_precision":"range"},"type":"Feature","geometry":{"type":"Point","coordinates":[-85.950733,31.76444]}},{"properties":{"city":"Troy","site name":"Washington Park","geo_score":0.714,"zip code":"36079","id":"absi0fbv4ums","address":"Washington St","geo_precision":"street"},"type":"Feature","geometry":{"type":"Point","coordinates":[-85.718115,32.402738]}},{"properties":{"city":"Lafayette","site name":"Boys and Girls Club - Lafayette","geo_score":0.644,"zip code":"36274","id":"absi0f6co4t9","address":"468 Price St","geo_precision":"street"},"type":"Feature","geometry":{"type":"Point","coordinates":[-85.381457,33.155825]}},{"properties":{"city":"Valley","site name":"Boys and Girls Club - Lanett","geo_score":0.819,"zip code":"36854","id":"absi0fgnrclo","address":"1911 62nd St","geo_precision":"range"},"type":"Feature","geometry":{"type":"Point","coordinates":[-85.16979,32.8127]}},{"properties":{"city":"Valley","site name":"City of Valley Police Academy","geo_score":0.902,"zip code":"36854","id":"absi0fl4dg9m","address":"20 Fob James Dr","geo_precision":"range"},"type":"Feature","geometry":{"type":"Point","coordinates":[-85.17279,32.817146]}},{"properties":{"city":"Valley","site name":"Fairfax Elementary","geo_score":0.74,"zip code":"36854","id":"absi0fbi6blk","address":"502 Boulevard","geo_precision":"range"},"type":"Feature","geometry":{"type":"Point","coordinates":[-85.186119,32.793362]}},{"properties":{"city":"Lafayette","site name":"Lafayette High","geo_score":0.834,"zip code":"36862","id":"absi0fby3o6o","address":"214 1st Ave SE","geo_precision":"range"},"type":"Feature","geometry":{"type":"Point","coordinates":[-85.39859,32.899141]}},{"properties":{"city":"Lanett","site name":"Lanett Police Academy","geo_score":0.902,"zip code":"36863","id":"absi0fcwkz4s","address":"401 N Lanier Ave","geo_precision":"range"},"type":"Feature","geometry":{"type":"Point","coordinates":[-85.188287,32.870951]}},{"properties":{"city":"Valley","site name":"New Life Ministry","geo_score":0.829,"zip code":"36854","id":"absi0f9h10ki","address":"5400 22nd Ave","geo_precision":"range"},"type":"Feature","geometry":{"type":"Point","coordinates":[-85.173656,32.819144]}},{"properties":{"city":"Valley","site name":"Riverview School Field","geo_score":0.621,"zip code":"36854","id":"absi0flkz8fk","address":"4747 Lee Rd 270","geo_precision":"street"},"type":"Feature","geometry":{"type":"Point","coordinates":[-85.181655,32.711152]}},{"properties":{"city":"Lanett","site name":"W. O. Lance Elementary","geo_score":0.837,"zip code":"36863","id":"absi0fkexnq9","address":"200 South Eighth Avenue","geo_precision":"range"},"type":"Feature","geometry":{"type":"Point","coordinates":[-85.194685,32.86806]}}],"is_temporal":false,"author":{"url":"","metadata":"","contact_name":"","contact_address":"","source":"","contact_phone":""},"source":"","pagination":{"sort":null,"start":0,"total":54,"limit":1000000},"state":"complete","tags":"","published":"2014-08-16T20:13:07-04:00","id":315220}