{"type":"FeatureCollection","data_type":"Dataset","url_type":null,"permissions":[{"permissions":{"download":true,"view":true},"group_id":"everyone"}],"classification":null,"title":"Brewing schools","count":10,"stream_id":315556,"contributor":{"url":"http://geocommons.com/users/60173","name":"impulzov"},"data_attributes":null,"calculation_params":null,"icon_link":null,"link":"http://geocommons.com/overlays/315556.json","extent":[-123.279,33.4718,-73.0871,44.8222],"geometry_types":["point"],"unique_name":null,"name":"Brewing schools","feature_count":10,"description":"","next_feature":null,"is_raster":false,"short_classification":"Y","stats":{},"features":[{"properties":{"name":"American Brewers Guild","city":"Salisbury","zip":"5769","country":"United States","geo_score":0.857,"id":"abtr7o9fun67","addres":"1001 Maple St","phone number":"802 352 4200","web":"www.abgbrew.com","geo_precision":"zip","state":"VT"},"type":"Feature","geometry":{"type":"Point","coordinates":[-73.087059,43.908951]}},{"properties":{"name":"Brewlab","city":"Chester Road","zip":"SR1 3SD","country":"UK","geo_score":0.571,"id":"abtr7oa24sgc","addres":"Darwin Annexe, University of Sunderland","phone number":"0044 19 1515 2535","web":"www.brewlab.co.uk","geo_precision":"city","state":"Sunderland"},"type":"Feature","geometry":{"type":"Point","coordinates":[-121.200726,40.277282]}},{"properties":{"name":"Doemens Academy","city":"Munich","zip":"82166","country":"Germany","geo_score":0.571,"id":"abtr7oivi25g","addres":"Stefanusstrasse 8","phone number":"0049 89 858 050","web":"www.doemens.org","geo_precision":"city","state":null},"type":"Feature","geometry":{"type":"Point","coordinates":[-78.324458,39.973417]}},{"properties":{"name":"International Center for Brewing and Distilling","city":null,"zip":"EH14 4AS","country":"Scotland","geo_score":0.0,"id":"abtr7obam9kf","addres":"Heriot-Watt University, Edinburgh Campus","phone number":"0044 13 1451 3184","web":"www.sls.hw.ac.uk/research/international-centre-for-brewing-distilling.htm","geo_precision":"unmatched","state":"Edinburgh"},"type":"Feature","geometry":null},{"properties":{"name":"The Institute of Brewing &amp; Distilling","city":"Mayfair","zip":"W1J 7EE","country":"UK","geo_score":0.571,"id":"abtr7ockf3ni","addres":"33 Clarges Street","phone number":"0044 20 7499 8144","web":"www.ibd.org.uk","geo_precision":"city","state":"London"},"type":"Feature","geometry":{"type":"Point","coordinates":[-86.793323,33.471773]}},{"properties":{"name":"Master Brewer's Association of the Americas","city":"St. Paul","zip":"55121-2097","country":"United States","geo_score":0.857,"id":"abtr7oex0zs5","addres":"3340 Pilot Knob Road","phone number":"651 454 7250","web":"www.mbaa.com","geo_precision":"zip","state":"MN"},"type":"Feature","geometry":{"type":"Point","coordinates":[-93.220499,44.822187]}},{"properties":{"name":"Niagara College: Brewmaster &amp; Brewery Operations","city":"Niagara-on-the-Lake","zip":"L0S 1J0","country":"Canada","geo_score":0.571,"id":"abtr7o8b952b","addres":"Niagara College, 135 Taylor Road, S.S. #4","phone number":"905 641 2252 x 4403","web":"www.niagaracollege.ca/content/Programs/WineryViticultureStudiesCFWI/BrewmasterandBreweryOperationsManagement.aspx","geo_precision":"city","state":"Ontario"},"type":"Feature","geometry":{"type":"Point","coordinates":[-83.615181,36.201752]}},{"properties":{"name":"Oregon State University","city":"Corvallis","zip":"97331-2132","country":"United States","geo_score":0.857,"id":"abtr7o509hvu","addres":"4943 Valley Library","phone number":"541 737 4197","web":"www.pne.oregonstate.edu/beer","geo_precision":"zip","state":"OR"},"type":"Feature","geometry":{"type":"Point","coordinates":[-123.278957,44.565613]}},{"properties":{"name":"The Scandinavian School of Brewing","city":"Copenhagen","zip":"1799","country":"Denmark","geo_score":0.571,"id":"abtr7oe5d8yj","addres":"Gl. Carlsberg vej 16","phone number":"0011 45 33 27 24 00","web":"www.brewingschool.dk","geo_precision":"city","state":null},"type":"Feature","geometry":{"type":"Point","coordinates":[-75.703596,43.892324]}},{"properties":{"name":"Siebel Institute of Technology &amp; World Brewing Academy","city":"Chicago","zip":"60614-5520","country":"United States","geo_score":0.857,"id":"abtr7oivsd2c","addres":"1777 North Clybourn Ave., Suite 2F","phone number":"312 255 0705","web":"www.siebelinstitute.com","geo_precision":"zip","state":"IL"},"type":"Feature","geometry":{"type":"Point","coordinates":[-87.68732,41.811929]}}],"is_temporal":false,"author":{"url":"","metadata":"","contact_name":"","contact_address":"","source":"","contact_phone":""},"source":"","pagination":{"sort":null,"start":0,"total":10,"limit":1000000},"state":"complete","tags":"","published":"2014-08-16T20:39:25-04:00","id":315556}