{"type":"FeatureCollection","data_type":"Dataset","url_type":null,"permissions":[{"permissions":{"download":true,"view":true},"group_id":"everyone"}],"classification":null,"title":"Massachusetts Pop By ZCTA with all lats and longs","count":529,"stream_id":315610,"contributor":{"url":"http://geocommons.com/users/45691","name":"CalebChase"},"data_attributes":null,"calculation_params":null,"icon_link":null,"link":"http://geocommons.com/overlays/315610.json","extent":[-180.0,41.2629,73.2706,42.8544],"geometry_types":["point"],"unique_name":null,"name":"Massachusetts Pop By ZCTA with all lats and longs","feature_count":529,"description":"","next_feature":null,"is_raster":false,"short_classification":"Y","stats":{"latitude":{"max":42.854423,"variance":0.101941084805011,"mean":42.2314453899811,"stdev":0.319282139815259,"min":41.2629,"median":42.283995},"housing units-2010":{"max":26481,"variance":25818837.3375723,"mean":5308.50472589792,"stdev":5081.2239999406,"min":5,"median":3850},"land-sq. miles":{"max":95.51,"variance":201.099158746477,"mean":14.6496238185255,"stdev":14.1809435069207,"min":0.047,"median":11.442},"population -2010":{"max":61025,"variance":148151477.085252,"mean":12371.8771266541,"stdev":12171.7491382813,"min":10,"median":8469},"water - sq. miles":{"max":25.431,"variance":5.02286378017414,"mean":0.99901134215501,"stdev":2.24117464294377,"min":0.0,"median":0.415},"longitude":{"max":73.2706,"variance":7601371221.42304,"mean":-10861.1208275614,"stdev":87185.8430103365,"min":-733502.0,"median":-71.2669}},"features":[{"properties":{"city":"Agawam","housing units-2010":7557,"latitude":42.07061,"st":"MA","county":"Hampden","zip code":"01001","population -2010":16769,"land-sq. miles":11.442,"water - sq. miles":0.861,"longitude":-72.62029,"id":"abtwjujuqxxa"},"type":"Feature","geometry":{"type":"Point","coordinates":[-72.62029,42.07061]}},{"properties":{"city":"Amherst","housing units-2010":10388,"latitude":42.377651,"st":"MA","county":"Hampshire","zip code":"01002","population -2010":29049,"land-sq. miles":55.041,"water - sq. miles":1.653,"longitude":-72.503237,"id":"abtwjudys06u"},"type":"Feature","geometry":{"type":"Point","coordinates":[-72.503237,42.377651]}},{"properties":{"city":"Amherst","housing units-2010":5,"latitude":42.3956,"st":"MA","county":"Hampshire","zip code":"01003","population -2010":10372,"land-sq. miles":0.711,"water - sq. miles":0.005,"longitude":-72.5219,"id":"abtwjue513kb"},"type":"Feature","geometry":{"type":"Point","coordinates":[-72.5219,42.3956]}},{"properties":{"city":"Barre","housing units-2010":2044,"latitude":42.412094,"st":"MA","county":"Worcester","zip code":"01005","population -2010":5079,"land-sq. miles":44.242,"water - sq. miles":0.258,"longitude":-72.104432,"id":"abtwjueuhq81"},"type":"Feature","geometry":{"type":"Point","coordinates":[-72.104432,42.412094]}},{"properties":{"city":"Belchertown","housing units-2010":5839,"latitude":42.278424,"st":"MA","county":"Hampshire","zip code":"01007","population -2010":14649,"land-sq. miles":52.643,"water - sq. miles":2.681,"longitude":-72.411005,"id":"abtwjugw6jzf"},"type":"Feature","geometry":{"type":"Point","coordinates":[-72.411005,42.278424]}},{"properties":{"city":"Blandford","housing units-2010":586,"latitude":42.174313,"st":"MA","county":"Hampden","zip code":"01008","population -2010":1263,"land-sq. miles":53.796,"water - sq. miles":1.964,"longitude":-72.948288,"id":"abtwjudj2m1z"},"type":"Feature","geometry":{"type":"Point","coordinates":[-72.948288,42.174313]}},{"properties":{"city":"Bondsville","housing units-2010":341,"latitude":42.21498,"st":"MA","county":"Hampden","zip code":"01009","population -2010":741,"land-sq. miles":0.797,"water - sq. miles":0.0,"longitude":-72.344,"id":"abtwju957n5c"},"type":"Feature","geometry":{"type":"Point","coordinates":[-72.344,42.21498]}},{"properties":{"city":"Brimfield","housing units-2010":1598,"latitude":42.126038,"st":"MA","county":"Hampden","zip code":"01010","population -2010":3609,"land-sq. miles":34.743,"water - sq. miles":0.548,"longitude":-72.205521,"id":"abtwju4gc5qm"},"type":"Feature","geometry":{"type":"Point","coordinates":[-72.205521,42.126038]}},{"properties":{"city":"Chester","housing units-2010":659,"latitude":42.271442,"st":"MA","county":"Hampden","zip code":"01011","population -2010":1370,"land-sq. miles":31.616,"water - sq. miles":0.132,"longitude":-73.019589,"id":"abtwjudnvyzo"},"type":"Feature","geometry":{"type":"Point","coordinates":[-73.019589,42.271442]}},{"properties":{"city":"Chesterfield","housing units-2010":343,"latitude":42.390836,"st":"MA","county":"Hampshire","zip code":"01012","population -2010":661,"land-sq. miles":13.119,"water - sq. miles":0.21,"longitude":-72.843564,"id":"abtwjuc6jwmj"},"type":"Feature","geometry":{"type":"Point","coordinates":[-72.843564,42.390836]}},{"properties":{"city":"Chicopee","housing units-2010":10246,"latitude":42.161492,"st":"MA","county":"Hampden","zip code":"01013","population -2010":23188,"land-sq. miles":5.624,"water - sq. miles":0.669,"longitude":-72.603165,"id":"abtwjujg480y"},"type":"Feature","geometry":{"type":"Point","coordinates":[-72.603165,42.161492]}},{"properties":{"city":"Chicopee","housing units-2010":13688,"latitude":42.175992,"st":"MA","county":"Hampden","zip code":"01020","population -2010":29668,"land-sq. miles":12.474,"water - sq. miles":0.455,"longitude":-72.572655,"id":"abtwju62otrp"},"type":"Feature","geometry":{"type":"Point","coordinates":[-72.572655,42.175992]}},{"properties":{"city":"Chicopee","housing units-2010":1209,"latitude":42.196666,"st":"MA","county":"Hampden","zip code":"01022","population -2010":2451,"land-sq. miles":4.758,"water - sq. miles":0.001,"longitude":-72.55606,"id":"abtwjuipeg91"},"type":"Feature","geometry":{"type":"Point","coordinates":[-72.55606,42.196666]}},{"properties":{"city":"Cummington","housing units-2010":513,"latitude":42.465041,"st":"MA","county":"Hampshire","zip code":"01026","population -2010":946,"land-sq. miles":24.004,"water - sq. miles":0.128,"longitude":-72.918131,"id":"abtwju6rbnmt"},"type":"Feature","geometry":{"type":"Point","coordinates":[-72.918131,42.465041]}},{"properties":{"city":"Easthampton","housing units-2010":8311,"latitude":42.27279,"st":"MA","county":"Hampshire","zip code":"01027","population -2010":17660,"land-sq. miles":40.501,"water - sq. miles":0.459,"longitude":-72.686772,"id":"abtwjucdlefj"},"type":"Feature","geometry":{"type":"Point","coordinates":[-72.686772,42.27279]}},{"properties":{"city":"East Longmeadow","housing units-2010":6106,"latitude":42.066795,"st":"MA","county":"Hampden","zip code":"01028","population -2010":15720,"land-sq. miles":13.006,"water - sq. miles":0.07,"longitude":-72.510205,"id":"abtwjuf8ic9t"},"type":"Feature","geometry":{"type":"Point","coordinates":[-72.510205,42.066795]}},{"properties":{"city":"East Otis","housing units-2010":1078,"latitude":42.175896,"st":"MA","county":"Berkshire","zip code":"01029","population -2010":789,"land-sq. miles":15.848,"water - sq. miles":2.052,"longitude":-73.042042,"id":"abtwju4illj1"},"type":"Feature","geometry":{"type":"Point","coordinates":[-73.042042,42.175896]}},{"properties":{"city":"Feeding Hills","housing units-2010":4582,"latitude":42.070774,"st":"MA","county":"Hampden","zip code":"01030","population -2010":11669,"land-sq. miles":11.867,"water - sq. miles":0.181,"longitude":-72.672484,"id":"abtwjue6ietm"},"type":"Feature","geometry":{"type":"Point","coordinates":[-72.672484,42.070774]}},{"properties":{"city":"Gilbertville","housing units-2010":596,"latitude":42.33071,"st":"MA","county":"Worcester","zip code":"01031","population -2010":1308,"land-sq. miles":8.092,"water - sq. miles":0.0,"longitude":-72.188334,"id":"abtwjuf61go3"},"type":"Feature","geometry":{"type":"Point","coordinates":[-72.188334,42.33071]}},{"properties":{"city":"Goshen","housing units-2010":363,"latitude":42.45792,"st":"MA","county":"Hampshire","zip code":"01032","population -2010":570,"land-sq. miles":11.769,"water - sq. miles":0.343,"longitude":-72.815513,"id":"abtwjuhiu2ao"},"type":"Feature","geometry":{"type":"Point","coordinates":[-72.815513,42.45792]}},{"properties":{"city":"Granby","housing units-2010":2454,"latitude":42.254563,"st":"MA","county":"Hampshire","zip code":"01033","population -2010":6227,"land-sq. miles":27.826,"water - sq. miles":0.258,"longitude":-72.518316,"id":"abtwju6uq4mq"},"type":"Feature","geometry":{"type":"Point","coordinates":[-72.518316,42.254563]}},{"properties":{"city":"Granville","housing units-2010":1145,"latitude":42.086224,"st":"MA","county":"Hampden","zip code":"01034","population -2010":2021,"land-sq. miles":71.534,"water - sq. miles":1.936,"longitude":-72.94464,"id":"abtwju7sc1ic"},"type":"Feature","geometry":{"type":"Point","coordinates":[-72.94464,42.086224]}},{"properties":{"city":"Hadley","housing units-2010":2230,"latitude":42.35549,"st":"MA","county":"Hampshire","zip code":"01035","population -2010":5250,"land-sq. miles":23.086,"water - sq. miles":1.521,"longitude":-72.573302,"id":"abtwjugjajic"},"type":"Feature","geometry":{"type":"Point","coordinates":[-72.573302,42.35549]}},{"properties":{"city":"Hampden","housing units-2010":1937,"latitude":42.064703,"st":"MA","county":"Hampden","zip code":"01036","population -2010":5109,"land-sq. miles":19.507,"water - sq. miles":0.041,"longitude":-72.417355,"id":"abtwju6x2xi9"},"type":"Feature","geometry":{"type":"Point","coordinates":[-72.417355,42.064703]}},{"properties":{"city":"Hardwick","housing units-2010":253,"latitude":42.374202,"st":"MA","county":"Worcester","zip code":"01037","population -2010":838,"land-sq. miles":13.279,"water - sq. miles":0.091,"longitude":-72.195241,"id":"abtwjub6jtij"},"type":"Feature","geometry":{"type":"Point","coordinates":[-72.195241,42.374202]}},{"properties":{"city":"Hatfield","housing units-2010":1181,"latitude":42.375155,"st":"MA","county":"Hampshire","zip code":"01038","population -2010":2545,"land-sq. miles":9.998,"water - sq. miles":0.867,"longitude":-72.608325,"id":"abtwjue77eum"},"type":"Feature","geometry":{"type":"Point","coordinates":[-72.608325,42.375155]}},{"properties":{"city":"Haydenville","housing units-2010":640,"latitude":42.381475,"st":"MA","county":"Hampshire","zip code":"01039","population -2010":1336,"land-sq. miles":13.207,"water - sq. miles":0.23,"longitude":-72.692596,"id":"abtwjuef9x6w"},"type":"Feature","geometry":{"type":"Point","coordinates":[-72.692596,42.381475]}},{"properties":{"city":"Holyoke","housing units-2010":16384,"latitude":42.201891,"st":"MA","county":"Hampden","zip code":"01040","population -2010":39880,"land-sq. miles":21.281,"water - sq. miles":1.554,"longitude":-72.6242,"id":"abtwju9mvqb1"},"type":"Feature","geometry":{"type":"Point","coordinates":[-72.6242,42.201891]}},{"properties":{"city":"Huntington","housing units-2010":1167,"latitude":42.290209,"st":"MA","county":"Hampshire","zip code":"01050","population -2010":2530,"land-sq. miles":38.329,"water - sq. miles":0.997,"longitude":-72.879426,"id":"abtwjuh3nrdc"},"type":"Feature","geometry":{"type":"Point","coordinates":[-72.879426,42.290209]}},{"properties":{"city":"Leeds","housing units-2010":636,"latitude":42.353105,"st":"MA","county":"Hampshire","zip code":"01053","population -2010":1685,"land-sq. miles":5.131,"water - sq. miles":0.097,"longitude":-72.702062,"id":"abtwjujm8pj5"},"type":"Feature","geometry":{"type":"Point","coordinates":[-72.702062,42.353105]}},{"properties":{"city":"Leverett","housing units-2010":811,"latitude":42.479839,"st":"MA","county":"Franklin","zip code":"01054","population -2010":1851,"land-sq. miles":22.807,"water - sq. miles":0.164,"longitude":-72.498797,"id":"abtwjubrexlg"},"type":"Feature","geometry":{"type":"Point","coordinates":[-72.498797,42.479839]}},{"properties":{"city":"Ludlow","housing units-2010":8383,"latitude":42.174893,"st":"MA","county":"Hampden","zip code":"01056","population -2010":21103,"land-sq. miles":27.205,"water - sq. miles":1.095,"longitude":-72.470687,"id":"abtwju4xnp8v"},"type":"Feature","geometry":{"type":"Point","coordinates":[-72.470687,42.174893]}},{"properties":{"city":"Monson","housing units-2010":3470,"latitude":42.089269,"st":"MA","county":"Hampden","zip code":"01057","population -2010":8534,"land-sq. miles":44.907,"water - sq. miles":0.621,"longitude":-72.317005,"id":"abtwju93wqj7"},"type":"Feature","geometry":{"type":"Point","coordinates":[-72.317005,42.089269]}},{"properties":{"city":"Northampton","housing units-2010":7307,"latitude":42.324539,"st":"MA","county":"Hampshire","zip code":"01060","population -2010":15284,"land-sq. miles":10.918,"water - sq. miles":1.259,"longitude":-72.635615,"id":"abtwjukow4qp"},"type":"Feature","geometry":{"type":"Point","coordinates":[-72.635615,42.324539]}},{"properties":{"city":"Florence","housing units-2010":4784,"latitude":42.324232,"st":"MA","county":"Hampshire","zip code":"01062","population -2010":11150,"land-sq. miles":18.154,"water - sq. miles":0.153,"longitude":-72.679157,"id":"abtwjubkpfe7"},"type":"Feature","geometry":{"type":"Point","coordinates":[-72.679157,42.324232]}},{"properties":{"city":"Oakham","housing units-2010":711,"latitude":42.349769,"st":"MA","county":"Worcester","zip code":"01068","population -2010":1902,"land-sq. miles":20.83,"water - sq. miles":0.389,"longitude":-72.044138,"id":"abtwju7zlr1r"},"type":"Feature","geometry":{"type":"Point","coordinates":[-72.044138,42.349769]}},{"properties":{"city":"Palmer","housing units-2010":3779,"latitude":42.176401,"st":"MA","county":"Hampden","zip code":"01069","population -2010":8469,"land-sq. miles":28.065,"water - sq. miles":0.296,"longitude":-72.326468,"id":"abtwjuhdz5w2"},"type":"Feature","geometry":{"type":"Point","coordinates":[-72.326468,42.176401]}},{"properties":{"city":"Plainfield","housing units-2010":320,"latitude":42.515853,"st":"MA","county":"Hampshire","zip code":"01070","population -2010":629,"land-sq. miles":20.541,"water - sq. miles":0.229,"longitude":-72.916614,"id":"abtwju5w9inh"},"type":"Feature","geometry":{"type":"Point","coordinates":[-72.916614,42.515853]}},{"properties":{"city":"Russell","housing units-2010":638,"latitude":42.165931,"st":"MA","county":"Hampden","zip code":"01071","population -2010":1596,"land-sq. miles":15.579,"water - sq. miles":0.31,"longitude":-72.851532,"id":"abtwjuh6dlwt"},"type":"Feature","geometry":{"type":"Point","coordinates":[-72.851532,42.165931]}},{"properties":{"city":"Shutesbury","housing units-2010":748,"latitude":42.486027,"st":"MA","county":"Franklin","zip code":"01072","population -2010":1478,"land-sq. miles":20.086,"water - sq. miles":0.518,"longitude":-72.422088,"id":"abtwju75c246"},"type":"Feature","geometry":{"type":"Point","coordinates":[-72.422088,42.486027]}},{"properties":{"city":"Southampton","housing units-2010":2337,"latitude":42.223885,"st":"MA","county":"Hampshire","zip code":"01073","population -2010":5792,"land-sq. miles":28.152,"water - sq. miles":0.802,"longitude":-72.727778,"id":"abtwju8rvuff"},"type":"Feature","geometry":{"type":"Point","coordinates":[-72.727778,42.223885]}},{"properties":{"city":"South Barre","housing units-2010":132,"latitude":42.384537,"st":"MA","county":"Worcester","zip code":"01074","population -2010":319,"land-sq. miles":0.085,"water - sq. miles":0.02,"longitude":-72.098791,"id":"abtwjuci1vfo"},"type":"Feature","geometry":{"type":"Point","coordinates":[-72.098791,42.384537]}},{"properties":{"city":"South Hadley","housing units-2010":7162,"latitude":42.234891,"st":"MA","county":"Hampshire","zip code":"01075","population -2010":17527,"land-sq. miles":17.718,"water - sq. miles":0.685,"longitude":-72.582439,"id":"abtwjubegzmq"},"type":"Feature","geometry":{"type":"Point","coordinates":[-72.582439,42.234891]}},{"properties":{"city":"Southwick","housing units-2010":3916,"latitude":42.05283,"st":"MA","county":"Hampden","zip code":"01077","population -2010":9502,"land-sq. miles":30.821,"water - sq. miles":0.831,"longitude":-72.769668,"id":"abtwjuf4ogzb"},"type":"Feature","geometry":{"type":"Point","coordinates":[-72.769668,42.05283]}},{"properties":{"city":"Thorndike","housing units-2010":325,"latitude":42.20139,"st":"MA","county":"Hampden","zip code":"01079","population -2010":692,"land-sq. miles":1.128,"water - sq. miles":0.042,"longitude":72.328153,"id":"abtwju5dmqoo"},"type":"Feature","geometry":{"type":"Point","coordinates":[72.328153,42.20139]}},{"properties":{"city":"Three Rivers","housing units-2010":1093,"latitude":42.180563,"st":"MA","county":"Hampden","zip code":"01080","population -2010":2334,"land-sq. miles":1.727,"water - sq. miles":0.1,"longitude":-72.365182,"id":"abtwjujuonco"},"type":"Feature","geometry":{"type":"Point","coordinates":[-72.365182,42.180563]}},{"properties":{"city":"Wales","housing units-2010":820,"latitude":42.058024,"st":"MA","county":"Hampden","zip code":"01081","population -2010":1698,"land-sq. miles":14.496,"water - sq. miles":0.219,"longitude":-72.225177,"id":"abtwju9xhou8"},"type":"Feature","geometry":{"type":"Point","coordinates":[-72.225177,42.058024]}},{"properties":{"city":"Ware","housing units-2010":4768,"latitude":42.270611,"st":"MA","county":"Hampshire","zip code":"01082","population -2010":10322,"land-sq. miles":46.105,"water - sq. miles":6.248,"longitude":-72.260675,"id":"abtwjufpow4b"},"type":"Feature","geometry":{"type":"Point","coordinates":[-72.260675,42.270611]}},{"properties":{"city":"Warren","housing units-2010":1270,"latitude":42.20468,"st":"MA","county":"Worcester","zip code":"01083","population -2010":2888,"land-sq. miles":15.78,"water - sq. miles":0.061,"longitude":-72.202592,"id":"abtwju8j3jz5"},"type":"Feature","geometry":{"type":"Point","coordinates":[-72.202592,42.20468]}},{"properties":{"city":"West Chesterfield","housing units-2010":88,"latitude":42.379807,"st":"MA","county":"Hampshire","zip code":"01084","population -2010":176,"land-sq. miles":9.197,"water - sq. miles":0.086,"longitude":-72.890432,"id":"abtwjuk93vb0"},"type":"Feature","geometry":{"type":"Point","coordinates":[-72.890432,42.379807]}},{"properties":{"city":"Westfield","housing units-2010":16363,"latitude":42.133642,"st":"MA","county":"Hampden","zip code":"01085","population -2010":41117,"land-sq. miles":59.946,"water - sq. miles":1.145,"longitude":-72.750297,"id":"abtwjuhualgo"},"type":"Feature","geometry":{"type":"Point","coordinates":[-72.750297,42.133642]}},{"properties":{"city":"West Hatfield","housing units-2010":357,"latitude":42.388831,"st":"MA","county":"Hampshire","zip code":"01088","population -2010":670,"land-sq. miles":5.2,"water - sq. miles":0.014,"longitude":-72.632102,"id":"abtwju6pfalw"},"type":"Feature","geometry":{"type":"Point","coordinates":[-72.632102,42.388831]}},{"properties":{"city":"West Springfield","housing units-2010":12697,"latitude":42.112793,"st":"MA","county":"Hampden","zip code":"01089","population -2010":28391,"land-sq. miles":16.713,"water - sq. miles":0.809,"longitude":-72.640665,"id":"abtwjuf60ynb"},"type":"Feature","geometry":{"type":"Point","coordinates":[-72.640665,42.112793]}},{"properties":{"city":"West Warren","housing units-2010":591,"latitude":42.210777,"st":"MA","county":"Worcester","zip code":"01092","population -2010":1394,"land-sq. miles":6.703,"water - sq. miles":0.031,"longitude":-72.23904,"id":"abtwjuji9zr4"},"type":"Feature","geometry":{"type":"Point","coordinates":[-72.23904,42.210777]}},{"properties":{"city":"Whately","housing units-2010":156,"latitude":42.428996,"st":"MA","county":"Franklin","zip code":"01093","population -2010":325,"land-sq. miles":5.044,"water - sq. miles":0.006,"longitude":72.628422,"id":"abtwju6u7q6e"},"type":"Feature","geometry":{"type":"Point","coordinates":[72.628422,42.428996]}},{"properties":{"city":"Wheelwright","housing units-2010":171,"latitude":42.3541,"st":"MA","county":"Worcester","zip code":"01094","population -2010":351,"land-sq. miles":1.136,"water - sq. miles":0.066,"longitude":72.1429,"id":"abtwjuaqc2ls"},"type":"Feature","geometry":{"type":"Point","coordinates":[72.1429,42.3541]}},{"properties":{"city":"Wilbraham","housing units-2010":5535,"latitude":42.12531,"st":"MA","county":"Hampden","zip code":"01095","population -2010":14319,"land-sq. miles":22.614,"water - sq. miles":0.224,"longitude":-72.440574,"id":"abtwjue79l7a"},"type":"Feature","geometry":{"type":"Point","coordinates":[-72.440574,42.12531]}},{"properties":{"city":"Williamsburg","housing units-2010":1029,"latitude":42.415236,"st":"MA","county":"Hampshire","zip code":"01096","population -2010":2217,"land-sq. miles":31.683,"water - sq. miles":0.206,"longitude":-72.782719,"id":"abtwjuj73852"},"type":"Feature","geometry":{"type":"Point","coordinates":[-72.782719,42.415236]}},{"properties":{"city":"Woronoco","housing units-2010":40,"latitude":42.15999,"st":"MA","county":"Hampden","zip code":"01097","population -2010":111,"land-sq. miles":1.709,"water - sq. miles":0.081,"longitude":-72.83,"id":"abtwjua5hgl1"},"type":"Feature","geometry":{"type":"Point","coordinates":[-72.83,42.15999]}},{"properties":{"city":"Worthington","housing units-2010":610,"latitude":42.399054,"st":"MA","county":"Hampshire","zip code":"01098","population -2010":1101,"land-sq. miles":31.352,"water - sq. miles":0.148,"longitude":-72.938714,"id":"abtwju6xyq1f"},"type":"Feature","geometry":{"type":"Point","coordinates":[-72.938714,42.399054]}},{"properties":{"city":"Springfield","housing units-2010":1661,"latitude":42.103294,"st":"MA","county":"Hampden","zip code":"01103","population -2010":2479,"land-sq. miles":0.46,"water - sq. miles":0.079,"longitude":-72.591121,"id":"abtwju72pj1t"},"type":"Feature","geometry":{"type":"Point","coordinates":[-72.591121,42.103294]}},{"properties":{"city":"Springfield","housing units-2010":9381,"latitude":42.130343,"st":"MA","county":"Hampden","zip code":"01104","population -2010":22865,"land-sq. miles":5.216,"water - sq. miles":0.082,"longitude":-72.573382,"id":"abtwjuedlc8j"},"type":"Feature","geometry":{"type":"Point","coordinates":[-72.573382,42.130343]}},{"properties":{"city":"Springfield","housing units-2010":5586,"latitude":42.096644,"st":"MA","county":"Hampden","zip code":"01105","population -2010":12350,"land-sq. miles":1.243,"water - sq. miles":0.119,"longitude":-72.579806,"id":"abtwjuc6bhox"},"type":"Feature","geometry":{"type":"Point","coordinates":[-72.579806,42.096644]}},{"properties":{"city":"Longmeadow","housing units-2010":6107,"latitude":42.050395,"st":"MA","county":"Hampden","zip code":"01106","population -2010":16021,"land-sq. miles":9.301,"water - sq. miles":0.514,"longitude":-72.571208,"id":"abtwjuf7ief2"},"type":"Feature","geometry":{"type":"Point","coordinates":[-72.571208,42.050395]}},{"properties":{"city":"Springfield","housing units-2010":4252,"latitude":42.120193,"st":"MA","county":"Hampden","zip code":"01107","population -2010":11611,"land-sq. miles":1.507,"water - sq. miles":0.034,"longitude":-72.606103,"id":"abtwjugqra47"},"type":"Feature","geometry":{"type":"Point","coordinates":[-72.606103,42.120193]}},{"properties":{"city":"Springfield","housing units-2010":10992,"latitude":42.084094,"st":"MA","county":"Hampden","zip code":"01108","population -2010":26688,"land-sq. miles":3.723,"water - sq. miles":0.157,"longitude":-72.555231,"id":"abtwjuefwit9"},"type":"Feature","geometry":{"type":"Point","coordinates":[-72.555231,42.084094]}},{"properties":{"city":"Springfield","housing units-2010":10818,"latitude":42.116277,"st":"MA","county":"Hampden","zip code":"01109","population -2010":30250,"land-sq. miles":5.442,"water - sq. miles":0.188,"longitude":-72.550315,"id":"abtwju90q6br"},"type":"Feature","geometry":{"type":"Point","coordinates":[-72.550315,42.116277]}},{"properties":{"city":"Springfield","housing units-2010":5911,"latitude":42.093144,"st":"MA","county":"Hampden","zip code":"01118","population -2010":14071,"land-sq. miles":3.595,"water - sq. miles":0.101,"longitude":-72.529101,"id":"abtwju7y7a2z"},"type":"Feature","geometry":{"type":"Point","coordinates":[-72.529101,42.093144]}},{"properties":{"city":"Springfield","housing units-2010":5185,"latitude":42.128442,"st":"MA","county":"Hampden","zip code":"01119","population -2010":14152,"land-sq. miles":3.55,"water - sq. miles":0.093,"longitude":-72.509328,"id":"abtwjugzyz0p"},"type":"Feature","geometry":{"type":"Point","coordinates":[-72.509328,42.128442]}},{"properties":{"city":"Springfield","housing units-2010":1077,"latitude":42.095344,"st":"MA","county":"Hampden","zip code":"01128","population -2010":2631,"land-sq. miles":1.117,"water - sq. miles":0.0,"longitude":-72.488573,"id":"abtwju9wgy9s"},"type":"Feature","geometry":{"type":"Point","coordinates":[-72.488573,42.095344]}},{"properties":{"city":"Springfield","housing units-2010":2982,"latitude":42.121031,"st":"MA","county":"Hampden","zip code":"01129","population -2010":7019,"land-sq. miles":3.424,"water - sq. miles":0.092,"longitude":-72.489602,"id":"abtwjudpcm00"},"type":"Feature","geometry":{"type":"Point","coordinates":[-72.489602,42.121031]}},{"properties":{"city":"Indian Orchard","housing units-2010":3699,"latitude":42.153926,"st":"MA","county":"Hampden","zip code":"01151","population -2010":8698,"land-sq. miles":2.368,"water - sq. miles":0.179,"longitude":-72.50531,"id":"abtwjufs2a7f"},"type":"Feature","geometry":{"type":"Point","coordinates":[-72.50531,42.153926]}},{"properties":{"city":"Pittsfield","housing units-2010":22443,"latitude":42.45384,"st":"MA","county":"Berkshire","zip code":"01201","population -2010":46504,"land-sq. miles":52.918,"water - sq. miles":2.607,"longitude":-73.254003,"id":"abtwjudj1jhw"},"type":"Feature","geometry":{"type":"Point","coordinates":[-73.254003,42.45384]}},{"properties":{"city":"Adams","housing units-2010":4434,"latitude":42.619727,"st":"MA","county":"Berkshire","zip code":"01220","population -2010":8603,"land-sq. miles":24.591,"water - sq. miles":0.079,"longitude":-73.118427,"id":"abtwjuihjdvb"},"type":"Feature","geometry":{"type":"Point","coordinates":[-73.118427,42.619727]}},{"properties":{"city":"Ashley Falls","housing units-2010":361,"latitude":42.057496,"st":"MA","county":"Berkshire","zip code":"01222","population -2010":829,"land-sq. miles":3.307,"water - sq. miles":0.129,"longitude":-73.321771,"id":"abtwju4arosj"},"type":"Feature","geometry":{"type":"Point","coordinates":[-73.321771,42.057496]}},{"properties":{"city":"Becket","housing units-2010":1986,"latitude":42.314449,"st":"MA","county":"Berkshire","zip code":"01223","population -2010":2314,"land-sq. miles":69.751,"water - sq. miles":2.044,"longitude":-73.093359,"id":"abtwjufa4d63"},"type":"Feature","geometry":{"type":"Point","coordinates":[-73.093359,42.314449]}},{"properties":{"city":"Berkshire","housing units-2010":81,"latitude":42.5110387,"st":"MA","county":"Berkshire","zip code":"01224","population -2010":182,"land-sq. miles":0.278,"water - sq. miles":0.032,"longitude":73.1954,"id":"abtwjughp5a1"},"type":"Feature","geometry":{"type":"Point","coordinates":[73.1954,42.5110387]}},{"properties":{"city":"Cheshire","housing units-2010":1466,"latitude":42.551731,"st":"MA","county":"Berkshire","zip code":"01225","population -2010":3117,"land-sq. miles":25.106,"water - sq. miles":0.703,"longitude":-73.165306,"id":"abtwju4gpjgm"},"type":"Feature","geometry":{"type":"Point","coordinates":[-73.165306,42.551731]}},{"properties":{"city":"Dalton","housing units-2010":2993,"latitude":42.476575,"st":"MA","county":"Berkshire","zip code":"01226","population -2010":6945,"land-sq. miles":26.378,"water - sq. miles":0.142,"longitude":-73.115476,"id":"abtwjuc5lxqs"},"type":"Feature","geometry":{"type":"Point","coordinates":[-73.115476,42.476575]}},{"properties":{"city":"Glendale","housing units-2010":61,"latitude":42.2866056,"st":"MA","county":"Berkshire","zip code":"01229","population -2010":95,"land-sq. miles":0.733,"water - sq. miles":0.001,"longitude":-733502.0,"id":"abtwju7s7uqn"},"type":"Feature","geometry":{"type":"Point","coordinates":[-733502.0,42.2866056]}},{"properties":{"city":"Great Barrington","housing units-2010":4633,"latitude":42.189715,"st":"MA","county":"Berkshire","zip code":"01230","population -2010":8430,"land-sq. miles":91.519,"water - sq. miles":1.749,"longitude":-73.352493,"id":"abtwju6oi3n6"},"type":"Feature","geometry":{"type":"Point","coordinates":[-73.352493,42.189715]}},{"properties":{"city":"Hinsdale","housing units-2010":1507,"latitude":42.433661,"st":"MA","county":"Berkshire","zip code":"01235","population -2010":2766,"land-sq. miles":45.643,"water - sq. miles":1.079,"longitude":-73.092783,"id":"abtwjuj9257t"},"type":"Feature","geometry":{"type":"Point","coordinates":[-73.092783,42.433661]}},{"properties":{"city":"Housatonic","housing units-2010":784,"latitude":42.266874,"st":"MA","county":"Berkshire","zip code":"01236","population -2010":1509,"land-sq. miles":4.802,"water - sq. miles":0.061,"longitude":-73.362363,"id":"abtwju4pn4kn"},"type":"Feature","geometry":{"type":"Point","coordinates":[-73.362363,42.266874]}},{"properties":{"city":"Lanesboro","housing units-2010":1334,"latitude":42.557346,"st":"MA","county":"Berkshire","zip code":"01237","population -2010":2496,"land-sq. miles":61.823,"water - sq. miles":0.44,"longitude":-73.243648,"id":"abtwju8zy5b4"},"type":"Feature","geometry":{"type":"Point","coordinates":[-73.243648,42.557346]}},{"properties":{"city":"Lee","housing units-2010":3155,"latitude":42.299263,"st":"MA","county":"Berkshire","zip code":"01238","population -2010":6047,"land-sq. miles":34.833,"water - sq. miles":1.045,"longitude":-73.232707,"id":"abtwjugbalnu"},"type":"Feature","geometry":{"type":"Point","coordinates":[-73.232707,42.299263]}},{"properties":{"city":"Lenox","housing units-2010":2920,"latitude":42.36237,"st":"MA","county":"Berkshire","zip code":"01240","population -2010":4534,"land-sq. miles":21.38,"water - sq. miles":0.448,"longitude":-73.27683,"id":"abtwjuemkjw9"},"type":"Feature","geometry":{"type":"Point","coordinates":[-73.27683,42.36237]}},{"properties":{"city":"Lenox Dale","housing units-2010":214,"latitude":42.336557,"st":"MA","county":"Berkshire","zip code":"01242","population -2010":476,"land-sq. miles":0.497,"water - sq. miles":0.01,"longitude":-73.245995,"id":"abtwjuekslbf"},"type":"Feature","geometry":{"type":"Point","coordinates":[-73.245995,42.336557]}},{"properties":{"city":"Middlefield","housing units-2010":188,"latitude":42.359497,"st":"MA","county":"Hampshire","zip code":"01243","population -2010":334,"land-sq. miles":18.651,"water - sq. miles":0.022,"longitude":-73.022817,"id":"abtwjuh0mdwe"},"type":"Feature","geometry":{"type":"Point","coordinates":[-73.022817,42.359497]}},{"properties":{"city":"Mill River","housing units-2010":84,"latitude":42.139104,"st":"MA","county":"Berkshire","zip code":"01244","population -2010":151,"land-sq. miles":2.45,"water - sq. miles":0.027,"longitude":-73.203123,"id":"abtwjuf0ei7j"},"type":"Feature","geometry":{"type":"Point","coordinates":[-73.203123,42.139104]}},{"properties":{"city":"Monterey","housing units-2010":914,"latitude":42.180659,"st":"MA","county":"Berkshire","zip code":"01245","population -2010":985,"land-sq. miles":27.98,"water - sq. miles":0.791,"longitude":-73.208499,"id":"abtwjuf7gceh"},"type":"Feature","geometry":{"type":"Point","coordinates":[-73.208499,42.180659]}},{"properties":{"city":"North Adams","housing units-2010":7785,"latitude":42.696064,"st":"MA","county":"Berkshire","zip code":"01247","population -2010":16087,"land-sq. miles":52.524,"water - sq. miles":0.571,"longitude":-73.101456,"id":"abtwju6eitzr"},"type":"Feature","geometry":{"type":"Point","coordinates":[-73.101456,42.696064]}},{"properties":{"city":"Otis","housing units-2010":568,"latitude":42.198403,"st":"MA","county":"Berkshire","zip code":"01253","population -2010":731,"land-sq. miles":18.267,"water - sq. miles":0.403,"longitude":-73.102052,"id":"abtwju7v5jmx"},"type":"Feature","geometry":{"type":"Point","coordinates":[-73.102052,42.198403]}},{"properties":{"city":"Richmond","housing units-2010":591,"latitude":42.374711,"st":"MA","county":"Berkshire","zip code":"01254","population -2010":972,"land-sq. miles":14.561,"water - sq. miles":0.057,"longitude":-73.363363,"id":"abtwjuhbj3en"},"type":"Feature","geometry":{"type":"Point","coordinates":[-73.363363,42.374711]}},{"properties":{"city":"Sandisfield","housing units-2010":671,"latitude":42.088973,"st":"MA","county":"Berkshire","zip code":"01255","population -2010":915,"land-sq. miles":51.806,"water - sq. miles":1.176,"longitude":-73.124448,"id":"abtwjue72c1b"},"type":"Feature","geometry":{"type":"Point","coordinates":[-73.124448,42.088973]}},{"properties":{"city":"Savoy","housing units-2010":357,"latitude":42.592506,"st":"MA","county":"Berkshire","zip code":"01256","population -2010":692,"land-sq. miles":35.845,"water - sq. miles":0.175,"longitude":-73.011232,"id":"abtwjub2wmmp"},"type":"Feature","geometry":{"type":"Point","coordinates":[-73.011232,42.592506]}},{"properties":{"city":"Sheffield","housing units-2010":1231,"latitude":42.102694,"st":"MA","county":"Berkshire","zip code":"01257","population -2010":2121,"land-sq. miles":36.235,"water - sq. miles":0.858,"longitude":-73.365918,"id":"abtwju8528mu"},"type":"Feature","geometry":{"type":"Point","coordinates":[-73.365918,42.102694]}},{"properties":{"city":"South Egremont","housing units-2010":338,"latitude":42.103122,"st":"MA","county":"Berkshire","zip code":"01258","population -2010":374,"land-sq. miles":25.807,"water - sq. miles":0.154,"longitude":-73.457344,"id":"abtwju6zje2k"},"type":"Feature","geometry":{"type":"Point","coordinates":[-73.457344,42.103122]}},{"properties":{"city":"Southfield","housing units-2010":431,"latitude":42.0645,"st":"MA","county":"Berkshire","zip code":"01259","population -2010":635,"land-sq. miles":25.326,"water - sq. miles":0.788,"longitude":-73.246749,"id":"abtwjuaesk11"},"type":"Feature","geometry":{"type":"Point","coordinates":[-73.246749,42.0645]}},{"properties":{"city":"South Lee","housing units-2010":134,"latitude":42.2627,"st":"MA","county":"Berkshire","zip code":"01260","population -2010":240,"land-sq. miles":2.511,"water - sq. miles":0.039,"longitude":73.2706,"id":"abtwjube2867"},"type":"Feature","geometry":{"type":"Point","coordinates":[73.2706,42.2627]}},{"properties":{"city":"Stockbridge","housing units-2010":1068,"latitude":42.283216,"st":"MA","county":"Berkshire","zip code":"01262","population -2010":1238,"land-sq. miles":12.034,"water - sq. miles":0.822,"longitude":-73.314232,"id":"abtwjueplqxc"},"type":"Feature","geometry":{"type":"Point","coordinates":[-73.314232,42.283216]}},{"properties":{"city":"Tyringham","housing units-2010":109,"latitude":42.224905,"st":"MA","county":"Berkshire","zip code":"01264","population -2010":137,"land-sq. miles":11.361,"water - sq. miles":0.035,"longitude":-73.203943,"id":"abtwjugtnnd4"},"type":"Feature","geometry":{"type":"Point","coordinates":[-73.203943,42.224905]}},{"properties":{"city":"West Stockbridge","housing units-2010":1096,"latitude":42.328535,"st":"MA","county":"Berkshire","zip code":"01266","population -2010":1463,"land-sq. miles":26.052,"water - sq. miles":0.301,"longitude":-73.364077,"id":"abtwju5undzw"},"type":"Feature","geometry":{"type":"Point","coordinates":[-73.364077,42.328535]}},{"properties":{"city":"Williamstown","housing units-2010":3202,"latitude":42.689962,"st":"MA","county":"Berkshire","zip code":"01267","population -2010":7989,"land-sq. miles":54.554,"water - sq. miles":0.132,"longitude":-73.223553,"id":"abtwjub7ehe5"},"type":"Feature","geometry":{"type":"Point","coordinates":[-73.223553,42.689962]}},{"properties":{"city":"Windsor","housing units-2010":441,"latitude":42.4738,"st":"MA","county":"Berkshire","zip code":"01270","population -2010":778,"land-sq. miles":31.858,"water - sq. miles":0.162,"longitude":73.1454,"id":"abtwjui01ryc"},"type":"Feature","geometry":{"type":"Point","coordinates":[73.1454,42.4738]}},{"properties":{"city":"Greenfield","housing units-2010":8485,"latitude":42.605524,"st":"MA","county":"Franklin","zip code":"01301","population -2010":17700,"land-sq. miles":25.491,"water - sq. miles":0.536,"longitude":-72.600988,"id":"abtwjucst5op"},"type":"Feature","geometry":{"type":"Point","coordinates":[-72.600988,42.605524]}},{"properties":{"city":"Ashfield","housing units-2010":771,"latitude":42.521131,"st":"MA","county":"Franklin","zip code":"01330","population -2010":1506,"land-sq. miles":33.326,"water - sq. miles":0.244,"longitude":-72.81116,"id":"abtwjue147fx"},"type":"Feature","geometry":{"type":"Point","coordinates":[-72.81116,42.521131]}},{"properties":{"city":"Athol","housing units-2010":6028,"latitude":42.579931,"st":"MA","county":"Worcester","zip code":"01331","population -2010":13263,"land-sq. miles":53.222,"water - sq. miles":1.385,"longitude":-72.20836,"id":"abtwju6p0fn0"},"type":"Feature","geometry":{"type":"Point","coordinates":[-72.20836,42.579931]}},{"properties":{"city":"Bernardston","housing units-2010":1165,"latitude":42.678023,"st":"MA","county":"Franklin","zip code":"01337","population -2010":2596,"land-sq. miles":37.223,"water - sq. miles":0.064,"longitude":-72.555694,"id":"abtwju5a77so"},"type":"Feature","geometry":{"type":"Point","coordinates":[-72.555694,42.678023]}},{"properties":{"city":"Buckland","housing units-2010":82,"latitude":42.569498,"st":"MA","county":"Franklin","zip code":"01338","population -2010":187,"land-sq. miles":3.454,"water - sq. miles":0.005,"longitude":-72.802005,"id":"abtwju5xicvc"},"type":"Feature","geometry":{"type":"Point","coordinates":[-72.802005,42.569498]}},{"properties":{"city":"Charlemont","housing units-2010":787,"latitude":42.626858,"st":"MA","county":"Franklin","zip code":"01339","population -2010":1438,"land-sq. miles":54.978,"water - sq. miles":0.243,"longitude":-72.879391,"id":"abtwjufke0jl"},"type":"Feature","geometry":{"type":"Point","coordinates":[-72.879391,42.626858]}},{"properties":{"city":"Colrain","housing units-2010":954,"latitude":42.673371,"st":"MA","county":"Franklin","zip code":"01340","population -2010":1701,"land-sq. miles":44.182,"water - sq. miles":0.254,"longitude":-72.731041,"id":"abtwjuje5raw"},"type":"Feature","geometry":{"type":"Point","coordinates":[-72.731041,42.673371]}},{"properties":{"city":"Conway","housing units-2010":801,"latitude":42.508313,"st":"MA","county":"Franklin","zip code":"01341","population -2010":1833,"land-sq. miles":35.686,"water - sq. miles":0.18,"longitude":-72.70403,"id":"abtwjukgm5cb"},"type":"Feature","geometry":{"type":"Point","coordinates":[-72.70403,42.508313]}},{"properties":{"city":"Deerfield","housing units-2010":518,"latitude":42.542322,"st":"MA","county":"Franklin","zip code":"01342","population -2010":1492,"land-sq. miles":17.834,"water - sq. miles":0.854,"longitude":-72.6091,"id":"abtwju5724py"},"type":"Feature","geometry":{"type":"Point","coordinates":[-72.6091,42.542322]}},{"properties":{"city":"Drury","housing units-2010":38,"latitude":42.6575,"st":"MA","county":"Berkshire","zip code":"01343","population -2010":75,"land-sq. miles":4.871,"water - sq. miles":0.03,"longitude":-729755.0,"id":"abtwjuehfk9j"},"type":"Feature","geometry":{"type":"Point","coordinates":[-729755.0,42.6575]}},{"properties":{"city":"Erving","housing units-2010":654,"latitude":42.607051,"st":"MA","county":"Franklin","zip code":"01344","population -2010":1498,"land-sq. miles":13.635,"water - sq. miles":0.518,"longitude":-72.413965,"id":"abtwju5k3q22"},"type":"Feature","geometry":{"type":"Point","coordinates":[-72.413965,42.607051]}},{"properties":{"city":"Heath","housing units-2010":429,"latitude":42.669255,"st":"MA","county":"Franklin","zip code":"01346","population -2010":533,"land-sq. miles":20.996,"water - sq. miles":0.038,"longitude":-72.804946,"id":"abtwjuga1wz9"},"type":"Feature","geometry":{"type":"Point","coordinates":[-72.804946,42.669255]}},{"properties":{"city":"Lake Pleasant","housing units-2010":75,"latitude":42.5562,"st":"MA","county":"Franklin","zip code":"01347","population -2010":166,"land-sq. miles":0.577,"water - sq. miles":0.085,"longitude":-725167.0,"id":"abtwjuj7kvdr"},"type":"Feature","geometry":{"type":"Point","coordinates":[-725167.0,42.5562]}},{"properties":{"city":"Millers Falls","housing units-2010":496,"latitude":42.5737,"st":"MA","county":"Franklin","zip code":"01349","population -2010":1091,"land-sq. miles":7.674,"water - sq. miles":0.221,"longitude":-72.505253,"id":"abtwju55uhdz"},"type":"Feature","geometry":{"type":"Point","coordinates":[-72.505253,42.5737]}},{"properties":{"city":"Monroe Bridge","housing units-2010":77,"latitude":42.712257,"st":"MA","county":"Franklin","zip code":"01350","population -2010":121,"land-sq. miles":10.721,"water - sq. miles":0.106,"longitude":-72.976291,"id":"abtwju6iomfk"},"type":"Feature","geometry":{"type":"Point","coordinates":[-72.976291,42.712257]}},{"properties":{"city":"Montague","housing units-2010":1032,"latitude":42.534976,"st":"MA","county":"Franklin","zip code":"01351","population -2010":2270,"land-sq. miles":20.926,"water - sq. miles":0.435,"longitude":-72.52522,"id":"abtwju4norv3"},"type":"Feature","geometry":{"type":"Point","coordinates":[-72.52522,42.534976]}},{"properties":{"city":"Gill","housing units-2010":608,"latitude":42.637,"st":"MA","county":"Franklin","zip code":"01354","population -2010":1500,"land-sq. miles":13.764,"water - sq. miles":1.029,"longitude":-72.5086,"id":"abtwju4z4jos"},"type":"Feature","geometry":{"type":"Point","coordinates":[-72.5086,42.637]}},{"properties":{"city":"New Salem","housing units-2010":418,"latitude":42.485899,"st":"MA","county":"Franklin","zip code":"01355","population -2010":878,"land-sq. miles":47.38,"water - sq. miles":13.775,"longitude":-72.333451,"id":"abtwjujhypj3"},"type":"Feature","geometry":{"type":"Point","coordinates":[-72.333451,42.485899]}},{"properties":{"city":"Northfield","housing units-2010":1391,"latitude":42.682285,"st":"MA","county":"Franklin","zip code":"01360","population -2010":3032,"land-sq. miles":34.285,"water - sq. miles":1.086,"longitude":-72.456498,"id":"abtwju6sl32d"},"type":"Feature","geometry":{"type":"Point","coordinates":[-72.456498,42.682285]}},{"properties":{"city":"Orange","housing units-2010":3652,"latitude":42.599614,"st":"MA","county":"Franklin","zip code":"01364","population -2010":7969,"land-sq. miles":39.229,"water - sq. miles":1.102,"longitude":-72.292633,"id":"abtwjugu9ipa"},"type":"Feature","geometry":{"type":"Point","coordinates":[-72.292633,42.599614]}},{"properties":{"city":"Petersham","housing units-2010":566,"latitude":42.474718,"st":"MA","county":"Worcester","zip code":"01366","population -2010":1277,"land-sq. miles":40.405,"water - sq. miles":0.561,"longitude":-72.212269,"id":"abtwjuhs0owj"},"type":"Feature","geometry":{"type":"Point","coordinates":[-72.212269,42.474718]}},{"properties":{"city":"Rowe","housing units-2010":300,"latitude":42.694883,"st":"MA","county":"Franklin","zip code":"01367","population -2010":522,"land-sq. miles":26.536,"water - sq. miles":0.683,"longitude":-72.90962,"id":"abtwjui3tk8i"},"type":"Feature","geometry":{"type":"Point","coordinates":[-72.90962,42.694883]}},{"properties":{"city":"Royalston","housing units-2010":578,"latitude":42.671012,"st":"MA","county":"Worcester","zip code":"01368","population -2010":1261,"land-sq. miles":41.842,"water - sq. miles":0.706,"longitude":-72.169995,"id":"abtwju9dczin"},"type":"Feature","geometry":{"type":"Point","coordinates":[-72.169995,42.671012]}},{"properties":{"city":"Shelburne Falls","housing units-2010":1976,"latitude":42.603447,"st":"MA","county":"Franklin","zip code":"01370","population -2010":4084,"land-sq. miles":49.819,"water - sq. miles":0.54,"longitude":-72.727549,"id":"abtwju9q78k9"},"type":"Feature","geometry":{"type":"Point","coordinates":[-72.727549,42.603447]}},{"properties":{"city":"South Deerfield","housing units-2010":2076,"latitude":42.472734,"st":"MA","county":"Franklin","zip code":"01373","population -2010":4600,"land-sq. miles":24.161,"water - sq. miles":0.568,"longitude":-72.624526,"id":"abtwjua4kcy1"},"type":"Feature","geometry":{"type":"Point","coordinates":[-72.624526,42.472734]}},{"properties":{"city":"Sunderland","housing units-2010":1729,"latitude":42.449978,"st":"MA","county":"Franklin","zip code":"01375","population -2010":3684,"land-sq. miles":14.23,"water - sq. miles":0.521,"longitude":-72.563029,"id":"abtwju69vj3v"},"type":"Feature","geometry":{"type":"Point","coordinates":[-72.563029,42.449978]}},{"properties":{"city":"Turners Falls","housing units-2010":2503,"latitude":42.609425,"st":"MA","county":"Franklin","zip code":"01376","population -2010":5247,"land-sq. miles":2.761,"water - sq. miles":0.566,"longitude":-72.544385,"id":"abtwjubzx1zc"},"type":"Feature","geometry":{"type":"Point","coordinates":[-72.544385,42.609425]}},{"properties":{"city":"Warwick","housing units-2010":441,"latitude":42.667152,"st":"MA","county":"Franklin","zip code":"01378","population -2010":774,"land-sq. miles":34.021,"water - sq. miles":0.314,"longitude":-72.327299,"id":"abtwjucqsn2n"},"type":"Feature","geometry":{"type":"Point","coordinates":[-72.327299,42.667152]}},{"properties":{"city":"Wendell","housing units-2010":420,"latitude":42.547274,"st":"MA","county":"Franklin","zip code":"01379","population -2010":813,"land-sq. miles":30.206,"water - sq. miles":0.372,"longitude":-72.417242,"id":"abtwju7i00bh"},"type":"Feature","geometry":{"type":"Point","coordinates":[-72.417242,42.547274]}},{"properties":{"city":"Fitchburg","housing units-2010":17128,"latitude":42.578689,"st":"MA","county":"Worcester","zip code":"01420","population -2010":40337,"land-sq. miles":30.317,"water - sq. miles":0.687,"longitude":-71.803383,"id":"abtwju4u7oi7"},"type":"Feature","geometry":{"type":"Point","coordinates":[-71.803383,42.578689]}},{"properties":{"city":"Ashburnham","housing units-2010":2606,"latitude":42.658768,"st":"MA","county":"Worcester","zip code":"01430","population -2010":6089,"land-sq. miles":36.992,"water - sq. miles":2.606,"longitude":-71.932874,"id":"abtwjugt0y56"},"type":"Feature","geometry":{"type":"Point","coordinates":[-71.932874,42.658768]}},{"properties":{"city":"Ashby","housing units-2010":1191,"latitude":42.672005,"st":"MA","county":"Middlesex","zip code":"01431","population -2010":3074,"land-sq. miles":23.703,"water - sq. miles":0.387,"longitude":-71.813707,"id":"abtwju9kayvp"},"type":"Feature","geometry":{"type":"Point","coordinates":[-71.813707,42.672005]}},{"properties":{"city":"Ayer","housing units-2010":3422,"latitude":42.549821,"st":"MA","county":"Middlesex","zip code":"01432","population -2010":7089,"land-sq. miles":8.451,"water - sq. miles":0.471,"longitude":-71.591363,"id":"abtwjud433jp"},"type":"Feature","geometry":{"type":"Point","coordinates":[-71.591363,42.549821]}},{"properties":{"city":"Devens","housing units-2010":122,"latitude":42.536,"st":"MA","county":"Worcester","zip code":"01434","population -2010":1795,"land-sq. miles":5.281,"water - sq. miles":0.155,"longitude":-716139.0,"id":"abtwjubu5jv6"},"type":"Feature","geometry":{"type":"Point","coordinates":[-716139.0,42.536]}},{"properties":{"city":"Baldwinville","housing units-2010":1214,"latitude":42.608903,"st":"MA","county":"Worcester","zip code":"01436","population -2010":3336,"land-sq. miles":9.595,"water - sq. miles":0.196,"longitude":-72.080212,"id":"abtwju5cmi41"},"type":"Feature","geometry":{"type":"Point","coordinates":[-72.080212,42.608903]}},{"properties":{"city":"East Templeton","housing units-2010":214,"latitude":42.563367,"st":"MA","county":"Worcester","zip code":"01438","population -2010":559,"land-sq. miles":0.542,"water - sq. miles":0.019,"longitude":-72.03498,"id":"abtwju7vx3bu"},"type":"Feature","geometry":{"type":"Point","coordinates":[-72.03498,42.563367]}},{"properties":{"city":"Gardner","housing units-2010":9179,"latitude":42.575355,"st":"MA","county":"Worcester","zip code":"01440","population -2010":20347,"land-sq. miles":24.042,"water - sq. miles":0.961,"longitude":-71.99183,"id":"abtwju9ajlgs"},"type":"Feature","geometry":{"type":"Point","coordinates":[-71.99183,42.575355]}},{"properties":{"city":"Groton","housing units-2010":3989,"latitude":42.609887,"st":"MA","county":"Middlesex","zip code":"01450","population -2010":10646,"land-sq. miles":32.762,"water - sq. miles":0.995,"longitude":-71.557221,"id":"abtwju6ujge9"},"type":"Feature","geometry":{"type":"Point","coordinates":[-71.557221,42.609887]}},{"properties":{"city":"Harvard","housing units-2010":1824,"latitude":42.505928,"st":"MA","county":"Worcester","zip code":"01451","population -2010":4747,"land-sq. miles":19.132,"water - sq. miles":0.65,"longitude":-71.588803,"id":"abtwjufxk5oh"},"type":"Feature","geometry":{"type":"Point","coordinates":[-71.588803,42.505928]}},{"properties":{"city":"Hubbardston","housing units-2010":1662,"latitude":42.477515,"st":"MA","county":"Worcester","zip code":"01452","population -2010":4382,"land-sq. miles":41.071,"water - sq. miles":0.929,"longitude":-71.996546,"id":"abtwjuiq0gfu"},"type":"Feature","geometry":{"type":"Point","coordinates":[-71.996546,42.477515]}},{"properties":{"city":"Leominster","housing units-2010":17912,"latitude":42.526523,"st":"MA","county":"Worcester","zip code":"01453","population -2010":40883,"land-sq. miles":28.47,"water - sq. miles":0.529,"longitude":-71.753582,"id":"abtwju5s2i8b"},"type":"Feature","geometry":{"type":"Point","coordinates":[-71.753582,42.526523]}},{"properties":{"city":"Littleton","housing units-2010":3477,"latitude":42.540052,"st":"MA","county":"Middlesex","zip code":"01460","population -2010":8924,"land-sq. miles":16.522,"water - sq. miles":0.997,"longitude":-71.490859,"id":"abtwjuan60a3"},"type":"Feature","geometry":{"type":"Point","coordinates":[-71.490859,42.540052]}},{"properties":{"city":"Lunenburg","housing units-2010":4133,"latitude":42.582839,"st":"MA","county":"Worcester","zip code":"01462","population -2010":10086,"land-sq. miles":26.479,"water - sq. miles":1.263,"longitude":-71.72051,"id":"abtwjuk3yhtt"},"type":"Feature","geometry":{"type":"Point","coordinates":[-71.72051,42.582839]}},{"properties":{"city":"Pepperell","housing units-2010":4348,"latitude":42.665686,"st":"MA","county":"Middlesex","zip code":"01463","population -2010":11497,"land-sq. miles":22.6,"water - sq. miles":0.597,"longitude":-71.592908,"id":"abtwju9hvz30"},"type":"Feature","geometry":{"type":"Point","coordinates":[-71.592908,42.665686]}},{"properties":{"city":"Shirley","housing units-2010":2427,"latitude":42.559289,"st":"MA","county":"Middlesex","zip code":"01464","population -2010":7211,"land-sq. miles":15.014,"water - sq. miles":0.079,"longitude":-71.64555,"id":"abtwju4ynoek"},"type":"Feature","geometry":{"type":"Point","coordinates":[-71.64555,42.559289]}},{"properties":{"city":"Still River","housing units-2010":141,"latitude":42.488666,"st":"MA","county":"Worcester","zip code":"01467","population -2010":316,"land-sq. miles":1.895,"water - sq. miles":0.011,"longitude":-71.62412,"id":"abtwjuealbgg"},"type":"Feature","geometry":{"type":"Point","coordinates":[-71.62412,42.488666]}},{"properties":{"city":"Templeton","housing units-2010":1671,"latitude":42.557796,"st":"MA","county":"Worcester","zip code":"01468","population -2010":4021,"land-sq. miles":21.4,"water - sq. miles":0.266,"longitude":-72.068248,"id":"abtwju68yoek"},"type":"Feature","geometry":{"type":"Point","coordinates":[-72.068248,42.557796]}},{"properties":{"city":"Townsend","housing units-2010":2572,"latitude":42.658738,"st":"MA","county":"Middlesex","zip code":"01469","population -2010":6801,"land-sq. miles":22.881,"water - sq. miles":0.234,"longitude":-71.692042,"id":"abtwju96axlw"},"type":"Feature","geometry":{"type":"Point","coordinates":[-71.692042,42.658738]}},{"properties":{"city":"Westminster","housing units-2010":2960,"latitude":42.544622,"st":"MA","county":"Worcester","zip code":"01473","population -2010":7277,"land-sq. miles":35.431,"water - sq. miles":1.822,"longitude":-71.9021,"id":"abtwju62s6uu"},"type":"Feature","geometry":{"type":"Point","coordinates":[-71.9021,42.544622]}},{"properties":{"city":"West Townsend","housing units-2010":813,"latitude":42.669408,"st":"MA","county":"Middlesex","zip code":"01474","population -2010":2125,"land-sq. miles":9.919,"water - sq. miles":0.03,"longitude":-71.745787,"id":"abtwju4u3nkn"},"type":"Feature","geometry":{"type":"Point","coordinates":[-71.745787,42.669408]}},{"properties":{"city":"Winchendon","housing units-2010":4179,"latitude":42.675441,"st":"MA","county":"Worcester","zip code":"01475","population -2010":10270,"land-sq. miles":42.852,"water - sq. miles":1.049,"longitude":-72.046703,"id":"abtwjueb43bz"},"type":"Feature","geometry":{"type":"Point","coordinates":[-72.046703,42.675441]}},{"properties":{"city":"Auburn","housing units-2010":6770,"latitude":42.20361,"st":"MA","county":"Worcester","zip code":"01501","population -2010":16075,"land-sq. miles":15.451,"water - sq. miles":0.934,"longitude":-71.838432,"id":"abtwju5wd6wy"},"type":"Feature","geometry":{"type":"Point","coordinates":[-71.838432,42.20361]}},{"properties":{"city":"Berlin","housing units-2010":1189,"latitude":42.380562,"st":"MA","county":"Worcester","zip code":"01503","population -2010":2866,"land-sq. miles":12.972,"water - sq. miles":0.202,"longitude":-71.626658,"id":"abtwju7fauko"},"type":"Feature","geometry":{"type":"Point","coordinates":[-71.626658,42.380562]}},{"properties":{"city":"Blackstone","housing units-2010":3628,"latitude":42.028147,"st":"MA","county":"Worcester","zip code":"01504","population -2010":9026,"land-sq. miles":11.075,"water - sq. miles":0.316,"longitude":-71.52999,"id":"abtwjuivt3zd"},"type":"Feature","geometry":{"type":"Point","coordinates":[-71.52999,42.028147]}},{"properties":{"city":"Boylston","housing units-2010":1778,"latitude":42.338392,"st":"MA","county":"Worcester","zip code":"01505","population -2010":4355,"land-sq. miles":16.061,"water - sq. miles":3.692,"longitude":-71.730262,"id":"abtwjuj00i67"},"type":"Feature","geometry":{"type":"Point","coordinates":[-71.730262,42.338392]}},{"properties":{"city":"Brookfield","housing units-2010":1493,"latitude":42.200374,"st":"MA","county":"Worcester","zip code":"01506","population -2010":3390,"land-sq. miles":15.547,"water - sq. miles":1.054,"longitude":-72.097876,"id":"abtwju8epane"},"type":"Feature","geometry":{"type":"Point","coordinates":[-72.097876,42.200374]}},{"properties":{"city":"Charlton","housing units-2010":4885,"latitude":42.135142,"st":"MA","county":"Worcester","zip code":"01507","population -2010":12981,"land-sq. miles":42.183,"water - sq. miles":1.614,"longitude":-71.969617,"id":"abtwjudgkeqs"},"type":"Feature","geometry":{"type":"Point","coordinates":[-71.969617,42.135142]}},{"properties":{"city":"Clinton","housing units-2010":6397,"latitude":42.418836,"st":"MA","county":"Worcester","zip code":"01510","population -2010":13606,"land-sq. miles":5.655,"water - sq. miles":1.613,"longitude":-71.68482,"id":"abtwju9jv0py"},"type":"Feature","geometry":{"type":"Point","coordinates":[-71.68482,42.418836]}},{"properties":{"city":"East Brookfield","housing units-2010":931,"latitude":42.212777,"st":"MA","county":"Worcester","zip code":"01515","population -2010":2183,"land-sq. miles":9.851,"water - sq. miles":0.553,"longitude":-72.053118,"id":"abtwjugovp90"},"type":"Feature","geometry":{"type":"Point","coordinates":[-72.053118,42.212777]}},{"properties":{"city":"Douglas","housing units-2010":3306,"latitude":42.061437,"st":"MA","county":"Worcester","zip code":"01516","population -2010":8500,"land-sq. miles":36.758,"water - sq. miles":1.552,"longitude":-71.728874,"id":"abtwju4fksod"},"type":"Feature","geometry":{"type":"Point","coordinates":[-71.728874,42.061437]}},{"properties":{"city":"Fiskdale","housing units-2010":1326,"latitude":42.12515,"st":"MA","county":"Worcester","zip code":"01518","population -2010":2974,"land-sq. miles":8.871,"water - sq. miles":0.743,"longitude":-72.123938,"id":"abtwju805ska"},"type":"Feature","geometry":{"type":"Point","coordinates":[-72.123938,42.12515]}},{"properties":{"city":"Grafton","housing units-2010":2539,"latitude":42.201674,"st":"MA","county":"Worcester","zip code":"01519","population -2010":6595,"land-sq. miles":10.912,"water - sq. miles":0.108,"longitude":-71.687713,"id":"abtwjud11e3g"},"type":"Feature","geometry":{"type":"Point","coordinates":[-71.687713,42.201674]}},{"properties":{"city":"Holden","housing units-2010":5339,"latitude":42.338962,"st":"MA","county":"Worcester","zip code":"01520","population -2010":13997,"land-sq. miles":18.081,"water - sq. miles":0.693,"longitude":-71.844349,"id":"abtwjuj7gn8n"},"type":"Feature","geometry":{"type":"Point","coordinates":[-71.844349,42.338962]}},{"properties":{"city":"Holland","housing units-2010":1365,"latitude":42.054676,"st":"MA","county":"Hampden","zip code":"01521","population -2010":2481,"land-sq. miles":12.294,"water - sq. miles":0.769,"longitude":-72.161379,"id":"abtwjukfjmp3"},"type":"Feature","geometry":{"type":"Point","coordinates":[-72.161379,42.054676]}},{"properties":{"city":"Jefferson","housing units-2010":1298,"latitude":42.369658,"st":"MA","county":"Worcester","zip code":"01522","population -2010":3310,"land-sq. miles":16.378,"water - sq. miles":0.54,"longitude":-71.874189,"id":"abtwjuaciojr"},"type":"Feature","geometry":{"type":"Point","coordinates":[-71.874189,42.369658]}},{"properties":{"city":"Lancaster","housing units-2010":2462,"latitude":42.473131,"st":"MA","county":"Worcester","zip code":"01523","population -2010":7582,"land-sq. miles":25.199,"water - sq. miles":0.439,"longitude":-71.679466,"id":"abtwjue9et7p"},"type":"Feature","geometry":{"type":"Point","coordinates":[-71.679466,42.473131]}},{"properties":{"city":"Leicester","housing units-2010":2594,"latitude":42.238942,"st":"MA","county":"Worcester","zip code":"01524","population -2010":6696,"land-sq. miles":15.975,"water - sq. miles":0.968,"longitude":-71.919083,"id":"abtwjueiybmk"},"type":"Feature","geometry":{"type":"Point","coordinates":[-71.919083,42.238942]}},{"properties":{"city":"Linwood","housing units-2010":120,"latitude":42.09736,"st":"MA","county":"Worcester","zip code":"01525","population -2010":290,"land-sq. miles":0.449,"water - sq. miles":0.031,"longitude":-71.6448,"id":"abtwjuk7128u"},"type":"Feature","geometry":{"type":"Point","coordinates":[-71.6448,42.09736]}},{"properties":{"city":"Millbury","housing units-2010":5618,"latitude":42.196144,"st":"MA","county":"Worcester","zip code":"01527","population -2010":13246,"land-sq. miles":15.569,"water - sq. miles":0.719,"longitude":-71.762727,"id":"abtwjug06xgl"},"type":"Feature","geometry":{"type":"Point","coordinates":[-71.762727,42.196144]}},{"properties":{"city":"Millville","housing units-2010":1162,"latitude":42.036396,"st":"MA","county":"Worcester","zip code":"01529","population -2010":3190,"land-sq. miles":4.906,"water - sq. miles":0.059,"longitude":-71.577989,"id":"abtwjuvx40ce"},"type":"Feature","geometry":{"type":"Point","coordinates":[-71.577989,42.036396]}},{"properties":{"city":"New Braintree","housing units-2010":390,"latitude":42.317121,"st":"MA","county":"Worcester","zip code":"01531","population -2010":999,"land-sq. miles":20.789,"water - sq. miles":0.157,"longitude":-72.122489,"id":"abtwjuqgtp1v"},"type":"Feature","geometry":{"type":"Point","coordinates":[-72.122489,42.317121]}},{"properties":{"city":"Northborough","housing units-2010":5314,"latitude":42.321917,"st":"MA","county":"Worcester","zip code":"01532","population -2010":14155,"land-sq. miles":18.476,"water - sq. miles":0.272,"longitude":-71.646927,"id":"abtwjuw5iucx"},"type":"Feature","geometry":{"type":"Point","coordinates":[-71.646927,42.321917]}},{"properties":{"city":"Northbridge","housing units-2010":2123,"latitude":42.140741,"st":"MA","county":"Worcester","zip code":"01534","population -2010":5631,"land-sq. miles":8.758,"water - sq. miles":0.126,"longitude":-71.64376,"id":"abtwjutpmfcc"},"type":"Feature","geometry":{"type":"Point","coordinates":[-71.64376,42.140741]}},{"properties":{"city":"North Brookfield","housing units-2010":2058,"latitude":42.267274,"st":"MA","county":"Worcester","zip code":"01535","population -2010":4680,"land-sq. miles":21.268,"water - sq. miles":0.679,"longitude":-72.078232,"id":"abtwjut69cbs"},"type":"Feature","geometry":{"type":"Point","coordinates":[-72.078232,42.267274]}},{"properties":{"city":"North Grafton","housing units-2010":2794,"latitude":42.231444,"st":"MA","county":"Worcester","zip code":"01536","population -2010":6888,"land-sq. miles":8.339,"water - sq. miles":0.292,"longitude":-71.705231,"id":"abtwjuljgxy7"},"type":"Feature","geometry":{"type":"Point","coordinates":[-71.705231,42.231444]}},{"properties":{"city":"North Oxford","housing units-2010":1077,"latitude":42.170846,"st":"MA","county":"Worcester","zip code":"01537","population -2010":2248,"land-sq. miles":6.983,"water - sq. miles":0.114,"longitude":-71.889893,"id":"abtwjuucvhck"},"type":"Feature","geometry":{"type":"Point","coordinates":[-71.889893,42.170846]}},{"properties":{"city":"Oxford","housing units-2010":4395,"latitude":42.117527,"st":"MA","county":"Worcester","zip code":"01540","population -2010":11291,"land-sq. miles":19.355,"water - sq. miles":0.791,"longitude":-71.8657,"id":"abtwjunehpn6"},"type":"Feature","geometry":{"type":"Point","coordinates":[-71.8657,42.117527]}},{"properties":{"city":"Princeton","housing units-2010":1339,"latitude":42.451569,"st":"MA","county":"Worcester","zip code":"01541","population -2010":3413,"land-sq. miles":35.409,"water - sq. miles":0.399,"longitude":-71.882008,"id":"abtwjv09r5td"},"type":"Feature","geometry":{"type":"Point","coordinates":[-71.882008,42.451569]}},{"properties":{"city":"Rochdale","housing units-2010":829,"latitude":42.194793,"st":"MA","county":"Worcester","zip code":"01542","population -2010":2202,"land-sq. miles":4.026,"water - sq. miles":0.163,"longitude":-71.906517,"id":"abtwjuo9jmer"},"type":"Feature","geometry":{"type":"Point","coordinates":[-71.906517,42.194793]}},{"properties":{"city":"Rutland","housing units-2010":2990,"latitude":42.380877,"st":"MA","county":"Worcester","zip code":"01543","population -2010":7973,"land-sq. miles":35.104,"water - sq. miles":1.148,"longitude":-71.964272,"id":"abtwjuxuya3u"},"type":"Feature","geometry":{"type":"Point","coordinates":[-71.964272,42.380877]}},{"properties":{"city":"Shrewsbury","housing units-2010":13955,"latitude":42.286643,"st":"MA","county":"Worcester","zip code":"01545","population -2010":35299,"land-sq. miles":20.739,"water - sq. miles":1.048,"longitude":-71.725024,"id":"abtwjunxu82k"},"type":"Feature","geometry":{"type":"Point","coordinates":[-71.725024,42.286643]}},{"properties":{"city":"Southbridge","housing units-2010":7527,"latitude":42.070827,"st":"MA","county":"Worcester","zip code":"01550","population -2010":16719,"land-sq. miles":20.275,"water - sq. miles":0.628,"longitude":-72.035334,"id":"abtwjv0cwebp"},"type":"Feature","geometry":{"type":"Point","coordinates":[-72.035334,42.070827]}},{"properties":{"city":"South Grafton","housing units-2010":1844,"latitude":42.177462,"st":"MA","county":"Worcester","zip code":"01560","population -2010":4527,"land-sq. miles":3.567,"water - sq. miles":0.104,"longitude":-71.693827,"id":"abtwjunw0nd2"},"type":"Feature","geometry":{"type":"Point","coordinates":[-71.693827,42.177462]}},{"properties":{"city":"South Lancaster","housing units-2010":102,"latitude":42.4431,"st":"MA","county":"Worcester","zip code":"01561","population -2010":330,"land-sq. miles":0.123,"water - sq. miles":0.0,"longitude":-71.687,"id":"abtwjuliow79"},"type":"Feature","geometry":{"type":"Point","coordinates":[-71.687,42.4431]}},{"properties":{"city":"Spencer","housing units-2010":5295,"latitude":42.247212,"st":"MA","county":"Worcester","zip code":"01562","population -2010":11688,"land-sq. miles":32.833,"water - sq. miles":1.173,"longitude":-71.992273,"id":"abtwjun1t96z"},"type":"Feature","geometry":{"type":"Point","coordinates":[-71.992273,42.247212]}},{"properties":{"city":"Sterling","housing units-2010":2965,"latitude":42.436875,"st":"MA","county":"Worcester","zip code":"01564","population -2010":7808,"land-sq. miles":30.635,"water - sq. miles":1.066,"longitude":-71.773331,"id":"abtwjuni2tna"},"type":"Feature","geometry":{"type":"Point","coordinates":[-71.773331,42.436875]}},{"properties":{"city":"Sturbridge","housing units-2010":2663,"latitude":42.104581,"st":"MA","county":"Worcester","zip code":"01566","population -2010":6294,"land-sq. miles":28.352,"water - sq. miles":0.989,"longitude":-72.085842,"id":"abtwjuwjo6e9"},"type":"Feature","geometry":{"type":"Point","coordinates":[-72.085842,42.104581]}},{"properties":{"city":"Upton","housing units-2010":2808,"latitude":42.17382,"st":"MA","county":"Worcester","zip code":"01568","population -2010":7480,"land-sq. miles":21.44,"water - sq. miles":0.229,"longitude":-71.60971,"id":"abtwjur1tqnk"},"type":"Feature","geometry":{"type":"Point","coordinates":[-71.60971,42.17382]}},{"properties":{"city":"Uxbridge","housing units-2010":5349,"latitude":42.064978,"st":"MA","county":"Worcester","zip code":"01569","population -2010":13569,"land-sq. miles":29.08,"water - sq. miles":0.61,"longitude":-71.629927,"id":"abtwjur58cpl"},"type":"Feature","geometry":{"type":"Point","coordinates":[-71.629927,42.064978]}},{"properties":{"city":"Webster","housing units-2010":8011,"latitude":42.047728,"st":"MA","county":"Worcester","zip code":"01570","population -2010":16767,"land-sq. miles":12.374,"water - sq. miles":2.232,"longitude":-71.861086,"id":"abtwjuzy1ysk"},"type":"Feature","geometry":{"type":"Point","coordinates":[-71.861086,42.047728]}},{"properties":{"city":"Dudley","housing units-2010":4403,"latitude":42.049864,"st":"MA","county":"Worcester","zip code":"01571","population -2010":11390,"land-sq. miles":20.817,"water - sq. miles":1.049,"longitude":-71.917303,"id":"abtwjuxypcv5"},"type":"Feature","geometry":{"type":"Point","coordinates":[-71.917303,42.049864]}},{"properties":{"city":"Westborough","housing units-2010":7350,"latitude":42.269845,"st":"MA","county":"Worcester","zip code":"01581","population -2010":18272,"land-sq. miles":20.584,"water - sq. miles":0.861,"longitude":-71.614085,"id":"abtwjuz5ajrd"},"type":"Feature","geometry":{"type":"Point","coordinates":[-71.614085,42.269845]}},{"properties":{"city":"West Boylston","housing units-2010":2721,"latitude":42.359842,"st":"MA","county":"Worcester","zip code":"01583","population -2010":7591,"land-sq. miles":12.615,"water - sq. miles":0.909,"longitude":-71.787001,"id":"abtwjul5sm46"},"type":"Feature","geometry":{"type":"Point","coordinates":[-71.787001,42.359842]}},{"properties":{"city":"West Brookfield","housing units-2010":2049,"latitude":42.242965,"st":"MA","county":"Worcester","zip code":"01585","population -2010":4554,"land-sq. miles":25.55,"water - sq. miles":0.645,"longitude":-72.167347,"id":"abtwjuyrp43q"},"type":"Feature","geometry":{"type":"Point","coordinates":[-72.167347,42.242965]}},{"properties":{"city":"Whitinsville","housing units-2010":3903,"latitude":42.114195,"st":"MA","county":"Worcester","zip code":"01588","population -2010":9733,"land-sq. miles":8.609,"water - sq. miles":0.641,"longitude":-71.672259,"id":"abtwjuw1zr2r"},"type":"Feature","geometry":{"type":"Point","coordinates":[-71.672259,42.114195]}},{"properties":{"city":"Sutton","housing units-2010":3360,"latitude":42.131028,"st":"MA","county":"Worcester","zip code":"01590","population -2010":8875,"land-sq. miles":32.009,"water - sq. miles":1.614,"longitude":-71.751218,"id":"abtwjuwqf6r1"},"type":"Feature","geometry":{"type":"Point","coordinates":[-71.751218,42.131028]}},{"properties":{"city":"Worcester","housing units-2010":9451,"latitude":42.272359,"st":"MA","county":"Worcester","zip code":"01602","population -2010":22819,"land-sq. miles":5.767,"water - sq. miles":0.244,"longitude":-71.844824,"id":"abtwjutnbax2"},"type":"Feature","geometry":{"type":"Point","coordinates":[-71.844824,42.272359]}},{"properties":{"city":"Worcester","housing units-2010":7950,"latitude":42.240526,"st":"MA","county":"Worcester","zip code":"01603","population -2010":19916,"land-sq. miles":4.514,"water - sq. miles":0.131,"longitude":-71.837766,"id":"abtwjuu54oxe"},"type":"Feature","geometry":{"type":"Point","coordinates":[-71.837766,42.240526]}},{"properties":{"city":"Worcester","housing units-2010":15570,"latitude":42.255393,"st":"MA","county":"Worcester","zip code":"01604","population -2010":34677,"land-sq. miles":6.439,"water - sq. miles":0.183,"longitude":-71.77459,"id":"abtwjusjiqq5"},"type":"Feature","geometry":{"type":"Point","coordinates":[-71.77459,42.255393]}},{"properties":{"city":"Worcester","housing units-2010":11140,"latitude":42.286543,"st":"MA","county":"Worcester","zip code":"01605","population -2010":26221,"land-sq. miles":5.642,"water - sq. miles":0.132,"longitude":-71.788466,"id":"abtwjuxr706j"},"type":"Feature","geometry":{"type":"Point","coordinates":[-71.788466,42.286543]}},{"properties":{"city":"Worcester","housing units-2010":8449,"latitude":42.311342,"st":"MA","county":"Worcester","zip code":"01606","population -2010":19077,"land-sq. miles":5.93,"water - sq. miles":0.009,"longitude":-71.795312,"id":"abtwjuxjzmaq"},"type":"Feature","geometry":{"type":"Point","coordinates":[-71.795312,42.311342]}},{"properties":{"city":"Worcester","housing units-2010":3850,"latitude":42.229543,"st":"MA","county":"Worcester","zip code":"01607","population -2010":8351,"land-sq. miles":3.166,"water - sq. miles":0.053,"longitude":-71.795014,"id":"abtwjuugytid"},"type":"Feature","geometry":{"type":"Point","coordinates":[-71.795014,42.229543]}},{"properties":{"city":"Worcester","housing units-2010":1743,"latitude":42.261343,"st":"MA","county":"Worcester","zip code":"01608","population -2010":3888,"land-sq. miles":0.448,"water - sq. miles":0.0,"longitude":-71.801738,"id":"abtwjur6k97m"},"type":"Feature","geometry":{"type":"Point","coordinates":[-71.801738,42.261343]}},{"properties":{"city":"Worcester","housing units-2010":8307,"latitude":42.271743,"st":"MA","county":"Worcester","zip code":"01609","population -2010":22421,"land-sq. miles":3.82,"water - sq. miles":0.022,"longitude":-71.813486,"id":"abtwjuno9sa1"},"type":"Feature","geometry":{"type":"Point","coordinates":[-71.813486,42.271743]}},{"properties":{"city":"Worcester","housing units-2010":8321,"latitude":42.248493,"st":"MA","county":"Worcester","zip code":"01610","population -2010":23945,"land-sq. miles":2.126,"water - sq. miles":0.003,"longitude":-71.807938,"id":"abtwjusfypb4"},"type":"Feature","geometry":{"type":"Point","coordinates":[-71.807938,42.248493]}},{"properties":{"city":"Cherry Valley","housing units-2010":916,"latitude":42.238449,"st":"MA","county":"Worcester","zip code":"01611","population -2010":2242,"land-sq. miles":3.442,"water - sq. miles":0.25,"longitude":-71.871392,"id":"abtwjuwco7x8"},"type":"Feature","geometry":{"type":"Point","coordinates":[-71.871392,42.238449]}},{"properties":{"city":"Paxton","housing units-2010":1608,"latitude":42.307591,"st":"MA","county":"Worcester","zip code":"01612","population -2010":4845,"land-sq. miles":15.315,"water - sq. miles":0.765,"longitude":-71.919294,"id":"abtwjul5h87p"},"type":"Feature","geometry":{"type":"Point","coordinates":[-71.919294,42.307591]}},{"properties":{"city":"Framingham","housing units-2010":12590,"latitude":42.318695,"st":"MA","county":"Middlesex","zip code":"01701","population -2010":31217,"land-sq. miles":16.959,"water - sq. miles":0.701,"longitude":-71.423442,"id":"abtwjuwdk5n7"},"type":"Feature","geometry":{"type":"Point","coordinates":[-71.423442,42.318695]}},{"properties":{"city":"Framingham","housing units-2010":14984,"latitude":42.283995,"st":"MA","county":"Middlesex","zip code":"01702","population -2010":37206,"land-sq. miles":8.092,"water - sq. miles":0.762,"longitude":-71.421615,"id":"abtwjuyt1rqg"},"type":"Feature","geometry":{"type":"Point","coordinates":[-71.421615,42.283995]}},{"properties":{"city":"Village Of Nagog Woods","housing units-2010":205,"latitude":42.519739,"st":"MA","county":"Middlesex","zip code":"01718","population -2010":469,"land-sq. miles":0.047,"water - sq. miles":0.0,"longitude":-71.42721,"id":"abtwjuodga3d"},"type":"Feature","geometry":{"type":"Point","coordinates":[-71.42721,42.519739]}},{"properties":{"city":"Boxborough","housing units-2010":2073,"latitude":42.486259,"st":"MA","county":"Middlesex","zip code":"01719","population -2010":4996,"land-sq. miles":10.286,"water - sq. miles":0.122,"longitude":-71.51244,"id":"abtwjulqr2w2"},"type":"Feature","geometry":{"type":"Point","coordinates":[-71.51244,42.486259]}},{"properties":{"city":"Acton","housing units-2010":8294,"latitude":42.477142,"st":"MA","county":"Middlesex","zip code":"01720","population -2010":21361,"land-sq. miles":19.713,"water - sq. miles":0.43,"longitude":-71.442205,"id":"abtwjv0dn5cf"},"type":"Feature","geometry":{"type":"Point","coordinates":[-71.442205,42.477142]}},{"properties":{"city":"Ashland","housing units-2010":6609,"latitude":42.257956,"st":"MA","county":"Middlesex","zip code":"01721","population -2010":16593,"land-sq. miles":12.33,"water - sq. miles":0.539,"longitude":-71.458867,"id":"abtwjv0pwgu4"},"type":"Feature","geometry":{"type":"Point","coordinates":[-71.458867,42.257956]}},{"properties":{"city":"Bedford","housing units-2010":5372,"latitude":42.496679,"st":"MA","county":"Middlesex","zip code":"01730","population -2010":13221,"land-sq. miles":13.698,"water - sq. miles":0.178,"longitude":-71.275046,"id":"abtwjuluzuz3"},"type":"Feature","geometry":{"type":"Point","coordinates":[-71.275046,42.496679]}},{"properties":{"city":"Hanscom Afb","housing units-2010":477,"latitude":42.459085,"st":"MA","county":"Middlesex","zip code":"01731","population -2010":1396,"land-sq. miles":0.791,"water - sq. miles":0.0,"longitude":-71.275566,"id":"abtwjuvnyydw"},"type":"Feature","geometry":{"type":"Point","coordinates":[-71.275566,42.459085]}},{"properties":{"city":"Bolton","housing units-2010":1738,"latitude":42.437086,"st":"MA","county":"Worcester","zip code":"01740","population -2010":4897,"land-sq. miles":19.952,"water - sq. miles":0.135,"longitude":-71.612667,"id":"abtwjuvyruuj"},"type":"Feature","geometry":{"type":"Point","coordinates":[-71.612667,42.437086]}},{"properties":{"city":"Carlisle","housing units-2010":1758,"latitude":42.5286,"st":"MA","county":"Middlesex","zip code":"01741","population -2010":4852,"land-sq. miles":15.265,"water - sq. miles":0.248,"longitude":-71.350849,"id":"abtwjuopqfv4"},"type":"Feature","geometry":{"type":"Point","coordinates":[-71.350849,42.5286]}},{"properties":{"city":"Concord","housing units-2010":6964,"latitude":42.457201,"st":"MA","county":"Middlesex","zip code":"01742","population -2010":17726,"land-sq. miles":24.439,"water - sq. miles":1.307,"longitude":-71.37478,"id":"abtwjulco8sd"},"type":"Feature","geometry":{"type":"Point","coordinates":[-71.37478,42.457201]}},{"properties":{"city":"Fayville","housing units-2010":188,"latitude":42.295544,"st":"MA","county":"Worcester","zip code":"01745","population -2010":397,"land-sq. miles":0.399,"water - sq. miles":0.001,"longitude":-71.504688,"id":"abtwjupav9x7"},"type":"Feature","geometry":{"type":"Point","coordinates":[-71.504688,42.295544]}},{"properties":{"city":"Holliston","housing units-2010":5087,"latitude":42.196065,"st":"MA","county":"Middlesex","zip code":"01746","population -2010":13547,"land-sq. miles":18.644,"water - sq. miles":0.414,"longitude":-71.437978,"id":"abtwjuqbgk1w"},"type":"Feature","geometry":{"type":"Point","coordinates":[-71.437978,42.196065]}},{"properties":{"city":"Hopedale","housing units-2010":2285,"latitude":42.125536,"st":"MA","county":"Worcester","zip code":"01747","population -2010":5911,"land-sq. miles":5.171,"water - sq. miles":0.171,"longitude":-71.536627,"id":"abtwjuw3jojp"},"type":"Feature","geometry":{"type":"Point","coordinates":[-71.536627,42.125536]}},{"properties":{"city":"Hopkinton","housing units-2010":5128,"latitude":42.220447,"st":"MA","county":"Middlesex","zip code":"01748","population -2010":14925,"land-sq. miles":26.261,"water - sq. miles":1.627,"longitude":-71.534182,"id":"abtwjuw8bbnn"},"type":"Feature","geometry":{"type":"Point","coordinates":[-71.534182,42.220447]}},{"properties":{"city":"Hudson","housing units-2010":7998,"latitude":42.389813,"st":"MA","county":"Middlesex","zip code":"01749","population -2010":19063,"land-sq. miles":11.522,"water - sq. miles":0.344,"longitude":-71.557914,"id":"abtwjunfvzw2"},"type":"Feature","geometry":{"type":"Point","coordinates":[-71.557914,42.389813]}},{"properties":{"city":"Marlborough","housing units-2010":16416,"latitude":42.350909,"st":"MA","county":"Middlesex","zip code":"01752","population -2010":38499,"land-sq. miles":20.865,"water - sq. miles":1.236,"longitude":-71.54753,"id":"abtwjuxk64a3"},"type":"Feature","geometry":{"type":"Point","coordinates":[-71.54753,42.350909]}},{"properties":{"city":"Maynard","housing units-2010":4447,"latitude":42.430781,"st":"MA","county":"Middlesex","zip code":"01754","population -2010":10106,"land-sq. miles":5.213,"water - sq. miles":0.157,"longitude":-71.455943,"id":"abtwjuynittz"},"type":"Feature","geometry":{"type":"Point","coordinates":[-71.455943,42.430781]}},{"properties":{"city":"Mendon","housing units-2010":2091,"latitude":42.092006,"st":"MA","county":"Worcester","zip code":"01756","population -2010":5839,"land-sq. miles":17.774,"water - sq. miles":0.213,"longitude":-71.544745,"id":"abtwjutlcsmy"},"type":"Feature","geometry":{"type":"Point","coordinates":[-71.544745,42.092006]}},{"properties":{"city":"Milford","housing units-2010":11436,"latitude":42.149176,"st":"MA","county":"Worcester","zip code":"01757","population -2010":28061,"land-sq. miles":14.88,"water - sq. miles":0.275,"longitude":-71.521498,"id":"abtwjutnn5jj"},"type":"Feature","geometry":{"type":"Point","coordinates":[-71.521498,42.149176]}},{"properties":{"city":"Natick","housing units-2010":14039,"latitude":42.290763,"st":"MA","county":"Middlesex","zip code":"01760","population -2010":32786,"land-sq. miles":14.811,"water - sq. miles":1.003,"longitude":-71.353686,"id":"abtwjuqx5uii"},"type":"Feature","geometry":{"type":"Point","coordinates":[-71.353686,42.290763]}},{"properties":{"city":"Sherborn","housing units-2010":1495,"latitude":42.231025,"st":"MA","county":"Middlesex","zip code":"01770","population -2010":4119,"land-sq. miles":15.817,"water - sq. miles":0.371,"longitude":-71.372025,"id":"abtwjulks83i"},"type":"Feature","geometry":{"type":"Point","coordinates":[-71.372025,42.231025]}},{"properties":{"city":"Southborough","housing units-2010":3272,"latitude":42.297643,"st":"MA","county":"Worcester","zip code":"01772","population -2010":9370,"land-sq. miles":13.616,"water - sq. miles":1.513,"longitude":-71.53369,"id":"abtwjutmc9ad"},"type":"Feature","geometry":{"type":"Point","coordinates":[-71.53369,42.297643]}},{"properties":{"city":"Lincoln","housing units-2010":2154,"latitude":42.425537,"st":"MA","county":"Middlesex","zip code":"01773","population -2010":5112,"land-sq. miles":13.616,"water - sq. miles":0.774,"longitude":-71.303162,"id":"abtwjusocrn3"},"type":"Feature","geometry":{"type":"Point","coordinates":[-71.303162,42.425537]}},{"properties":{"city":"Stow","housing units-2010":2526,"latitude":42.423882,"st":"MA","county":"Middlesex","zip code":"01775","population -2010":6590,"land-sq. miles":17.313,"water - sq. miles":0.672,"longitude":-71.510862,"id":"abtwjv12gf2z"},"type":"Feature","geometry":{"type":"Point","coordinates":[-71.510862,42.423882]}},{"properties":{"city":"Sudbury","housing units-2010":5951,"latitude":42.38532,"st":"MA","county":"Middlesex","zip code":"01776","population -2010":17659,"land-sq. miles":24.239,"water - sq. miles":0.48,"longitude":-71.429892,"id":"abtwjutuakqe"},"type":"Feature","geometry":{"type":"Point","coordinates":[-71.429892,42.38532]}},{"properties":{"city":"Wayland","housing units-2010":5058,"latitude":42.345583,"st":"MA","county":"Middlesex","zip code":"01778","population -2010":13109,"land-sq. miles":15.208,"water - sq. miles":0.803,"longitude":-71.356438,"id":"abtwjuohcv76"},"type":"Feature","geometry":{"type":"Point","coordinates":[-71.356438,42.345583]}},{"properties":{"city":"Woburn","housing units-2010":16737,"latitude":42.484545,"st":"MA","county":"Middlesex","zip code":"01801","population -2010":38903,"land-sq. miles":12.652,"water - sq. miles":0.312,"longitude":-71.15206,"id":"abtwjupo38jw"},"type":"Feature","geometry":{"type":"Point","coordinates":[-71.15206,42.484545]}},{"properties":{"city":"Burlington","housing units-2010":9664,"latitude":42.506362,"st":"MA","county":"Middlesex","zip code":"01803","population -2010":24487,"land-sq. miles":11.696,"water - sq. miles":0.125,"longitude":-71.200088,"id":"abtwjusb60gz"},"type":"Feature","geometry":{"type":"Point","coordinates":[-71.200088,42.506362]}},{"properties":{"city":"Andover","housing units-2010":12423,"latitude":42.646942,"st":"MA","county":"Essex","zip code":"01810","population -2010":33201,"land-sq. miles":30.849,"water - sq. miles":1.322,"longitude":-71.151301,"id":"abtwjuvrzgpw"},"type":"Feature","geometry":{"type":"Point","coordinates":[-71.151301,42.646942]}},{"properties":{"city":"Billerica","housing units-2010":11159,"latitude":42.54805,"st":"MA","county":"Middlesex","zip code":"01821","population -2010":30310,"land-sq. miles":16.568,"water - sq. miles":0.396,"longitude":-71.250547,"id":"abtwjuwilz62"},"type":"Feature","geometry":{"type":"Point","coordinates":[-71.250547,42.54805]}},{"properties":{"city":"Chelmsford","housing units-2010":9849,"latitude":42.595491,"st":"MA","county":"Middlesex","zip code":"01824","population -2010":24911,"land-sq. miles":17.747,"water - sq. miles":0.389,"longitude":-71.354402,"id":"abtwjul33duf"},"type":"Feature","geometry":{"type":"Point","coordinates":[-71.354402,42.595491]}},{"properties":{"city":"Dracut","housing units-2010":11332,"latitude":42.677772,"st":"MA","county":"Middlesex","zip code":"01826","population -2010":29422,"land-sq. miles":20.626,"water - sq. miles":0.659,"longitude":-71.316006,"id":"abtwjuzh1htc"},"type":"Feature","geometry":{"type":"Point","coordinates":[-71.316006,42.677772]}},{"properties":{"city":"Dunstable","housing units-2010":1098,"latitude":42.671356,"st":"MA","county":"Middlesex","zip code":"01827","population -2010":3179,"land-sq. miles":16.456,"water - sq. miles":0.303,"longitude":-71.502926,"id":"abtwjv16m96e"},"type":"Feature","geometry":{"type":"Point","coordinates":[-71.502926,42.671356]}},{"properties":{"city":"Haverhill","housing units-2010":10751,"latitude":42.78519,"st":"MA","county":"Essex","zip code":"01830","population -2010":25137,"land-sq. miles":13.798,"water - sq. miles":1.294,"longitude":-71.070111,"id":"abtwjuq1ivk7"},"type":"Feature","geometry":{"type":"Point","coordinates":[-71.070111,42.78519]}},{"properties":{"city":"Haverhill","housing units-2010":9283,"latitude":42.781357,"st":"MA","county":"Essex","zip code":"01832","population -2010":22060,"land-sq. miles":11.359,"water - sq. miles":0.483,"longitude":-71.110238,"id":"abtwjulqxd7s"},"type":"Feature","geometry":{"type":"Point","coordinates":[-71.110238,42.781357]}},{"properties":{"city":"Georgetown","housing units-2010":3044,"latitude":42.729437,"st":"MA","county":"Essex","zip code":"01833","population -2010":8183,"land-sq. miles":12.86,"water - sq. miles":0.29,"longitude":-70.982918,"id":"abtwjulp8ru8"},"type":"Feature","geometry":{"type":"Point","coordinates":[-70.982918,42.729437]}},{"properties":{"city":"Groveland","housing units-2010":2439,"latitude":42.750691,"st":"MA","county":"Essex","zip code":"01834","population -2010":6459,"land-sq. miles":8.884,"water - sq. miles":0.514,"longitude":-71.024877,"id":"abtwjuy1jlyy"},"type":"Feature","geometry":{"type":"Point","coordinates":[-71.024877,42.750691]}},{"properties":{"city":"Haverhill","housing units-2010":5623,"latitude":42.757767,"st":"MA","county":"Essex","zip code":"01835","population -2010":13682,"land-sq. miles":7.813,"water - sq. miles":0.883,"longitude":-71.085184,"id":"abtwjv09niql"},"type":"Feature","geometry":{"type":"Point","coordinates":[-71.085184,42.757767]}},{"properties":{"city":"Lawrence","housing units-2010":2347,"latitude":42.706941,"st":"MA","county":"Essex","zip code":"01840","population -2010":4733,"land-sq. miles":0.498,"water - sq. miles":0.077,"longitude":-71.161815,"id":"abtwjuylgxge"},"type":"Feature","geometry":{"type":"Point","coordinates":[-71.161815,42.706941]}},{"properties":{"city":"Lawrence","housing units-2010":15506,"latitude":42.71159,"st":"MA","county":"Essex","zip code":"01841","population -2010":47225,"land-sq. miles":3.089,"water - sq. miles":0.179,"longitude":-71.166672,"id":"abtwjuy5su2o"},"type":"Feature","geometry":{"type":"Point","coordinates":[-71.166672,42.71159]}},{"properties":{"city":"Lawrence","housing units-2010":9287,"latitude":42.691091,"st":"MA","county":"Essex","zip code":"01843","population -2010":24425,"land-sq. miles":3.369,"water - sq. miles":0.224,"longitude":-71.160788,"id":"abtwjuwhxzuz"},"type":"Feature","geometry":{"type":"Point","coordinates":[-71.160788,42.691091]}},{"properties":{"city":"Methuen","housing units-2010":18337,"latitude":42.73004,"st":"MA","county":"Essex","zip code":"01844","population -2010":47249,"land-sq. miles":22.218,"water - sq. miles":0.789,"longitude":-71.179352,"id":"abtwjuvbsdbe"},"type":"Feature","geometry":{"type":"Point","coordinates":[-71.179352,42.73004]}},{"properties":{"city":"North Andover","housing units-2010":10964,"latitude":42.683841,"st":"MA","county":"Essex","zip code":"01845","population -2010":28352,"land-sq. miles":26.307,"water - sq. miles":1.437,"longitude":-71.11171,"id":"abtwjuuzzprq"},"type":"Feature","geometry":{"type":"Point","coordinates":[-71.11171,42.683841]}},{"properties":{"city":"Lowell","housing units-2010":5938,"latitude":42.655791,"st":"MA","county":"Middlesex","zip code":"01850","population -2010":15237,"land-sq. miles":1.36,"water - sq. miles":0.118,"longitude":-71.305044,"id":"abtwjuponf0a"},"type":"Feature","geometry":{"type":"Point","coordinates":[-71.305044,42.655791]}},{"properties":{"city":"Lowell","housing units-2010":10760,"latitude":42.630915,"st":"MA","county":"Middlesex","zip code":"01851","population -2010":30190,"land-sq. miles":3.338,"water - sq. miles":0.045,"longitude":-71.33238,"id":"abtwjuqe0npy"},"type":"Feature","geometry":{"type":"Point","coordinates":[-71.33238,42.630915]}},{"properties":{"city":"Lowell","housing units-2010":14430,"latitude":42.634112,"st":"MA","county":"Middlesex","zip code":"01852","population -2010":33508,"land-sq. miles":4.953,"water - sq. miles":0.242,"longitude":-71.298493,"id":"abtwjuuled96"},"type":"Feature","geometry":{"type":"Point","coordinates":[-71.298493,42.634112]}},{"properties":{"city":"Lowell","housing units-2010":10315,"latitude":42.649758,"st":"MA","county":"Middlesex","zip code":"01854","population -2010":27606,"land-sq. miles":3.934,"water - sq. miles":0.538,"longitude":-71.333486,"id":"abtwjuqlylv8"},"type":"Feature","geometry":{"type":"Point","coordinates":[-71.333486,42.649758]}},{"properties":{"city":"Merrimac","housing units-2010":2555,"latitude":42.834246,"st":"MA","county":"Essex","zip code":"01860","population -2010":6338,"land-sq. miles":8.458,"water - sq. miles":0.397,"longitude":-71.002074,"id":"abtwjuxqz4qk"},"type":"Feature","geometry":{"type":"Point","coordinates":[-71.002074,42.834246]}},{"properties":{"city":"North Billerica","housing units-2010":3491,"latitude":42.573592,"st":"MA","county":"Middlesex","zip code":"01862","population -2010":10227,"land-sq. miles":9.241,"water - sq. miles":0.415,"longitude":-71.291101,"id":"abtwjunqu5ri"},"type":"Feature","geometry":{"type":"Point","coordinates":[-71.291101,42.573592]}},{"properties":{"city":"North Chelmsford","housing units-2010":3958,"latitude":42.634199,"st":"MA","county":"Middlesex","zip code":"01863","population -2010":8891,"land-sq. miles":4.623,"water - sq. miles":0.325,"longitude":-71.393229,"id":"abtwjuq5jl8e"},"type":"Feature","geometry":{"type":"Point","coordinates":[-71.393229,42.634199]}},{"properties":{"city":"North Reading","housing units-2010":5633,"latitude":42.583436,"st":"MA","county":"Middlesex","zip code":"01864","population -2010":14892,"land-sq. miles":13.14,"water - sq. miles":0.357,"longitude":-71.098208,"id":"abtwjuprb4rp"},"type":"Feature","geometry":{"type":"Point","coordinates":[-71.098208,42.583436]}},{"properties":{"city":"Reading","housing units-2010":9187,"latitude":42.52585,"st":"MA","county":"Middlesex","zip code":"01867","population -2010":23956,"land-sq. miles":9.936,"water - sq. miles":0.018,"longitude":-71.109939,"id":"abtwjun25hlc"},"type":"Feature","geometry":{"type":"Point","coordinates":[-71.109939,42.52585]}},{"properties":{"city":"Tewksbury","housing units-2010":10679,"latitude":42.601684,"st":"MA","county":"Middlesex","zip code":"01876","population -2010":28667,"land-sq. miles":20.456,"water - sq. miles":0.361,"longitude":-71.220715,"id":"abtwjumcxxku"},"type":"Feature","geometry":{"type":"Point","coordinates":[-71.220715,42.601684]}},{"properties":{"city":"Tyngsboro","housing units-2010":4213,"latitude":42.671589,"st":"MA","county":"Middlesex","zip code":"01879","population -2010":11305,"land-sq. miles":16.782,"water - sq. miles":1.405,"longitude":-71.416949,"id":"abtwjuvynb8c"},"type":"Feature","geometry":{"type":"Point","coordinates":[-71.416949,42.671589]}},{"properties":{"city":"Wakefield","housing units-2010":10323,"latitude":42.501345,"st":"MA","county":"Middlesex","zip code":"01880","population -2010":24733,"land-sq. miles":6.907,"water - sq. miles":0.54,"longitude":-71.071324,"id":"abtwjuvpwm0h"},"type":"Feature","geometry":{"type":"Point","coordinates":[-71.071324,42.501345]}},{"properties":{"city":"Westford","housing units-2010":7876,"latitude":42.592086,"st":"MA","county":"Middlesex","zip code":"01886","population -2010":21951,"land-sq. miles":30.267,"water - sq. miles":1.102,"longitude":-71.437547,"id":"abtwjuy5sgkr"},"type":"Feature","geometry":{"type":"Point","coordinates":[-71.437547,42.592086]}},{"properties":{"city":"Wilmington","housing units-2010":7808,"latitude":42.558576,"st":"MA","county":"Middlesex","zip code":"01887","population -2010":22325,"land-sq. miles":16.978,"water - sq. miles":0.179,"longitude":-71.170317,"id":"abtwjuld0so5"},"type":"Feature","geometry":{"type":"Point","coordinates":[-71.170317,42.558576]}},{"properties":{"city":"Winchester","housing units-2010":7988,"latitude":42.451945,"st":"MA","county":"Middlesex","zip code":"01890","population -2010":21382,"land-sq. miles":6.029,"water - sq. miles":0.316,"longitude":-71.14276,"id":"abtwjutotucr"},"type":"Feature","geometry":{"type":"Point","coordinates":[-71.14276,42.451945]}},{"properties":{"city":"Lynn","housing units-2010":1034,"latitude":42.4602,"st":"MA","county":"Essex","zip code":"01901","population -2010":1689,"land-sq. miles":0.248,"water - sq. miles":0.027,"longitude":70.9472,"id":"abtwjulbxtp9"},"type":"Feature","geometry":{"type":"Point","coordinates":[70.9472,42.4602]}},{"properties":{"city":"Lynn","housing units-2010":18354,"latitude":42.469946,"st":"MA","county":"Essex","zip code":"01902","population -2010":45139,"land-sq. miles":2.403,"water - sq. miles":0.091,"longitude":-70.941136,"id":"abtwjuoxpq1m"},"type":"Feature","geometry":{"type":"Point","coordinates":[-70.941136,42.469946]}},{"properties":{"city":"Lynn","housing units-2010":7182,"latitude":42.490421,"st":"MA","county":"Essex","zip code":"01904","population -2010":18203,"land-sq. miles":4.521,"water - sq. miles":0.503,"longitude":-70.965793,"id":"abtwjup6dhy3"},"type":"Feature","geometry":{"type":"Point","coordinates":[-70.965793,42.490421]}},{"properties":{"city":"Lynn","housing units-2010":9187,"latitude":42.464879,"st":"MA","county":"Essex","zip code":"01905","population -2010":25251,"land-sq. miles":3.56,"water - sq. miles":0.461,"longitude":-70.974113,"id":"abtwjux5vpqd"},"type":"Feature","geometry":{"type":"Point","coordinates":[-70.974113,42.464879]}},{"properties":{"city":"Saugus","housing units-2010":10786,"latitude":42.462796,"st":"MA","county":"Essex","zip code":"01906","population -2010":26660,"land-sq. miles":10.801,"water - sq. miles":1.006,"longitude":-71.009801,"id":"abtwjutru9k4"},"type":"Feature","geometry":{"type":"Point","coordinates":[-71.009801,42.462796]}},{"properties":{"city":"Swampscott","housing units-2010":5960,"latitude":42.474409,"st":"MA","county":"Essex","zip code":"01907","population -2010":14027,"land-sq. miles":3.036,"water - sq. miles":0.427,"longitude":-70.905883,"id":"abtwjutxphb1"},"type":"Feature","geometry":{"type":"Point","coordinates":[-70.905883,42.474409]}},{"properties":{"city":"Nahant","housing units-2010":1677,"latitude":42.427096,"st":"MA","county":"Essex","zip code":"01908","population -2010":3410,"land-sq. miles":1.046,"water - sq. miles":1.374,"longitude":-70.928091,"id":"abtwjuntc8au"},"type":"Feature","geometry":{"type":"Point","coordinates":[-70.928091,42.427096]}},{"properties":{"city":"Amesbury","housing units-2010":7110,"latitude":42.854423,"st":"MA","county":"Essex","zip code":"01913","population -2010":16283,"land-sq. miles":12.263,"water - sq. miles":1.462,"longitude":-70.93547,"id":"abtwjupdk18j"},"type":"Feature","geometry":{"type":"Point","coordinates":[-70.93547,42.854423]}},{"properties":{"city":"Beverly","housing units-2010":16641,"latitude":42.560995,"st":"MA","county":"Essex","zip code":"01915","population -2010":39502,"land-sq. miles":15.093,"water - sq. miles":1.528,"longitude":-70.875702,"id":"abtwjuupn01l"},"type":"Feature","geometry":{"type":"Point","coordinates":[-70.875702,42.560995]}},{"properties":{"city":"Boxford","housing units-2010":2756,"latitude":42.677869,"st":"MA","county":"Essex","zip code":"01921","population -2010":7961,"land-sq. miles":23.556,"water - sq. miles":0.845,"longitude":-71.008448,"id":"abtwjv0gy5ka"},"type":"Feature","geometry":{"type":"Point","coordinates":[-71.008448,42.677869]}},{"properties":{"city":"Byfield","housing units-2010":1115,"latitude":42.76087,"st":"MA","county":"Essex","zip code":"01922","population -2010":3108,"land-sq. miles":9.588,"water - sq. miles":0.3,"longitude":-70.926489,"id":"abtwjuykoip9"},"type":"Feature","geometry":{"type":"Point","coordinates":[-70.926489,42.76087]}},{"properties":{"city":"Danvers","housing units-2010":11135,"latitude":42.569756,"st":"MA","county":"Essex","zip code":"01923","population -2010":26342,"land-sq. miles":13.203,"water - sq. miles":0.907,"longitude":-70.943222,"id":"abtwjuvakz5d"},"type":"Feature","geometry":{"type":"Point","coordinates":[-70.943222,42.569756]}},{"properties":{"city":"Essex","housing units-2010":1600,"latitude":42.631753,"st":"MA","county":"Essex","zip code":"01929","population -2010":3504,"land-sq. miles":13.972,"water - sq. miles":1.979,"longitude":-70.779255,"id":"abtwjupkukqs"},"type":"Feature","geometry":{"type":"Point","coordinates":[-70.779255,42.631753]}},{"properties":{"city":"Gloucester","housing units-2010":14557,"latitude":42.624015,"st":"MA","county":"Essex","zip code":"01930","population -2010":28789,"land-sq. miles":26.196,"water - sq. miles":5.395,"longitude":-70.675521,"id":"abtwjulhymi1"},"type":"Feature","geometry":{"type":"Point","coordinates":[-70.675521,42.624015]}},{"properties":{"city":"Ipswich","housing units-2010":6006,"latitude":42.682965,"st":"MA","county":"Essex","zip code":"01938","population -2010":13175,"land-sq. miles":30.432,"water - sq. miles":5.379,"longitude":-70.840072,"id":"abtwjv0qdogu"},"type":"Feature","geometry":{"type":"Point","coordinates":[-70.840072,42.682965]}},{"properties":{"city":"Lynnfield","housing units-2010":4729,"latitude":42.527895,"st":"MA","county":"Essex","zip code":"01940","population -2010":12108,"land-sq. miles":10.548,"water - sq. miles":0.661,"longitude":-71.028348,"id":"abtwjutvhb01"},"type":"Feature","geometry":{"type":"Point","coordinates":[-71.028348,42.527895]}},{"properties":{"city":"Manchester","housing units-2010":2394,"latitude":42.580033,"st":"MA","county":"Essex","zip code":"01944","population -2010":5136,"land-sq. miles":9.229,"water - sq. miles":1.239,"longitude":-70.764624,"id":"abtwjulqausg"},"type":"Feature","geometry":{"type":"Point","coordinates":[-70.764624,42.580033]}},{"properties":{"city":"Marblehead","housing units-2010":8838,"latitude":42.497146,"st":"MA","county":"Essex","zip code":"01945","population -2010":19808,"land-sq. miles":4.386,"water - sq. miles":3.303,"longitude":-70.863236,"id":"abtwjuvmjhpe"},"type":"Feature","geometry":{"type":"Point","coordinates":[-70.863236,42.497146]}},{"properties":{"city":"Middleton","housing units-2010":3045,"latitude":42.602278,"st":"MA","county":"Essex","zip code":"01949","population -2010":8987,"land-sq. miles":13.455,"water - sq. miles":1.029,"longitude":-71.013562,"id":"abtwjv0jklv1"},"type":"Feature","geometry":{"type":"Point","coordinates":[-71.013562,42.602278]}},{"properties":{"city":"Newburyport","housing units-2010":8264,"latitude":42.809891,"st":"MA","county":"Essex","zip code":"01950","population -2010":17416,"land-sq. miles":8.348,"water - sq. miles":2.311,"longitude":-70.863633,"id":"abtwjutsjhq6"},"type":"Feature","geometry":{"type":"Point","coordinates":[-70.863633,42.809891]}},{"properties":{"city":"Newbury","housing units-2010":1821,"latitude":42.780141,"st":"MA","county":"Essex","zip code":"01951","population -2010":3558,"land-sq. miles":13.765,"water - sq. miles":2.636,"longitude":-70.86866,"id":"abtwjuzid2xc"},"type":"Feature","geometry":{"type":"Point","coordinates":[-70.86866,42.780141]}},{"properties":{"city":"Salisbury","housing units-2010":4550,"latitude":42.85048,"st":"MA","county":"Essex","zip code":"01952","population -2010":8283,"land-sq. miles":15.429,"water - sq. miles":2.332,"longitude":-70.861539,"id":"abtwjuv6ankj"},"type":"Feature","geometry":{"type":"Point","coordinates":[-70.861539,42.85048]}},{"properties":{"city":"Peabody","housing units-2010":22024,"latitude":42.534045,"st":"MA","county":"Essex","zip code":"01960","population -2010":50944,"land-sq. miles":15.997,"water - sq. miles":0.564,"longitude":-70.961465,"id":"abtwjunn2k6v"},"type":"Feature","geometry":{"type":"Point","coordinates":[-70.961465,42.534045]}},{"properties":{"city":"Rockport","housing units-2010":4223,"latitude":42.659936,"st":"MA","county":"Essex","zip code":"01966","population -2010":6952,"land-sq. miles":6.991,"water - sq. miles":1.609,"longitude":-70.617274,"id":"abtwjuxahfwq"},"type":"Feature","geometry":{"type":"Point","coordinates":[-70.617274,42.659936]}},{"properties":{"city":"Rowley","housing units-2010":2253,"latitude":42.716708,"st":"MA","county":"Essex","zip code":"01969","population -2010":5856,"land-sq. miles":17.492,"water - sq. miles":1.686,"longitude":-70.908992,"id":"abtwjuwx83vc"},"type":"Feature","geometry":{"type":"Point","coordinates":[-70.908992,42.716708]}},{"properties":{"city":"Salem","housing units-2010":19063,"latitude":42.516845,"st":"MA","county":"Essex","zip code":"01970","population -2010":41109,"land-sq. miles":8.109,"water - sq. miles":5.482,"longitude":-70.898503,"id":"abtwjv151n6s"},"type":"Feature","geometry":{"type":"Point","coordinates":[-70.898503,42.516845]}},{"properties":{"city":"South Hamilton","housing units-2010":2880,"latitude":42.616643,"st":"MA","county":"Essex","zip code":"01982","population -2010":7764,"land-sq. miles":14.184,"water - sq. miles":0.729,"longitude":-70.865134,"id":"abtwjullh01v"},"type":"Feature","geometry":{"type":"Point","coordinates":[-70.865134,42.616643]}},{"properties":{"city":"Topsfield","housing units-2010":2176,"latitude":42.642471,"st":"MA","county":"Essex","zip code":"01983","population -2010":6089,"land-sq. miles":11.923,"water - sq. miles":0.898,"longitude":-70.944248,"id":"abtwjukt6x0u"},"type":"Feature","geometry":{"type":"Point","coordinates":[-70.944248,42.642471]}},{"properties":{"city":"Wenham","housing units-2010":1430,"latitude":42.600518,"st":"MA","county":"Essex","zip code":"01984","population -2010":4875,"land-sq. miles":7.661,"water - sq. miles":0.481,"longitude":-70.876183,"id":"abtwjum0j8cb"},"type":"Feature","geometry":{"type":"Point","coordinates":[-70.876183,42.600518]}},{"properties":{"city":"West Newbury","housing units-2010":1580,"latitude":42.790736,"st":"MA","county":"Essex","zip code":"01985","population -2010":4235,"land-sq. miles":13.451,"water - sq. miles":1.274,"longitude":-70.972861,"id":"abtwjuu0dhf5"},"type":"Feature","geometry":{"type":"Point","coordinates":[-70.972861,42.790736]}},{"properties":{"city":"Bellingham","housing units-2010":6365,"latitude":42.075122,"st":"MA","county":"Norfolk","zip code":"02019","population -2010":16332,"land-sq. miles":18.349,"water - sq. miles":0.55,"longitude":-71.479533,"id":"abtwjunb82kc"},"type":"Feature","geometry":{"type":"Point","coordinates":[-71.479533,42.075122]}},{"properties":{"city":"Canton","housing units-2010":8762,"latitude":42.166776,"st":"MA","county":"Norfolk","zip code":"02021","population -2010":21561,"land-sq. miles":18.797,"water - sq. miles":0.816,"longitude":-71.134301,"id":"abtwjunqgs7x"},"type":"Feature","geometry":{"type":"Point","coordinates":[-71.134301,42.166776]}},{"properties":{"city":"Cohasset","housing units-2010":2980,"latitude":42.241908,"st":"MA","county":"Norfolk","zip code":"02025","population -2010":7542,"land-sq. miles":9.789,"water - sq. miles":1.065,"longitude":-70.812239,"id":"abtwjultrb21"},"type":"Feature","geometry":{"type":"Point","coordinates":[-70.812239,42.241908]}},{"properties":{"city":"Dedham","housing units-2010":10184,"latitude":42.244609,"st":"MA","county":"Norfolk","zip code":"02026","population -2010":24711,"land-sq. miles":10.244,"water - sq. miles":0.401,"longitude":-71.165531,"id":"abtwjuu34f3i"},"type":"Feature","geometry":{"type":"Point","coordinates":[-71.165531,42.244609]}},{"properties":{"city":"Dover","housing units-2010":1969,"latitude":42.23888,"st":"MA","county":"Norfolk","zip code":"02030","population -2010":5589,"land-sq. miles":15.119,"water - sq. miles":0.315,"longitude":-71.282415,"id":"abtwjuqh2ic3"},"type":"Feature","geometry":{"type":"Point","coordinates":[-71.282415,42.23888]}},{"properties":{"city":"East Walpole","housing units-2010":1593,"latitude":42.153912,"st":"MA","county":"Norfolk","zip code":"02032","population -2010":4226,"land-sq. miles":2.34,"water - sq. miles":0.06,"longitude":-71.213629,"id":"abtwjuufjzwa"},"type":"Feature","geometry":{"type":"Point","coordinates":[-71.213629,42.153912]}},{"properties":{"city":"Foxboro","housing units-2010":6895,"latitude":42.061427,"st":"MA","county":"Norfolk","zip code":"02035","population -2010":16865,"land-sq. miles":19.848,"water - sq. miles":1.001,"longitude":-71.242325,"id":"abtwjutjozxn"},"type":"Feature","geometry":{"type":"Point","coordinates":[-71.242325,42.061427]}},{"properties":{"city":"Franklin","housing units-2010":11394,"latitude":42.089104,"st":"MA","county":"Norfolk","zip code":"02038","population -2010":31635,"land-sq. miles":26.626,"water - sq. miles":0.401,"longitude":-71.406909,"id":"abtwjupexeqs"},"type":"Feature","geometry":{"type":"Point","coordinates":[-71.406909,42.089104]}},{"properties":{"city":"Hingham","housing units-2010":8953,"latitude":42.225708,"st":"MA","county":"Plymouth","zip code":"02043","population -2010":22157,"land-sq. miles":22.147,"water - sq. miles":0.878,"longitude":-70.887644,"id":"abtwjuvlhrc4"},"type":"Feature","geometry":{"type":"Point","coordinates":[-70.887644,42.225708]}},{"properties":{"city":"Hull","housing units-2010":5762,"latitude":42.286347,"st":"MA","county":"Plymouth","zip code":"02045","population -2010":10293,"land-sq. miles":2.658,"water - sq. miles":5.497,"longitude":-70.87663,"id":"abtwjuq5djs8"},"type":"Feature","geometry":{"type":"Point","coordinates":[-70.87663,42.286347]}},{"properties":{"city":"Humarock","housing units-2010":264,"latitude":42.1341,"st":"MA","county":"Plymouth","zip code":"02047","population -2010":180,"land-sq. miles":0.239,"water - sq. miles":0.008,"longitude":-70.6863,"id":"abtwjul23e4q"},"type":"Feature","geometry":{"type":"Point","coordinates":[-70.6863,42.1341]}},{"properties":{"city":"Mansfield","housing units-2010":8746,"latitude":42.019982,"st":"MA","county":"Bristol","zip code":"02048","population -2010":23184,"land-sq. miles":20.093,"water - sq. miles":0.329,"longitude":-71.219105,"id":"abtwjul3t4uq"},"type":"Feature","geometry":{"type":"Point","coordinates":[-71.219105,42.019982]}},{"properties":{"city":"Marshfield","housing units-2010":11292,"latitude":42.109763,"st":"MA","county":"Plymouth","zip code":"02050","population -2010":25429,"land-sq. miles":29.078,"water - sq. miles":4.208,"longitude":-70.691729,"id":"abtwjv030u2c"},"type":"Feature","geometry":{"type":"Point","coordinates":[-70.691729,42.109763]}},{"properties":{"city":"Medfield","housing units-2010":4237,"latitude":42.185571,"st":"MA","county":"Norfolk","zip code":"02052","population -2010":12024,"land-sq. miles":14.402,"water - sq. miles":0.234,"longitude":-71.30476,"id":"abtwjuqkcdan"},"type":"Feature","geometry":{"type":"Point","coordinates":[-71.30476,42.185571]}},{"properties":{"city":"Medway","housing units-2010":4613,"latitude":42.151526,"st":"MA","county":"Norfolk","zip code":"02053","population -2010":12752,"land-sq. miles":11.543,"water - sq. miles":0.13,"longitude":-71.423158,"id":"abtwjutnoqj5"},"type":"Feature","geometry":{"type":"Point","coordinates":[-71.423158,42.151526]}},{"properties":{"city":"Millis","housing units-2010":3158,"latitude":42.166398,"st":"MA","county":"Norfolk","zip code":"02054","population -2010":7891,"land-sq. miles":12.022,"water - sq. miles":0.233,"longitude":-71.361784,"id":"abtwjuu2wq5v"},"type":"Feature","geometry":{"type":"Point","coordinates":[-71.361784,42.166398]}},{"properties":{"city":"Norfolk","housing units-2010":3121,"latitude":42.111836,"st":"MA","county":"Norfolk","zip code":"02056","population -2010":10981,"land-sq. miles":14.869,"water - sq. miles":0.498,"longitude":-71.328559,"id":"abtwjunfigy0"},"type":"Feature","geometry":{"type":"Point","coordinates":[-71.328559,42.111836]}},{"properties":{"city":"Norwell","housing units-2010":3675,"latitude":42.15243,"st":"MA","county":"Plymouth","zip code":"02061","population -2010":10506,"land-sq. miles":20.94,"water - sq. miles":0.315,"longitude":-70.820508,"id":"abtwjulxl5xb"},"type":"Feature","geometry":{"type":"Point","coordinates":[-70.820508,42.15243]}},{"properties":{"city":"Norwood","housing units-2010":12479,"latitude":42.185974,"st":"MA","county":"Norfolk","zip code":"02062","population -2010":28602,"land-sq. miles":10.358,"water - sq. miles":0.162,"longitude":-71.201661,"id":"abtwjuz8l6hz"},"type":"Feature","geometry":{"type":"Point","coordinates":[-71.201661,42.185974]}},{"properties":{"city":"Scituate","housing units-2010":7419,"latitude":42.205038,"st":"MA","county":"Plymouth","zip code":"02066","population -2010":17656,"land-sq. miles":16.924,"water - sq. miles":2.197,"longitude":-70.751306,"id":"abtwjukrjbuh"},"type":"Feature","geometry":{"type":"Point","coordinates":[-70.751306,42.205038]}},{"properties":{"city":"Sharon","housing units-2010":6414,"latitude":42.113749,"st":"MA","county":"Norfolk","zip code":"02067","population -2010":17486,"land-sq. miles":22.672,"water - sq. miles":0.954,"longitude":-71.179231,"id":"abtwjun6ai84"},"type":"Feature","geometry":{"type":"Point","coordinates":[-71.179231,42.113749]}},{"properties":{"city":"South Walpole","housing units-2010":321,"latitude":42.101406,"st":"MA","county":"Norfolk","zip code":"02071","population -2010":1707,"land-sq. miles":0.97,"water - sq. miles":0.013,"longitude":-71.272392,"id":"abtwjum1nwzo"},"type":"Feature","geometry":{"type":"Point","coordinates":[-71.272392,42.101406]}},{"properties":{"city":"Stoughton","housing units-2010":10799,"latitude":42.125432,"st":"MA","county":"Norfolk","zip code":"02072","population -2010":26999,"land-sq. miles":16.093,"water - sq. miles":0.374,"longitude":-71.106273,"id":"abtwjuwlsh8m"},"type":"Feature","geometry":{"type":"Point","coordinates":[-71.106273,42.125432]}},{"properties":{"city":"Walpole","housing units-2010":7156,"latitude":42.145237,"st":"MA","county":"Norfolk","zip code":"02081","population -2010":18472,"land-sq. miles":17.923,"water - sq. miles":0.547,"longitude":-71.253753,"id":"abtwjut3l8xs"},"type":"Feature","geometry":{"type":"Point","coordinates":[-71.253753,42.145237]}},{"properties":{"city":"Westwood","housing units-2010":5438,"latitude":42.212949,"st":"MA","county":"Norfolk","zip code":"02090","population -2010":14636,"land-sq. miles":10.894,"water - sq. miles":0.286,"longitude":-71.20735,"id":"abtwjumn827t"},"type":"Feature","geometry":{"type":"Point","coordinates":[-71.20735,42.212949]}},{"properties":{"city":"Wrentham","housing units-2010":3869,"latitude":42.0597,"st":"MA","county":"Norfolk","zip code":"02093","population -2010":10955,"land-sq. miles":21.706,"water - sq. miles":0.905,"longitude":-71.346178,"id":"abtwjuxodjj1"},"type":"Feature","geometry":{"type":"Point","coordinates":[-71.346178,42.0597]}},{"properties":{"city":"Boston","housing units-2010":2278,"latitude":42.357903,"st":"MA","county":"Suffolk","zip code":"02108","population -2010":3825,"land-sq. miles":0.137,"water - sq. miles":0.0,"longitude":-71.064087,"id":"abtwjuzskw6i"},"type":"Feature","geometry":{"type":"Point","coordinates":[-71.064087,42.357903]}},{"properties":{"city":"Boston","housing units-2010":2462,"latitude":42.361477,"st":"MA","county":"Suffolk","zip code":"02109","population -2010":3771,"land-sq. miles":0.174,"water - sq. miles":0.113,"longitude":-71.054175,"id":"abtwjux9m7sy"},"type":"Feature","geometry":{"type":"Point","coordinates":[-71.054175,42.361477]}},{"properties":{"city":"Boston","housing units-2010":1264,"latitude":42.356532,"st":"MA","county":"Suffolk","zip code":"02110","population -2010":1733,"land-sq. miles":0.185,"water - sq. miles":0.091,"longitude":-71.053652,"id":"abtwjup49qwg"},"type":"Feature","geometry":{"type":"Point","coordinates":[-71.053652,42.356532]}},{"properties":{"city":"Boston","housing units-2010":3628,"latitude":42.349838,"st":"MA","county":"Suffolk","zip code":"02111","population -2010":7383,"land-sq. miles":0.259,"water - sq. miles":0.022,"longitude":-71.061012,"id":"abtwjunmuusa"},"type":"Feature","geometry":{"type":"Point","coordinates":[-71.061012,42.349838]}},{"properties":{"city":"Boston","housing units-2010":4682,"latitude":42.365028,"st":"MA","county":"Suffolk","zip code":"02113","population -2010":6915,"land-sq. miles":0.101,"water - sq. miles":0.0,"longitude":-71.056369,"id":"abtwjuq2eowh"},"type":"Feature","geometry":{"type":"Point","coordinates":[-71.056369,42.365028]}},{"properties":{"city":"Boston","housing units-2010":7672,"latitude":42.361792,"st":"MA","county":"Suffolk","zip code":"02114","population -2010":11999,"land-sq. miles":0.45,"water - sq. miles":0.117,"longitude":-71.067746,"id":"abtwjuyfq3q4"},"type":"Feature","geometry":{"type":"Point","coordinates":[-71.067746,42.361792]}},{"properties":{"city":"Boston","housing units-2010":10838,"latitude":42.34308,"st":"MA","county":"Suffolk","zip code":"02115","population -2010":28441,"land-sq. miles":0.708,"water - sq. miles":0.04,"longitude":-71.092687,"id":"abtwjum5yj8v"},"type":"Feature","geometry":{"type":"Point","coordinates":[-71.092687,42.34308]}},{"properties":{"city":"Boston","housing units-2010":12644,"latitude":42.349622,"st":"MA","county":"Suffolk","zip code":"02116","population -2010":20628,"land-sq. miles":0.63,"water - sq. miles":0.103,"longitude":-71.073722,"id":"abtwjuywzd7q"},"type":"Feature","geometry":{"type":"Point","coordinates":[-71.073722,42.349622]}},{"properties":{"city":"Boston","housing units-2010":12967,"latitude":42.338724,"st":"MA","county":"Suffolk","zip code":"02118","population -2010":26498,"land-sq. miles":1.101,"water - sq. miles":0.006,"longitude":-71.072765,"id":"abtwjur7siaj"},"type":"Feature","geometry":{"type":"Point","coordinates":[-71.072765,42.338724]}},{"properties":{"city":"Roxbury","housing units-2010":11048,"latitude":42.324511,"st":"MA","county":"Suffolk","zip code":"02119","population -2010":25346,"land-sq. miles":1.597,"water - sq. miles":0.0,"longitude":-71.084553,"id":"abtwjuvp123z"},"type":"Feature","geometry":{"type":"Point","coordinates":[-71.084553,42.324511]}},{"properties":{"city":"Roxbury Crossing","housing units-2010":5335,"latitude":42.332099,"st":"MA","county":"Suffolk","zip code":"02120","population -2010":15181,"land-sq. miles":0.621,"water - sq. miles":0.0,"longitude":-71.096516,"id":"abtwjuqglqpf"},"type":"Feature","geometry":{"type":"Point","coordinates":[-71.096516,42.332099]}},{"properties":{"city":"Dorchester","housing units-2010":10589,"latitude":42.307448,"st":"MA","county":"Suffolk","zip code":"02121","population -2010":25978,"land-sq. miles":1.745,"water - sq. miles":0.009,"longitude":-71.081278,"id":"abtwjuya7sgw"},"type":"Feature","geometry":{"type":"Point","coordinates":[-71.081278,42.307448]}},{"properties":{"city":"Dorchester","housing units-2010":8887,"latitude":42.296298,"st":"MA","county":"Norfolk","zip code":"02122","population -2010":23479,"land-sq. miles":2.032,"water - sq. miles":0.634,"longitude":-71.054542,"id":"abtwjuonrlsv"},"type":"Feature","geometry":{"type":"Point","coordinates":[-71.054542,42.296298]}},{"properties":{"city":"Dorchester Center","housing units-2010":19053,"latitude":42.28713,"st":"MA","county":"Suffolk","zip code":"02124","population -2010":47783,"land-sq. miles":3.003,"water - sq. miles":0.072,"longitude":-71.071563,"id":"abtwjulniuu1"},"type":"Feature","geometry":{"type":"Point","coordinates":[-71.071563,42.28713]}},{"properties":{"city":"Dorchester","housing units-2010":13263,"latitude":42.316852,"st":"MA","county":"Suffolk","zip code":"02125","population -2010":33295,"land-sq. miles":2.133,"water - sq. miles":0.309,"longitude":-71.058112,"id":"abtwjuxvc8rc"},"type":"Feature","geometry":{"type":"Point","coordinates":[-71.058112,42.316852]}},{"properties":{"city":"Mattapan","housing units-2010":10151,"latitude":42.272098,"st":"MA","county":"Suffolk","zip code":"02126","population -2010":25562,"land-sq. miles":2.082,"water - sq. miles":0.024,"longitude":-71.094267,"id":"abtwjum0bbfs"},"type":"Feature","geometry":{"type":"Point","coordinates":[-71.094267,42.272098]}},{"properties":{"city":"Boston","housing units-2010":16409,"latitude":42.33499,"st":"MA","county":"Suffolk","zip code":"02127","population -2010":31799,"land-sq. miles":2.02,"water - sq. miles":0.614,"longitude":-71.045623,"id":"abtwjur0z7ma"},"type":"Feature","geometry":{"type":"Point","coordinates":[-71.045623,42.33499]}},{"properties":{"city":"Boston","housing units-2010":15854,"latitude":42.378297,"st":"MA","county":"Suffolk","zip code":"02128","population -2010":40508,"land-sq. miles":4.85,"water - sq. miles":1.14,"longitude":-71.025505,"id":"abtwjuxk08sh"},"type":"Feature","geometry":{"type":"Point","coordinates":[-71.025505,42.378297]}},{"properties":{"city":"Charlestown","housing units-2010":8648,"latitude":42.378619,"st":"MA","county":"Suffolk","zip code":"02129","population -2010":16439,"land-sq. miles":1.348,"water - sq. miles":0.489,"longitude":-71.06495,"id":"abtwjuoh4jnr"},"type":"Feature","geometry":{"type":"Point","coordinates":[-71.06495,42.378619]}},{"properties":{"city":"Jamaica Plain","housing units-2010":16016,"latitude":42.309998,"st":"MA","county":"Suffolk","zip code":"02130","population -2010":35401,"land-sq. miles":3.334,"water - sq. miles":0.127,"longitude":-71.111711,"id":"abtwjumxtrrg"},"type":"Feature","geometry":{"type":"Point","coordinates":[-71.111711,42.309998]}},{"properties":{"city":"Roslindale","housing units-2010":12286,"latitude":42.284678,"st":"MA","county":"Suffolk","zip code":"02131","population -2010":29826,"land-sq. miles":2.592,"water - sq. miles":0.005,"longitude":-71.130529,"id":"abtwjuqoof3j"},"type":"Feature","geometry":{"type":"Point","coordinates":[-71.130529,42.284678]}},{"properties":{"city":"West Roxbury","housing units-2010":11341,"latitude":42.279432,"st":"MA","county":"Suffolk","zip code":"02132","population -2010":25861,"land-sq. miles":4.561,"water - sq. miles":0.096,"longitude":-71.159801,"id":"abtwjuu37jer"},"type":"Feature","geometry":{"type":"Point","coordinates":[-71.159801,42.279432]}},{"properties":{"city":"Allston","housing units-2010":9664,"latitude":42.355147,"st":"MA","county":"Suffolk","zip code":"02134","population -2010":21503,"land-sq. miles":1.326,"water - sq. miles":0.046,"longitude":-71.131645,"id":"abtwjuz4bgkx"},"type":"Feature","geometry":{"type":"Point","coordinates":[-71.131645,42.355147]}},{"properties":{"city":"Brighton","housing units-2010":20834,"latitude":42.348418,"st":"MA","county":"Suffolk","zip code":"02135","population -2010":42780,"land-sq. miles":2.635,"water - sq. miles":0.221,"longitude":-71.153496,"id":"abtwjukx76al"},"type":"Feature","geometry":{"type":"Point","coordinates":[-71.153496,42.348418]}},{"properties":{"city":"Hyde Park","housing units-2010":11092,"latitude":42.252198,"st":"MA","county":"Suffolk","zip code":"02136","population -2010":28488,"land-sq. miles":4.59,"water - sq. miles":0.108,"longitude":-71.125936,"id":"abtwjuyjso12"},"type":"Feature","geometry":{"type":"Point","coordinates":[-71.125936,42.252198]}},{"properties":{"city":"Cambridge","housing units-2010":14949,"latitude":42.379146,"st":"MA","county":"Middlesex","zip code":"02138","population -2010":36314,"land-sq. miles":2.74,"water - sq. miles":0.324,"longitude":-71.128031,"id":"abtwjuuo3865"},"type":"Feature","geometry":{"type":"Point","coordinates":[-71.128031,42.379146]}},{"properties":{"city":"Cambridge","housing units-2010":15402,"latitude":42.364347,"st":"MA","county":"Middlesex","zip code":"02139","population -2010":36349,"land-sq. miles":1.556,"water - sq. miles":0.142,"longitude":-71.104319,"id":"abtwjv0ywsfw"},"type":"Feature","geometry":{"type":"Point","coordinates":[-71.104319,42.364347]}},{"properties":{"city":"Cambridge","housing units-2010":8638,"latitude":42.393327,"st":"MA","county":"Middlesex","zip code":"02140","population -2010":17607,"land-sq. miles":1.154,"water - sq. miles":0.021,"longitude":-71.128379,"id":"abtwjuts8k1l"},"type":"Feature","geometry":{"type":"Point","coordinates":[-71.128379,42.393327]}},{"properties":{"city":"Cambridge","housing units-2010":6596,"latitude":42.370519,"st":"MA","county":"Middlesex","zip code":"02141","population -2010":11910,"land-sq. miles":0.64,"water - sq. miles":0.011,"longitude":-71.084434,"id":"abtwjupqcgfi"},"type":"Feature","geometry":{"type":"Point","coordinates":[-71.084434,42.370519]}},{"properties":{"city":"Cambridge","housing units-2010":1794,"latitude":42.362297,"st":"MA","county":"Middlesex","zip code":"02142","population -2010":3141,"land-sq. miles":0.277,"water - sq. miles":0.223,"longitude":-71.084129,"id":"abtwjun6zj8t"},"type":"Feature","geometry":{"type":"Point","coordinates":[-71.084129,42.362297]}},{"properties":{"city":"Somerville","housing units-2010":11752,"latitude":42.381929,"st":"MA","county":"Middlesex","zip code":"02143","population -2010":24514,"land-sq. miles":1.537,"water - sq. miles":0.006,"longitude":-71.099084,"id":"abtwjun7aper"},"type":"Feature","geometry":{"type":"Point","coordinates":[-71.099084,42.381929]}},{"properties":{"city":"Somerville","housing units-2010":11389,"latitude":42.399546,"st":"MA","county":"Middlesex","zip code":"02144","population -2010":23891,"land-sq. miles":1.082,"water - sq. miles":0.002,"longitude":-71.121658,"id":"abtwjuycbtyf"},"type":"Feature","geometry":{"type":"Point","coordinates":[-71.121658,42.399546]}},{"properties":{"city":"Somerville","housing units-2010":10520,"latitude":42.390846,"st":"MA","county":"Middlesex","zip code":"02145","population -2010":25439,"land-sq. miles":1.396,"water - sq. miles":0.091,"longitude":-71.092255,"id":"abtwjutdtl5r"},"type":"Feature","geometry":{"type":"Point","coordinates":[-71.092255,42.390846]}},{"properties":{"city":"Malden","housing units-2010":25191,"latitude":42.428549,"st":"MA","county":"Middlesex","zip code":"02148","population -2010":59503,"land-sq. miles":5.044,"water - sq. miles":0.039,"longitude":-71.060597,"id":"abtwjuwd6vfh"},"type":"Feature","geometry":{"type":"Point","coordinates":[-71.060597,42.428549]}},{"properties":{"city":"Everett","housing units-2010":16662,"latitude":42.409916,"st":"MA","county":"Middlesex","zip code":"02149","population -2010":41550,"land-sq. miles":3.426,"water - sq. miles":0.243,"longitude":-71.052206,"id":"abtwjunj98dg"},"type":"Feature","geometry":{"type":"Point","coordinates":[-71.052206,42.409916]}},{"properties":{"city":"Chelsea","housing units-2010":12596,"latitude":42.396382,"st":"MA","county":"Suffolk","zip code":"02150","population -2010":35124,"land-sq. miles":2.208,"water - sq. miles":0.246,"longitude":-71.033529,"id":"abtwjuqwskog"},"type":"Feature","geometry":{"type":"Point","coordinates":[-71.033529,42.396382]}},{"properties":{"city":"Revere","housing units-2010":22125,"latitude":42.416247,"st":"MA","county":"Suffolk","zip code":"02151","population -2010":51808,"land-sq. miles":5.865,"water - sq. miles":1.271,"longitude":-71.00525,"id":"abtwjunek8sx"},"type":"Feature","geometry":{"type":"Point","coordinates":[-71.00525,42.416247]}},{"properties":{"city":"Winthrop","housing units-2010":8320,"latitude":42.373047,"st":"MA","county":"Suffolk","zip code":"02152","population -2010":17497,"land-sq. miles":1.972,"water - sq. miles":1.189,"longitude":-70.978036,"id":"abtwjunsq6xc"},"type":"Feature","geometry":{"type":"Point","coordinates":[-70.978036,42.373047]}},{"properties":{"city":"Medford","housing units-2010":24032,"latitude":42.419846,"st":"MA","county":"Middlesex","zip code":"02155","population -2010":57964,"land-sq. miles":8.197,"water - sq. miles":0.562,"longitude":-71.109426,"id":"abtwjux09bqt"},"type":"Feature","geometry":{"type":"Point","coordinates":[-71.109426,42.419846]}},{"properties":{"city":"Boston","housing units-2010":712,"latitude":42.367946,"st":"MA","county":"Suffolk","zip code":"02163","population -2010":2582,"land-sq. miles":0.099,"water - sq. miles":0.012,"longitude":-71.120564,"id":"abtwjut3n44g"},"type":"Feature","geometry":{"type":"Point","coordinates":[-71.120564,42.367946]}},{"properties":{"city":"Quincy","housing units-2010":26481,"latitude":42.250739,"st":"MA","county":"Norfolk","zip code":"02169","population -2010":55055,"land-sq. miles":8.971,"water - sq. miles":1.466,"longitude":-70.995934,"id":"abtwjuoxjlga"},"type":"Feature","geometry":{"type":"Point","coordinates":[-70.995934,42.250739]}},{"properties":{"city":"Quincy","housing units-2010":8041,"latitude":42.267049,"st":"MA","county":"Norfolk","zip code":"02170","population -2010":19505,"land-sq. miles":2.083,"water - sq. miles":0.072,"longitude":-71.018348,"id":"abtwjukswo4b"},"type":"Feature","geometry":{"type":"Point","coordinates":[-71.018348,42.267049]}},{"properties":{"city":"Quincy","housing units-2010":8316,"latitude":42.284498,"st":"MA","county":"Norfolk","zip code":"02171","population -2010":17711,"land-sq. miles":2.455,"water - sq. miles":1.909,"longitude":-71.023163,"id":"abtwjuwrtwio"},"type":"Feature","geometry":{"type":"Point","coordinates":[-71.023163,42.284498]}},{"properties":{"city":"Melrose","housing units-2010":11751,"latitude":42.459045,"st":"MA","county":"Middlesex","zip code":"02176","population -2010":26983,"land-sq. miles":4.679,"water - sq. miles":0.085,"longitude":-71.062339,"id":"abtwjuxfyd0i"},"type":"Feature","geometry":{"type":"Point","coordinates":[-71.062339,42.459045]}},{"properties":{"city":"Stoneham","housing units-2010":9458,"latitude":42.480145,"st":"MA","county":"Middlesex","zip code":"02180","population -2010":21437,"land-sq. miles":6.019,"water - sq. miles":0.63,"longitude":-71.098352,"id":"abtwjutkvr5t"},"type":"Feature","geometry":{"type":"Point","coordinates":[-71.098352,42.480145]}},{"properties":{"city":"Braintree","housing units-2010":14302,"latitude":42.209555,"st":"MA","county":"Norfolk","zip code":"02184","population -2010":35744,"land-sq. miles":13.749,"water - sq. miles":0.814,"longitude":-70.999683,"id":"abtwjuytqk19"},"type":"Feature","geometry":{"type":"Point","coordinates":[-70.999683,42.209555]}},{"properties":{"city":"Milton","housing units-2010":9700,"latitude":42.253074,"st":"MA","county":"Norfolk","zip code":"02186","population -2010":27003,"land-sq. miles":13.011,"water - sq. miles":0.295,"longitude":-71.074966,"id":"abtwjuut6dw4"},"type":"Feature","geometry":{"type":"Point","coordinates":[-71.074966,42.253074]}},{"properties":{"city":"Weymouth","housing units-2010":6521,"latitude":42.212866,"st":"MA","county":"Norfolk","zip code":"02188","population -2010":14608,"land-sq. miles":3.719,"water - sq. miles":0.146,"longitude":-70.958723,"id":"abtwjunosb1k"},"type":"Feature","geometry":{"type":"Point","coordinates":[-70.958723,42.212866]}},{"properties":{"city":"East Weymouth","housing units-2010":6292,"latitude":42.2112,"st":"MA","county":"Norfolk","zip code":"02189","population -2010":14559,"land-sq. miles":3.825,"water - sq. miles":0.357,"longitude":-70.931118,"id":"abtwjuvknj4w"},"type":"Feature","geometry":{"type":"Point","coordinates":[-70.931118,42.2112]}},{"properties":{"city":"South Weymouth","housing units-2010":6904,"latitude":42.1711,"st":"MA","county":"Norfolk","zip code":"02190","population -2010":16119,"land-sq. miles":7.118,"water - sq. miles":0.531,"longitude":-70.945979,"id":"abtwjuysulai"},"type":"Feature","geometry":{"type":"Point","coordinates":[-70.945979,42.1711]}},{"properties":{"city":"North Weymouth","housing units-2010":3763,"latitude":42.242749,"st":"MA","county":"Norfolk","zip code":"02191","population -2010":8457,"land-sq. miles":2.024,"water - sq. miles":1.051,"longitude":-70.944343,"id":"abtwjuvm7qdh"},"type":"Feature","geometry":{"type":"Point","coordinates":[-70.944343,42.242749]}},{"properties":{"city":"Boston","housing units-2010":927,"latitude":42.34713,"st":"MA","county":"Suffolk","zip code":"02199","population -2010":1146,"land-sq. miles":0.058,"water - sq. miles":0.0,"longitude":-71.082343,"id":"abtwjumbgvw8"},"type":"Feature","geometry":{"type":"Point","coordinates":[-71.082343,42.34713]}},{"properties":{"city":"Boston","housing units-2010":1358,"latitude":42.347974,"st":"MA","county":"Suffolk","zip code":"02210","population -2010":2090,"land-sq. miles":0.926,"water - sq. miles":0.542,"longitude":-71.044639,"id":"abtwjv0kx8pw"},"type":"Feature","geometry":{"type":"Point","coordinates":[-71.044639,42.347974]}},{"properties":{"city":"Boston","housing units-2010":9324,"latitude":42.346997,"st":"MA","county":"Suffolk","zip code":"02215","population -2010":26125,"land-sq. miles":0.764,"water - sq. miles":0.108,"longitude":-71.102153,"id":"abtwjv0pmlck"},"type":"Feature","geometry":{"type":"Point","coordinates":[-71.102153,42.346997]}},{"properties":{"city":"Brockton","housing units-2010":23673,"latitude":42.0794,"st":"MA","county":"Plymouth","zip code":"02301","population -2010":61025,"land-sq. miles":12.434,"water - sq. miles":0.17,"longitude":-71.034413,"id":"abtwjumlnfzp"},"type":"Feature","geometry":{"type":"Point","coordinates":[-71.034413,42.0794]}},{"properties":{"city":"Brockton","housing units-2010":11857,"latitude":42.08715,"st":"MA","county":"Plymouth","zip code":"02302","population -2010":32741,"land-sq. miles":8.89,"water - sq. miles":0.026,"longitude":-71.002221,"id":"abtwjux6gd3p"},"type":"Feature","geometry":{"type":"Point","coordinates":[-71.002221,42.08715]}},{"properties":{"city":"Avon","housing units-2010":1769,"latitude":42.121932,"st":"MA","county":"Norfolk","zip code":"02322","population -2010":4356,"land-sq. miles":4.29,"water - sq. miles":0.247,"longitude":-71.045227,"id":"abtwjv02jute"},"type":"Feature","geometry":{"type":"Point","coordinates":[-71.045227,42.121932]}},{"properties":{"city":"Bridgewater","housing units-2010":8336,"latitude":41.979501,"st":"MA","county":"Plymouth","zip code":"02324","population -2010":26563,"land-sq. miles":27.316,"water - sq. miles":1.095,"longitude":-70.972156,"id":"abtwjup9m8d2"},"type":"Feature","geometry":{"type":"Point","coordinates":[-70.972156,41.979501]}},{"properties":{"city":"Carver","housing units-2010":4600,"latitude":41.873697,"st":"MA","county":"Plymouth","zip code":"02330","population -2010":11509,"land-sq. miles":37.403,"water - sq. miles":2.332,"longitude":-70.765609,"id":"abtwjv0iutbd"},"type":"Feature","geometry":{"type":"Point","coordinates":[-70.765609,41.873697]}},{"properties":{"city":"Duxbury","housing units-2010":5875,"latitude":42.031371,"st":"MA","county":"Plymouth","zip code":"02332","population -2010":15059,"land-sq. miles":23.738,"water - sq. miles":4.116,"longitude":-70.701053,"id":"abtwjuqxd8wo"},"type":"Feature","geometry":{"type":"Point","coordinates":[-70.701053,42.031371]}},{"properties":{"city":"East Bridgewater","housing units-2010":4906,"latitude":42.029083,"st":"MA","county":"Plymouth","zip code":"02333","population -2010":13794,"land-sq. miles":17.209,"water - sq. miles":0.325,"longitude":-70.952273,"id":"abtwjuvj919i"},"type":"Feature","geometry":{"type":"Point","coordinates":[-70.952273,42.029083]}},{"properties":{"city":"Halifax","housing units-2010":3014,"latitude":41.999851,"st":"MA","county":"Plymouth","zip code":"02338","population -2010":7518,"land-sq. miles":16.003,"water - sq. miles":1.392,"longitude":-70.853955,"id":"abtwjut4nbqp"},"type":"Feature","geometry":{"type":"Point","coordinates":[-70.853955,41.999851]}},{"properties":{"city":"Hanover","housing units-2010":4852,"latitude":42.12867,"st":"MA","county":"Plymouth","zip code":"02339","population -2010":13879,"land-sq. miles":15.609,"water - sq. miles":0.084,"longitude":-70.859137,"id":"abtwjukv8edq"},"type":"Feature","geometry":{"type":"Point","coordinates":[-70.859137,42.12867]}},{"properties":{"city":"Hanson","housing units-2010":3593,"latitude":42.059434,"st":"MA","county":"Plymouth","zip code":"02341","population -2010":10218,"land-sq. miles":15.055,"water - sq. miles":0.696,"longitude":-70.862051,"id":"abtwjusoo85h"},"type":"Feature","geometry":{"type":"Point","coordinates":[-70.862051,42.059434]}},{"properties":{"city":"Holbrook","housing units-2010":4261,"latitude":42.148351,"st":"MA","county":"Norfolk","zip code":"02343","population -2010":10745,"land-sq. miles":7.007,"water - sq. miles":0.108,"longitude":-71.010375,"id":"abtwjutckrid"},"type":"Feature","geometry":{"type":"Point","coordinates":[-71.010375,42.148351]}},{"properties":{"city":"Middleboro","housing units-2010":9020,"latitude":41.889582,"st":"MA","county":"Plymouth","zip code":"02346","population -2010":23106,"land-sq. miles":68.867,"water - sq. miles":3.077,"longitude":-70.894066,"id":"abtwjv0je98r"},"type":"Feature","geometry":{"type":"Point","coordinates":[-70.894066,41.889582]}},{"properties":{"city":"Lakeville","housing units-2010":4180,"latitude":41.835094,"st":"MA","county":"Plymouth","zip code":"02347","population -2010":10612,"land-sq. miles":29.766,"water - sq. miles":6.571,"longitude":-70.959736,"id":"abtwjulz4sdj"},"type":"Feature","geometry":{"type":"Point","coordinates":[-70.959736,41.835094]}},{"properties":{"city":"Abington","housing units-2010":6399,"latitude":42.119534,"st":"MA","county":"Plymouth","zip code":"02351","population -2010":16029,"land-sq. miles":9.655,"water - sq. miles":0.238,"longitude":-70.947876,"id":"abtwjuvik2dj"},"type":"Feature","geometry":{"type":"Point","coordinates":[-70.947876,42.119534]}},{"properties":{"city":"North Easton","housing units-2010":4406,"latitude":42.058507,"st":"MA","county":"Bristol","zip code":"02356","population -2010":12564,"land-sq. miles":13.704,"water - sq. miles":0.32,"longitude":-71.113099,"id":"abtwjuvbim6m"},"type":"Feature","geometry":{"type":"Point","coordinates":[-71.113099,42.058507]}},{"properties":{"city":"Pembroke","housing units-2010":6548,"latitude":42.065554,"st":"MA","county":"Plymouth","zip code":"02359","population -2010":17828,"land-sq. miles":21.777,"water - sq. miles":1.703,"longitude":-70.804269,"id":"abtwjv0renec"},"type":"Feature","geometry":{"type":"Point","coordinates":[-70.804269,42.065554]}},{"properties":{"city":"Plymouth","housing units-2010":24800,"latitude":41.894676,"st":"MA","county":"Plymouth","zip code":"02360","population -2010":56271,"land-sq. miles":95.51,"water - sq. miles":13.106,"longitude":-70.619992,"id":"abtwjv0xf0ap"},"type":"Feature","geometry":{"type":"Point","coordinates":[-70.619992,41.894676]}},{"properties":{"city":"Kingston","housing units-2010":5010,"latitude":41.993102,"st":"MA","county":"Plymouth","zip code":"02364","population -2010":12629,"land-sq. miles":18.657,"water - sq. miles":1.136,"longitude":-70.738273,"id":"abtwjurgomu8"},"type":"Feature","geometry":{"type":"Point","coordinates":[-70.738273,41.993102]}},{"properties":{"city":"Plympton","housing units-2010":1043,"latitude":41.968987,"st":"MA","county":"Plymouth","zip code":"02367","population -2010":2820,"land-sq. miles":14.674,"water - sq. miles":0.427,"longitude":-70.804521,"id":"abtwjum90rte"},"type":"Feature","geometry":{"type":"Point","coordinates":[-70.804521,41.968987]}},{"properties":{"city":"Randolph","housing units-2010":12021,"latitude":42.173417,"st":"MA","county":"Norfolk","zip code":"02368","population -2010":32158,"land-sq. miles":10.076,"water - sq. miles":0.586,"longitude":-71.049124,"id":"abtwjul64287"},"type":"Feature","geometry":{"type":"Point","coordinates":[-71.049124,42.173417]}},{"properties":{"city":"Rockland","housing units-2010":7051,"latitude":42.129513,"st":"MA","county":"Plymouth","zip code":"02370","population -2010":17489,"land-sq. miles":10.311,"water - sq. miles":0.084,"longitude":-70.911895,"id":"abtwjurzo79k"},"type":"Feature","geometry":{"type":"Point","coordinates":[-70.911895,42.129513]}},{"properties":{"city":"South Easton","housing units-2010":3741,"latitude":42.029749,"st":"MA","county":"Bristol","zip code":"02375","population -2010":9188,"land-sq. miles":14.567,"water - sq. miles":0.139,"longitude":-71.101917,"id":"abtwjul50134"},"type":"Feature","geometry":{"type":"Point","coordinates":[-71.101917,42.029749]}},{"properties":{"city":"West Bridgewater","housing units-2010":2669,"latitude":42.02195,"st":"MA","county":"Plymouth","zip code":"02379","population -2010":6916,"land-sq. miles":15.321,"water - sq. miles":0.353,"longitude":-71.018781,"id":"abtwjuwksnsz"},"type":"Feature","geometry":{"type":"Point","coordinates":[-71.018781,42.02195]}},{"properties":{"city":"Whitman","housing units-2010":5522,"latitude":42.08235,"st":"MA","county":"Plymouth","zip code":"02382","population -2010":14489,"land-sq. miles":6.94,"water - sq. miles":0.023,"longitude":-70.937347,"id":"abtwjuqwca1e"},"type":"Feature","geometry":{"type":"Point","coordinates":[-70.937347,42.08235]}},{"properties":{"city":"Lexington","housing units-2010":5251,"latitude":42.452895,"st":"MA","county":"Middlesex","zip code":"02420","population -2010":14052,"land-sq. miles":6.584,"water - sq. miles":0.049,"longitude":-71.216194,"id":"abtwjullkpvp"},"type":"Feature","geometry":{"type":"Point","coordinates":[-71.216194,42.452895]}},{"properties":{"city":"Lexington","housing units-2010":6768,"latitude":42.439295,"st":"MA","county":"Middlesex","zip code":"02421","population -2010":17342,"land-sq. miles":9.85,"water - sq. miles":0.161,"longitude":-71.235539,"id":"abtwjutcg4qg"},"type":"Feature","geometry":{"type":"Point","coordinates":[-71.235539,42.439295]}},{"properties":{"city":"Brookline","housing units-2010":8974,"latitude":42.324397,"st":"MA","county":"Norfolk","zip code":"02445","population -2010":20679,"land-sq. miles":2.603,"water - sq. miles":0.046,"longitude":-71.139331,"id":"abtwjuzyurl1"},"type":"Feature","geometry":{"type":"Point","coordinates":[-71.139331,42.324397]}},{"properties":{"city":"Brookline","housing units-2010":14229,"latitude":42.344747,"st":"MA","county":"Norfolk","zip code":"02446","population -2010":29311,"land-sq. miles":1.287,"water - sq. miles":0.005,"longitude":-71.121419,"id":"abtwjuthpyaf"},"type":"Feature","geometry":{"type":"Point","coordinates":[-71.121419,42.344747]}},{"properties":{"city":"Waltham","housing units-2010":7898,"latitude":42.393029,"st":"MA","county":"Middlesex","zip code":"02451","population -2010":17426,"land-sq. miles":5.523,"water - sq. miles":0.706,"longitude":-71.247715,"id":"abtwjuq7boy6"},"type":"Feature","geometry":{"type":"Point","coordinates":[-71.247715,42.393029]}},{"properties":{"city":"Waltham","housing units-2010":5033,"latitude":42.392496,"st":"MA","county":"Middlesex","zip code":"02452","population -2010":14238,"land-sq. miles":3.699,"water - sq. miles":0.033,"longitude":-71.221533,"id":"abtwjukxgnbv"},"type":"Feature","geometry":{"type":"Point","coordinates":[-71.221533,42.392496]}},{"properties":{"city":"Waltham","housing units-2010":11995,"latitude":42.370446,"st":"MA","county":"Middlesex","zip code":"02453","population -2010":28968,"land-sq. miles":3.499,"water - sq. miles":0.284,"longitude":-71.235635,"id":"abtwjun868au"},"type":"Feature","geometry":{"type":"Point","coordinates":[-71.235635,42.370446]}},{"properties":{"city":"Babson Park","housing units-2010":90,"latitude":42.3015,"st":"MA","county":"Norfolk","zip code":"02457","population -2010":1432,"land-sq. miles":0.16,"water - sq. miles":0.0,"longitude":-71.2669,"id":"abtwjuv952le"},"type":"Feature","geometry":{"type":"Point","coordinates":[-71.2669,42.3015]}},{"properties":{"city":"Newton","housing units-2010":5341,"latitude":42.354727,"st":"MA","county":"Middlesex","zip code":"02458","population -2010":12131,"land-sq. miles":2.002,"water - sq. miles":0.037,"longitude":-71.188092,"id":"abtwjuma3jf7"},"type":"Feature","geometry":{"type":"Point","coordinates":[-71.188092,42.354727]}},{"properties":{"city":"Newton Center","housing units-2010":6763,"latitude":42.321197,"st":"MA","county":"Middlesex","zip code":"02459","population -2010":19095,"land-sq. miles":5.005,"water - sq. miles":0.084,"longitude":-71.193009,"id":"abtwjuyjed8l"},"type":"Feature","geometry":{"type":"Point","coordinates":[-71.193009,42.321197]}},{"properties":{"city":"Newtonville","housing units-2010":3774,"latitude":42.352996,"st":"MA","county":"Middlesex","zip code":"02460","population -2010":8742,"land-sq. miles":1.344,"water - sq. miles":0.009,"longitude":-71.209073,"id":"abtwjuksva9h"},"type":"Feature","geometry":{"type":"Point","coordinates":[-71.209073,42.352996]}},{"properties":{"city":"Newton Highlands","housing units-2010":2771,"latitude":42.31883,"st":"MA","county":"Middlesex","zip code":"02461","population -2010":7059,"land-sq. miles":1.455,"water - sq. miles":0.014,"longitude":-71.208223,"id":"abtwjulpw9dy"},"type":"Feature","geometry":{"type":"Point","coordinates":[-71.208223,42.31883]}},{"properties":{"city":"Newton Lower Falls","housing units-2010":668,"latitude":42.331646,"st":"MA","county":"Middlesex","zip code":"02462","population -2010":1554,"land-sq. miles":0.529,"water - sq. miles":0.027,"longitude":-71.257616,"id":"abtwjv0hzrlv"},"type":"Feature","geometry":{"type":"Point","coordinates":[-71.257616,42.331646]}},{"properties":{"city":"Newton Upper Falls","housing units-2010":1287,"latitude":42.311997,"st":"MA","county":"Middlesex","zip code":"02464","population -2010":2953,"land-sq. miles":0.565,"water - sq. miles":0.011,"longitude":-71.220465,"id":"abtwjuogpy9k"},"type":"Feature","geometry":{"type":"Point","coordinates":[-71.220465,42.311997]}},{"properties":{"city":"West Newton","housing units-2010":4520,"latitude":42.351046,"st":"MA","county":"Middlesex","zip code":"02465","population -2010":11710,"land-sq. miles":2.243,"water - sq. miles":0.001,"longitude":-71.226773,"id":"abtwjurvxgt2"},"type":"Feature","geometry":{"type":"Point","coordinates":[-71.226773,42.351046]}},{"properties":{"city":"Auburndale","housing units-2010":3090,"latitude":42.345833,"st":"MA","county":"Middlesex","zip code":"02466","population -2010":8096,"land-sq. miles":1.791,"water - sq. miles":0.083,"longitude":-71.247355,"id":"abtwjum5e1i1"},"type":"Feature","geometry":{"type":"Point","coordinates":[-71.247355,42.345833]}},{"properties":{"city":"Chestnut Hill","housing units-2010":7000,"latitude":42.321997,"st":"MA","county":"Norfolk","zip code":"02467","population -2010":22491,"land-sq. miles":4.872,"water - sq. miles":0.055,"longitude":-71.173148,"id":"abtwjuweps6l"},"type":"Feature","geometry":{"type":"Point","coordinates":[-71.173148,42.321997]}},{"properties":{"city":"Waban","housing units-2010":1930,"latitude":42.325247,"st":"MA","county":"Middlesex","zip code":"02468","population -2010":5273,"land-sq. miles":1.48,"water - sq. miles":0.022,"longitude":-71.231907,"id":"abtwjuygje4y"},"type":"Feature","geometry":{"type":"Point","coordinates":[-71.231907,42.325247]}},{"properties":{"city":"Watertown","housing units-2010":15622,"latitude":42.371296,"st":"MA","county":"Middlesex","zip code":"02472","population -2010":32014,"land-sq. miles":4.031,"water - sq. miles":0.124,"longitude":-71.181961,"id":"abtwjuxq6jl2"},"type":"Feature","geometry":{"type":"Point","coordinates":[-71.181961,42.371296]}},{"properties":{"city":"Arlington","housing units-2010":12317,"latitude":42.419496,"st":"MA","county":"Middlesex","zip code":"02474","population -2010":26312,"land-sq. miles":3.052,"water - sq. miles":0.273,"longitude":-71.156355,"id":"abtwjulxb9d9"},"type":"Feature","geometry":{"type":"Point","coordinates":[-71.156355,42.419496]}},{"properties":{"city":"Arlington","housing units-2010":7657,"latitude":42.416745,"st":"MA","county":"Middlesex","zip code":"02476","population -2010":16532,"land-sq. miles":2.094,"water - sq. miles":0.074,"longitude":-71.177615,"id":"abtwjupoevxr"},"type":"Feature","geometry":{"type":"Point","coordinates":[-71.177615,42.416745]}},{"properties":{"city":"Belmont","housing units-2010":10158,"latitude":42.391546,"st":"MA","county":"Middlesex","zip code":"02478","population -2010":24664,"land-sq. miles":4.647,"water - sq. miles":0.072,"longitude":-71.174712,"id":"abtwjuruav7a"},"type":"Feature","geometry":{"type":"Point","coordinates":[-71.174712,42.391546]}},{"properties":{"city":"Wellesley Hills","housing units-2010":5044,"latitude":42.313329,"st":"MA","county":"Norfolk","zip code":"02481","population -2010":16244,"land-sq. miles":5.642,"water - sq. miles":0.095,"longitude":-71.276497,"id":"abtwjuydz594"},"type":"Feature","geometry":{"type":"Point","coordinates":[-71.276497,42.313329]}},{"properties":{"city":"Wellesley","housing units-2010":4055,"latitude":42.300096,"st":"MA","county":"Norfolk","zip code":"02482","population -2010":10306,"land-sq. miles":4.208,"water - sq. miles":0.403,"longitude":-71.303369,"id":"abtwjuyoyku2"},"type":"Feature","geometry":{"type":"Point","coordinates":[-71.303369,42.300096]}},{"properties":{"city":"Needham","housing units-2010":7382,"latitude":42.278247,"st":"MA","county":"Norfolk","zip code":"02492","population -2010":19931,"land-sq. miles":9.527,"water - sq. miles":0.351,"longitude":-71.233888,"id":"abtwjv0az9i5"},"type":"Feature","geometry":{"type":"Point","coordinates":[-71.233888,42.278247]}},{"properties":{"city":"Weston","housing units-2010":4008,"latitude":42.358663,"st":"MA","county":"Middlesex","zip code":"02493","population -2010":11261,"land-sq. miles":16.824,"water - sq. miles":0.508,"longitude":-71.28831,"id":"abtwjup12esl"},"type":"Feature","geometry":{"type":"Point","coordinates":[-71.28831,42.358663]}},{"properties":{"city":"Needham Heights","housing units-2010":3740,"latitude":42.29813,"st":"MA","county":"Norfolk","zip code":"02494","population -2010":8955,"land-sq. miles":2.767,"water - sq. miles":0.085,"longitude":-71.231541,"id":"abtwjuzu90gm"},"type":"Feature","geometry":{"type":"Point","coordinates":[-71.231541,42.29813]}},{"properties":{"city":"Buzzards Bay","housing units-2010":6601,"latitude":41.751841,"st":"MA","county":"Barnstable","zip code":"02532","population -2010":12690,"land-sq. miles":14.253,"water - sq. miles":2.651,"longitude":-70.597646,"id":"abtwjul50ex6"},"type":"Feature","geometry":{"type":"Point","coordinates":[-70.597646,41.751841]}},{"properties":{"city":"Cataumet","housing units-2010":657,"latitude":41.66566,"st":"MA","county":"Barnstable","zip code":"02534","population -2010":842,"land-sq. miles":2.286,"water - sq. miles":0.576,"longitude":-70.616009,"id":"abtwjuv7ydd7"},"type":"Feature","geometry":{"type":"Point","coordinates":[-70.616009,41.66566]}},{"properties":{"city":"Chilmark","housing units-2010":2109,"latitude":41.345578,"st":"MA","county":"Dukes","zip code":"02535","population -2010":1177,"land-sq. miles":24.374,"water - sq. miles":25.431,"longitude":-70.751458,"id":"abtwjupsw1ek"},"type":"Feature","geometry":{"type":"Point","coordinates":[-70.751458,41.345578]}},{"properties":{"city":"East Falmouth","housing units-2010":11956,"latitude":41.578992,"st":"MA","county":"Barnstable","zip code":"02536","population -2010":19583,"land-sq. miles":27.682,"water - sq. miles":3.501,"longitude":-70.561404,"id":"abtwjuu4prfp"},"type":"Feature","geometry":{"type":"Point","coordinates":[-70.561404,41.578992]}},{"properties":{"city":"East Sandwich","housing units-2010":3099,"latitude":41.733837,"st":"MA","county":"Barnstable","zip code":"02537","population -2010":6293,"land-sq. miles":12.097,"water - sq. miles":0.616,"longitude":-70.437546,"id":"abtwjuynoedo"},"type":"Feature","geometry":{"type":"Point","coordinates":[-70.437546,41.733837]}},{"properties":{"city":"East Wareham","housing units-2010":1739,"latitude":41.782915,"st":"MA","county":"Plymouth","zip code":"02538","population -2010":3603,"land-sq. miles":4.551,"water - sq. miles":0.463,"longitude":-70.648815,"id":"abtwjuqxm91p"},"type":"Feature","geometry":{"type":"Point","coordinates":[-70.648815,41.782915]}},{"properties":{"city":"Edgartown","housing units-2010":5220,"latitude":41.380479,"st":"MA","county":"Dukes","zip code":"02539","population -2010":4067,"land-sq. miles":26.807,"water - sq. miles":20.506,"longitude":-70.524537,"id":"abtwjuvnj0dn"},"type":"Feature","geometry":{"type":"Point","coordinates":[-70.524537,41.380479]}},{"properties":{"city":"Falmouth","housing units-2010":6605,"latitude":41.56105,"st":"MA","county":"Barnstable","zip code":"02540","population -2010":8221,"land-sq. miles":10.713,"water - sq. miles":1.757,"longitude":-70.619682,"id":"abtwjulom12u"},"type":"Feature","geometry":{"type":"Point","coordinates":[-70.619682,41.56105]}},{"properties":{"city":"Buzzards Bay","housing units-2010":449,"latitude":41.665605,"st":"MA","county":"Barnstable","zip code":"02542","population -2010":1139,"land-sq. miles":30.725,"water - sq. miles":0.049,"longitude":-70.524563,"id":"abtwjusqcvkk"},"type":"Feature","geometry":{"type":"Point","coordinates":[-70.524563,41.665605]}},{"properties":{"city":"Woods Hole","housing units-2010":863,"latitude":41.526791,"st":"MA","county":"Dukes","zip code":"02543","population -2010":635,"land-sq. miles":9.932,"water - sq. miles":20.213,"longitude":-70.665056,"id":"abtwjuxoc1tk"},"type":"Feature","geometry":{"type":"Point","coordinates":[-70.665056,41.526791]}},{"properties":{"city":"Monument Beach","housing units-2010":176,"latitude":41.7172,"st":"MA","county":"Barnstable","zip code":"02553","population -2010":226,"land-sq. miles":0.246,"water - sq. miles":0.683,"longitude":-70.6146,"id":"abtwjunqqm1e"},"type":"Feature","geometry":{"type":"Point","coordinates":[-70.6146,41.7172]}},{"properties":{"city":"Nantucket","housing units-2010":10393,"latitude":41.276758,"st":"MA","county":"Nantucket","zip code":"02554","population -2010":9852,"land-sq. miles":39.127,"water - sq. miles":16.762,"longitude":-70.09089,"id":"abtwjulwzt3y"},"type":"Feature","geometry":{"type":"Point","coordinates":[-70.09089,41.276758]}},{"properties":{"city":"North Falmouth","housing units-2010":2593,"latitude":41.6403,"st":"MA","county":"Barnstable","zip code":"02556","population -2010":3115,"land-sq. miles":3.874,"water - sq. miles":0.45,"longitude":-70.630369,"id":"abtwjv17kwrz"},"type":"Feature","geometry":{"type":"Point","coordinates":[-70.630369,41.6403]}},{"properties":{"city":"Oak Bluffs","housing units-2010":4333,"latitude":41.457,"st":"MA","county":"Dukes","zip code":"02557","population -2010":4491,"land-sq. miles":7.205,"water - sq. miles":4.295,"longitude":-705517.0,"id":"abtwjux71g6d"},"type":"Feature","geometry":{"type":"Point","coordinates":[-705517.0,41.457]}},{"properties":{"city":"Onset","housing units-2010":1792,"latitude":41.746424,"st":"MA","county":"Plymouth","zip code":"02558","population -2010":2156,"land-sq. miles":1.229,"water - sq. miles":1.048,"longitude":-70.659566,"id":"abtwjurltndr"},"type":"Feature","geometry":{"type":"Point","coordinates":[-70.659566,41.746424]}},{"properties":{"city":"Pocasset","housing units-2010":2605,"latitude":41.694132,"st":"MA","county":"Barnstable","zip code":"02559","population -2010":3376,"land-sq. miles":5.032,"water - sq. miles":1.483,"longitude":-70.617067,"id":"abtwjuog7w7n"},"type":"Feature","geometry":{"type":"Point","coordinates":[-70.617067,41.694132]}},{"properties":{"city":"Sagamore","housing units-2010":266,"latitude":41.8554,"st":"MA","county":"Barnstable","zip code":"02561","population -2010":539,"land-sq. miles":0.615,"water - sq. miles":0.084,"longitude":-70.5354,"id":"abtwjulqadwu"},"type":"Feature","geometry":{"type":"Point","coordinates":[-70.5354,41.8554]}},{"properties":{"city":"Sagamore Beach","housing units-2010":1574,"latitude":41.7884,"st":"MA","county":"Barnstable","zip code":"02562","population -2010":2977,"land-sq. miles":3.349,"water - sq. miles":0.323,"longitude":-70.5324,"id":"abtwjv0csm0g"},"type":"Feature","geometry":{"type":"Point","coordinates":[-70.5324,41.7884]}},{"properties":{"city":"Sandwich","housing units-2010":4742,"latitude":41.735645,"st":"MA","county":"Barnstable","zip code":"02563","population -2010":10359,"land-sq. miles":13.203,"water - sq. miles":1.061,"longitude":-70.488663,"id":"abtwjuvfx91w"},"type":"Feature","geometry":{"type":"Point","coordinates":[-70.488663,41.735645]}},{"properties":{"city":"Siasconset","housing units-2010":1203,"latitude":41.2629,"st":"MA","county":"Nantucket","zip code":"02564","population -2010":310,"land-sq. miles":5.768,"water - sq. miles":1.06,"longitude":-699662.0,"id":"abtwjutvtb26"},"type":"Feature","geometry":{"type":"Point","coordinates":[-699662.0,41.2629]}},{"properties":{"city":"Vineyard Haven","housing units-2010":3113,"latitude":41.451263,"st":"MA","county":"Dukes","zip code":"02568","population -2010":4000,"land-sq. miles":6.672,"water - sq. miles":3.884,"longitude":-70.60872,"id":"abtwjuosah9u"},"type":"Feature","geometry":{"type":"Point","coordinates":[-70.60872,41.451263]}},{"properties":{"city":"Wareham","housing units-2010":5629,"latitude":41.751554,"st":"MA","county":"Plymouth","zip code":"02571","population -2010":10481,"land-sq. miles":19.902,"water - sq. miles":4.806,"longitude":-70.710596,"id":"abtwjuwrl6lt"},"type":"Feature","geometry":{"type":"Point","coordinates":[-70.710596,41.751554]}},{"properties":{"city":"West Tisbury","housing units-2010":2198,"latitude":41.378807,"st":"MA","county":"Dukes","zip code":"02575","population -2010":2725,"land-sq. miles":25.001,"water - sq. miles":4.26,"longitude":-70.663762,"id":"abtwjv027g2s"},"type":"Feature","geometry":{"type":"Point","coordinates":[-70.663762,41.378807]}},{"properties":{"city":"West Wareham","housing units-2010":1775,"latitude":41.776042,"st":"MA","county":"Plymouth","zip code":"02576","population -2010":3754,"land-sq. miles":9.761,"water - sq. miles":0.42,"longitude":-70.757839,"id":"abtwjus1jcot"},"type":"Feature","geometry":{"type":"Point","coordinates":[-70.757839,41.776042]}},{"properties":{"city":"Nantucket","housing units-2010":22,"latitude":41.2753,"st":"MA","county":"Nantucket","zip code":"02584","population -2010":10,"land-sq. miles":0.075,"water - sq. miles":0.0,"longitude":-70.0969,"id":"abtwjuw7liwu"},"type":"Feature","geometry":{"type":"Point","coordinates":[-70.0969,41.2753]}},{"properties":{"city":"Hyannis","housing units-2010":8062,"latitude":41.654741,"st":"MA","county":"Barnstable","zip code":"02601","population -2010":14089,"land-sq. miles":8.592,"water - sq. miles":0.831,"longitude":-70.289501,"id":"abtwjv04tf1j"},"type":"Feature","geometry":{"type":"Point","coordinates":[-70.289501,41.654741]}},{"properties":{"city":"Barnstable","housing units-2010":1142,"latitude":41.700327,"st":"MA","county":"Barnstable","zip code":"02630","population -2010":1850,"land-sq. miles":4.01,"water - sq. miles":2.018,"longitude":-70.295683,"id":"abtwjunxbghr"},"type":"Feature","geometry":{"type":"Point","coordinates":[-70.295683,41.700327]}},{"properties":{"city":"Brewster","housing units-2010":7838,"latitude":41.746647,"st":"MA","county":"Barnstable","zip code":"02631","population -2010":9679,"land-sq. miles":21.972,"water - sq. miles":2.777,"longitude":-70.077732,"id":"abtwjuqxfp3g"},"type":"Feature","geometry":{"type":"Point","coordinates":[-70.077732,41.746647]}},{"properties":{"city":"Centerville","housing units-2010":6171,"latitude":41.658718,"st":"MA","county":"Barnstable","zip code":"02632","population -2010":10742,"land-sq. miles":7.321,"water - sq. miles":1.46,"longitude":-70.346588,"id":"abtwjur7o0q6"},"type":"Feature","geometry":{"type":"Point","coordinates":[-70.346588,41.658718]}},{"properties":{"city":"Chatham","housing units-2010":4576,"latitude":41.686534,"st":"MA","county":"Barnstable","zip code":"02633","population -2010":3884,"land-sq. miles":7.554,"water - sq. miles":4.877,"longitude":-69.977468,"id":"abtwjun98w72"},"type":"Feature","geometry":{"type":"Point","coordinates":[-69.977468,41.686534]}},{"properties":{"city":"Cotuit","housing units-2010":2184,"latitude":41.625037,"st":"MA","county":"Barnstable","zip code":"02635","population -2010":3296,"land-sq. miles":5.526,"water - sq. miles":1.085,"longitude":-70.443171,"id":"abtwjuufebhm"},"type":"Feature","geometry":{"type":"Point","coordinates":[-70.443171,41.625037]}},{"properties":{"city":"Cummaquid","housing units-2010":149,"latitude":41.7013,"st":"MA","county":"Barnstable","zip code":"02637","population -2010":253,"land-sq. miles":0.699,"water - sq. miles":0.03,"longitude":-70.2754,"id":"abtwjuq3pc5y"},"type":"Feature","geometry":{"type":"Point","coordinates":[-70.2754,41.7013]}},{"properties":{"city":"Dennis","housing units-2010":3130,"latitude":41.736684,"st":"MA","county":"Barnstable","zip code":"02638","population -2010":3207,"land-sq. miles":5.901,"water - sq. miles":0.581,"longitude":-70.191831,"id":"abtwjuwbc5z6"},"type":"Feature","geometry":{"type":"Point","coordinates":[-70.191831,41.736684]}},{"properties":{"city":"Dennis Port","housing units-2010":4912,"latitude":41.661115,"st":"MA","county":"Barnstable","zip code":"02639","population -2010":2875,"land-sq. miles":2.767,"water - sq. miles":0.368,"longitude":-70.133481,"id":"abtwjuwkdi4b"},"type":"Feature","geometry":{"type":"Point","coordinates":[-70.133481,41.661115]}},{"properties":{"city":"East Dennis","housing units-2010":637,"latitude":41.7428,"st":"MA","county":"Barnstable","zip code":"02641","population -2010":532,"land-sq. miles":2.041,"water - sq. miles":0.264,"longitude":-70.1611,"id":"abtwjutc85yy"},"type":"Feature","geometry":{"type":"Point","coordinates":[-70.1611,41.7428]}},{"properties":{"city":"Eastham","housing units-2010":5925,"latitude":41.844087,"st":"MA","county":"Barnstable","zip code":"02642","population -2010":4937,"land-sq. miles":13.877,"water - sq. miles":3.45,"longitude":-69.989214,"id":"abtwjuy1re2u"},"type":"Feature","geometry":{"type":"Point","coordinates":[-69.989214,41.844087]}},{"properties":{"city":"East Orleans","housing units-2010":85,"latitude":41.7849,"st":"MA","county":"Barnstable","zip code":"02643","population -2010":26,"land-sq. miles":1.894,"water - sq. miles":1.798,"longitude":-699673.0,"id":"abtwjurn4a3c"},"type":"Feature","geometry":{"type":"Point","coordinates":[-699673.0,41.7849]}},{"properties":{"city":"Forestdale","housing units-2010":1480,"latitude":41.683462,"st":"MA","county":"Barnstable","zip code":"02644","population -2010":3955,"land-sq. miles":3.562,"water - sq. miles":0.22,"longitude":-70.512116,"id":"abtwjuvw31h2"},"type":"Feature","geometry":{"type":"Point","coordinates":[-70.512116,41.683462]}},{"properties":{"city":"Harwich","housing units-2010":6222,"latitude":41.707332,"st":"MA","county":"Barnstable","zip code":"02645","population -2010":9663,"land-sq. miles":16.645,"water - sq. miles":1.778,"longitude":-70.056792,"id":"abtwjumids2o"},"type":"Feature","geometry":{"type":"Point","coordinates":[-70.056792,41.707332]}},{"properties":{"city":"Harwich Port","housing units-2010":2621,"latitude":41.669219,"st":"MA","county":"Barnstable","zip code":"02646","population -2010":1676,"land-sq. miles":3.011,"water - sq. miles":0.309,"longitude":-70.074193,"id":"abtwjuppip7g"},"type":"Feature","geometry":{"type":"Point","coordinates":[-70.074193,41.669219]}},{"properties":{"city":"Hyannis Port","housing units-2010":260,"latitude":41.63275,"st":"MA","county":"Barnstable","zip code":"02647","population -2010":129,"land-sq. miles":0.474,"water - sq. miles":0.184,"longitude":-70.304359,"id":"abtwjuxfayr1"},"type":"Feature","geometry":{"type":"Point","coordinates":[-70.304359,41.63275]}},{"properties":{"city":"Marstons Mills","housing units-2010":3188,"latitude":41.667689,"st":"MA","county":"Barnstable","zip code":"02648","population -2010":7301,"land-sq. miles":9.277,"water - sq. miles":1.029,"longitude":-70.416803,"id":"abtwjulw5b5b"},"type":"Feature","geometry":{"type":"Point","coordinates":[-70.416803,41.667689]}},{"properties":{"city":"Mashpee","housing units-2010":9887,"latitude":41.613743,"st":"MA","county":"Barnstable","zip code":"02649","population -2010":14006,"land-sq. miles":23.247,"water - sq. miles":4.105,"longitude":-70.487542,"id":"abtwjut1fsxg"},"type":"Feature","geometry":{"type":"Point","coordinates":[-70.487542,41.613743]}},{"properties":{"city":"North Chatham","housing units-2010":910,"latitude":41.702265,"st":"MA","county":"Barnstable","zip code":"02650","population -2010":848,"land-sq. miles":1.446,"water - sq. miles":0.28,"longitude":-69.969587,"id":"abtwjuuwk0ys"},"type":"Feature","geometry":{"type":"Point","coordinates":[-69.969587,41.702265]}},{"properties":{"city":"North Eastham","housing units-2010":30,"latitude":41.8554,"st":"MA","county":"Barnstable","zip code":"02651","population -2010":16,"land-sq. miles":0.07,"water - sq. miles":0.0,"longitude":-699865.0,"id":"abtwjuomjgg5"},"type":"Feature","geometry":{"type":"Point","coordinates":[-699865.0,41.8554]}},{"properties":{"city":"North Truro","housing units-2010":1683,"latitude":42.02889,"st":"MA","county":"Barnstable","zip code":"02652","population -2010":1175,"land-sq. miles":7.998,"water - sq. miles":2.501,"longitude":-70.079382,"id":"abtwjun3iqxy"},"type":"Feature","geometry":{"type":"Point","coordinates":[-70.079382,42.02889]}},{"properties":{"city":"Orleans","housing units-2010":5303,"latitude":41.777647,"st":"MA","county":"Barnstable","zip code":"02653","population -2010":5911,"land-sq. miles":12.041,"water - sq. miles":5.275,"longitude":-69.97312,"id":"abtwjuxrsego"},"type":"Feature","geometry":{"type":"Point","coordinates":[-69.97312,41.777647]}},{"properties":{"city":"Osterville","housing units-2010":3053,"latitude":41.632935,"st":"MA","county":"Barnstable","zip code":"02655","population -2010":3518,"land-sq. miles":6.529,"water - sq. miles":1.76,"longitude":-70.386932,"id":"abtwjux3vkb4"},"type":"Feature","geometry":{"type":"Point","coordinates":[-70.386932,41.632935]}},{"properties":{"city":"Provincetown","housing units-2010":4494,"latitude":42.053355,"st":"MA","county":"Barnstable","zip code":"02657","population -2010":2942,"land-sq. miles":9.671,"water - sq. miles":4.929,"longitude":-70.18947,"id":"abtwjuznnbp6"},"type":"Feature","geometry":{"type":"Point","coordinates":[-70.18947,42.053355]}},{"properties":{"city":"South Chatham","housing units-2010":1297,"latitude":41.678628,"st":"MA","county":"Barnstable","zip code":"02659","population -2010":1108,"land-sq. miles":2.046,"water - sq. miles":0.238,"longitude":-70.024952,"id":"abtwjuwutk56"},"type":"Feature","geometry":{"type":"Point","coordinates":[-70.024952,41.678628]}},{"properties":{"city":"South Dennis","housing units-2010":4551,"latitude":41.712338,"st":"MA","county":"Barnstable","zip code":"02660","population -2010":6261,"land-sq. miles":7.708,"water - sq. miles":0.529,"longitude":-70.161658,"id":"abtwjuoxpy8q"},"type":"Feature","geometry":{"type":"Point","coordinates":[-70.161658,41.712338]}},{"properties":{"city":"South Wellfleet","housing units-2010":412,"latitude":41.675799,"st":"MA","county":"Barnstable","zip code":"02663","population -2010":173,"land-sq. miles":1.412,"water - sq. miles":1.108,"longitude":-70.039606,"id":"abtwjusnoryl"},"type":"Feature","geometry":{"type":"Point","coordinates":[-70.039606,41.675799]}},{"properties":{"city":"South Yarmouth","housing units-2010":7062,"latitude":41.670981,"st":"MA","county":"Barnstable","zip code":"02664","population -2010":9371,"land-sq. miles":6.936,"water - sq. miles":0.874,"longitude":-70.197973,"id":"abtwjuz9uz0w"},"type":"Feature","geometry":{"type":"Point","coordinates":[-70.197973,41.670981]}},{"properties":{"city":"Truro","housing units-2010":1390,"latitude":41.992804,"st":"MA","county":"Barnstable","zip code":"02666","population -2010":828,"land-sq. miles":12.72,"water - sq. miles":1.85,"longitude":-70.054277,"id":"abtwjuv54g7x"},"type":"Feature","geometry":{"type":"Point","coordinates":[-70.054277,41.992804]}},{"properties":{"city":"Wellfleet","housing units-2010":3902,"latitude":41.922412,"st":"MA","county":"Barnstable","zip code":"02667","population -2010":2580,"land-sq. miles":18.629,"water - sq. miles":6.234,"longitude":-70.014845,"id":"abtwjunhqgpt"},"type":"Feature","geometry":{"type":"Point","coordinates":[-70.014845,41.922412]}},{"properties":{"city":"West Barnstable","housing units-2010":1494,"latitude":41.70631,"st":"MA","county":"Barnstable","zip code":"02668","population -2010":3278,"land-sq. miles":15.076,"water - sq. miles":2.451,"longitude":-70.370482,"id":"abtwjuvkne4p"},"type":"Feature","geometry":{"type":"Point","coordinates":[-70.370482,41.70631]}},{"properties":{"city":"West Chatham","housing units-2010":550,"latitude":41.673635,"st":"MA","county":"Barnstable","zip code":"02669","population -2010":285,"land-sq. miles":0.894,"water - sq. miles":0.197,"longitude":-69.994948,"id":"abtwjuwz0dl7"},"type":"Feature","geometry":{"type":"Point","coordinates":[-69.994948,41.673635]}},{"properties":{"city":"West Dennis","housing units-2010":2330,"latitude":41.659749,"st":"MA","county":"Barnstable","zip code":"02670","population -2010":1307,"land-sq. miles":2.088,"water - sq. miles":0.649,"longitude":-70.170894,"id":"abtwjut71x0v"},"type":"Feature","geometry":{"type":"Point","coordinates":[-70.170894,41.659749]}},{"properties":{"city":"West Harwich","housing units-2010":1533,"latitude":41.665589,"st":"MA","county":"Barnstable","zip code":"02671","population -2010":1023,"land-sq. miles":2.014,"water - sq. miles":0.121,"longitude":-70.111528,"id":"abtwjuuhleu7"},"type":"Feature","geometry":{"type":"Point","coordinates":[-70.111528,41.665589]}},{"properties":{"city":"West Hyannisport","housing units-2010":325,"latitude":41.636077,"st":"MA","county":"Barnstable","zip code":"02672","population -2010":180,"land-sq. miles":0.494,"water - sq. miles":0.046,"longitude":-70.319627,"id":"abtwjunx7jig"},"type":"Feature","geometry":{"type":"Point","coordinates":[-70.319627,41.636077]}},{"properties":{"city":"West Yarmouth","housing units-2010":6677,"latitude":41.656883,"st":"MA","county":"Barnstable","zip code":"02673","population -2010":8402,"land-sq. miles":9.988,"water - sq. miles":2.632,"longitude":-70.237264,"id":"abtwjuzfhvsu"},"type":"Feature","geometry":{"type":"Point","coordinates":[-70.237264,41.656883]}},{"properties":{"city":"Yarmouth Port","housing units-2010":4040,"latitude":41.703205,"st":"MA","county":"Barnstable","zip code":"02675","population -2010":6577,"land-sq. miles":9.03,"water - sq. miles":0.741,"longitude":-70.22395,"id":"abtwjulj9dcq"},"type":"Feature","geometry":{"type":"Point","coordinates":[-70.22395,41.703205]}},{"properties":{"city":"Assonet","housing units-2010":1546,"latitude":41.792192,"st":"MA","county":"Bristol","zip code":"02702","population -2010":4125,"land-sq. miles":16.793,"water - sq. miles":1.132,"longitude":-71.064465,"id":"abtwjup6lboi"},"type":"Feature","geometry":{"type":"Point","coordinates":[-71.064465,41.792192]}},{"properties":{"city":"Attleboro","housing units-2010":18019,"latitude":41.928099,"st":"MA","county":"Bristol","zip code":"02703","population -2010":43593,"land-sq. miles":26.814,"water - sq. miles":0.997,"longitude":-71.314564,"id":"abtwjuyxdu3c"},"type":"Feature","geometry":{"type":"Point","coordinates":[-71.314564,41.928099]}},{"properties":{"city":"Cuttyhunk","housing units-2010":168,"latitude":41.429673,"st":"MA","county":"Dukes","zip code":"02713","population -2010":52,"land-sq. miles":5.056,"water - sq. miles":7.076,"longitude":-70.895408,"id":"abtwjupjzfio"},"type":"Feature","geometry":{"type":"Point","coordinates":[-70.895408,41.429673]}},{"properties":{"city":"Dighton","housing units-2010":1124,"latitude":41.811514,"st":"MA","county":"Bristol","zip code":"02715","population -2010":3123,"land-sq. miles":11.453,"water - sq. miles":0.52,"longitude":-71.136335,"id":"abtwjulzx8eq"},"type":"Feature","geometry":{"type":"Point","coordinates":[-71.136335,41.811514]}},{"properties":{"city":"East Freetown","housing units-2010":1771,"latitude":41.765934,"st":"MA","county":"Bristol","zip code":"02717","population -2010":4745,"land-sq. miles":17.68,"water - sq. miles":0.796,"longitude":-70.95332,"id":"abtwjv12t49a"},"type":"Feature","geometry":{"type":"Point","coordinates":[-70.95332,41.765934]}},{"properties":{"city":"East Taunton","housing units-2010":2442,"latitude":41.876249,"st":"MA","county":"Bristol","zip code":"02718","population -2010":6655,"land-sq. miles":10.345,"water - sq. miles":0.329,"longitude":-71.018273,"id":"abtwjv0pr4fp"},"type":"Feature","geometry":{"type":"Point","coordinates":[-71.018273,41.876249]}},{"properties":{"city":"Fairhaven","housing units-2010":7475,"latitude":41.634152,"st":"MA","county":"Bristol","zip code":"02719","population -2010":15873,"land-sq. miles":12.335,"water - sq. miles":3.395,"longitude":-70.881401,"id":"abtwjum3q4ue"},"type":"Feature","geometry":{"type":"Point","coordinates":[-70.881401,41.634152]}},{"properties":{"city":"Fall River","housing units-2010":14347,"latitude":41.716952,"st":"MA","county":"Bristol","zip code":"02720","population -2010":30287,"land-sq. miles":10.871,"water - sq. miles":1.685,"longitude":-71.139866,"id":"abtwjuoyanus"},"type":"Feature","geometry":{"type":"Point","coordinates":[-71.139866,41.716952]}},{"properties":{"city":"Fall River","housing units-2010":12538,"latitude":41.685452,"st":"MA","county":"Bristol","zip code":"02721","population -2010":26290,"land-sq. miles":4.092,"water - sq. miles":1.971,"longitude":-71.154252,"id":"abtwjv084arv"},"type":"Feature","geometry":{"type":"Point","coordinates":[-71.154252,41.685452]}},{"properties":{"city":"Fall River","housing units-2010":7198,"latitude":41.691369,"st":"MA","county":"Bristol","zip code":"02723","population -2010":14767,"land-sq. miles":1.597,"water - sq. miles":0.22,"longitude":-71.132346,"id":"abtwjuz9b68m"},"type":"Feature","geometry":{"type":"Point","coordinates":[-71.132346,41.691369]}},{"properties":{"city":"Fall River","housing units-2010":8465,"latitude":41.684152,"st":"MA","county":"Bristol","zip code":"02724","population -2010":16908,"land-sq. miles":1.858,"water - sq. miles":0.57,"longitude":-71.17436,"id":"abtwjuq5zl7l"},"type":"Feature","geometry":{"type":"Point","coordinates":[-71.17436,41.684152]}},{"properties":{"city":"Somerset","housing units-2010":1035,"latitude":41.721652,"st":"MA","county":"Bristol","zip code":"02725","population -2010":2631,"land-sq. miles":2.373,"water - sq. miles":2.635,"longitude":-71.174823,"id":"abtwjuqnar2t"},"type":"Feature","geometry":{"type":"Point","coordinates":[-71.174823,41.721652]}},{"properties":{"city":"Somerset","housing units-2010":6359,"latitude":41.754828,"st":"MA","county":"Bristol","zip code":"02726","population -2010":15534,"land-sq. miles":5.526,"water - sq. miles":1.36,"longitude":-71.148943,"id":"abtwjup62i3w"},"type":"Feature","geometry":{"type":"Point","coordinates":[-71.148943,41.754828]}},{"properties":{"city":"Marion","housing units-2010":2445,"latitude":41.706599,"st":"MA","county":"Plymouth","zip code":"02738","population -2010":4907,"land-sq. miles":13.993,"water - sq. miles":5.961,"longitude":-70.750867,"id":"abtwjuve6wqm"},"type":"Feature","geometry":{"type":"Point","coordinates":[-70.750867,41.706599]}},{"properties":{"city":"Mattapoisett","housing units-2010":3262,"latitude":41.654776,"st":"MA","county":"Plymouth","zip code":"02739","population -2010":6045,"land-sq. miles":17.351,"water - sq. miles":2.188,"longitude":-70.800873,"id":"abtwjv00snfq"},"type":"Feature","geometry":{"type":"Point","coordinates":[-70.800873,41.654776]}},{"properties":{"city":"New Bedford","housing units-2010":19943,"latitude":41.634754,"st":"MA","county":"Bristol","zip code":"02740","population -2010":43087,"land-sq. miles":5.685,"water - sq. miles":0.819,"longitude":-70.937523,"id":"abtwjul2s11a"},"type":"Feature","geometry":{"type":"Point","coordinates":[-70.937523,41.634754]}},{"properties":{"city":"Acushnet","housing units-2010":4121,"latitude":41.697015,"st":"MA","county":"Bristol","zip code":"02743","population -2010":10307,"land-sq. miles":18.427,"water - sq. miles":0.524,"longitude":-70.910195,"id":"abtwjur5x2p2"},"type":"Feature","geometry":{"type":"Point","coordinates":[-70.910195,41.697015]}},{"properties":{"city":"New Bedford","housing units-2010":5340,"latitude":41.610754,"st":"MA","county":"Bristol","zip code":"02744","population -2010":11900,"land-sq. miles":1.291,"water - sq. miles":0.52,"longitude":-70.914534,"id":"abtwjuzhmu35"},"type":"Feature","geometry":{"type":"Point","coordinates":[-70.914534,41.610754]}},{"properties":{"city":"New Bedford","housing units-2010":10769,"latitude":41.692806,"st":"MA","county":"Bristol","zip code":"02745","population -2010":24576,"land-sq. miles":10.328,"water - sq. miles":0.224,"longitude":-70.932641,"id":"abtwjuy4gjp4"},"type":"Feature","geometry":{"type":"Point","coordinates":[-70.932641,41.692806]}},{"properties":{"city":"New Bedford","housing units-2010":6812,"latitude":41.659336,"st":"MA","county":"Bristol","zip code":"02746","population -2010":15342,"land-sq. miles":2.116,"water - sq. miles":0.12,"longitude":-70.933475,"id":"abtwjurcjvb9"},"type":"Feature","geometry":{"type":"Point","coordinates":[-70.933475,41.659336]}},{"properties":{"city":"North Dartmouth","housing units-2010":7014,"latitude":41.637916,"st":"MA","county":"Bristol","zip code":"02747","population -2010":22927,"land-sq. miles":48.804,"water - sq. miles":1.512,"longitude":-70.990764,"id":"abtwjv0w0abt"},"type":"Feature","geometry":{"type":"Point","coordinates":[-70.990764,41.637916]}},{"properties":{"city":"South Dartmouth","housing units-2010":5519,"latitude":41.59156,"st":"MA","county":"Bristol","zip code":"02748","population -2010":11442,"land-sq. miles":22.49,"water - sq. miles":3.144,"longitude":-70.949401,"id":"abtwjuqpksif"},"type":"Feature","geometry":{"type":"Point","coordinates":[-70.949401,41.59156]}},{"properties":{"city":"North Attleboro","housing units-2010":10904,"latitude":41.975495,"st":"MA","county":"Bristol","zip code":"02760","population -2010":26739,"land-sq. miles":17.971,"water - sq. miles":0.515,"longitude":-71.330865,"id":"abtwjuv6rnv3"},"type":"Feature","geometry":{"type":"Point","coordinates":[-71.330865,41.975495]}},{"properties":{"city":"Plainville","housing units-2010":3482,"latitude":42.011848,"st":"MA","county":"Norfolk","zip code":"02762","population -2010":8264,"land-sq. miles":10.997,"water - sq. miles":0.521,"longitude":-71.32392,"id":"abtwjuzvkp0e"},"type":"Feature","geometry":{"type":"Point","coordinates":[-71.32392,42.011848]}},{"properties":{"city":"Attleboro Falls","housing units-2010":692,"latitude":41.967949,"st":"MA","county":"Bristol","zip code":"02763","population -2010":1973,"land-sq. miles":0.902,"water - sq. miles":0.012,"longitude":-71.31024,"id":"abtwjuz0l20y"},"type":"Feature","geometry":{"type":"Point","coordinates":[-71.31024,41.967949]}},{"properties":{"city":"North Dighton","housing units-2010":1476,"latitude":41.851557,"st":"MA","county":"Bristol","zip code":"02764","population -2010":3988,"land-sq. miles":10.594,"water - sq. miles":0.058,"longitude":-71.151254,"id":"abtwjukv0mzr"},"type":"Feature","geometry":{"type":"Point","coordinates":[-71.151254,41.851557]}},{"properties":{"city":"Norton","housing units-2010":6741,"latitude":41.969185,"st":"MA","county":"Bristol","zip code":"02766","population -2010":19031,"land-sq. miles":27.812,"water - sq. miles":1.5,"longitude":-71.185408,"id":"abtwjupw2lgz"},"type":"Feature","geometry":{"type":"Point","coordinates":[-71.185408,41.969185]}},{"properties":{"city":"Raynham","housing units-2010":5142,"latitude":41.934586,"st":"MA","county":"Bristol","zip code":"02767","population -2010":13566,"land-sq. miles":23.809,"water - sq. miles":0.301,"longitude":-71.049058,"id":"abtwjun2kge8"},"type":"Feature","geometry":{"type":"Point","coordinates":[-71.049058,41.934586]}},{"properties":{"city":"Rehoboth","housing units-2010":4280,"latitude":41.835067,"st":"MA","county":"Bristol","zip code":"02769","population -2010":11608,"land-sq. miles":46.938,"water - sq. miles":0.544,"longitude":-71.261158,"id":"abtwjuxuiq4v"},"type":"Feature","geometry":{"type":"Point","coordinates":[-71.261158,41.835067]}},{"properties":{"city":"Rochester","housing units-2010":1833,"latitude":41.760783,"st":"MA","county":"Plymouth","zip code":"02770","population -2010":5093,"land-sq. miles":32.165,"water - sq. miles":2.415,"longitude":-70.83848,"id":"abtwjupkudbv"},"type":"Feature","geometry":{"type":"Point","coordinates":[-70.83848,41.760783]}},{"properties":{"city":"Seekonk","housing units-2010":5292,"latitude":41.84345,"st":"MA","county":"Bristol","zip code":"02771","population -2010":13708,"land-sq. miles":18.365,"water - sq. miles":0.249,"longitude":-71.323436,"id":"abtwjuwauuo5"},"type":"Feature","geometry":{"type":"Point","coordinates":[-71.323436,41.84345]}},{"properties":{"city":"Swansea","housing units-2010":6334,"latitude":41.741551,"st":"MA","county":"Bristol","zip code":"02777","population -2010":15840,"land-sq. miles":22.672,"water - sq. miles":2.594,"longitude":-71.214333,"id":"abtwjuub8lw6"},"type":"Feature","geometry":{"type":"Point","coordinates":[-71.214333,41.741551]}},{"properties":{"city":"Berkley","housing units-2010":2187,"latitude":41.825252,"st":"MA","county":"Bristol","zip code":"02779","population -2010":6411,"land-sq. miles":16.513,"water - sq. miles":0.914,"longitude":-71.077991,"id":"abtwjuthdlrt"},"type":"Feature","geometry":{"type":"Point","coordinates":[-71.077991,41.825252]}},{"properties":{"city":"Taunton","housing units-2010":21378,"latitude":41.904888,"st":"MA","county":"Bristol","zip code":"02780","population -2010":49036,"land-sq. miles":33.037,"water - sq. miles":1.378,"longitude":-71.102887,"id":"abtwjuxt9ocm"},"type":"Feature","geometry":{"type":"Point","coordinates":[-71.102887,41.904888]}},{"properties":{"city":"Westport Point","housing units-2010":7086,"latitude":41.60856,"st":"MA","county":null,"zip code":"02790","population -2010":15717,"land-sq. miles":53.704,"water - sq. miles":10.143,"longitude":-71.0735,"id":"abtwjurkupbh"},"type":"Feature","geometry":{"type":"Point","coordinates":[-71.0735,41.60856]}},{"properties":{"city":"Westport Point","housing units-2010":277,"latitude":41.5193,"st":"MA","county":null,"zip code":"02791","population -2010":246,"land-sq. miles":1.054,"water - sq. miles":0.005,"longitude":-71.0722,"id":"abtwjur9z26g"},"type":"Feature","geometry":{"type":"Point","coordinates":[-71.0722,41.5193]}}],"is_temporal":false,"author":{"url":"","metadata":"","contact_name":"","contact_address":"","source":"","contact_phone":""},"source":"","pagination":{"sort":null,"start":0,"total":529,"limit":1000000},"state":"complete","tags":"","published":"2014-08-16T20:41:48-04:00","id":315610}