{"type":"FeatureCollection","data_type":"Dataset","url_type":null,"permissions":[{"permissions":{"download":true,"view":true},"group_id":"everyone"}],"classification":null,"title":"MTSOHubsconverted13013","count":119,"stream_id":315922,"contributor":{"url":"http://geocommons.com/users/12008","name":"pantheon"},"data_attributes":null,"calculation_params":null,"icon_link":null,"link":"http://geocommons.com/overlays/315922.json","extent":[-156.32,36.6263,-78.3286,46.8725],"geometry_types":["point"],"unique_name":null,"name":"MTSOHubsconverted13013","feature_count":119,"description":"","next_feature":null,"is_raster":false,"short_classification":"Y","stats":{"latnew":{"max":46.8725,"variance":5.38079380510167,"mean":40.6529300984211,"stdev":2.31965381147741,"min":36.62628611,"median":40.48194444},"longnew":{"max":-78.32861111,"variance":76.8716058724372,"mean":-89.8894492328421,"stdev":8.76764540070121,"min":-156.32,"median":-89.15583333}},"features":[{"properties":{"city":"LAKE SAINT LOUIS","longold":"-90-46-14","zip":"63367","latnew":38.77527778,"county":"ST. CHARLES","type":"MTSO","site name":"KM DARDENNE MTSO","country":"USA","longnew":-90.77055556,"clli":"DRDNMOAD","latold":"38-46-31","id":"aburvopnsg4n","address":"1859 S HENKE RD","state":"MO"},"type":"Feature","geometry":{"type":"Point","coordinates":[-90.77055556,38.77527778]}},{"properties":{"city":"LENEXA","longold":"-94.742023","zip":"66210","latnew":38.952236,"county":"JOHNSON","type":"MTSO","site name":"KM LENEXA MTSO","country":"USA","longnew":-94.742023,"clli":"LENYKSCJ","latold":"38.952236","id":"aburvozqgf47","address":"9725 PFLUMM RD","state":"KS"},"type":"Feature","geometry":{"type":"Point","coordinates":[-94.742023,38.952236]}},{"properties":{"city":"MOUNDRIDGE","longold":"-97.5068","zip":"67107","latnew":38.1913,"county":"MCPHERSON","type":"MTSO","site name":"KM MOUNDRIDGE MTSO","country":"USA","longnew":-97.5068,"clli":"MNRGKSAB","latold":"38.1913","id":"aburvovpi558","address":"901 INDUSTRIAL PARK DR","state":"KS"},"type":"Feature","geometry":{"type":"Point","coordinates":[-97.5068,38.1913]}},{"properties":{"city":"CARBONDALE","longold":"-89-09-48","zip":"62902","latnew":37.73694444,"county":"JACKSON","type":"MTSO","site name":"KM NEW CARBONDALE MTSO","country":"USA","longnew":-89.16333333,"clli":"CRDLIL13","latold":"37-44-13","id":"aburvoxcs2d8","address":"1070 N REED STATION RD","state":"IL"},"type":"Feature","geometry":{"type":"Point","coordinates":[-89.16333333,37.73694444]}},{"properties":{"city":"SPRINGFIELD","longold":"-93.227427","zip":"65804","latnew":37.156388,"county":"GREENE","type":"MTSO","site name":"KM SPRINGFIELD MTSO","country":"USA","longnew":-93.227427,"clli":"SPFDMOKC","latold":"37.156388","id":"aburvovmflbr","address":"3330 E MONTCLAIR ST","state":"MO"},"type":"Feature","geometry":{"type":"Point","coordinates":[-93.227427,37.156388]}},{"properties":{"city":"SAINT LOUIS","longold":"-90-12-13","zip":"63106","latnew":38.63555556,"county":"ST. LOUIS CITY","type":"MTSO","site name":"KM ST LOUIS MTSO","country":"USA","longnew":-90.20361111,"clli":"STLSMOYQ","latold":"38-38-08","id":"aburvou2ai5p","address":"1710 DR MARTIN LUTHER KING DR","state":"MO"},"type":"Feature","geometry":{"type":"Point","coordinates":[-90.20361111,38.63555556]}},{"properties":{"city":"BRIDGEVILLE","longold":"-80 07 38","zip":"15017","latnew":40.35166667,"county":"ALLEGHENY","type":"MTSO","site name":"PI MSC BRIDGEVILLE","country":"USA","longnew":-80.12722222,"clli":"BGVLPA01","latold":"40 21 06","id":"aburvotf7j2j","address":"18 ABELE RD","state":"PA"},"type":"Feature","geometry":{"type":"Point","coordinates":[-80.12722222,40.35166667]}},{"properties":{"city":"BRIDGEVILLE","longold":"-80 07 35","zip":"15017","latnew":40.35111111,"county":"ALLEGHENY","type":"MTSO","site name":"PI MSC BRIDGEVILLE 2","country":"USA","longnew":-80.12638889,"clli":"SFTPPA01","latold":"40 21 04","id":"aburvoqpsp1c","address":"18 ABELE RD, BLDG 2","state":"PA"},"type":"Feature","geometry":{"type":"Point","coordinates":[-80.12638889,40.35111111]}},{"properties":{"city":"JOHNSTOWN","longold":"-78 50 24","zip":"15904","latnew":40.28222222,"county":"CAMBRIA","type":"MTSO","site name":"PI MSC JOHNSTOWN","country":"USA","longnew":-78.84,"clli":"JHTWPADPCM2","latold":"40 16 56","id":"aburvow8zapm","address":"107 GAPVAX LN","state":"PA"},"type":"Feature","geometry":{"type":"Point","coordinates":[-78.84,40.28222222]}},{"properties":{"city":"PITTSBURGH","longold":"-79 59 13","zip":"15222","latnew":40.44888889,"county":"ALLEGHENY","type":"MTSO","site name":"PI MSC PITTSBURGH","country":"USA","longnew":-79.98694444,"clli":"PITBPAMTCM2","latold":"40 26 56","id":"aburvousfu8d","address":"207 16TH ST","state":"PA"},"type":"Feature","geometry":{"type":"Point","coordinates":[-79.98694444,40.44888889]}},{"properties":{"city":"SAINT CLAIRSVILLE","longold":"-80 56 02","zip":"43950","latnew":40.08222222,"county":"BELMONT","type":"MTSO","site name":"PI MSC ST CLAIRSVILLE","country":"USA","longnew":-80.93388889,"clli":"SCVIOHAG","latold":"40 04 56","id":"aburvp5er5bv","address":"47400 WATSON RD","state":"OH"},"type":"Feature","geometry":{"type":"Point","coordinates":[-80.93388889,40.08222222]}},{"properties":{"city":"DES MOINES","longold":"-93 35 34","zip":"50320","latnew":41.52777778,"county":"POLK","type":"MTSO","site name":"GP ARMY POST MSC","country":"USA","longnew":-93.59277778,"clli":"DESMIAIECM1","latold":"41 31 40","id":"aburvp01lbh4","address":"1530 E ARMY POST RD","state":"IA"},"type":"Feature","geometry":{"type":"Point","coordinates":[-93.59277778,41.52777778]}},{"properties":{"city":"BLOOMINGTON","longold":"-93 14 10.80","zip":"55438","latnew":44.86024167,"county":"HENNEPIN","type":"MTSO","site name":"GP BLOOMINGTON MTSO","country":"USA","longnew":-93.23633333,"clli":"BLTNMN86","latold":"44 51 36.87","id":"aburvowo38g7","address":"10801 BUSH LAKE RD","state":"MN"},"type":"Feature","geometry":{"type":"Point","coordinates":[-93.23633333,44.86024167]}},{"properties":{"city":"FARGO","longold":"-96 50 58","zip":"58103","latnew":46.8725,"county":"CASS","type":"MTSO","site name":"GP FARGO MSC","country":"USA","longnew":-96.84944444,"clli":"FARGNDGV","latold":"46 52 21","id":"aburvoqpl3hx","address":"4121 4TH AVE SW","state":"ND"},"type":"Feature","geometry":{"type":"Point","coordinates":[-96.84944444,46.8725]}},{"properties":{"city":"GOLDEN VALLEY","longold":"-93 23 58","zip":"55427","latnew":45.00638889,"county":"HENNEPIN","type":"MTSO","site name":"GP GOLDEN VALLEY MSC","country":"USA","longnew":-93.39944444,"clli":"GLVYMNNV","latold":"45 00 23","id":"aburvozwewxk","address":"2510 MENDELSSOHN AVE N","state":"MN"},"type":"Feature","geometry":{"type":"Point","coordinates":[-93.39944444,45.00638889]}},{"properties":{"city":"OMAHA","longold":"-96.079","zip":"68114","latnew":41.267,"county":"DOUGLAS","type":"MTSO","site name":"GP OMAHA MTSO BURT CIRCLE","country":"USA","longnew":-96.079,"clli":"OMAJNEBMCM5","latold":"41.267","id":"aburvp0g0mhv","address":"10640 BURT CIR","state":"NE"},"type":"Feature","geometry":{"type":"Point","coordinates":[-96.079,41.267]}},{"properties":{"city":"OWATONNA","longold":"-93.259","zip":"55060","latnew":44.092,"county":"STEELE","type":"MTSO","site name":"GP OWATONNA MTSO (ALLTEL)","country":"USA","longnew":-93.259,"clli":"OWTNMNCC","latold":"44.092","id":"aburvox3qii1","address":"1015 26TH PLACE NW","state":"MN"},"type":"Feature","geometry":{"type":"Point","coordinates":[-93.259,44.092]}},{"properties":{"city":"SIOUX FALLS","longold":"-96.764518","zip":"57104","latnew":43.546057,"county":"MINNEHAHA","type":"MTSO","site name":"GP SIOUX FALLS MSC","country":"USA","longnew":-96.764518,"clli":"SXFLSDTU","latold":"43.546057","id":"aburvp5wmc35","address":"2024 E 50TH ST N","state":"SD"},"type":"Feature","geometry":{"type":"Point","coordinates":[-96.764518,43.546057]}},{"properties":{"city":"OMAHA","longold":"-96 08 43","zip":"68137","latnew":41.21888889,"county":"DOUGLAS","type":"MTSO","site name":"GP WEST OMAHA MSC","country":"USA","longnew":-96.14527778,"clli":"OMALNEXUCM1","latold":"41 13 08","id":"aburvork6vf2","address":"4002 S 149TH CIR","state":"NE"},"type":"Feature","geometry":{"type":"Point","coordinates":[-96.14527778,41.21888889]}},{"properties":{"city":"AKRON","longold":"-81 28 22","zip":"44305","latnew":41.09666667,"county":"SUMMIT","type":"MTSO","site name":"OH AKRON MTSO","country":"USA","longnew":-81.47277778,"clli":"AKROOH20","latold":"41 05 48","id":"aburvov6g7nu","address":"1250 ANNE MARIE PKWY","state":"OH"},"type":"Feature","geometry":{"type":"Point","coordinates":[-81.47277778,41.09666667]}},{"properties":{"city":"CINCINNATI","longold":"-84 31 12","zip":"45202","latnew":39.11166667,"county":"HAMILTON","type":"MTSO","site name":"OH CINCINNATI MTSO","country":"USA","longnew":-84.52,"clli":"CNCNOHSM","latold":"39 06 42","id":"aburvotvpzyg","address":"1522 CENTRAL PKWY","state":"OH"},"type":"Feature","geometry":{"type":"Point","coordinates":[-84.52,39.11166667]}},{"properties":{"city":"GARFIELD HEIGHTS","longold":"-81 34 38","zip":"44128","latnew":41.42638889,"county":"CUYAHOGA","type":"MTSO","site name":"OH CLEVELAND MTSO","country":"USA","longnew":-81.57722222,"clli":"GAHGOHBT","latold":"41 25 35","id":"aburvp3585sj","address":"4931 ORCHARD RD","state":"OH"},"type":"Feature","geometry":{"type":"Point","coordinates":[-81.57722222,41.42638889]}},{"properties":{"city":"CINCINNATI","longold":"-84 26 56","zip":"45246","latnew":39.31,"county":"HAMILTON","type":"MTSO","site name":"OH DUFF DRIVE MTSO","country":"USA","longnew":-84.44888889,"clli":"CNCQOH22","latold":"39 18 36","id":"aburvp06agph","address":"5400 DUFF DR","state":"OH"},"type":"Feature","geometry":{"type":"Point","coordinates":[-84.44888889,39.31]}},{"properties":{"city":"LEWIS CENTER","longold":"-83 00 56","zip":"43035","latnew":40.17888889,"county":"DELAWARE","type":"MTSO","site name":"OH LEWIS CENTER MTSO","country":"USA","longnew":-83.01555556,"clli":"LWCTOH02","latold":"40 10 44","id":"aburvozw9tat","address":"7575 COMMERCE CT","state":"OH"},"type":"Feature","geometry":{"type":"Point","coordinates":[-83.01555556,40.17888889]}},{"properties":{"city":"MAUMEE","longold":"-83 41 43","zip":"43537","latnew":41.57777778,"county":"LUCAS","type":"MTSO","site name":"OH MAUMEE MTSO [ALLTEL]","country":"USA","longnew":-83.69527778,"clli":"MNTPOHAE","latold":"41 34 40","id":"aburvow2q3r6","address":"3530 BRIARFIELD BLVD","state":"OH"},"type":"Feature","geometry":{"type":"Point","coordinates":[-83.69527778,41.57777778]}},{"properties":{"city":"SOUTHFIELD","longold":"-83 15 51.6","zip":"48034","latnew":42.44516667,"county":"OAKLAND","type":"MTSO","site name":"MC LAHSER ROAD MTSO6 / 0105 (DETROIT 10 &amp; 11)","country":"USA","longnew":-83.26433333,"clli":"SFLEMIFX","latold":"42 26 42.6","id":"aburvoybkxsn","address":"21009 LAHSER RD","state":"MI"},"type":"Feature","geometry":{"type":"Point","coordinates":[-83.26433333,42.44516667]}},{"properties":{"city":"SOUTHFIELD","longold":"-83 14 01","zip":"48034","latnew":42.4675,"county":"OAKLAND","type":"MTSO","site name":"MC LODGE MTSO7","country":"USA","longnew":-83.23361111,"clli":"SFLDMILRCM1","latold":"42 28 03","id":"aburvoulc9wn","address":"24242 NORTHWESTERN HWY","state":"MI"},"type":"Feature","geometry":{"type":"Point","coordinates":[-83.23361111,42.4675]}},{"properties":{"city":"ROYAL OAK","longold":"-83 10 36","zip":"48073","latnew":42.53027778,"county":"OAKLAND","type":"MTSO","site name":"MC ROYAL OAK MTSO2 / 0101","country":"USA","longnew":-83.17666667,"clli":"RYLOMICB","latold":"42 31 49","id":"aburvovszb2i","address":"4550 DELEMERE BLVD.","state":"MI"},"type":"Feature","geometry":{"type":"Point","coordinates":[-83.17666667,42.53027778]}},{"properties":{"city":"WESTLAND","longold":"-83 25 40","zip":"48185","latnew":42.32638889,"county":"WAYNE","type":"MTSO","site name":"MC WESTLAND MTSO5 (DET5) / 0104","country":"USA","longnew":-83.42777778,"clli":"CTTPMIBG","latold":"42 19 35","id":"aburvoqbtnvw","address":"39400 FORD ROAD","state":"MI"},"type":"Feature","geometry":{"type":"Point","coordinates":[-83.42777778,42.32638889]}},{"properties":{"city":"CHANDLER","longold":"-87 22 08","zip":"47610","latnew":38.02388889,"county":"WARRICK","type":"MTSO","site name":"IN EVANSVILLE MTSO","country":"USA","longnew":-87.36888889,"clli":"CHNDINAA","latold":"38 01 26","id":"aburvotijipv","address":"800 RUSSELL RD","state":"IN"},"type":"Feature","geometry":{"type":"Point","coordinates":[-87.36888889,38.02388889]}},{"properties":{"city":"INDIANAPOLIS","longold":"-86.22706","zip":"46254","latnew":39.82751,"county":"MARION","type":"MTSO","site name":"IN GUION ROAD MTSO","country":"USA","longnew":-86.22706,"clli":"IPLTINQY","latold":"39.82751","id":"aburvp4vf8oo","address":"3965 INDUSTRIAL BLVD","state":"IN"},"type":"Feature","geometry":{"type":"Point","coordinates":[-86.22706,39.82751]}},{"properties":{"city":"JEFFERSONTOWN","longold":"-85 33 17","zip":"40299","latnew":38.20972222,"county":"JEFFERSON","type":"MTSO","site name":"IN LOUISVILLE MTSO","country":"USA","longnew":-85.55472222,"clli":"LSVLKYWX","latold":"38 12 35","id":"aburvouyb5a1","address":"2441 HOLLOWAY RD","state":"KY"},"type":"Feature","geometry":{"type":"Point","coordinates":[-85.55472222,38.20972222]}},{"properties":{"city":"INDIANAPOLIS","longold":"-86 17 57","zip":"46214","latnew":39.7875,"county":"MARION","type":"MTSO","site name":"IN WESTSIDE MTSO","country":"USA","longnew":-86.29916667,"clli":"IPLUINXI","latold":"39 47 15","id":"aburvot8s3ml","address":"1645 MIDWEST BLVD","state":"IN"},"type":"Feature","geometry":{"type":"Point","coordinates":[-86.29916667,39.7875]}},{"properties":{"city":"ALEXANDRIA","longold":null,"zip":null,"latnew":null,"county":null,"type":"MTSO\\Hub","site name":"GP ALEXANDRIA MTSO","country":"USA","longnew":null,"clli":null,"latold":null,"id":"aburvovsi367","address":"3905 DAKOTA ST SW","state":"MN"},"type":"Feature","geometry":null},{"properties":{"city":"SPRINGFIELD","longold":"-89-42-59","zip":"62711","latnew":39.75055556,"county":"SANGAMON","type":"MTSO","site name":"SP MTSO SPRINGFIELD","country":"USA","longnew":-89.71638889,"clli":"SPFDILUP","latold":"39-45-02","id":"aburvoxfnqgq","address":"3420 CONSTITUTION DR","state":"IL"},"type":"Feature","geometry":{"type":"Point","coordinates":[-89.71638889,39.75055556]}},{"properties":{"city":"ROCKFORD","longold":"-89-9-21","zip":"61101","latnew":42.28361111,"county":"WINNEBAGO","type":"MTSO","site name":"RO MTSO ROCKFORD","country":"USA","longnew":-89.15583333,"clli":"RCFRILAJ","latold":"42-17-1","id":"aburvowtd9ny","address":"1550 N MEMORIAL BLVD","state":"IL"},"type":"Feature","geometry":{"type":"Point","coordinates":[-89.15583333,42.28361111]}},{"properties":{"city":"ELGIN","longold":"-88.3447","zip":"60124","latnew":42.0715,"county":"KANE","type":"MTSO","site name":"CH MTSO ELGIN","country":"USA","longnew":-88.3447,"clli":"ELGNIL32","latold":"42.0715","id":"aburvovz86kh","address":"1700 BRITANNIA DR","state":"IL"},"type":"Feature","geometry":{"type":"Point","coordinates":[-88.3447,42.0715]}},{"properties":{"city":"HICKORY HILLS","longold":"-156.32","zip":"60457","latnew":41.7332,"county":"COOK","type":"MTSO","site name":"CH MTSO HICKORY HILLS","country":"USA","longnew":-156.32,"clli":"HCHLILMT","latold":"41-43-59.52","id":"aburvp26qe7s","address":"8888 W 87TH ST","state":"IL"},"type":"Feature","geometry":{"type":"Point","coordinates":[-156.32,41.7332]}},{"properties":{"city":"MISHAWAKA","longold":"-86 9 17","zip":"46544","latnew":41.65111111,"county":"ST. JOSEPH","type":"MTSO","site name":"SB MTSO SOUTH BEND","country":"USA","longnew":-86.15472222,"clli":"MSHWINBW","latold":"41 39 04","id":"aburvp5xwy2y","address":"1528 E 12TH ST","state":"IN"},"type":"Feature","geometry":{"type":"Point","coordinates":[-86.15472222,41.65111111]}},{"properties":{"city":"NEW BERLIN","longold":"-88 06 34","zip":"53151","latnew":42.99583333,"county":"WAUKESHA","type":"MTSO","site name":"MW MTSO NEW BERLIN","country":"USA","longnew":-88.10944444,"clli":"NWBLWICZ","latold":"42 59 45","id":"aburvor72ouh","address":"15725 W RYERSON RD","state":"WI"},"type":"Feature","geometry":{"type":"Point","coordinates":[-88.10944444,42.99583333]}},{"properties":{"city":"APPLETON","longold":"-88.47488","zip":"54913","latnew":44.26283,"county":"OUTAGAMIE","type":"MTSO","site name":"AP MTSO APPLETON","country":"USA","longnew":-88.47488,"clli":"APPLWIEE","latold":"44.26283","id":"aburvoso6uhj","address":"4600 W COLLEGE AVE","state":"WI"},"type":"Feature","geometry":{"type":"Point","coordinates":[-88.47488,44.26283]}},{"properties":{"city":"DEXTER","longold":null,"zip":"67038","latnew":null,"county":"COWLEY","type":"Fiber POP","site name":"KM DEXTER POP - 111 SOUTH MAIN","country":"USA","longnew":null,"clli":"DXTRKSXA","latold":null,"id":"aburvozad30v","address":"111 S MAIN ST","state":"KS"},"type":"Feature","geometry":null},{"properties":{"city":"DODGE CITY","longold":"-100.045372","zip":"67801","latnew":37.828273,"county":"FORD","type":"Fiber POP","site name":"KM DODGE CITY POP - 10582 110 RD","country":"USA","longnew":-100.045372,"clli":"DDCYKSFKW00","latold":"37.828273","id":"aburvp4538l0","address":"10582 110 RD","state":"KS"},"type":"Feature","geometry":{"type":"Point","coordinates":[-100.045372,37.828273]}},{"properties":{"city":"DWIGHT","longold":null,"zip":"66849","latnew":null,"county":"MORRIS","type":"Fiber POP","site name":"KM DWIGHT POP - 221 7TH STREET","country":"USA","longnew":null,"clli":"DWGHKSXA","latold":null,"id":"aburvothard5","address":"221 7TH ST","state":"KS"},"type":"Feature","geometry":null},{"properties":{"city":"EMPORIA","longold":"-96.237391","zip":"66801","latnew":38.412694,"county":"LYON","type":"Fiber POP","site name":"KM EMPORIA POP - 4200 W. HIGHWAY 50","country":"USA","longnew":-96.237391,"clli":"EMPRKSDI","latold":"38.412694","id":"aburvotmyvaq","address":"4200 W HIGHWAY 50","state":"KS"},"type":"Feature","geometry":{"type":"Point","coordinates":[-96.237391,38.412694]}},{"properties":{"city":"GREAT BEND","longold":"-98.80591","zip":"67503","latnew":38.35939,"county":"BARTON","type":"Fiber POP","site name":"KM GREAT BEND POP - 5416 8TH ST","country":"USA","longnew":-98.80591,"clli":"GRTBKSFB","latold":"38.35939","id":"aburvp2nfc87","address":"5416 8TH ST","state":"KS"},"type":"Feature","geometry":{"type":"Point","coordinates":[-98.80591,38.35939]}},{"properties":{"city":"HARRISONVILLE","longold":"-94.433779","zip":"64701","latnew":38.626521,"county":"CASS","type":"Fiber POP","site name":"KM HARRISONVILLE POP - 14201 E. 271 ST","country":"USA","longnew":-94.433779,"clli":"HNVLMOAT","latold":"38.626521","id":"aburvp3hvdu3","address":"14201 E 271ST ST","state":"MO"},"type":"Feature","geometry":{"type":"Point","coordinates":[-94.433779,38.626521]}},{"properties":{"city":"HAYS","longold":"-99.344028","zip":"67601","latnew":38.871226,"county":"ELLIS","type":"Fiber POP","site name":"KM HAYS POP - 600 PARK ST","country":"USA","longnew":-99.344028,"clli":"HAYSKSLD","latold":"38.871226","id":"aburvox3smuk","address":"600 PARK ST","state":"KS"},"type":"Feature","geometry":{"type":"Point","coordinates":[-99.344028,38.871226]}},{"properties":{"city":"HOLTON","longold":"-95.7387","zip":"66436","latnew":39.39076,"county":"JACKSON","type":"Fiber POP","site name":"KM HOLTON POP - 19025 Q ROAD (ALLTEL)","country":"USA","longnew":-95.7387,"clli":"HLTNKSAY","latold":"39.39076","id":"aburvoz80zn1","address":"19025 Q RD","state":"KS"},"type":"Feature","geometry":{"type":"Point","coordinates":[-95.7387,39.39076]}},{"properties":{"city":"HUTCHINSON","longold":"-97.86928","zip":"67501","latnew":38.05934,"county":"RENO","type":"Fiber POP","site name":"KM HUTCHINSON POP - 3409 E 6TH AVE","country":"USA","longnew":-97.86928,"clli":"HTSNKSAQ","latold":"38.05934","id":"aburvp0apx1l","address":"3409 E 6TH AVE","state":"KS"},"type":"Feature","geometry":{"type":"Point","coordinates":[-97.86928,38.05934]}},{"properties":{"city":"INDEPENDENCE","longold":"-95.764475","zip":"67301","latnew":37.13833,"county":"MONTGOMERY","type":"Fiber POP","site name":"KM INDEPENDENCE POP - 3304 COUNTY ROAD 3200","country":"USA","longnew":-95.764475,"clli":"INDPKSBF","latold":"37.13833","id":"aburvot56fr7","address":"3304 COUNTY ROAD 3200","state":"KS"},"type":"Feature","geometry":{"type":"Point","coordinates":[-95.764475,37.13833]}},{"properties":{"city":"JUNCTION CITY","longold":"-96.68583","zip":"66441","latnew":39.04915,"county":"GEARY","type":"Fiber POP","site name":"KM JUNCTION CITY POP - 9400 TULLY HILL RD","country":"USA","longnew":-96.68583,"clli":"JNCYKSBQ","latold":"39.04915","id":"aburvoy89wy2","address":"9400 TULLY HILL RD","state":"KS"},"type":"Feature","geometry":{"type":"Point","coordinates":[-96.68583,39.04915]}},{"properties":{"city":"KANSAS CITY","longold":"-94-34-52","zip":"64106","latnew":39.10083333,"county":"JACKSON","type":"Fiber POP","site name":"KM KANSAS CITY REGIONAL / NNO POP - SUITE 1220","country":"USA","longnew":-94.58111111,"clli":"KSCYMOAV","latold":"39-06-03","id":"aburvp46d3wy","address":"1102 GRAND BLVD STE 1220","state":"MO"},"type":"Feature","geometry":{"type":"Point","coordinates":[-94.58111111,39.10083333]}},{"properties":{"city":"PARSONS","longold":"-95.263181","zip":"67357","latnew":37.31055,"county":"LABETTE","type":"Fiber POP","site name":"KM PARSONS POP - 1527 22,000 ROAD","country":"USA","longnew":-95.263181,"clli":"PRSSKSBL","latold":"37.31055","id":"aburvopfp539","address":"1527 22,000 RD","state":"KS"},"type":"Feature","geometry":{"type":"Point","coordinates":[-95.263181,37.31055]}},{"properties":{"city":"PITTSBURG","longold":null,"zip":"66762","latnew":null,"county":"CRAWFORD","type":"Fiber POP","site name":"KM PITTSBURG REGIONAL / NNO POP- 1910 E ATKINSON AVE","country":"USA","longnew":null,"clli":"PSBGKSCM","latold":null,"id":"aburvopgiwpz","address":"1910 E ATKINSON AVE","state":"KS"},"type":"Feature","geometry":null},{"properties":{"city":"SALINA","longold":"-97.611047","zip":"67402","latnew":38.779648,"county":"SALINE","type":"Fiber POP","site name":"KM SALINA POP - 167 E AVENUE A","country":"USA","longnew":-97.611047,"clli":"SALNKSBI","latold":"38.779648","id":"aburvp18ubi9","address":"167 E AVENUE A","state":"KS"},"type":"Feature","geometry":{"type":"Point","coordinates":[-97.611047,38.779648]}},{"properties":{"city":"TECUMSEH (EAST TOPEKA)","longold":"-95.583549","zip":"66542","latnew":39.030265,"county":"SHAWNEE","type":"Fiber POP","site name":"KM TECUMSEH POP - 4832 SE 21ST ST","country":"USA","longnew":-95.583549,"clli":"TCMSKSAF","latold":"39.030265","id":"aburvosfr0f9","address":"4832 SE 21ST ST","state":"KS"},"type":"Feature","geometry":{"type":"Point","coordinates":[-95.583549,39.030265]}},{"properties":{"city":"WICHITA","longold":"-97.3372","zip":"67202","latnew":37.6881,"county":"SEDGWICK","type":"Fiber POP","site name":"KM WICHITA POP - 155 N MARKET ST SUITE LL130","country":"USA","longnew":-97.3372,"clli":"WCHTKSMB","latold":"37.6881","id":"aburvoyxj0v8","address":"155 N MARKET ST STE 130","state":"KS"},"type":"Feature","geometry":{"type":"Point","coordinates":[-97.3372,37.6881]}},{"properties":{"city":"WINFIELD","longold":"-97.02349","zip":"67156","latnew":37.16939,"county":"COWLEY","type":"Fiber POP","site name":"KM WINFIELD POP - 22165 71ST ROAD","country":"USA","longnew":-97.02349,"clli":"WNFDKSBH","latold":"37.16939","id":"aburvoyjcu2e","address":"22165 71ST RD","state":"KS"},"type":"Feature","geometry":{"type":"Point","coordinates":[-97.02349,37.16939]}},{"properties":{"city":"MONTICELLO","longold":null,"zip":"55362","latnew":null,"county":null,"type":"Fiber POP","site name":"Monticello","country":"USA","longnew":null,"clli":null,"latold":null,"id":"aburvp015gdu","address":"3698 School Blvd","state":"MN"},"type":"Feature","geometry":null},{"properties":{"city":"ST CLOUD","longold":null,"zip":"56301","latnew":null,"county":null,"type":"Fiber POP","site name":"St Cloud","country":"USA","longnew":null,"clli":null,"latold":null,"id":"aburvozdyllm","address":"3701 18th Street South","state":"MN"},"type":"Feature","geometry":null},{"properties":{"city":"FERGUS FALLS","longold":null,"zip":"56537","latnew":null,"county":null,"type":"Fiber POP","site name":"Fergus Falls","country":"USA","longnew":null,"clli":null,"latold":null,"id":"aburvovlht6o","address":"230 West Lincoln Avenue","state":"MN"},"type":"Feature","geometry":null},{"properties":{"city":"BELGRADE","longold":null,"zip":null,"latnew":null,"county":null,"type":"Fiber POP","site name":"Belgrade","country":"USA","longnew":null,"clli":null,"latold":null,"id":"aburvoqzwn4a","address":"Hwy 55","state":"MN"},"type":"Feature","geometry":null},{"properties":{"city":"ATLANTIC","longold":"-95.0986","zip":null,"latnew":41.3389,"county":"CASS","type":"Fiber POP","site name":"Atlantic","country":"USA","longnew":-95.0986,"clli":null,"latold":"41.3389","id":"aburvp3h3x53","address":"56639 570th Street","state":"IA"},"type":"Feature","geometry":{"type":"Point","coordinates":[-95.0986,41.3389]}},{"properties":{"city":"HAMPTON","longold":"-93.2218","zip":null,"latnew":42.7418,"county":"FRANKLIN","type":"Fiber POP","site name":"Hampton","country":"USA","longnew":-93.2218,"clli":null,"latold":"42.7418","id":"aburvoyg2vny","address":"Hwy 3 &amp; Central Avenue","state":"IA"},"type":"Feature","geometry":{"type":"Point","coordinates":[-93.2218,42.7418]}},{"properties":{"city":"McCALLSBURG","longold":"-93.39442","zip":null,"latnew":42.16515,"county":"STORY","type":"Fiber POP","site name":"McCallsburg","country":"USA","longnew":-93.39442,"clli":null,"latold":"42.16515","id":"aburvp1rl3tr","address":"Hwy 221 &amp; Main Street","state":"IA"},"type":"Feature","geometry":{"type":"Point","coordinates":[-93.39442,42.16515]}},{"properties":{"city":"NORTHWOOD","longold":"-93.22095","zip":null,"latnew":43.45713,"county":"WORTH","type":"Fiber POP","site name":"Northwood","country":"USA","longnew":-93.22095,"clli":null,"latold":"43.45713","id":"aburvos8qi5b","address":"1111 8th Street North","state":"IA"},"type":"Feature","geometry":{"type":"Point","coordinates":[-93.22095,43.45713]}},{"properties":{"city":"STUART","longold":"-94.3185","zip":null,"latnew":41.5038,"county":"ADAIR","type":"Fiber POP","site name":"Stuart","country":"USA","longnew":-94.3185,"clli":null,"latold":"41.5038","id":"aburvoumtcd7","address":"E Front St &amp; S Division St","state":"IA"},"type":"Feature","geometry":{"type":"Point","coordinates":[-94.3185,41.5038]}},{"properties":{"city":"FARMINGTON","longold":null,"zip":"55024","latnew":null,"county":null,"type":"Fiber POP","site name":"Eureka Center","country":"USA","longnew":null,"clli":null,"latold":null,"id":"aburvp2rzdnx","address":"25070 Cedar Ave","state":"MN"},"type":"Feature","geometry":null},{"properties":{"city":"ANN ARBOR","longold":null,"zip":"48106","latnew":null,"county":null,"type":"Fiber POP","site name":"MC ANN ARBOR POP (AT&amp;T colocation)","country":"USA","longnew":null,"clli":"ANARMIMNH43","latold":null,"id":"aburvot0irp2","address":"324 EAST HURON","state":"MI"},"type":"Feature","geometry":null},{"properties":{"city":"BATTLE CREEK","longold":null,"zip":"49017","latnew":null,"county":null,"type":"Fiber POP","site name":"MC BATTLE CREEK POP (AT&amp;T colocation)","country":"USA","longnew":null,"clli":"BTCKMIMNH27","latold":null,"id":"aburvowxw9fa","address":"94 EAST MICHIGAN","state":"MI"},"type":"Feature","geometry":null},{"properties":{"city":"GRAND RAPIDS","longold":"-85 48 38","zip":"49053","latnew":42.89694444,"county":null,"type":"Fiber POP","site name":"MC GRAND RAPIDS POP (AT&amp;T colocation)","country":"USA","longnew":-85.81055556,"clli":"GDRPMIBLH65","latold":"42 53 49","id":"aburvoue0s7k","address":"114 DIVISION AVE N","state":"MI"},"type":"Feature","geometry":{"type":"Point","coordinates":[-85.81055556,42.89694444]}},{"properties":{"city":"JACKSON","longold":null,"zip":"49201","latnew":null,"county":null,"type":"Fiber POP","site name":"MC JACKSON POP (AT&amp;T colocation)","country":"USA","longnew":null,"clli":"JCSNMIMNH41","latold":null,"id":"aburvp0exb5x","address":"304 S JACKSON ST","state":"MI"},"type":"Feature","geometry":null},{"properties":{"city":"KALAMAZOO","longold":null,"zip":"49007","latnew":null,"county":null,"type":"Fiber POP","site name":"MC KALAMAZOO POP (AT&amp;T colocation)","country":"USA","longnew":null,"clli":"KLMZMIFAH48","latold":null,"id":"aburvowdlosr","address":"133 W LOVELL ST","state":"MI"},"type":"Feature","geometry":null},{"properties":{"city":"LANSING","longold":"-84 33 8.82","zip":"48933","latnew":42.73494444,"county":null,"type":"Fiber POP","site name":"MC LANSING POP (AT&amp;T colocation)","country":"USA","longnew":-84.55245,"clli":"LNNGMIMNH43","latold":"42 44 5.8","id":"aburvopgtlf7","address":"221 N WASHINGTON SQ","state":"MI"},"type":"Feature","geometry":{"type":"Point","coordinates":[-84.55245,42.73494444]}},{"properties":{"city":"MOUNT PLEASANT","longold":null,"zip":"48858","latnew":null,"county":null,"type":"Fiber POP","site name":"MC MOUNT PLEASANT POP (Frontier colocation)","country":"USA","longnew":null,"clli":"MNPLMIXGW09","latold":null,"id":"aburvorkdh2f","address":"303 MAIN ST","state":"MI"},"type":"Feature","geometry":null},{"properties":{"city":"MUSKEGON","longold":null,"zip":"49440","latnew":null,"county":null,"type":"Fiber POP","site name":"MC MUSKEGON POP (Frontier colocation)","country":"USA","longnew":null,"clli":"MSKGMIXKW24","latold":null,"id":"aburvoqch04f","address":"860 TERRACE ST","state":"MI"},"type":"Feature","geometry":null},{"properties":{"city":"PONTIAC","longold":null,"zip":"48342","latnew":null,"county":null,"type":"Fiber POP","site name":"MC PONTIAC POP (AT&amp;T colocation)","country":"USA","longnew":null,"clli":"PNTCMIMNH32","latold":null,"id":"aburvp271fbm","address":"54 N MILL ST","state":"MI"},"type":"Feature","geometry":null},{"properties":{"city":"SAGINAW","longold":null,"zip":"48601","latnew":null,"county":null,"type":"Fiber POP","site name":"MC SAGINAW POP (AT&amp;T colocation)","country":"USA","longnew":null,"clli":"SGNWMIFAH18","latold":null,"id":"aburvp1kscu1","address":"309 S WASHINGTON RD","state":"MI"},"type":"Feature","geometry":null},{"properties":{"city":"TROY","longold":null,"zip":"48084","latnew":null,"county":null,"type":"Fiber POP","site name":"MC TROY POP (AT&amp;T colocation)","country":"USA","longnew":null,"clli":"TROYMIMNBJ","latold":null,"id":"aburvozfqi6p","address":"1145 ROCHESTER RD","state":"MI"},"type":"Feature","geometry":null},{"properties":{"city":"WAYNE","longold":null,"zip":"48184","latnew":null,"county":null,"type":"Fiber POP","site name":"MC WAYNE POP (AT&amp;T colocation)","country":"USA","longnew":null,"clli":"WAYNMIMNH36","latold":null,"id":"aburvosf8m3t","address":"34656 E MICHIGAN AVE","state":"MI"},"type":"Feature","geometry":null},{"properties":{"city":"WEST BLOOMFIELD","longold":null,"zip":"48322","latnew":null,"county":null,"type":"Fiber POP","site name":"MC WEST BLOOMFIELD POP (AT&amp;T colocation)","country":"USA","longnew":null,"clli":"WBFDMIMNH84","latold":null,"id":"aburvp13vi7q","address":"7020 MIDDLEBELT RD","state":"MI"},"type":"Feature","geometry":null},{"properties":{"city":"DAVENPORT","longold":"-90-37-12","zip":"52804","latnew":41.54833333,"county":"SCOTT","type":"Fiber POP","site name":"RO CLARK STREET [DAVENPORT]","country":"USA","longnew":-90.62,"clli":"DVNPIACLHAA","latold":"41-32-54","id":"aburvp1cyqmb","address":"2823 N CLARK ST","state":"IA"},"type":"Feature","geometry":{"type":"Point","coordinates":[-90.62,41.54833333]}},{"properties":{"city":"CENTRALIA","longold":"-89-7-58","zip":"62801","latnew":38.52888889,"county":"MARION","type":"Fiber POP","site name":"AT&amp;T/CENLILCE","country":"USA","longnew":-89.13277778,"clli":"CENLILCE51T","latold":"38-31-44","id":"aburvoqzj5zy","address":"210 NORTH LOCUST ST","state":"IL"},"type":"Feature","geometry":{"type":"Point","coordinates":[-89.13277778,38.52888889]}},{"properties":{"city":"MATTOON","longold":"-88-22-28","zip":"61938","latnew":39.48111111,"county":"COLES","type":"Fiber POP","site name":"ICTC/MTONILXCW20 [MATTOON]","country":"USA","longnew":-88.37444444,"clli":"MTONILXC","latold":"39-28-52","id":"aburvoqqg9tk","address":"1501 CHARLESTON AVE","state":"IL"},"type":"Feature","geometry":{"type":"Point","coordinates":[-88.37444444,39.48111111]}},{"properties":{"city":"BLOOMINGTON","longold":"-88-29-42","zip":"61701","latnew":40.48194444,"county":"MCLEAN","type":"Fiber POP","site name":"FRONTIER / BLTNILXD [BLOOMINGTON]","country":"USA","longnew":-88.495,"clli":"BLTNILXD","latold":"40-28-55","id":"aburvoy5vdzj","address":"110 E MONROE ST","state":"IL"},"type":"Feature","geometry":{"type":"Point","coordinates":[-88.495,40.48194444]}},{"properties":{"city":"CHAMPAIGN","longold":"-88-14-51","zip":"61820","latnew":40.11777778,"county":"CHAMPAIGN","type":"Fiber POP","site name":"AT&amp;T/CHMPILCP [CHAMPAIGN]","country":"USA","longnew":-88.2475,"clli":"CHMPILCP","latold":"40-7-4","id":"aburvp2exhy1","address":"201-203 S NEIL ST","state":"IL"},"type":"Feature","geometry":{"type":"Point","coordinates":[-88.2475,40.11777778]}},{"properties":{"city":"COLUMBIA","longold":"-92-18-10","zip":"65201","latnew":38.91583333,"county":"BOONE","type":"CELL","site name":"KM OLD 63 PCS","country":"USA","longnew":-92.30277778,"clli":"CLMAMO45","latold":"38-54-57","id":"aburvowa7msx","address":"3104 OLD 63 HIGHWAY S","state":"MO"},"type":"Feature","geometry":{"type":"Point","coordinates":[-92.30277778,38.91583333]}},{"properties":{"city":"DESOTO","longold":"-90-37-32.33","zip":"63020","latnew":38.09162778,"county":"JEFFERSON","type":"CELL","site name":"KM PERKINS","country":"USA","longnew":-90.62564722,"clli":"DESTMO05","latold":"38-05-29.86","id":"aburvp2mploe","address":"14253B STATE ROUTE 21","state":"MO"},"type":"Feature","geometry":{"type":"Point","coordinates":[-90.62564722,38.09162778]}},{"properties":{"city":"SAINT MARY","longold":"-89-57-33.51","zip":"63673","latnew":37.82156667,"county":"PERRY","type":"CELL","site name":"KM N PERRYVILLE","country":"USA","longnew":-89.95930833,"clli":"SYTSMO01","latold":"37-49-17.64","id":"aburvoxa6ni4","address":"1093 PCR 830","state":"MO"},"type":"Feature","geometry":{"type":"Point","coordinates":[-89.95930833,37.82156667]}},{"properties":{"city":"JACKSON","longold":"-89-40-03","zip":"63755","latnew":37.37805556,"county":"CAPE GIRARDEAU","type":"CELL","site name":"KM DT JACKSON","country":"USA","longnew":-89.6675,"clli":"JCSNMOAN","latold":"37-22-41","id":"aburvouh75rh","address":"525 S HOPE","state":"MO"},"type":"Feature","geometry":{"type":"Point","coordinates":[-89.6675,37.37805556]}},{"properties":{"city":"CAPE GIRARDEAU","longold":"-89.564875","zip":"63703","latnew":37.288724,"county":"CAPE GIRARDEAU","type":"CELL","site name":"KM WEST CAPE GIRARDEAU","country":"USA","longnew":-89.564875,"clli":"CPGRMO06","latold":"37.288724","id":"aburvoq3ex9x","address":"352 S SILVER SPRINGS RD","state":"MO"},"type":"Feature","geometry":{"type":"Point","coordinates":[-89.564875,37.288724]}},{"properties":{"city":"SIKESTON","longold":"-89-35-59","zip":"63801","latnew":36.87888889,"county":"SCOTT","type":"CELL","site name":"KM SIKESTON II","country":"USA","longnew":-89.59972222,"clli":"SKSTMOEQ","latold":"36-52-44","id":"aburvp4867z6","address":"317 N WEST ST","state":"MO"},"type":"Feature","geometry":{"type":"Point","coordinates":[-89.59972222,36.87888889]}},{"properties":{"city":"DEXTER","longold":"-89-58-19","zip":"63841","latnew":36.83027778,"county":"STODDARD","type":"CELL","site name":"KM DEXTER","country":"USA","longnew":-89.97194444,"clli":"DXTRMO03","latold":"36-49-49","id":"aburvoq8u5er","address":"COUNTY ROAD 413/460","state":"MO"},"type":"Feature","geometry":{"type":"Point","coordinates":[-89.97194444,36.83027778]}},{"properties":{"city":"POPLAR BLUFF","longold":"-90-23-12","zip":"63901","latnew":36.78083333,"county":"BUTLER","type":"CELL","site name":"KM POPLAR BLUFF NE","country":"USA","longnew":-90.38666667,"clli":"PPBLMO09","latold":"36-46-51","id":"aburvp21op7w","address":"2305 GRAND AVE","state":"MO"},"type":"Feature","geometry":{"type":"Point","coordinates":[-90.38666667,36.78083333]}},{"properties":{"city":"DONIPHAN","longold":"-90-50-00.37","zip":"63935","latnew":36.62628611,"county":"RIPLEY","type":"CELL","site name":"KM DONIPHAN PCS","country":"USA","longnew":-90.83343611,"clli":"DNPHMO01","latold":"36-37-34.63","id":"aburvoxb3v8d","address":"HIGHWAY 160","state":"MO"},"type":"Feature","geometry":{"type":"Point","coordinates":[-90.83343611,36.62628611]}},{"properties":{"city":"EVERETT","longold":"-78 19 43","zip":"15537","latnew":39.99444444,"county":"BEDFORD","type":"CELL","site name":"PI MENCH","country":"USA","longnew":-78.32861111,"clli":"EVRTPA03","latold":"39 59 40","id":"aburvosg3sdm","address":"19880 RITCHEY RD","state":"PA"},"type":"Feature","geometry":{"type":"Point","coordinates":[-78.32861111,39.99444444]}},{"properties":{"city":"DECATUR","longold":null,"zip":null,"latnew":null,"county":null,"type":"CELL","site name":"GP DECATUR","country":"USA","longnew":null,"clli":null,"latold":null,"id":"aburvotxzbym","address":"661 W 7TH ST - TELCO ADDR: 653 N 6TH AVE","state":"NE"},"type":"Feature","geometry":null},{"properties":{"city":"SIOUX CITY","longold":null,"zip":null,"latnew":null,"county":null,"type":"CELL","site name":"GP HAMILTON","country":"USA","longnew":null,"clli":null,"latold":null,"id":"aburvoubapc2","address":"510 W 20TH ST","state":"IA"},"type":"Feature","geometry":null},{"properties":{"city":"BERESFORD","longold":null,"zip":null,"latnew":null,"county":null,"type":"CELL","site name":"GP BERESFORD II","country":"USA","longnew":null,"clli":null,"latold":null,"id":"aburvowqj9aa","address":"30391 471TH AVE","state":"SD"},"type":"Feature","geometry":null},{"properties":{"city":"ALBION","longold":"-83.9333333333","zip":"49224","latnew":43.54722222,"county":"CALHOUN","type":"CELL","site name":"MC ALBION/5864","country":"USA","longnew":-83.93333333,"clli":"SHTCMIABH01","latold":"43.54722222","id":"aburvoybobss","address":"26616 E DR","state":"MI"},"type":"Feature","geometry":{"type":"Point","coordinates":[-83.93333333,43.54722222]}},{"properties":{"city":"BAY CITY","longold":"-85.96613889","zip":"48706","latnew":42.39613889,"county":"BAY","type":"CELL","site name":"MC BAY CITY /0255","country":"USA","longnew":-85.96613889,"clli":"BYCYMIBN","latold":"42.39613889","id":"aburvozu6q95","address":"6645 SOUTH 2-MILE RD","state":"MI"},"type":"Feature","geometry":{"type":"Point","coordinates":[-85.96613889,42.39613889]}},{"properties":{"city":"BLOOMINGDALE","longold":"-86.12310556","zip":"49026","latnew":42.3656,"county":"VAN BUREN","type":"CELL","site name":"MC BLOOMINGDALE/5815","country":"USA","longnew":-86.12310556,"clli":"BLDLMI","latold":"42.3656","id":"aburvosedyzn","address":"42879 6TH AVE","state":"MI"},"type":"Feature","geometry":{"type":"Point","coordinates":[-86.12310556,42.3656]}},{"properties":{"city":"GRAND JUNCTION","longold":"-83.94694444","zip":"49056","latnew":43.28611111,"county":"VAN BUREN","type":"CELL","site name":"MC BREEDSVILLE /5802","country":"USA","longnew":-83.94694444,"clli":"BNGRMI","latold":"43.28611111","id":"aburvp2jednd","address":"59420 16TH AVE","state":"MI"},"type":"Feature","geometry":{"type":"Point","coordinates":[-83.94694444,43.28611111]}},{"properties":{"city":"BURT","longold":"-83.92691667","zip":"48417","latnew":43.44919444,"county":"SAGINAW","type":"CELL","site name":"MC BRIDGEPORT /0238","country":"USA","longnew":-83.92691667,"clli":"BRPTMISO","latold":"43.44919444","id":"aburvor9f3t0","address":"1686 W SLOAN RD","state":"MI"},"type":"Feature","geometry":{"type":"Point","coordinates":[-83.92691667,43.44919444]}},{"properties":{"city":"SAGINAW","longold":"-84.2108","zip":"48601","latnew":43.2367,"county":"SAGINAW","type":"CELL","site name":"MC CARROLTON PCS/0247","country":"USA","longnew":-84.2108,"clli":"SGNWMICH00","latold":"43.2367","id":"aburvortd2ax","address":"1701 NORTH 6TH AVE","state":"MI"},"type":"Feature","geometry":{"type":"Point","coordinates":[-84.2108,43.2367]}},{"properties":{"city":"BRANT","longold":"-86.13194444","zip":"48614","latnew":42.61111111,"county":"SAGINAW","type":"CELL","site name":"MC CHESANING BRANT /0231","country":"USA","longnew":-86.13194444,"clli":"BRNTMI","latold":"42.61111111","id":"aburvot1jq1v","address":"12560 RAUCHOLZ RD","state":"MI"},"type":"Feature","geometry":{"type":"Point","coordinates":[-86.13194444,42.61111111]}},{"properties":{"city":"FENNVILLE","longold":"-85.74194444","zip":"49408","latnew":42.93333333,"county":"ALLEGAN","type":"CELL","site name":"MC FENNVILLE/5953","country":"USA","longnew":-85.74194444,"clli":"FNVLMIABH01","latold":"42.93333333","id":"aburvovn5crn","address":"2633 60TH ST","state":"MI"},"type":"Feature","geometry":{"type":"Point","coordinates":[-85.74194444,42.93333333]}},{"properties":{"city":"WALKER","longold":"-83.88833333","zip":"49544","latnew":43.37722222,"county":"KENT","type":"CELL","site name":"MC GRANDVILLE/1545","country":"USA","longnew":-83.88833333,"clli":"GDRPMINUH02","latold":"43.37722222","id":"aburvp071oso","address":"3131 VETERANS MEM DR","state":"MI"},"type":"Feature","geometry":{"type":"Point","coordinates":[-83.88833333,43.37722222]}},{"properties":{"city":"SAGINAW","longold":"-84.377222","zip":"48601","latnew":42.683361,"county":"SAGINAW","type":"CELL","site name":"MC KING ROAD/0243","country":"USA","longnew":-84.377222,"clli":"BRPTMIABH00","latold":"42.683361","id":"aburvouxy360","address":"3350 KING RD","state":"MI"},"type":"Feature","geometry":{"type":"Point","coordinates":[-84.377222,42.683361]}},{"properties":{"city":"OKEMOS","longold":"-84.62194444","zip":"48864","latnew":42.2675,"county":"INGHAM","type":"CELL","site name":"MC MERIDIAN (Lansing mtso)/5411","country":"USA","longnew":-84.62194444,"clli":"OKMSMIAR","latold":"42.2675","id":"aburvoxx3cim","address":"820 JOLLY RD","state":"MI"},"type":"Feature","geometry":{"type":"Point","coordinates":[-84.62194444,42.2675]}},{"properties":{"city":"PARMA","longold":"-85.00805556","zip":"49269","latnew":42.915,"county":"JACKSON","type":"CELL","site name":"MC PARMA/5703","country":"USA","longnew":-85.00805556,"clli":"PARMMIAA","latold":"42.915","id":"aburvoq3iowv","address":"12280 MICHIGAN AVE","state":"MI"},"type":"Feature","geometry":{"type":"Point","coordinates":[-85.00805556,42.915]}},{"properties":{"city":"PORTLAND","longold":"-85.2444458","zip":"48875","latnew":42.89972305,"county":"IONIA","type":"CELL","site name":"MC PORTLAND / 5402","country":"USA","longnew":-85.2444458,"clli":"PTLDMIAE","latold":"42.89972305","id":"aburvovw3a1p","address":"3321 GOODWIN RD","state":"MI"},"type":"Feature","geometry":{"type":"Point","coordinates":[-85.2444458,42.89972305]}},{"properties":{"city":"LOWELL","longold":"-84.13636111","zip":"49331","latnew":43.405,"county":"IONIA","type":"CELL","site name":"MC SARANAC 100406","country":"USA","longnew":-84.13636111,"clli":"SRNCMIDC","latold":"43.405","id":"aburvp2hnb1r","address":"8575 PECK LK RD","state":"MI"},"type":"Feature","geometry":{"type":"Point","coordinates":[-84.13636111,43.405]}},{"properties":{"city":"SAGINAW","longold":"-85.55722046","zip":"48603","latnew":42.34472275,"county":"SAGINAW","type":"CELL","site name":"MC SHIELDS /0239","country":"USA","longnew":-85.55722046,"clli":"SGNWMISH42","latold":"42.34472275","id":"aburvp16xkkw","address":"11275 SHOEMAKER RD","state":"MI"},"type":"Feature","geometry":{"type":"Point","coordinates":[-85.55722046,42.34472275]}},{"properties":{"city":"KALAMAZOO","longold":"-84.320777","zip":"49004","latnew":42.30003,"county":"KALAMAZOO","type":"CELL","site name":"MC TRAVIS RD. /5826","country":"USA","longnew":-84.320777,"clli":"KLMZMIGOW70","latold":"42.30003","id":"aburvos0tswp","address":"2958 TRAVIS RD","state":"MI"},"type":"Feature","geometry":{"type":"Point","coordinates":[-84.320777,42.30003]}},{"properties":{"city":"JACKSON","longold":"-86.021388","zip":"49201","latnew":42.78638,"county":"JACKSON","type":"CELL","site name":"MC TRUMBLA ROAD/5702","country":"USA","longnew":-86.021388,"clli":"MCHCMIAAH00","latold":"42.78638","id":"aburvova664b","address":"6358 TRUMBLE RD","state":"MI"},"type":"Feature","geometry":{"type":"Point","coordinates":[-86.021388,42.78638]}},{"properties":{"city":"ZEELAND","longold":null,"zip":"49464","latnew":null,"county":"OTTAWA","type":"CELL","site name":"MC ZEELAND/1540","country":"USA","longnew":null,"clli":"ZELDMIANH00","latold":null,"id":"aburvozjwxlr","address":"9717 ADAMS","state":"MI"},"type":"Feature","geometry":null},{"properties":{"city":"LENA","longold":"-89-46-37.43","zip":"61048","latnew":42.383625,"county":"STEPHENSON","type":"CELL","site name":"RO NEW LENA","country":"USA","longnew":-89.77706389,"clli":"LENAIL01","latold":"42-23-01.05","id":"aburvoxsi64v","address":"8081 WEST RANGE RD","state":"IL"},"type":"Feature","geometry":{"type":"Point","coordinates":[-89.77706389,42.383625]}}],"is_temporal":false,"author":{"url":"","metadata":"","contact_name":"","contact_address":"","source":"","contact_phone":""},"source":"","pagination":{"sort":null,"start":0,"total":119,"limit":1000000},"state":"complete","tags":"","published":"2014-08-16T21:08:34-04:00","id":315922}