{"type":"FeatureCollection","data_type":"Dataset","url_type":null,"permissions":[{"permissions":{"download":true,"edit":true,"view":true},"group_id":"everyone"}],"classification":null,"title":"Endeavor data","count":60,"stream_id":316086,"contributor":{"url":"http://geocommons.com/users/60318","name":"anil_k"},"data_attributes":null,"calculation_params":null,"icon_link":null,"link":"http://geocommons.com/overlays/316086.json","extent":[-85.4655,32.821,-81.3037,33.9682],"geometry_types":["point"],"unique_name":null,"name":"Endeavor data","feature_count":60,"description":"","next_feature":null,"is_raster":false,"short_classification":"Y","stats":{},"features":[{"properties":{"district":"Atlanta-Sandy Springs-Gainesville","country":"USA","geo_score":0.714,"id":"abvbp766tjj2","zipcodes":"36855","geo_precision":"zip","state":"Georgia"},"type":"Feature","geometry":{"type":"Point","coordinates":[-85.311223,32.91934]}},{"properties":{"district":"Atlanta-Sandy Springs-Gainesville","country":"USA","geo_score":0.714,"id":"abvbp6xjqzx2","zipcodes":"36862","geo_precision":"zip","state":"Georgia"},"type":"Feature","geometry":{"type":"Point","coordinates":[-85.465506,33.006512]}},{"properties":{"district":"Atlanta-Sandy Springs-Gainesville","country":"USA","geo_score":0.714,"id":"abvbp6vvdo0j","zipcodes":"36863","geo_precision":"zip","state":"Georgia"},"type":"Feature","geometry":{"type":"Point","coordinates":[-85.190775,32.853184]}},{"properties":{"district":"Atlanta-Sandy Springs-Gainesville","country":"USA","geo_score":0.857,"id":"abvbp72a628v","zipcodes":"39901","geo_precision":"zip","state":"Georgia"},"type":"Feature","geometry":{"type":"Point","coordinates":[-84.07456,33.891251]}},{"properties":{"district":"Augusta-Richmond County","country":"USA","geo_score":0.714,"id":"abvbp71cc9oh","zipcodes":"29105","geo_precision":"zip","state":"Georgia"},"type":"Feature","geometry":{"type":"Point","coordinates":[-81.653439,33.968194]}},{"properties":{"district":"Augusta-Richmond County","country":"USA","geo_score":0.714,"id":"abvbp71q9gkz","zipcodes":"29137","geo_precision":"zip","state":"Georgia"},"type":"Feature","geometry":{"type":"Point","coordinates":[-81.303713,33.673761]}},{"properties":{"district":"Augusta-Richmond County","country":"USA","geo_score":0.714,"id":"abvbp6sd6sk7","zipcodes":"29164","geo_precision":"zip","state":"Georgia"},"type":"Feature","geometry":{"type":"Point","coordinates":[-81.490659,33.694315]}},{"properties":{"district":"Augusta-Richmond County","country":"USA","geo_score":0.714,"id":"abvbp6ulpyuc","zipcodes":"29801","geo_precision":"zip","state":"Georgia"},"type":"Feature","geometry":{"type":"Point","coordinates":[-81.719275,33.612639]}},{"properties":{"district":"Augusta-Richmond County","country":"USA","geo_score":0.714,"id":"abvbp6wf434o","zipcodes":"29802","geo_precision":"zip","state":"Georgia"},"type":"Feature","geometry":{"type":"Point","coordinates":[-81.59072,33.723519]}},{"properties":{"district":"Augusta-Richmond County","country":"USA","geo_score":0.714,"id":"abvbp6uf8n33","zipcodes":"29803","geo_precision":"zip","state":"Georgia"},"type":"Feature","geometry":{"type":"Point","coordinates":[-81.654275,33.554586]}},{"properties":{"district":"Augusta-Richmond County","country":"USA","geo_score":0.714,"id":"abvbp6sk3x7e","zipcodes":"29804","geo_precision":"zip","state":"Georgia"},"type":"Feature","geometry":{"type":"Point","coordinates":[-81.599891,33.53773]}},{"properties":{"district":"Augusta-Richmond County","country":"USA","geo_score":0.714,"id":"abvbp6tsqvdg","zipcodes":"29805","geo_precision":"zip","state":"Georgia"},"type":"Feature","geometry":{"type":"Point","coordinates":[-81.646528,33.699335]}},{"properties":{"district":"Augusta-Richmond County","country":"USA","geo_score":0.714,"id":"abvbp752lylq","zipcodes":"29808","geo_precision":"zip","state":"Georgia"},"type":"Feature","geometry":{"type":"Point","coordinates":[-81.599891,33.53773]}},{"properties":{"district":"Augusta-Richmond County","country":"USA","geo_score":0.714,"id":"abvbp6syd3tk","zipcodes":"29809","geo_precision":"zip","state":"Georgia"},"type":"Feature","geometry":{"type":"Point","coordinates":[-81.694554,33.44403]}},{"properties":{"district":"Augusta-Richmond County","country":"USA","geo_score":0.714,"id":"abvbp76l3a4g","zipcodes":"29816","geo_precision":"zip","state":"Georgia"},"type":"Feature","geometry":{"type":"Point","coordinates":[-81.850871,33.496998]}},{"properties":{"district":"Augusta-Richmond County","country":"USA","geo_score":0.714,"id":"abvbp6stbejx","zipcodes":"29822","geo_precision":"zip","state":"Georgia"},"type":"Feature","geometry":{"type":"Point","coordinates":[-81.86485,33.499656]}},{"properties":{"district":"Augusta-Richmond County","country":"USA","geo_score":0.714,"id":"abvbp72snmiw","zipcodes":"29824","geo_precision":"zip","state":"Georgia"},"type":"Feature","geometry":{"type":"Point","coordinates":[-81.990395,33.915963]}},{"properties":{"district":"Augusta-Richmond County","country":"USA","geo_score":0.714,"id":"abvbp6whke5b","zipcodes":"29828","geo_precision":"zip","state":"Georgia"},"type":"Feature","geometry":{"type":"Point","coordinates":[-81.827708,33.518235]}},{"properties":{"district":"Augusta-Richmond County","country":"USA","geo_score":0.714,"id":"abvbp72z61pt","zipcodes":"29829","geo_precision":"zip","state":"Georgia"},"type":"Feature","geometry":{"type":"Point","coordinates":[-81.810667,33.556526]}},{"properties":{"district":"Augusta-Richmond County","country":"USA","geo_score":0.714,"id":"abvbp78ir8mq","zipcodes":"29831","geo_precision":"zip","state":"Georgia"},"type":"Feature","geometry":{"type":"Point","coordinates":[-81.724702,33.421714]}},{"properties":{"district":"Augusta-Richmond County","country":"USA","geo_score":0.714,"id":"abvbp6vqt6l6","zipcodes":"29832","geo_precision":"zip","state":"Georgia"},"type":"Feature","geometry":{"type":"Point","coordinates":[-81.840666,33.800413]}},{"properties":{"district":"Augusta-Richmond County","country":"USA","geo_score":0.714,"id":"abvbp6v1ahom","zipcodes":"29834","geo_precision":"zip","state":"Georgia"},"type":"Feature","geometry":{"type":"Point","coordinates":[-81.844485,33.497937]}},{"properties":{"district":"Augusta-Richmond County","country":"USA","geo_score":0.714,"id":"abvbp75o3m91","zipcodes":"29839","geo_precision":"zip","state":"Georgia"},"type":"Feature","geometry":{"type":"Point","coordinates":[-81.599198,33.507335]}},{"properties":{"district":"Augusta-Richmond County","country":"USA","geo_score":0.714,"id":"abvbp6uzi0on","zipcodes":"29841","geo_precision":"zip","state":"Georgia"},"type":"Feature","geometry":{"type":"Point","coordinates":[-81.939004,33.512358]}},{"properties":{"district":"Augusta-Richmond County","country":"USA","geo_score":0.714,"id":"abvbp6wdt7bt","zipcodes":"29842","geo_precision":"zip","state":"Georgia"},"type":"Feature","geometry":{"type":"Point","coordinates":[-81.8639,33.470747]}},{"properties":{"district":"Augusta-Richmond County","country":"USA","geo_score":0.714,"id":"abvbp768ppu1","zipcodes":"29847","geo_precision":"zip","state":"Georgia"},"type":"Feature","geometry":{"type":"Point","coordinates":[-81.864218,33.698302]}},{"properties":{"district":"Augusta-Richmond County","country":"USA","geo_score":0.714,"id":"abvbp6wbj05i","zipcodes":"29850","geo_precision":"zip","state":"Georgia"},"type":"Feature","geometry":{"type":"Point","coordinates":[-81.686183,33.545819]}},{"properties":{"district":"Augusta-Richmond County","country":"USA","geo_score":0.714,"id":"abvbp712ybff","zipcodes":"29851","geo_precision":"zip","state":"Georgia"},"type":"Feature","geometry":{"type":"Point","coordinates":[-81.795561,33.526017]}},{"properties":{"district":"Augusta-Richmond County","country":"USA","geo_score":0.714,"id":"abvbp73t5i1r","zipcodes":"29856","geo_precision":"zip","state":"Georgia"},"type":"Feature","geometry":{"type":"Point","coordinates":[-81.549415,33.480097]}},{"properties":{"district":"Augusta-Richmond County","country":"USA","geo_score":0.714,"id":"abvbp70to0cp","zipcodes":"29860","geo_precision":"zip","state":"Georgia"},"type":"Feature","geometry":{"type":"Point","coordinates":[-81.855456,33.556645]}},{"properties":{"district":"Augusta-Richmond County","country":"USA","geo_score":0.714,"id":"abvbp78jpxh3","zipcodes":"29861","geo_precision":"zip","state":"Georgia"},"type":"Feature","geometry":{"type":"Point","coordinates":[-81.599891,33.53773]}},{"properties":{"district":"Augusta-Richmond County","country":"USA","geo_score":0.857,"id":"abvbp7537abg","zipcodes":"30426","geo_precision":"zip","state":"Georgia"},"type":"Feature","geometry":{"type":"Point","coordinates":[-81.684489,33.05387]}},{"properties":{"district":"Augusta-Richmond County","country":"USA","geo_score":0.857,"id":"abvbp6vxdhm3","zipcodes":"30441","geo_precision":"zip","state":"Georgia"},"type":"Feature","geometry":{"type":"Point","coordinates":[-82.275124,32.82099]}},{"properties":{"district":"Augusta-Richmond County","country":"USA","geo_score":0.857,"id":"abvbp6tb38k1","zipcodes":"30456","geo_precision":"zip","state":"Georgia"},"type":"Feature","geometry":{"type":"Point","coordinates":[-81.876782,33.022099]}},{"properties":{"district":"Augusta-Richmond County","country":"USA","geo_score":0.857,"id":"abvbp6vm4h1p","zipcodes":"30802","geo_precision":"zip","state":"Georgia"},"type":"Feature","geometry":{"type":"Point","coordinates":[-82.326235,33.610411]}},{"properties":{"district":"Augusta-Richmond County","country":"USA","geo_score":0.857,"id":"abvbp75zbk76","zipcodes":"30805","geo_precision":"zip","state":"Georgia"},"type":"Feature","geometry":{"type":"Point","coordinates":[-82.129286,33.304309]}},{"properties":{"district":"Augusta-Richmond County","country":"USA","geo_score":0.857,"id":"abvbp780dwnq","zipcodes":"30806","geo_precision":"zip","state":"Georgia"},"type":"Feature","geometry":{"type":"Point","coordinates":[-82.5104,33.527993]}},{"properties":{"district":"Augusta-Richmond County","country":"USA","geo_score":0.857,"id":"abvbp6vya8l5","zipcodes":"30808","geo_precision":"zip","state":"Georgia"},"type":"Feature","geometry":{"type":"Point","coordinates":[-82.401622,33.404395]}},{"properties":{"district":"Augusta-Richmond County","country":"USA","geo_score":0.857,"id":"abvbp6sbrlyl","zipcodes":"30809","geo_precision":"zip","state":"Georgia"},"type":"Feature","geometry":{"type":"Point","coordinates":[-82.143617,33.551132]}},{"properties":{"district":"Augusta-Richmond County","country":"USA","geo_score":0.857,"id":"abvbp6viq6fa","zipcodes":"30811","geo_precision":"zip","state":"Georgia"},"type":"Feature","geometry":{"type":"Point","coordinates":[-81.929165,33.050487]}},{"properties":{"district":"Augusta-Richmond County","country":"USA","geo_score":0.857,"id":"abvbp6whnlaj","zipcodes":"30812","geo_precision":"zip","state":"Georgia"},"type":"Feature","geometry":{"type":"Point","coordinates":[-82.090996,33.386041]}},{"properties":{"district":"Augusta-Richmond County","country":"USA","geo_score":0.857,"id":"abvbp701sl11","zipcodes":"30813","geo_precision":"zip","state":"Georgia"},"type":"Feature","geometry":{"type":"Point","coordinates":[-82.213991,33.466721]}},{"properties":{"district":"Augusta-Richmond County","country":"USA","geo_score":0.857,"id":"abvbp6z13mvn","zipcodes":"30814","geo_precision":"zip","state":"Georgia"},"type":"Feature","geometry":{"type":"Point","coordinates":[-82.307337,33.456131]}},{"properties":{"district":"Augusta-Richmond County","country":"USA","geo_score":0.857,"id":"abvbp6yg4y3m","zipcodes":"30815","geo_precision":"zip","state":"Georgia"},"type":"Feature","geometry":{"type":"Point","coordinates":[-82.058032,33.32229]}},{"properties":{"district":"Augusta-Richmond County","country":"USA","geo_score":0.857,"id":"abvbp7784ewe","zipcodes":"30816","geo_precision":"zip","state":"Georgia"},"type":"Feature","geometry":{"type":"Point","coordinates":[-82.2179,33.15098]}},{"properties":{"district":"Augusta-Richmond County","country":"USA","geo_score":0.857,"id":"abvbp6tu4bdk","zipcodes":"30824","geo_precision":"zip","state":"Georgia"},"type":"Feature","geometry":{"type":"Point","coordinates":[-82.513847,33.494908]}},{"properties":{"district":"Augusta-Richmond County","country":"USA","geo_score":0.857,"id":"abvbp6ttvnbf","zipcodes":"30830","geo_precision":"zip","state":"Georgia"},"type":"Feature","geometry":{"type":"Point","coordinates":[-81.986767,33.080724]}},{"properties":{"district":"Augusta-Richmond County","country":"USA","geo_score":0.857,"id":"abvbp78a2mnv","zipcodes":"30901","geo_precision":"zip","state":"Georgia"},"type":"Feature","geometry":{"type":"Point","coordinates":[-81.969184,33.456687]}},{"properties":{"district":"Augusta-Richmond County","country":"USA","geo_score":0.857,"id":"abvbp77ul983","zipcodes":"30903","geo_precision":"zip","state":"Georgia"},"type":"Feature","geometry":{"type":"Point","coordinates":[-82.090996,33.386041]}},{"properties":{"district":"Augusta-Richmond County","country":"USA","geo_score":0.857,"id":"abvbp6uxzp9f","zipcodes":"30904","geo_precision":"zip","state":"Georgia"},"type":"Feature","geometry":{"type":"Point","coordinates":[-82.016783,33.513191]}},{"properties":{"district":"Augusta-Richmond County","country":"USA","geo_score":0.857,"id":"abvbp6ycwmiq","zipcodes":"30905","geo_precision":"zip","state":"Georgia"},"type":"Feature","geometry":{"type":"Point","coordinates":[-82.133732,33.412986]}},{"properties":{"district":"Augusta-Richmond County","country":"USA","geo_score":0.857,"id":"abvbp6t8uti8","zipcodes":"30906","geo_precision":"zip","state":"Georgia"},"type":"Feature","geometry":{"type":"Point","coordinates":[-82.006783,33.414583]}},{"properties":{"district":"Augusta-Richmond County","country":"USA","geo_score":0.857,"id":"abvbp76gybzb","zipcodes":"30907","geo_precision":"zip","state":"Georgia"},"type":"Feature","geometry":{"type":"Point","coordinates":[-82.12123,33.442082]}},{"properties":{"district":"Augusta-Richmond County","country":"USA","geo_score":0.857,"id":"abvbp78pkk8r","zipcodes":"30909","geo_precision":"zip","state":"Georgia"},"type":"Feature","geometry":{"type":"Point","coordinates":[-82.055973,33.416616]}},{"properties":{"district":"Augusta-Richmond County","country":"USA","geo_score":0.857,"id":"abvbp77demdt","zipcodes":"30912","geo_precision":"zip","state":"Georgia"},"type":"Feature","geometry":{"type":"Point","coordinates":[-82.090996,33.386041]}},{"properties":{"district":"Augusta-Richmond County","country":"USA","geo_score":0.857,"id":"abvbp6yxhgx1","zipcodes":"30914","geo_precision":"zip","state":"Georgia"},"type":"Feature","geometry":{"type":"Point","coordinates":[-82.090996,33.386041]}},{"properties":{"district":"Augusta-Richmond County","country":"USA","geo_score":0.857,"id":"abvbp6zo2mjq","zipcodes":"30916","geo_precision":"zip","state":"Georgia"},"type":"Feature","geometry":{"type":"Point","coordinates":[-82.090996,33.386041]}},{"properties":{"district":"Augusta-Richmond County","country":"USA","geo_score":0.857,"id":"abvbp6z67d7p","zipcodes":"30917","geo_precision":"zip","state":"Georgia"},"type":"Feature","geometry":{"type":"Point","coordinates":[-81.974838,33.47097]}},{"properties":{"district":"Augusta-Richmond County","country":"USA","geo_score":0.857,"id":"abvbp6u6ipae","zipcodes":"30919","geo_precision":"zip","state":"Georgia"},"type":"Feature","geometry":{"type":"Point","coordinates":[-82.090996,33.386041]}},{"properties":{"district":"Augusta-Richmond County","country":"USA","geo_score":0.857,"id":"abvbp6zpierh","zipcodes":"30999","geo_precision":"zip","state":"Georgia"},"type":"Feature","geometry":{"type":"Point","coordinates":[-82.090996,33.386041]}}],"is_temporal":false,"author":{"url":"","metadata":"","contact_name":"","contact_address":"","source":"","contact_phone":""},"source":"","pagination":{"sort":null,"start":0,"total":60,"limit":1000000},"state":"complete","tags":"","published":"2014-08-16T21:22:19-04:00","id":316086}