{"type":"FeatureCollection","data_type":"Dataset","url_type":null,"permissions":[{"permissions":{"download":true,"view":true},"group_id":"everyone"}],"classification":null,"title":"geo test1","count":113,"stream_id":316436,"contributor":{"url":"http://geocommons.com/users/32740","name":"mphilip"},"data_attributes":null,"calculation_params":null,"icon_link":null,"link":"http://geocommons.com/overlays/316436.json","extent":[-155.103,19.717,-70.7502,48.4803],"geometry_types":["point"],"unique_name":null,"name":"geo test1","feature_count":113,"description":"","next_feature":null,"is_raster":false,"short_classification":"Y","stats":{"amount":{"max":1000.0,"variance":10299.9394008217,"mean":229.719734513274,"stdev":101.48861709976,"min":0.0,"median":200.0}},"features":[{"properties":{"accountmanager":"Eline Weststrate","name":"Downhole Power Equipment B.V.","city":"HEEMSKERK","project":"Oxfam Novib","zipcode":"1969KP","country":"Netherlands","geo_score":0.379,"deal_date":"2012-07-25","amount":500.0,"addressline":"Strengweg 1 A","id":"abwg95b9wwwh","geo_precision":"street"},"type":"Feature","geometry":{"type":"Point","coordinates":[-85.600172,33.491644]}},{"properties":{"accountmanager":"Miyase Eren","name":"DHC International B.V.","city":"ALMERE","project":"Oxfam Novib","zipcode":"1343AK","country":"Netherlands","geo_score":0.321,"deal_date":"2012-08-03","amount":250.0,"addressline":"Vlaamse Gaailaan 8","id":"abwg95bm4acm","geo_precision":"street"},"type":"Feature","geometry":{"type":"Point","coordinates":[-82.883569,40.228635]}},{"properties":{"accountmanager":"Eline Weststrate","name":"Byelex Multimedia Products B.V.","city":"OUD GASTEL","project":"Oxfam Novib","zipcode":"4751XC","country":"Netherlands","geo_score":0.548,"deal_date":"2012-08-03","amount":200.0,"addressline":"Argon 1","id":"abwg957ueqpi","geo_precision":"street"},"type":"Feature","geometry":{"type":"Point","coordinates":[-85.058331,34.044813]}},{"properties":{"accountmanager":"Eline Weststrate","name":"Mundo Steigers B.V.","city":"SPIJKENISSE","project":"Oxfam Novib","zipcode":"3208LC","country":"Netherlands","geo_score":0.0,"deal_date":"2012-08-08","amount":200.0,"addressline":"Laanweg 6","id":"abwg95dumwi0","geo_precision":"unmatched"},"type":"Feature","geometry":null},{"properties":{"accountmanager":"Jacqueline Hoge-Jonker","name":"Ankerbeer B.V.","city":"KOLHAM","project":"Oxfam Novib","zipcode":"9615TG","country":"Netherlands","geo_score":0.333,"deal_date":"2012-08-09","amount":300.0,"addressline":"W.A. Scholtenlaan 19","id":"abwg95bryb02","geo_precision":"street"},"type":"Feature","geometry":{"type":"Point","coordinates":[-79.350293,39.957937]}},{"properties":{"accountmanager":"Eline Weststrate","name":"BBS Patisserie B.V.","city":"AMSTERDAM","project":"Oxfam Novib","zipcode":"1046AL","country":"Netherlands","geo_score":0.329,"deal_date":"2012-08-09","amount":250.0,"addressline":"Tijnmuiden 18 a","id":"abwg9573pimg","geo_precision":"street"},"type":"Feature","geometry":{"type":"Point","coordinates":[-85.562235,33.635774]}},{"properties":{"accountmanager":"Miyase Eren","name":"The Health Agency B.V.","city":"AMSTERDAM","project":"Oxfam Novib","zipcode":"1061XZ","country":"Netherlands","geo_score":0.327,"deal_date":"2012-08-20","amount":200.0,"addressline":"Jan Evertsenstraat 749","id":"abwg95i57wno","geo_precision":"street"},"type":"Feature","geometry":{"type":"Point","coordinates":[-75.029158,40.566151]}},{"properties":{"accountmanager":"Eline Weststrate","name":"Spliethoff's Bevrachtingskantoor B.V.","city":"AMSTERDAM","project":"Oxfam Novib","zipcode":"1042AA","country":"Netherlands","geo_score":0.0,"deal_date":"2012-08-21","amount":300.0,"addressline":"Radarweg 36","id":"abwg95ik4moi","geo_precision":"unmatched"},"type":"Feature","geometry":null},{"properties":{"accountmanager":"Miyase Eren","name":"RDS Intertrans B.V.","city":"SCHIPHOL","project":"Oxfam Novib","zipcode":"1118EE","country":"Netherlands","geo_score":0.333,"deal_date":"2012-08-23","amount":200.0,"addressline":"Flamingoweg 8 K268","id":"abwg95gjra3q","geo_precision":"street"},"type":"Feature","geometry":{"type":"Point","coordinates":[-92.009734,34.600173]}},{"properties":{"accountmanager":"Miyase Eren","name":"Peekel Instruments B.V.","city":"ROTTERDAM","project":"Oxfam Novib","zipcode":"3044AS","country":"Netherlands","geo_score":0.44,"deal_date":"2012-08-23","amount":200.0,"addressline":"Industrieweg 161","id":"abwg95gabc3k","geo_precision":"street"},"type":"Feature","geometry":{"type":"Point","coordinates":[-96.468103,29.980946]}},{"properties":{"accountmanager":"Eline Weststrate","name":"Praclox B.V.","city":"GORINCHEM","project":"Oxfam Novib","zipcode":"4201CX","country":"Netherlands","geo_score":0.0,"deal_date":"2012-08-24","amount":200.0,"addressline":"Molenstraat 34","id":"abwg95gbbufm","geo_precision":"unmatched"},"type":"Feature","geometry":null},{"properties":{"accountmanager":"Eline Weststrate","name":"Sperre Rotterdam B.V.","city":"RIDDERKERK","project":"Oxfam Novib","zipcode":"2984BL","country":"Netherlands","geo_score":0.293,"deal_date":"2012-08-29","amount":200.0,"addressline":"Glasblazerstraat 12 B","id":"abwg959xw99q","geo_precision":"street"},"type":"Feature","geometry":{"type":"Point","coordinates":[-91.622554,38.476368]}},{"properties":{"accountmanager":"Eline Weststrate","name":"Technisch Bureau Merford B.V.","city":"GORINCHEM","project":"Oxfam Novib","zipcode":"4207HZ","country":"Netherlands","geo_score":0.522,"deal_date":"2012-08-31","amount":225.0,"addressline":"Franklinweg 8","id":"abwg95b6b6n0","geo_precision":"street"},"type":"Feature","geometry":{"type":"Point","coordinates":[-83.535877,32.804004]}},{"properties":{"accountmanager":"Eline Weststrate","name":"Moto-Lux Specialties B.V.","city":"BARNEVELD","project":"Oxfam Novib","zipcode":"3771ME","country":"Netherlands","geo_score":0.0,"deal_date":"2012-08-31","amount":200.0,"addressline":"Nijverheidsweg 23","id":"abwg957kb7d5","geo_precision":"unmatched"},"type":"Feature","geometry":null},{"properties":{"accountmanager":"Lindy Stokdijk","name":"Gimex b.v.","city":"(null)","project":"Oxfam Novib","zipcode":"(null)","country":"Netherlands","geo_score":0.361,"deal_date":"2012-10-01","amount":200.0,"addressline":"(null)","id":"abwg958kq9ld","geo_precision":"street"},"type":"Feature","geometry":{"type":"Point","coordinates":[-79.309018,37.553565]}},{"properties":{"accountmanager":"Jacqueline Hoge-Jonker","name":"H.G. Transport B.V.","city":"HEERENVEEN","project":"Oxfam Novib","zipcode":"8448CN","country":"Netherlands","geo_score":0.257,"deal_date":"2012-10-01","amount":200.0,"addressline":"Neptunus 7","id":"abwg953whpp8","geo_precision":"street"},"type":"Feature","geometry":{"type":"Point","coordinates":[-74.01898,40.204304]}},{"properties":{"accountmanager":"Sita Manichand","name":"Javo B.V.","city":"NOORDWIJKERHOUT","project":"Oxfam Novib","zipcode":"2211XP","country":"Netherlands","geo_score":0.436,"deal_date":"2012-10-01","amount":200.0,"addressline":"Westeinde 4","id":"abwg956vt8hr","geo_precision":"street"},"type":"Feature","geometry":{"type":"Point","coordinates":[-88.740414,37.886314]}},{"properties":{"accountmanager":"Jacqueline Hoge-Jonker","name":"Linde Apotheek B.V.","city":"HEERENVEEN","project":"Oxfam Novib","zipcode":"8448EX","country":"Netherlands","geo_score":0.562,"deal_date":"2012-10-01","amount":200.0,"addressline":"Veldschans 79 81","id":"abwg95cu4rx0","geo_precision":"street"},"type":"Feature","geometry":{"type":"Point","coordinates":[-86.29345,38.228345]}},{"properties":{"accountmanager":"Kirstin Dierking","name":"Handelsonderneming Hudales B.V.","city":"GELEEN","project":"Oxfam Novib","zipcode":"6163HG","country":"Netherlands","geo_score":0.593,"deal_date":"2012-10-01","amount":200.0,"addressline":"Kampstraat 22","id":"abwg95efjuh1","geo_precision":"street"},"type":"Feature","geometry":{"type":"Point","coordinates":[-89.633746,44.624019]}},{"properties":{"accountmanager":"Kirstin Dierking","name":"Alberts Onderwijs","city":"SITTARD","project":"Oxfam Novib","zipcode":"6135KH","country":"Netherlands","geo_score":0.424,"deal_date":"2012-10-01","amount":200.0,"addressline":"Industriestraat 22","id":"abwg95car0sp","geo_precision":"street"},"type":"Feature","geometry":{"type":"Point","coordinates":[-80.413051,40.646898]}},{"properties":{"accountmanager":"Carlijne Schreijer","name":"Renes Recycling - Eigen afspraak Carlijne (vanuit","city":"ROTTERDAM","project":"Oxfam Novib","zipcode":"3007MB","country":"Netherlands","geo_score":0.291,"deal_date":"2012-10-01","amount":200.0,"addressline":"Kinderdijkstraat 29","id":"abwg95c2138a","geo_precision":"street"},"type":"Feature","geometry":{"type":"Point","coordinates":[-82.717415,35.930741]}},{"properties":{"accountmanager":"Carlijne Schreijer","name":"Studio Projectie B.V.","city":"LEIDEN","project":"Oxfam Novib","zipcode":"2311AA","country":"Netherlands","geo_score":0.346,"deal_date":"2012-10-01","amount":200.0,"addressline":"Haagweg 4 G5","id":"abwg95dtgpv5","geo_precision":"street"},"type":"Feature","geometry":{"type":"Point","coordinates":[-88.504421,47.117971]}},{"properties":{"accountmanager":"Sita Manichand","name":"Harte &amp; Henze B.V.","city":"BADHOEVEDORP","project":"Oxfam Novib","zipcode":"1171GK","country":"Netherlands","geo_score":0.28,"deal_date":"2012-10-01","amount":200.0,"addressline":"Jan van Gentstraat 123 H","id":"abwg95fqbxea","geo_precision":"street"},"type":"Feature","geometry":{"type":"Point","coordinates":[-82.397941,39.385432]}},{"properties":{"accountmanager":"Jacqueline Hoge-Jonker","name":"I.A.A. Architecten B.V.","city":"ENSCHEDE","project":"Oxfam Novib","zipcode":"7513AB","country":"Netherlands","geo_score":0.298,"deal_date":"2012-10-01","amount":200.0,"addressline":"M.H. Tromplaan 55","id":"abwg95jnnuvl","geo_precision":"street"},"type":"Feature","geometry":{"type":"Point","coordinates":[-94.167625,45.676455]}},{"properties":{"accountmanager":"Lindy Stokdijk","name":"Dexels B.V.","city":"Amstrerdam","project":"Oxfam Novib","zipcode":"1031 HX","country":"Netherlands","geo_score":0.318,"deal_date":"2012-10-01","amount":300.0,"addressline":"Grasweg 55","id":"abwg95dpiv1i","geo_precision":"street"},"type":"Feature","geometry":{"type":"Point","coordinates":[-75.113792,40.095216]}},{"properties":{"accountmanager":"Eline Weststrate","name":"Industrie en Handel Mij. 'Bergschenhoek' B.V.","city":"BERGSCHENHOEK","project":"Oxfam Novib","zipcode":"2661AC","country":"Netherlands","geo_score":0.0,"deal_date":"2012-10-01","amount":500.0,"addressline":"Boterdorpseweg 10","id":"abwg9541zaa8","geo_precision":"unmatched"},"type":"Feature","geometry":null},{"properties":{"accountmanager":"Kirstin Dierking","name":"De Waal-Staal B.V.","city":"DEURNE","project":"Oxfam Novib","zipcode":"5753PM","country":"Netherlands","geo_score":0.32,"deal_date":"2012-10-01","amount":500.0,"addressline":"Dr Huub van Doorneweg 34","id":"abwg95aw0a12","geo_precision":"street"},"type":"Feature","geometry":{"type":"Point","coordinates":[-74.593931,40.56501]}},{"properties":{"accountmanager":"Sita Manichand","name":"Mos Grondmechanica B.V.","city":"RHOON","project":"Oxfam Novib","zipcode":"3161EK","country":"Netherlands","geo_score":0.0,"deal_date":"2012-10-01","amount":200.0,"addressline":"Kleidijk 35","id":"abwg95golccd","geo_precision":"unmatched"},"type":"Feature","geometry":null},{"properties":{"accountmanager":"Miyase Eren","name":"Weeda Architecten B.V.","city":"ROTTERDAM","project":"Oxfam Novib","zipcode":"3012BB","country":"Netherlands","geo_score":0.0,"deal_date":"2012-10-01","amount":200.0,"addressline":"Schiedamsesingel 181","id":"abwg958ssjj1","geo_precision":"unmatched"},"type":"Feature","geometry":null},{"properties":{"accountmanager":"Kirstin Dierking","name":"Interum B.V.","city":"MAASTRICHT","project":"Oxfam Novib","zipcode":"6211LN","country":"Netherlands","geo_score":0.327,"deal_date":"2012-10-01","amount":200.0,"addressline":"Tongersestraat 22 A","id":"abwg9564qj6v","geo_precision":"street"},"type":"Feature","geometry":{"type":"Point","coordinates":[-85.61782,33.544987]}},{"properties":{"accountmanager":"Lindy Stokdijk","name":"The Badger Company B.V.","city":"BARENDRECHT","project":"Oxfam Novib","zipcode":"2992BN","country":"Netherlands","geo_score":0.0,"deal_date":"2012-10-01","amount":200.0,"addressline":"Singel 8","id":"abwg95cm3i3u","geo_precision":"unmatched"},"type":"Feature","geometry":null},{"properties":{"accountmanager":"Carlijne Schreijer","name":"Buro voor Levensgenieters B.V.","city":"ALKMAAR","project":"Oxfam Novib","zipcode":"1815JK","country":"Netherlands","geo_score":0.0,"deal_date":"2012-10-01","amount":200.0,"addressline":"Westerweg 270","id":"abwg9597tpgy","geo_precision":"unmatched"},"type":"Feature","geometry":null},{"properties":{"accountmanager":"Kirstin Dierking","name":"Mevi Fijnmechanische Industrie B.V.","city":"HELMOND","project":"Oxfam Novib","zipcode":"5706ST","country":"Netherlands","geo_score":0.301,"deal_date":"2012-10-01","amount":300.0,"addressline":"Weth den Oudenstraat 1","id":"abwg95b2oobp","geo_precision":"street"},"type":"Feature","geometry":{"type":"Point","coordinates":[-85.940143,31.793426]}},{"properties":{"accountmanager":"Joost Houtman","name":"Kinderopvang Hazeltje Schalkwijk B.V.","city":"HAARLEM","project":"Oxfam Novib","zipcode":"2037VB","country":"Netherlands","geo_score":0.317,"deal_date":"2012-10-01","amount":200.0,"addressline":"Jan van Zutphenstraat 2 A","id":"abwg954gcpc3","geo_precision":"street"},"type":"Feature","geometry":{"type":"Point","coordinates":[-85.58189,33.643468]}},{"properties":{"accountmanager":"Miyase Eren","name":"R. de Jong t.h.o.d.n. Pirtek Rotterdam Noord","city":"ROTTERDAM","project":"Oxfam Novib","zipcode":"3047BR","country":"Netherlands","geo_score":0.0,"deal_date":"2012-10-01","amount":300.0,"addressline":"Hongkongstraat 29","id":"abwg957ne9rn","geo_precision":"unmatched"},"type":"Feature","geometry":null},{"properties":{"accountmanager":"Kirstin Dierking","name":"Heijnen Kerkrade Beheer B.V.","city":"KERKRADE","project":"Oxfam Novib","zipcode":"6463PA","country":"Netherlands","geo_score":0.0,"deal_date":"2012-10-01","amount":200.0,"addressline":"Hertenweide 20","id":"abwg958h40qf","geo_precision":"unmatched"},"type":"Feature","geometry":null},{"properties":{"accountmanager":"Kirstin Dierking","name":"Gielissen's Bedrijven B.V.","city":"EINDHOVEN","project":"Oxfam Novib","zipcode":"5657EE","country":"Netherlands","geo_score":0.293,"deal_date":"2012-11-01","amount":1000.0,"addressline":"Freddy van Riemsdijkweg 21","id":"abwg954lmjfs","geo_precision":"street"},"type":"Feature","geometry":{"type":"Point","coordinates":[-84.848096,45.593818]}},{"properties":{"accountmanager":"Jacqueline Hoge-Jonker","name":"BitPlus Automatisering- Advies B.V.","city":"UITHUIZEN","project":"Oxfam Novib","zipcode":"9981HJ","country":"Netherlands","geo_score":0.455,"deal_date":"2012-11-01","amount":200.0,"addressline":"Industrieweg 16","id":"abwg958fn8wz","geo_precision":"street"},"type":"Feature","geometry":{"type":"Point","coordinates":[-96.468103,29.980946]}},{"properties":{"accountmanager":"Jacqueline Hoge-Jonker","name":"Chris Russell Actiemarketing","city":"GRONINGEN","project":"Oxfam Novib","zipcode":"9723BJ","country":"Netherlands","geo_score":0.0,"deal_date":"2012-11-01","amount":150.0,"addressline":"Osloweg 75","id":"abwg959trk7f","geo_precision":"unmatched"},"type":"Feature","geometry":null},{"properties":{"accountmanager":"Jacqueline Hoge-Jonker","name":"H. van Oosten Loon-/Grondverzetbedrijf B.V.","city":"MEEDEN","project":"Oxfam Novib","zipcode":"9651DB","country":"Netherlands","geo_score":0.0,"deal_date":"2012-11-01","amount":200.0,"addressline":"Duurkenakker 25","id":"abwg95av37sw","geo_precision":"unmatched"},"type":"Feature","geometry":null},{"properties":{"accountmanager":"Jacqueline Hoge-Jonker","name":"Machinefabriek Jansen en Heuning B.V.","city":"GRONINGEN","project":"Oxfam Novib","zipcode":"9723BN","country":"Netherlands","geo_score":0.309,"deal_date":"2012-11-01","amount":250.0,"addressline":"Duinkerkenstraat 11","id":"abwg958dvjd1","geo_precision":"street"},"type":"Feature","geometry":{"type":"Point","coordinates":[-111.665752,48.480256]}},{"properties":{"accountmanager":"Sarah Boer, de","name":"Westerstraat B.V.","city":"AMSTERDAM","project":"Oxfam Novib","zipcode":"1015LX","country":"Netherlands","geo_score":0.629,"deal_date":"2012-11-01","amount":200.0,"addressline":"Westerstraat 95","id":"abwg957p6j5l","geo_precision":"city"},"type":"Feature","geometry":{"type":"Point","coordinates":[-88.72511,43.822484]}},{"properties":{"accountmanager":"Jacqueline Hoge-Jonker","name":"Koning's Technisch Bedrijf B.V.","city":"MEPPEL","project":"Oxfam Novib","zipcode":"7942KC","country":"Netherlands","geo_score":0.0,"deal_date":"2012-11-01","amount":200.0,"addressline":"Eekhorstweg 20","id":"abwg95glhcgy","geo_precision":"unmatched"},"type":"Feature","geometry":null},{"properties":{"accountmanager":"Sita Manichand","name":"Oiltanking Amsterdam B.V.","city":"AMSTERDAM","project":"Oxfam Novib","zipcode":"1047AH","country":"Netherlands","geo_score":0.538,"deal_date":"2012-11-01","amount":200.0,"addressline":"Heining 100","id":"abwg95cooujj","geo_precision":"street"},"type":"Feature","geometry":{"type":"Point","coordinates":[-89.578394,35.676331]}},{"properties":{"accountmanager":"Sita Manichand","name":"Frantzen Advocaten B.V.","city":"OUDERKERK AAN DE AMSTEL","project":"Oxfam Novib","zipcode":"1191AG","country":"Netherlands","geo_score":0.265,"deal_date":"2012-11-01","amount":250.0,"addressline":"Hoger Einde-Zuid 2","id":"abwg95gyy9cc","geo_precision":"street"},"type":"Feature","geometry":{"type":"Point","coordinates":[-85.297348,36.702795]}},{"properties":{"accountmanager":"Sarah Boer, de","name":"Bouwman Snijder Importservice (B.S.I.) B.V.","city":"AALSMEER","project":"Oxfam Novib","zipcode":"1431GB","country":"Netherlands","geo_score":0.0,"deal_date":"2012-11-01","amount":200.0,"addressline":"Legmeerdijk 313","id":"abwg9599tc2z","geo_precision":"unmatched"},"type":"Feature","geometry":null},{"properties":{"accountmanager":"Sarah Boer, de","name":"Van Eijk Infra- en Milieutechniek B.V.","city":"LEIDEN","project":"Oxfam Novib","zipcode":"2315VC","country":"Netherlands","geo_score":0.559,"deal_date":"2012-11-01","amount":200.0,"addressline":"Admiraal Helfrichweg 11","id":"abwg956jdfcs","geo_precision":"street"},"type":"Feature","geometry":{"type":"Point","coordinates":[-70.857604,43.502523]}},{"properties":{"accountmanager":"Sita Manichand","name":"Stam en de Lange","city":"Scherpenzeel","project":"Oxfam Novib","zipcode":"3925BW","country":"Netherlands","geo_score":0.0,"deal_date":"2012-11-01","amount":0.0,"addressline":"Hovenierslaan 1","id":"abwg95a4rai4","geo_precision":"unmatched"},"type":"Feature","geometry":null},{"properties":{"accountmanager":"Sarah Boer, de","name":"Horman Drainage filter","city":"s Gravendeel","project":"Oxfam Novib","zipcode":"3295KR","country":"Netherlands","geo_score":0.5,"deal_date":"2012-11-01","amount":200.0,"addressline":"Strijenseweg 124 a","id":"abwg955wjitj","geo_precision":"street"},"type":"Feature","geometry":{"type":"Point","coordinates":[-85.364128,33.146879]}},{"properties":{"accountmanager":"Kirstin Dierking","name":"Bioracer B.V.","city":"SITTARD","project":"Oxfam Novib","zipcode":"6135LL","country":"Netherlands","geo_score":0.541,"deal_date":"2012-11-01","amount":200.0,"addressline":"Kopenhagenstraat 75","id":"abwg9544amo7","geo_precision":"street"},"type":"Feature","geometry":{"type":"Point","coordinates":[-76.119474,43.783485]}},{"properties":{"accountmanager":"Sita Manichand","name":"Innovast Baarn bv","city":"Baarn","project":"Oxfam Novib","zipcode":"3743DB","country":"Netherlands","geo_score":0.455,"deal_date":"2012-11-01","amount":0.0,"addressline":"Wilhelminalaan 3","id":"abwg95jebzd3","geo_precision":"street"},"type":"Feature","geometry":{"type":"Point","coordinates":[-90.247485,36.599485]}},{"properties":{"accountmanager":"Jacqueline Hoge-Jonker","name":"Stopaq B.V.","city":"STADSKANAAL","project":"Oxfam Novib","zipcode":"9503JB","country":"Netherlands","geo_score":0.0,"deal_date":"2012-11-01","amount":200.0,"addressline":"Gasselterstraat 20","id":"abwg95e5r0uh","geo_precision":"unmatched"},"type":"Feature","geometry":null},{"properties":{"accountmanager":"Lindy Stokdijk","name":"AFS Equity &amp; Derivatives B.V.","city":"AMSTERDAM","project":"Oxfam Novib","zipcode":"1012JW","country":"Netherlands","geo_score":0.0,"deal_date":"2012-11-01","amount":250.0,"addressline":"Beursplein 5","id":"abwg9569pyz1","geo_precision":"unmatched"},"type":"Feature","geometry":null},{"properties":{"accountmanager":"Lindy Stokdijk","name":"Formex Medical","city":"GOUDA","project":"Oxfam Novib","zipcode":"2809PA","country":"Netherlands","geo_score":0.368,"deal_date":"2012-11-01","amount":200.0,"addressline":"James Wattstraat 17","id":"abwg95inc7qf","geo_precision":"street"},"type":"Feature","geometry":{"type":"Point","coordinates":[-94.171222,31.804886]}},{"properties":{"accountmanager":"Carlijne Schreijer","name":"HRGroep B.V.","city":"RIJSWIJK ZH","project":"Oxfam Novib","zipcode":"2288EX","country":"Netherlands","geo_score":0.0,"deal_date":"2012-11-01","amount":200.0,"addressline":"Frijdastraat 17","id":"abwg959jlkxp","geo_precision":"unmatched"},"type":"Feature","geometry":null},{"properties":{"accountmanager":"Jacqueline Hoge-Jonker","name":"Roelofs Planontwikkeling B.V.","city":"DEN HAM","project":"Oxfam Novib","zipcode":"7683BJ","country":"Netherlands","geo_score":0.0,"deal_date":"2012-11-01","amount":300.0,"addressline":"dorpstraat 20","id":"abwg95fa6d5v","geo_precision":"unmatched"},"type":"Feature","geometry":null},{"properties":{"accountmanager":"Ralph Kleijn, de","name":"Jansens &amp; Dieperink B.V.","city":"ZAANDAM","project":"Oxfam Novib","zipcode":"1505HE","country":"Netherlands","geo_score":0.0,"deal_date":"2012-12-01","amount":200.0,"addressline":"Zuiddijk 416","id":"abwg9570dw8d","geo_precision":"unmatched"},"type":"Feature","geometry":null},{"properties":{"accountmanager":"Jacqueline Hoge-Jonker","name":"Jachthaven Lauwersmeer B.V.","city":"ANJUM","project":"Oxfam Novib","zipcode":"9133DT","country":"Netherlands","geo_score":0.0,"deal_date":"2012-12-01","amount":200.0,"addressline":"Oostmahorn 31","id":"abwg95fc9fya","geo_precision":"unmatched"},"type":"Feature","geometry":null},{"properties":{"accountmanager":"Jacqueline Hoge-Jonker","name":"Wubben Noord B.V.","city":"GASSELTERNIJVEEN","project":"Oxfam Novib","zipcode":"9514BT","country":"Netherlands","geo_score":0.0,"deal_date":"2012-12-01","amount":200.0,"addressline":"Vogelshemweg 2","id":"abwg95hynqn9","geo_precision":"unmatched"},"type":"Feature","geometry":null},{"properties":{"accountmanager":"Kirstin Dierking","name":"Joannusmolen B.V.","city":"CUIJK","project":"Oxfam Novib","zipcode":"5431NZ","country":"Netherlands","geo_score":0.0,"deal_date":"2012-12-01","amount":200.0,"addressline":"Hulsbos 3","id":"abwg958uaovg","geo_precision":"unmatched"},"type":"Feature","geometry":null},{"properties":{"accountmanager":"Kirstin Dierking","name":"Teeken Beckers Architecten B.V.","city":"HEERLEN","project":"Oxfam Novib","zipcode":"6419EW","country":"Netherlands","geo_score":0.378,"deal_date":"2012-12-01","amount":200.0,"addressline":"De Lirp 42","id":"abwg95f21i8n","geo_precision":"street"},"type":"Feature","geometry":{"type":"Point","coordinates":[-93.157342,45.751466]}},{"properties":{"accountmanager":"Sarah Boer, de","name":"Helder Marketing &amp; Communicatie B.V.","city":"AMSTERDAM","project":"Oxfam Novib","zipcode":"1092CZ","country":"Netherlands","geo_score":0.261,"deal_date":"2012-12-01","amount":200.0,"addressline":"Derde Oosterparkstraat 201","id":"abwg9596hgzq","geo_precision":"street"},"type":"Feature","geometry":{"type":"Point","coordinates":[-87.076276,34.029375]}},{"properties":{"accountmanager":"Sarah Boer, de","name":"Global Factories B.V.","city":"'S-GRAVENHAGE","project":"Oxfam Novib","zipcode":"2585AR","country":"Netherlands","geo_score":0.0,"deal_date":"2012-12-01","amount":200.0,"addressline":"Javastraat 46 48","id":"abwg956qs2bv","geo_precision":"unmatched"},"type":"Feature","geometry":null},{"properties":{"accountmanager":"Kirstin Dierking","name":"Mediaversa B.V.","city":"UDEN","project":"Oxfam Novib","zipcode":"5405NJ","country":"Netherlands","geo_score":0.582,"deal_date":"2012-12-01","amount":200.0,"addressline":"Protonenlaan 3","id":"abwg95jfah17","geo_precision":"street"},"type":"Feature","geometry":{"type":"Point","coordinates":[-84.518686,39.33318]}},{"properties":{"accountmanager":"Kirstin Dierking","name":"Stratos","city":"'s-Hertogenbosch","project":"Oxfam Novib","zipcode":"5211WG","country":"Netherlands","geo_score":0.0,"deal_date":"2012-12-01","amount":250.0,"addressline":"Koninginnenlaan 26","id":"abwg95am2q9s","geo_precision":"unmatched"},"type":"Feature","geometry":null},{"properties":{"accountmanager":"Carlijne Schreijer","name":"Brenninkmeijer &amp; Isaacs B.V.","city":"AMSTERDAM","project":"Oxfam Novib","zipcode":"1055MK","country":"Netherlands","geo_score":0.269,"deal_date":"2012-12-01","amount":250.0,"addressline":"Admiraal de Ruijterweg 545 1","id":"abwg9562a0fq","geo_precision":"street"},"type":"Feature","geometry":{"type":"Point","coordinates":[-70.750235,43.086205]}},{"properties":{"accountmanager":"Lindy Stokdijk","name":"ASCO Zeeland","city":"Middelburg","project":"Oxfam Novib","zipcode":"4336RA","country":"Netherlands","geo_score":0.0,"deal_date":"2012-12-01","amount":250.0,"addressline":"Mortiereboulevard 40","id":"abwg95hzs0r1","geo_precision":"unmatched"},"type":"Feature","geometry":null},{"properties":{"accountmanager":"Sarah Boer, de","name":"Skeale B.V.","city":"AMSTERDAM","project":"Oxfam Novib","zipcode":"1014BZ","country":"Netherlands","geo_score":0.0,"deal_date":"2012-12-01","amount":200.0,"addressline":"Dynamostraat 72 3","id":"abwg95jvnzqb","geo_precision":"unmatched"},"type":"Feature","geometry":null},{"properties":{"accountmanager":"Sarah Boer, de","name":"sumis","city":"AMSTELVEEN","project":"Oxfam Novib","zipcode":"1182HL","country":"Netherlands","geo_score":0.473,"deal_date":"2012-12-01","amount":500.0,"addressline":"Amsterdamseweg 206","id":"abwg95ejenqy","geo_precision":"street"},"type":"Feature","geometry":{"type":"Point","coordinates":[-74.064338,42.97564]}},{"properties":{"accountmanager":"Kirstin Dierking","name":"Dinto B.V.","city":"BREDA","project":"Oxfam Novib","zipcode":"4827HJ","country":"Netherlands","geo_score":0.398,"deal_date":"2012-12-01","amount":250.0,"addressline":"Charles Petitweg 5A9","id":"abwg95c31tcz","geo_precision":"street"},"type":"Feature","geometry":{"type":"Point","coordinates":[-80.878608,35.77004]}},{"properties":{"accountmanager":"Sita Manichand","name":"De Processpecialisten B.V.","city":"AMSTERDAM","project":"Oxfam Novib","zipcode":"1045AL","country":"Netherlands","geo_score":0.296,"deal_date":"2012-12-01","amount":200.0,"addressline":"Nieuw-Zeelandweg 15 A","id":"abwg954mg35x","geo_precision":"street"},"type":"Feature","geometry":{"type":"Point","coordinates":[-85.589413,33.5212]}},{"properties":{"accountmanager":"Lindy Stokdijk","name":"Tante Cato BSO &amp; ZO","city":"AMSTERDAM","project":"Oxfam Novib","zipcode":"1082BA","country":"Netherlands","geo_score":0.311,"deal_date":"2012-12-01","amount":200.0,"addressline":"Van Boshuizenstraat 422","id":"abwg95gl9cex","geo_precision":"street"},"type":"Feature","geometry":{"type":"Point","coordinates":[-92.638105,32.528394]}},{"properties":{"accountmanager":"Ralph Kleijn, de","name":"Hydrohoist B.V.","city":"STEENBERGEN NB","project":"Oxfam Novib","zipcode":"4651SP","country":"Netherlands","geo_score":0.329,"deal_date":"2012-12-01","amount":200.0,"addressline":"Zilverhoek 10 A","id":"abwg95jhlyfe","geo_precision":"street"},"type":"Feature","geometry":{"type":"Point","coordinates":[-85.547214,33.495984]}},{"properties":{"accountmanager":"Lindy Stokdijk","name":"AllSolutions B.V.","city":"WOERDEN","project":"Oxfam Novib","zipcode":"3446AH","country":"Netherlands","geo_score":0.0,"deal_date":"2012-12-01","amount":300.0,"addressline":"Helsinkilaan 2","id":"abwg956iyqns","geo_precision":"unmatched"},"type":"Feature","geometry":null},{"properties":{"accountmanager":"Jacqueline Hoge-Jonker","name":"Emveflex Personeelservice","city":"ENSCHEDE","project":"Oxfam Novib","zipcode":"7522CN","country":"Netherlands","geo_score":0.0,"deal_date":"2012-12-01","amount":250.0,"addressline":"Deurningerstraat 320","id":"abwg959y21pv","geo_precision":"unmatched"},"type":"Feature","geometry":null},{"properties":{"accountmanager":"Sarah Boer, de","name":"topcapital B.V.","city":"AMSTERDAM","project":"Oxfam Novib","zipcode":"1071GM","country":"Netherlands","geo_score":0.329,"deal_date":"2012-12-01","amount":200.0,"addressline":"Van Eeghenstraat 108","id":"abwg95b3oj26","geo_precision":"street"},"type":"Feature","geometry":{"type":"Point","coordinates":[-92.676662,32.525765]}},{"properties":{"accountmanager":"Sarah Boer, de","name":"Koppel Belastingadviseurs","city":"AMSTERDAM","project":"Oxfam Novib","zipcode":"1011TD","country":"Netherlands","geo_score":0.406,"deal_date":"2012-12-01","amount":200.0,"addressline":"Prins Hendrikkade 184","id":"abwg95c5vu2a","geo_precision":"street"},"type":"Feature","geometry":{"type":"Point","coordinates":[-86.14737,39.60928]}},{"properties":{"accountmanager":"Jacqueline Hoge-Jonker","name":"Homburg Machinehandel B.V.","city":"STIENS","project":"Oxfam Novib","zipcode":"9051BM","country":"Netherlands","geo_score":0.29,"deal_date":"2012-12-01","amount":200.0,"addressline":"It Noarderfjild 21","id":"abwg95izhj3a","geo_precision":"street"},"type":"Feature","geometry":{"type":"Point","coordinates":[-77.930729,36.207766]}},{"properties":{"accountmanager":"Joost Houtman","name":"Argitool bv.","city":"HONSELERSDIJK","project":"Oxfam Novib","zipcode":"2675AM","country":"Netherlands","geo_score":0.0,"deal_date":"2012-12-01","amount":200.0,"addressline":"Stationsweg 23","id":"abwg957u6own","geo_precision":"unmatched"},"type":"Feature","geometry":null},{"properties":{"accountmanager":"Kirstin Dierking","name":"Limex Machine-Exploitatie B.V.","city":"PANNINGEN","project":"Oxfam Novib","zipcode":"5981NC","country":"Netherlands","geo_score":0.313,"deal_date":"2012-12-01","amount":200.0,"addressline":"Industrieterr Panningen 120","id":"abwg95bhujz6","geo_precision":"street"},"type":"Feature","geometry":{"type":"Point","coordinates":[-96.468103,29.980946]}},{"properties":{"accountmanager":"Kirstin Dierking","name":"Jans Mechanisatie Bedrijf B.V.","city":"VEGHEL","project":"Oxfam Novib","zipcode":"5466RB","country":"Netherlands","geo_score":0.454,"deal_date":"2012-12-01","amount":200.0,"addressline":"Corridor 9","id":"abwg95ea2kym","geo_precision":"street"},"type":"Feature","geometry":{"type":"Point","coordinates":[-97.927106,48.427234]}},{"properties":{"accountmanager":"Kirstin Dierking","name":"Greenway Communications B.V.","city":"SPAUBEEK","project":"Oxfam Novib","zipcode":"6176AM","country":"Netherlands","geo_score":0.0,"deal_date":"2012-8-01","amount":150.0,"addressline":"Soppestraat 12","id":"abwg954yxl96","geo_precision":"unmatched"},"type":"Feature","geometry":null},{"properties":{"accountmanager":"Miyase Eren","name":"Ottevanger Machinefabrieken B.V.","city":"MOERKAPELLE","project":"Oxfam Novib","zipcode":"2751DL","country":"Netherlands","geo_score":0.224,"deal_date":"2012-8-01","amount":200.0,"addressline":"Moerkapelse Zijde 32","id":"abwg95crm3lg","geo_precision":"street"},"type":"Feature","geometry":{"type":"Point","coordinates":[-90.114387,38.641636]}},{"properties":{"accountmanager":"Jacqueline Hoge-Jonker","name":"USP Display B.V.","city":"DRONTEN","project":"Oxfam Novib","zipcode":"8253PZ","country":"Netherlands","geo_score":0.305,"deal_date":"2012-9-01","amount":200.0,"addressline":"De Tjonger 26 28","id":"abwg95dw6hoh","geo_precision":"street"},"type":"Feature","geometry":{"type":"Point","coordinates":[-96.83198,41.053112]}},{"properties":{"accountmanager":"Miyase Eren","name":"Allied Data Technologies International B.V.","city":"SPIJKENISSE","project":"Oxfam Novib","zipcode":"3208KL","country":"Netherlands","geo_score":0.0,"deal_date":"2012-9-01","amount":200.0,"addressline":"Pascalweg 1","id":"abwg9557lnlt","geo_precision":"unmatched"},"type":"Feature","geometry":null},{"properties":{"accountmanager":"Jacqueline Hoge-Jonker","name":"Tuil Logistics B.V.","city":"BAD NIEUWESCHANS","project":"Oxfam Novib","zipcode":"9693AG","country":"Netherlands","geo_score":0.0,"deal_date":"2012-9-01","amount":250.0,"addressline":"Hoofdstraat 6","id":"abwg953x5mmd","geo_precision":"unmatched"},"type":"Feature","geometry":null},{"properties":{"accountmanager":"Miyase Eren","name":"Pleidooi Advocaat B.V.","city":"ALKMAAR","project":"Oxfam Novib","zipcode":"1812RB","country":"Netherlands","geo_score":0.0,"deal_date":"2012-9-01","amount":200.0,"addressline":"Robijnstraat 56","id":"abwg95daku49","geo_precision":"unmatched"},"type":"Feature","geometry":null},{"properties":{"accountmanager":"Kirstin Dierking","name":"Van den Broek Olie B.V.","city":"VEGHEL","project":"Oxfam Novib","zipcode":"5466AB","country":"Netherlands","geo_score":0.0,"deal_date":"2012-9-01","amount":200.0,"addressline":"Eisenhowerweg 19","id":"abwg95ble7fa","geo_precision":"unmatched"},"type":"Feature","geometry":null},{"properties":{"accountmanager":"Miyase Eren","name":"Bowling Mijdrecht B.V.","city":"MIJDRECHT","project":"Oxfam Novib","zipcode":"3641SV","country":"Netherlands","geo_score":0.327,"deal_date":"2012-9-01","amount":200.0,"addressline":"Ontspanningsweg 1 A","id":"abwg95a5wepz","geo_precision":"street"},"type":"Feature","geometry":{"type":"Point","coordinates":[-85.600172,33.491644]}},{"properties":{"accountmanager":"Jacqueline Hoge-Jonker","name":"HOC Opleiding &amp; Training B.V.","city":"ZUIDLAREN","project":"Oxfam Novib","zipcode":"9471AT","country":"Netherlands","geo_score":0.0,"deal_date":"2012-9-01","amount":200.0,"addressline":"Bolwerk 2","id":"abwg95g522s5","geo_precision":"unmatched"},"type":"Feature","geometry":null},{"properties":{"accountmanager":"Jacqueline Hoge-Jonker","name":"Vermaning","city":"OUDEHASKE","project":"Oxfam Novib","zipcode":"8465RX","country":"Netherlands","geo_score":0.0,"deal_date":"2012-9-01","amount":200.0,"addressline":"Appelhof 5","id":"abwg95ctinsg","geo_precision":"unmatched"},"type":"Feature","geometry":null},{"properties":{"accountmanager":"Kirstin Dierking","name":"Artimeta B.V.","city":"HOENSBROEK","project":"Oxfam Novib","zipcode":"6433KE","country":"Netherlands","geo_score":0.333,"deal_date":"2012-9-01","amount":200.0,"addressline":"De Koumen 86","id":"abwg959mvmto","geo_precision":"street"},"type":"Feature","geometry":{"type":"Point","coordinates":[-155.1031,19.71698]}},{"properties":{"accountmanager":"Sita Manichand","name":"Ver. Schildersbedr. Heko B.V.","city":"'S-GRAVENHAGE","project":"Oxfam Novib","zipcode":"2544EC","country":"Netherlands","geo_score":0.0,"deal_date":"2012-9-01","amount":250.0,"addressline":"Zinkwerf 47","id":"abwg959c4b6o","geo_precision":"unmatched"},"type":"Feature","geometry":null},{"properties":{"accountmanager":"Sita Manichand","name":"Apotheek De Sluis B.V.","city":"DRIEBERGEN-RIJSENBURG","project":"Oxfam Novib","zipcode":"3972VA","country":"Netherlands","geo_score":0.548,"deal_date":"2012-9-01","amount":333.33,"addressline":"Schippersdreef 2 A","id":"abwg95b0tyyh","geo_precision":"street"},"type":"Feature","geometry":{"type":"Point","coordinates":[-85.642275,33.423375]}},{"properties":{"accountmanager":"Miyase Eren","name":"O.C.C. (Overbeek Container Control) B.V.","city":"VONDELINGENPLAAT RT","project":"Oxfam Novib","zipcode":"3196KC","country":"Netherlands","geo_score":0.0,"deal_date":"2012-9-01","amount":200.0,"addressline":"Butaanweg 52","id":"abwg95en1biw","geo_precision":"unmatched"},"type":"Feature","geometry":null},{"properties":{"accountmanager":"Jacqueline Hoge-Jonker","name":"ClimaRad B.V.","city":"OLDENZAAL","project":"Oxfam Novib","zipcode":"7575EE","country":"Netherlands","geo_score":0.0,"deal_date":"2012-9-01","amount":300.0,"addressline":"Lubeckstraat 25","id":"abwg95a17o7j","geo_precision":"unmatched"},"type":"Feature","geometry":null},{"properties":{"accountmanager":"Kirstin Dierking","name":"GDO B.V.","city":"EYGELSHOVEN","project":"Oxfam Novib","zipcode":"6471WX","country":"Netherlands","geo_score":0.39,"deal_date":"2012-9-01","amount":350.0,"addressline":"Albert Thijsstraat 67","id":"abwg95g6po5d","geo_precision":"street"},"type":"Feature","geometry":{"type":"Point","coordinates":[-93.362759,43.653237]}},{"properties":{"accountmanager":"Kirstin Dierking","name":"QL Company B.V.","city":"MAARHEEZE","project":"Oxfam Novib","zipcode":"6026RA","country":"Netherlands","geo_score":0.0,"deal_date":"2012-9-01","amount":250.0,"addressline":"Philipsweg 1","id":"abwg95ij9xp6","geo_precision":"unmatched"},"type":"Feature","geometry":null},{"properties":{"accountmanager":"Sarah Boer, de","name":"Ten Klei Direct Mail B.V.","city":"AMSTERDAM","project":"Oxfam Novib","zipcode":"1043BZ","country":"Netherlands","geo_score":0.0,"deal_date":"2013-1-01","amount":200.0,"addressline":"Naritaweg 14","id":"abwg95e5voxr","geo_precision":"unmatched"},"type":"Feature","geometry":null},{"properties":{"accountmanager":"Kirstin Dierking","name":"Kontek","city":"Hoofddorp","project":"Oxfam Novib","zipcode":"2132WT","country":"Netherlands","geo_score":0.0,"deal_date":"2013-1-01","amount":250.0,"addressline":"Siriusdreef 16","id":"abwg957zh275","geo_precision":"unmatched"},"type":"Feature","geometry":null},{"properties":{"accountmanager":"Jacqueline Hoge-Jonker","name":"Installatietechniek Hoekstra B.V.","city":"SURHUISTERVEEN","project":"Oxfam Novib","zipcode":"9231AV","country":"Netherlands","geo_score":0.274,"deal_date":"2013-1-01","amount":200.0,"addressline":"Gedempte Vaart 36","id":"abwg95i84113","geo_precision":"street"},"type":"Feature","geometry":{"type":"Point","coordinates":[-89.77832,29.86093]}},{"properties":{"accountmanager":"Carlijne Schreijer","name":"PoliService B.V.","city":"HARDINXVELD-GIESSENDAM","project":"Oxfam Novib","zipcode":"3371EP","country":"Netherlands","geo_score":0.421,"deal_date":"2013-1-01","amount":200.0,"addressline":"Kade 40 42","id":"abwg95fa4jnd","geo_precision":"street"},"type":"Feature","geometry":{"type":"Point","coordinates":[-96.025199,34.026298]}},{"properties":{"accountmanager":"Kirstin Dierking","name":"Brainwave SAP Associates B.V.","city":"BREDA","project":"Oxfam Novib","zipcode":"4811HL","country":"Netherlands","geo_score":0.0,"deal_date":"2013-1-01","amount":200.0,"addressline":"Keizerstraat 9","id":"abwg95hjsnol","geo_precision":"unmatched"},"type":"Feature","geometry":null},{"properties":{"accountmanager":"Sita Manichand","name":"Kwx","city":"OUD-BEIJERLAND","project":"Oxfam Novib","zipcode":"3260BB","country":"Netherlands","geo_score":0.303,"deal_date":"2013-1-01","amount":200.0,"addressline":"Chr. Huygensstraat 5","id":"abwg9541taji","geo_precision":"street"},"type":"Feature","geometry":{"type":"Point","coordinates":[-83.319443,40.98525]}},{"properties":{"accountmanager":"Sarah Boer, de","name":"Cyber BV","city":"BODEGRAVEN","project":"Oxfam Novib","zipcode":"2410AA","country":"Netherlands","geo_score":0.296,"deal_date":"2013-1-01","amount":200.0,"addressline":"Kerkstraat 103","id":"abwg953y26my","geo_precision":"street"},"type":"Feature","geometry":{"type":"Point","coordinates":[-85.475878,32.271259]}},{"properties":{"accountmanager":"Sarah Boer, de","name":"Zonder Boter","city":"AMSTERDAM","project":"Oxfam Novib","zipcode":"1013AK","country":"Netherlands","geo_score":0.0,"deal_date":"2013-1-01","amount":150.0,"addressline":"Haparandadam 7 14","id":"abwg954qlrf9","geo_precision":"unmatched"},"type":"Feature","geometry":null},{"properties":{"accountmanager":"Kirstin Dierking","name":"Centrale Zandwinning Weert B.V.","city":"KESSEL LB","project":"Oxfam Novib","zipcode":"5995ZG","country":"Netherlands","geo_score":0.0,"deal_date":"2013-1-01","amount":300.0,"addressline":"Postbus 7844","id":"abwg95gz5myr","geo_precision":"unmatched"},"type":"Feature","geometry":null},{"properties":{"accountmanager":"Jacqueline Hoge-Jonker","name":"Machinefabriek Boessenkool B.V.","city":"ALMELO","project":"Oxfam Novib","zipcode":"7602PA","country":"Netherlands","geo_score":0.0,"deal_date":"2013-1-01","amount":200.0,"addressline":"Turfkade 13","id":"abwg95b8xgz2","geo_precision":"unmatched"},"type":"Feature","geometry":null},{"properties":{"accountmanager":"Sarah Boer, de","name":"BTC/TCC","city":"AMSTELVEEN","project":"Oxfam Novib","zipcode":"1187JD","country":"Netherlands","geo_score":0.0,"deal_date":"2013-1-01","amount":200.0,"addressline":"Schweitzerlaan 76","id":"abwg9562ex6d","geo_precision":"unmatched"},"type":"Feature","geometry":null},{"properties":{"accountmanager":"Carlijne Schreijer","name":"Interfact B.V.","city":"AMSTERDAM","project":"Oxfam Novib","zipcode":"1074EB","country":"Netherlands","geo_score":0.381,"deal_date":"2013-1-01","amount":200.0,"addressline":"Ceintuurbaan 422 3","id":"abwg95huvvra","geo_precision":"street"},"type":"Feature","geometry":{"type":"Point","coordinates":[-82.785645,40.287009]}},{"properties":{"accountmanager":"Kirstin Dierking","name":"MKB Risicobeheer B.V.","city":"BREDA","project":"Oxfam Novib","zipcode":"4813EC","country":"Netherlands","geo_score":0.0,"deal_date":"2013-1-01","amount":200.0,"addressline":"Liesboslaan 10","id":"abwg95bkxodc","geo_precision":"unmatched"},"type":"Feature","geometry":null},{"properties":{"accountmanager":"Kirstin Dierking","name":"Drukkerij Skyline Asten","city":"ASTEN","project":"Oxfam Novib","zipcode":"5721VW","country":"Netherlands","geo_score":0.279,"deal_date":"2013-2-01","amount":200.0,"addressline":"'t Hoogvelt 4","id":"abwg95ikif30","geo_precision":"street"},"type":"Feature","geometry":{"type":"Point","coordinates":[-98.455067,30.899376]}},{"properties":{"accountmanager":"Jacqueline Hoge-Jonker","name":"Vevida Services b.v.","city":"Groningen","project":"Oxfam Novib","zipcode":"9727DL","country":"Netherlands","geo_score":0.288,"deal_date":"2013-9-01","amount":200.0,"addressline":"Rozenburglaan 3","id":"abwg958e6uu8","geo_precision":"street"},"type":"Feature","geometry":{"type":"Point","coordinates":[-97.692366,41.701238]}}],"is_temporal":false,"author":{"url":"","metadata":"","contact_name":"","contact_address":"","source":"","contact_phone":""},"source":"","pagination":{"sort":null,"start":0,"total":113,"limit":1000000},"state":"complete","tags":"","published":"2014-08-16T21:51:57-04:00","id":316436}