{"type":"FeatureCollection","data_type":"Dataset","url_type":null,"permissions":[{"permissions":{"download":true,"view":true},"group_id":"everyone"}],"classification":null,"title":"MEMmap020113(Geo-coded)","count":46,"stream_id":316518,"contributor":{"url":"http://geocommons.com/users/59900","name":"josephsammiller"},"data_attributes":null,"calculation_params":null,"icon_link":null,"link":"http://geocommons.com/overlays/316518.json","extent":[-121.705,25.7743,-71.0162,43.0113],"geometry_types":["point"],"unique_name":null,"name":"MEMmap020113(Geo-coded)","feature_count":46,"description":"","next_feature":null,"is_raster":false,"short_classification":"Y","stats":{},"features":[{"properties":{"cities":"BRISTOL","geo_score":0.714,"id":"abwjlbs0ozxh","geo_precision":"city","state":"CT"},"type":"Feature","geometry":{"type":"Point","coordinates":[-72.939577,41.681198]}},{"properties":{"cities":"Milwaukee","geo_score":0.714,"id":"abwjlbrh0kl1","geo_precision":"city","state":"WI"},"type":"Feature","geometry":{"type":"Point","coordinates":[-87.958409,43.011264]}},{"properties":{"cities":"Farmington","geo_score":0.714,"id":"abwjlbuik2p2","geo_precision":"city","state":"MI"},"type":"Feature","geometry":{"type":"Point","coordinates":[-83.385489,42.445035]}},{"properties":{"cities":"Los Angeles","geo_score":0.714,"id":"abwjlbybvzs6","geo_precision":"city","state":"CA"},"type":"Feature","geometry":{"type":"Point","coordinates":[-120.618608,38.052816]}},{"properties":{"cities":"East Providence","geo_score":0.714,"id":"abwjlc1mvyzo","geo_precision":"city","state":"RI"},"type":"Feature","geometry":{"type":"Point","coordinates":[-71.414451,41.82275]}},{"properties":{"cities":"Corpus Christi","geo_score":0.714,"id":"abwjlc39qetq","geo_precision":"city","state":"TX"},"type":"Feature","geometry":{"type":"Point","coordinates":[-94.367813,32.027962]}},{"properties":{"cities":"Columbia","geo_score":0.714,"id":"abwjlbob357u","geo_precision":"city","state":"SC"},"type":"Feature","geometry":{"type":"Point","coordinates":[-81.024864,33.987454]}},{"properties":{"cities":"Houston","geo_score":0.714,"id":"abwjlbtzfqhx","geo_precision":"city","state":"TX"},"type":"Feature","geometry":{"type":"Point","coordinates":[-96.919704,29.845783]}},{"properties":{"cities":"Chicago","geo_score":0.714,"id":"abwjlbq7irfc","geo_precision":"city","state":"IL"},"type":"Feature","geometry":{"type":"Point","coordinates":[-87.68732,41.811929]}},{"properties":{"cities":"RICHMOND","geo_score":0.714,"id":"abwjlby90pif","geo_precision":"city","state":"VA"},"type":"Feature","geometry":{"type":"Point","coordinates":[-76.83774,37.914858]}},{"properties":{"cities":"Turbotville","geo_score":0.714,"id":"abwjlbp3xcty","geo_precision":"city","state":"PA"},"type":"Feature","geometry":{"type":"Point","coordinates":[-76.823084,41.10285]}},{"properties":{"cities":"Cary","geo_score":0.714,"id":"abwjlbthpykk","geo_precision":"city","state":"NC"},"type":"Feature","geometry":{"type":"Point","coordinates":[-79.220017,36.211527]}},{"properties":{"cities":"College Park","geo_score":0.714,"id":"abwjlc2cbuqr","geo_precision":"city","state":"MD"},"type":"Feature","geometry":{"type":"Point","coordinates":[-76.895852,38.979495]}},{"properties":{"cities":"Dayton","geo_score":0.714,"id":"abwjlc43tpdh","geo_precision":"city","state":"OH"},"type":"Feature","geometry":{"type":"Point","coordinates":[-84.268593,39.750471]}},{"properties":{"cities":"Columbus","geo_score":0.714,"id":"abwjlc27if06","geo_precision":"city","state":"OH"},"type":"Feature","geometry":{"type":"Point","coordinates":[-84.15053,40.97793]}},{"properties":{"cities":"WYANDOTTE","geo_score":0.714,"id":"abwjlbwx7hfz","geo_precision":"city","state":"MI"},"type":"Feature","geometry":{"type":"Point","coordinates":[-83.206572,42.19499]}},{"properties":{"cities":"Charlotte","geo_score":0.714,"id":"abwjlbp7mxjk","geo_precision":"city","state":"NC"},"type":"Feature","geometry":{"type":"Point","coordinates":[-80.804151,35.26002]}},{"properties":{"cities":"Kennesaw","geo_score":0.714,"id":"abwjlbq8zbo7","geo_precision":"city","state":"GA"},"type":"Feature","geometry":{"type":"Point","coordinates":[-84.597433,34.03384]}},{"properties":{"cities":"Franklin","geo_score":0.714,"id":"abwjlbsar3n0","geo_precision":"city","state":"MA"},"type":"Feature","geometry":{"type":"Point","coordinates":[-71.016162,42.441763]}},{"properties":{"cities":"Allen","geo_score":0.714,"id":"abwjlbs1tpxi","geo_precision":"city","state":"TX"},"type":"Feature","geometry":{"type":"Point","coordinates":[-96.646773,33.208033]}},{"properties":{"cities":"Miami","geo_score":0.714,"id":"abwjlc1kflmy","geo_precision":"city","state":"FL"},"type":"Feature","geometry":{"type":"Point","coordinates":[-80.193659,25.774266]}},{"properties":{"cities":"Denver","geo_score":0.714,"id":"abwjlboz34e4","geo_precision":"city","state":"CO"},"type":"Feature","geometry":{"type":"Point","coordinates":[-104.856808,39.726303]}},{"properties":{"cities":"Normal","geo_score":0.714,"id":"abwjlbxi5yg2","geo_precision":"city","state":"IL"},"type":"Feature","geometry":{"type":"Point","coordinates":[-88.7989,40.530375]}},{"properties":{"cities":"Greenville","geo_score":0.714,"id":"abwjlbzva508","geo_precision":"city","state":"NC"},"type":"Feature","geometry":{"type":"Point","coordinates":[-77.392609,35.580444]}},{"properties":{"cities":"ANN ARBOR","geo_score":0.714,"id":"abwjlc1hl8nq","geo_precision":"city","state":"MI"},"type":"Feature","geometry":{"type":"Point","coordinates":[-86.176715,42.96502]}},{"properties":{"cities":"San Jose","geo_score":0.714,"id":"abwjlbr01x5n","geo_precision":"city","state":"CA"},"type":"Feature","geometry":{"type":"Point","coordinates":[-121.705327,37.189396]}},{"properties":{"cities":"Oviedo","geo_score":0.714,"id":"abwjlbr1ifsy","geo_precision":"city","state":"FL"},"type":"Feature","geometry":{"type":"Point","coordinates":[-81.22328,28.744752]}},{"properties":{"cities":"East Lansing","geo_score":0.714,"id":"abwjlbs88rsy","geo_precision":"city","state":"MI"},"type":"Feature","geometry":{"type":"Point","coordinates":[-84.555535,42.732535]}},{"properties":{"cities":"Los Angeles","geo_score":0.714,"id":"abwjlbvgkkg7","geo_precision":"city","state":"CA"},"type":"Feature","geometry":{"type":"Point","coordinates":[-120.618608,38.052816]}},{"properties":{"cities":"Herndon","geo_score":0.714,"id":"abwjlbqi1q7s","geo_precision":"city","state":"VA"},"type":"Feature","geometry":{"type":"Point","coordinates":[-77.370819,39.014276]}},{"properties":{"cities":"Anaheim","geo_score":0.714,"id":"abwjlbp0u11v","geo_precision":"city","state":"CA"},"type":"Feature","geometry":{"type":"Point","coordinates":[-117.769442,33.640302]}},{"properties":{"cities":"Roanoke","geo_score":0.714,"id":"abwjlbr1fthi","geo_precision":"city","state":"IN"},"type":"Feature","geometry":{"type":"Point","coordinates":[-85.393868,40.954446]}},{"properties":{"cities":"New York","geo_score":0.714,"id":"abwjlbpq03ch","geo_precision":"city","state":"NY"},"type":"Feature","geometry":{"type":"Point","coordinates":[-74.005973,40.714269]}},{"properties":{"cities":"Huntington Beach","geo_score":0.714,"id":"abwjlc2ha5yx","geo_precision":"city","state":"CA"},"type":"Feature","geometry":{"type":"Point","coordinates":[-119.235956,37.231612]}},{"properties":{"cities":"Orlando","geo_score":0.714,"id":"abwjlc10mkll","geo_precision":"city","state":"FL"},"type":"Feature","geometry":{"type":"Point","coordinates":[-81.373291,28.545179]}},{"properties":{"cities":"Nashville","geo_score":0.714,"id":"abwjlbydtr2v","geo_precision":"city","state":"TN"},"type":"Feature","geometry":{"type":"Point","coordinates":[-86.778098,36.165688]}},{"properties":{"cities":"Arlington","geo_score":0.714,"id":"abwjlbxw3cc8","geo_precision":"city","state":"TX"},"type":"Feature","geometry":{"type":"Point","coordinates":[-97.291484,32.771419]}},{"properties":{"cities":"New York","geo_score":0.714,"id":"abwjlbot4op3","geo_precision":"city","state":"NY"},"type":"Feature","geometry":{"type":"Point","coordinates":[-74.005973,40.714269]}},{"properties":{"cities":"Twinsburg","geo_score":0.714,"id":"abwjlbtrotbv","geo_precision":"city","state":"OH"},"type":"Feature","geometry":{"type":"Point","coordinates":[-81.440435,41.313304]}},{"properties":{"cities":"Arlington","geo_score":0.714,"id":"abwjlboskvv5","geo_precision":"city","state":"TX"},"type":"Feature","geometry":{"type":"Point","coordinates":[-97.291484,32.771419]}},{"properties":{"cities":"Rockville Centre","geo_score":0.714,"id":"abwjlby0lzl6","geo_precision":"city","state":"NY"},"type":"Feature","geometry":{"type":"Point","coordinates":[-78.783922,42.963669]}},{"properties":{"cities":"Aurora","geo_score":0.714,"id":"abwjlbrdblqg","geo_precision":"city","state":"IL"},"type":"Feature","geometry":{"type":"Point","coordinates":[-88.136616,41.768399]}},{"properties":{"cities":"Atlanta","geo_score":0.714,"id":"abwjlbun4j5y","geo_precision":"city","state":"GA"},"type":"Feature","geometry":{"type":"Point","coordinates":[-84.47405,33.844371]}},{"properties":{"cities":"Columbus","geo_score":0.714,"id":"abwjlboz3tzt","geo_precision":"city","state":"OH"},"type":"Feature","geometry":{"type":"Point","coordinates":[-84.15053,40.97793]}},{"properties":{"cities":"Murrieta","geo_score":0.714,"id":"abwjlbusauaw","geo_precision":"city","state":"CA"},"type":"Feature","geometry":{"type":"Point","coordinates":[-116.861027,33.44204]}},{"properties":{"cities":"Fort Collins","geo_score":0.714,"id":"abwjlby4rqzp","geo_precision":"city","state":"CO"},"type":"Feature","geometry":{"type":"Point","coordinates":[-108.685164,39.149614]}}],"is_temporal":false,"author":{"url":"","metadata":"","contact_name":"","contact_address":"","source":"","contact_phone":""},"source":"","pagination":{"sort":null,"start":0,"total":46,"limit":1000000},"state":"complete","tags":"","published":"2014-08-16T21:58:30-04:00","id":316518}