{"type":"FeatureCollection","data_type":"Dataset","url_type":null,"permissions":[{"permissions":{"download":true,"view":true},"group_id":"everyone"}],"classification":null,"title":"Al-Anon Meeting Map Pins 01-25-13csv","count":292,"stream_id":317071,"contributor":{"url":"http://geocommons.com/users/60744","name":"njalanon"},"data_attributes":null,"calculation_params":null,"icon_link":null,"link":"http://geocommons.com/overlays/317071.json","extent":[-75.4708,38.9753,-73.9601,41.2192],"geometry_types":["point"],"unique_name":null,"name":"Al-Anon Meeting Map Pins 01-25-13csv","feature_count":292,"description":"","next_feature":null,"is_raster":false,"short_classification":"Y","stats":{"dist":{"max":27,"variance":69.3067245680929,"mean":13.791095890411,"stdev":8.32506603986377,"min":1,"median":14}},"features":[{"properties":{"zip":"07719","mtg time":"10:00 AM","county":"Monmouth","meeting location":"Presbyterian Church","meeting address":"600 9th Avenue at E Street","mtg location notes":"Babysitter July &amp; August","mtg type":"Discussion","geo_score":0.7,"meeting day":"Friday","beginners":null,"dist":18,"hca":null,"town":"Belmar","id":"abyljpt7j2pc","geo_precision":"range"},"type":"Feature","geometry":{"type":"Point","coordinates":[-74.02524,40.180372]}},{"properties":{"zip":"07719","mtg time":"9:00 PM","county":"Monmouth","meeting location":"Presbyterian Church","meeting address":"600 9th Avenue at E Street","mtg location notes":null,"mtg type":"Discussion","geo_score":0.7,"meeting day":"Friday","beginners":null,"dist":18,"hca":null,"town":"Belmar","id":"abyljq3yz5ie","geo_precision":"range"},"type":"Feature","geometry":{"type":"Point","coordinates":[-74.02524,40.180372]}},{"properties":{"zip":"07825","mtg time":"7:30 PM","county":"Warren","meeting location":"First United Methodist Church","meeting address":"10 Stillwater Road","mtg location notes":null,"mtg type":null,"geo_score":0.902,"meeting day":"Friday","beginners":null,"dist":1,"hca":null,"town":"Blairstown","id":"abyljpugm2c7","geo_precision":"range"},"type":"Feature","geometry":{"type":"Point","coordinates":[-74.955084,40.982723]}},{"properties":{"zip":"07005","mtg time":"8:00 PM","county":"Morris","meeting location":"St. Clare's/Riverside Hosp","meeting address":"130 Powerville Road","mtg location notes":"McWright Room","mtg type":"Discussion","geo_score":0.805,"meeting day":"Friday","beginners":"B 8:00PM","dist":2,"hca":"HCA","town":"Boonton","id":"abyljq4jpkpj","geo_precision":"street"},"type":"Feature","geometry":{"type":"Point","coordinates":[-74.427,40.910152]}},{"properties":{"zip":"07008","mtg time":"8:00 PM","county":"Middlesex","meeting location":"St. Joseph's Parish Center","meeting address":"80 High Street","mtg location notes":null,"mtg type":null,"geo_score":0.672,"meeting day":"Friday","beginners":null,"dist":14,"hca":"HCA","town":"Carteret","id":"abyljpzbs9og","geo_precision":"range"},"type":"Feature","geometry":{"type":"Point","coordinates":[-74.37399,40.642181]}},{"properties":{"zip":"07930","mtg time":"10:00 AM","county":"Morris","meeting location":"Community Presbyterian Church","meeting address":"220 Main Street","mtg location notes":"Basement","mtg type":"Discussion","geo_score":0.902,"meeting day":"Friday","beginners":"B 9:30AM","dist":2,"hca":"HCA","town":"Chester","id":"abyljq43j98b","geo_precision":"range"},"type":"Feature","geometry":{"type":"Point","coordinates":[-74.691586,40.786649]}},{"properties":{"zip":"07208","mtg time":"7:00 PM","county":"Union","meeting location":"Lutheran Church Parish House","meeting address":"867 Westfield Avenue","mtg location notes":"Corner of Hillside Rd","mtg type":null,"geo_score":0.902,"meeting day":"Friday","beginners":null,"dist":11,"hca":"HCA","town":"Elizabeth","id":"abyljpvn2kul","geo_precision":"range"},"type":"Feature","geometry":{"type":"Point","coordinates":[-74.243973,40.664468]}},{"properties":{"zip":"07631","mtg time":"12:15 PM","county":"Bergen","meeting location":"St. Paul's Episcopal Church","meeting address":"113 Engle Street","mtg location notes":null,"mtg type":"Discussion","geo_score":0.805,"meeting day":"Friday","beginners":null,"dist":7,"hca":null,"town":"Englewood","id":"abyljps3udg8","geo_precision":"street"},"type":"Feature","geometry":{"type":"Point","coordinates":[-73.969923,40.899001]}},{"properties":{"zip":"07728","mtg time":"6:00pm","county":"Monmouth","meeting location":"St. Robert Bellarmine R.C. Church","meeting address":"61 Georgia Road","mtg location notes":null,"mtg type":"Step","geo_score":0.902,"meeting day":"Friday","beginners":null,"dist":19,"hca":null,"town":"Freehold","id":"abyljpxfpykl","geo_precision":"range"},"type":"Feature","geometry":{"type":"Point","coordinates":[-74.294175,40.215021]}},{"properties":{"zip":"07601","mtg time":"7:30 PM","county":"Bergen","meeting location":"First Presbyterian Church","meeting address":"64 Passaic Street","mtg location notes":null,"mtg type":"Discussion","geo_score":0.902,"meeting day":"Friday","beginners":null,"dist":6,"hca":null,"town":"Hackensack","id":"abyljpx5jeka","geo_precision":"range"},"type":"Feature","geometry":{"type":"Point","coordinates":[-74.041632,40.89055]}},{"properties":{"zip":"07424","mtg time":"8:00 PM","county":"Passaic","meeting location":"Holy Angels Church","meeting address":"473 Main Street","mtg location notes":"Front door - Rectory - Upstairs","mtg type":"Discussion","geo_score":0.902,"meeting day":"Friday","beginners":null,"dist":4,"hca":null,"town":"Little Falls","id":"abyljpt9whdo","geo_precision":"range"},"type":"Feature","geometry":{"type":"Point","coordinates":[-74.245133,40.8855]}},{"properties":{"zip":"07740","mtg time":"7:00 PM","county":"Monmouth","meeting location":null,"meeting address":"279 Broadway, 4th Floor, Suite 400","mtg location notes":"conference room in back","mtg type":"Spanish","geo_score":0.514,"meeting day":"Friday","beginners":null,"dist":18,"hca":null,"town":"Long Branch","id":"abyljpzhkdtn","geo_precision":"street"},"type":"Feature","geometry":{"type":"Point","coordinates":[-73.979085,40.306858]}},{"properties":{"zip":"08736","mtg time":"8:00 PM","county":"Monmouth","meeting location":"United Methodist Church","meeting address":"23 Church Street","mtg location notes":null,"mtg type":"Mens","geo_score":0.902,"meeting day":"Friday","beginners":null,"dist":18,"hca":"HCA","town":"Manasquan","id":"abyljq2e7meb","geo_precision":"range"},"type":"Feature","geometry":{"type":"Point","coordinates":[-74.054743,40.123066]}},{"properties":{"zip":"07747","mtg time":"10:30 AM","county":"Monmouth","meeting location":"Trinity Episcopal Church","meeting address":"18 Ryers Lane","mtg location notes":null,"mtg type":"Discussion","geo_score":0.902,"meeting day":"Friday","beginners":null,"dist":16,"hca":null,"town":"Matawan","id":"abyljpxk5jw5","geo_precision":"range"},"type":"Feature","geometry":{"type":"Point","coordinates":[-74.240752,40.392934]}},{"properties":{"zip":"08846","mtg time":"7:30 PM","county":"Middlesex","meeting location":"Middlesex Presbyterian Church","meeting address":"1190 Mountain Avenue","mtg location notes":null,"mtg type":"Discussion","geo_score":0.902,"meeting day":"Friday","beginners":null,"dist":14,"hca":null,"town":"Middlesex","id":"abyljq13xz0q","geo_precision":"range"},"type":"Feature","geometry":{"type":"Point","coordinates":[-74.499693,40.57792]}},{"properties":{"zip":"08057","mtg time":"8:30 PM","county":"Burlington","meeting location":"Trinity Episcopal Church","meeting address":"207 W Main Street","mtg location notes":null,"mtg type":"Discussion","geo_score":0.902,"meeting day":"Friday","beginners":null,"dist":22,"hca":null,"town":"Moorestown","id":"abyljq2ematx","geo_precision":"range"},"type":"Feature","geometry":{"type":"Point","coordinates":[-74.950859,39.962156]}},{"properties":{"zip":"07960","mtg time":"8:00 PM","county":"Morris","meeting location":"Center For Spiritual Living","meeting address":"331 Mt. Kemble Avenue","mtg location notes":null,"mtg type":"Step &amp; Tradition","geo_score":0.514,"meeting day":"Friday","beginners":null,"dist":2,"hca":"HCA","town":"Morristown","id":"abyljq2pcb4z","geo_precision":"street"},"type":"Feature","geometry":{"type":"Point","coordinates":[-74.487608,40.773285]}},{"properties":{"zip":"08060","mtg time":"8:00 PM","county":"Burlington","meeting location":"Virtua Memorial Hospital","meeting address":"175 Madison Ave","mtg location notes":"Conference room D","mtg type":"Discussion","geo_score":0.902,"meeting day":"Friday","beginners":"B 7:30PM","dist":22,"hca":"HCA","town":"Mount Holly","id":"abyljq3xyaew","geo_precision":"range"},"type":"Feature","geometry":{"type":"Point","coordinates":[-74.795839,39.9855]}},{"properties":{"zip":"07047","mtg time":"7:30 PM","county":"Hudson","meeting location":"Trinity United Methodist Church","meeting address":"8541 John F Kennedy Boulevard","mtg location notes":"Basement","mtg type":null,"geo_score":0.902,"meeting day":"Friday","beginners":"B 7:00PM","dist":8,"hca":null,"town":"North Bergen","id":"abyljps239yf","geo_precision":"range"},"type":"Feature","geometry":{"type":"Point","coordinates":[-74.008403,40.808068]}},{"properties":{"zip":"08260","mtg time":"8:00 PM","county":"Cape May","meeting location":"Old Community Center","meeting address":"900 Central Avenue","mtg location notes":null,"mtg type":"Discussion","geo_score":0.902,"meeting day":"Friday","beginners":null,"dist":27,"hca":"HCA","town":"North Wildwood","id":"abyljpq6l2yz","geo_precision":"range"},"type":"Feature","geometry":{"type":"Point","coordinates":[-74.797547,39.002418]}},{"properties":{"zip":"07110","mtg time":"8:00 PM","county":"Essex","meeting location":"Franklin Reformed Church","meeting address":"45 Hillside Crescent","mtg location notes":"Between Franklin Ave. &amp; Prospect St","mtg type":"Discussion","geo_score":0.902,"meeting day":"Friday","beginners":null,"dist":9,"hca":"HCA","town":"Nutley","id":"abyljpwvkar2","geo_precision":"range"},"type":"Feature","geometry":{"type":"Point","coordinates":[-74.161689,40.818929]}},{"properties":{"zip":"07055","mtg time":"7:00 PM","county":"Passaic","meeting location":"St. Anthony of Padua Parish","meeting address":"101-103 Mytle Avenue","mtg location notes":null,"mtg type":null,"geo_score":0.488,"meeting day":"Friday","beginners":null,"dist":4,"hca":null,"town":"Passaic","id":"abyljps66qsp","geo_precision":"zip"},"type":"Feature","geometry":{"type":"Point","coordinates":[-74.126916,40.855103]}},{"properties":{"zip":"08534","mtg time":"7:30 PM","county":"Mercer","meeting location":"Presbyterian Church","meeting address":"13 South Main Street","mtg location notes":null,"mtg type":"Step &amp; Tradition","geo_score":0.902,"meeting day":"Friday","beginners":null,"dist":21,"hca":null,"town":"Pennington","id":"abyljpugm48u","geo_precision":"range"},"type":"Feature","geometry":{"type":"Point","coordinates":[-74.790665,40.326084]}},{"properties":{"zip":"08742","mtg time":"11:00 AM","county":"Ocean","meeting location":"St. Mary's By the Sea Episcopal Church","meeting address":"804 Bay Avenue","mtg location notes":null,"mtg type":"Step &amp; Tradition","geo_score":0.902,"meeting day":"Friday","beginners":null,"dist":23,"hca":null,"town":"Point Pleasant","id":"abyljpycgikj","geo_precision":"range"},"type":"Feature","geometry":{"type":"Point","coordinates":[-74.051804,40.088551]}},{"properties":{"zip":"07444","mtg time":"8:00 PM","county":"Morris","meeting location":"First Reformed Church","meeting address":"529 Newark-Pompton Turnpike","mtg location notes":null,"mtg type":"Discussion (B 7:00 PM)","geo_score":0.887,"meeting day":"Friday","beginners":null,"dist":2,"hca":null,"town":"Pompton Plains","id":"abyljpx1obuz","geo_precision":"range"},"type":"Feature","geometry":{"type":"Point","coordinates":[-74.295218,40.963835]}},{"properties":{"zip":"08542","mtg time":"12:15 PM","county":"Mercer","meeting location":"United Methodist Church","meeting address":"7 Vanderventer Avenue","mtg location notes":null,"mtg type":"Step","geo_score":0.713,"meeting day":"Friday","beginners":null,"dist":20,"hca":"HCA","town":"Princeton","id":"abyljpty1ru0","geo_precision":"range"},"type":"Feature","geometry":{"type":"Point","coordinates":[-74.630559,40.430531]}},{"properties":{"zip":"07446","mtg time":"8:00 PM","county":"Bergen","meeting location":"St. John Episcopal Church","meeting address":"301 East Main Street","mtg location notes":null,"mtg type":"Step","geo_score":0.805,"meeting day":"Friday","beginners":null,"dist":5,"hca":"HCA","town":"Ramsey","id":"abyljprxipr5","geo_precision":"street"},"type":"Feature","geometry":{"type":"Point","coordinates":[-74.136572,41.057759]}},{"properties":{"zip":"07701","mtg time":"6:30 PM","county":"Monmouth","meeting location":"Tower Hill Presbyterian Church","meeting address":"255 Harding Road","mtg location notes":"First Floor Parlor","mtg type":"Step &amp; Tradition","geo_score":0.902,"meeting day":"Friday","beginners":null,"dist":17,"hca":"HCA","town":"Red Bank","id":"abyljps82ukw","geo_precision":"range"},"type":"Feature","geometry":{"type":"Point","coordinates":[-74.05326,40.347175]}},{"properties":{"zip":"07701","mtg time":"6:30 PM","county":"Monmouth","meeting location":"Holy Trinity Lutheran Church","meeting address":"150 River Road","mtg location notes":null,"mtg type":"Discussion","geo_score":0.829,"meeting day":"Friday","beginners":null,"dist":17,"hca":"HCA","town":"Red Bank","id":"abyljpzrme1z","geo_precision":"range"},"type":"Feature","geometry":{"type":"Point","coordinates":[-74.059239,40.35318]}},{"properties":{"zip":"07542","mtg time":"7:45 PM","county":"Bergen","meeting location":"Christ Church-Ridgewood Village Ctr","meeting address":"105 Cottage Place &amp; Franklin Ave","mtg location notes":null,"mtg type":"Discussion","geo_score":0.403,"meeting day":"Friday","beginners":"B 7:15PM","dist":5,"hca":null,"town":"Ridgewood","id":"abyljq3nju0o","geo_precision":"street"},"type":"Feature","geometry":{"type":"Point","coordinates":[-74.203504,40.905916]}},{"properties":{"zip":"0887X","mtg time":"7:30 PM","county":"Somerset","meeting location":"St Matthias Church School","meeting address":"170 John F Kennedy Boulevard","mtg location notes":"Rear of building","mtg type":"Discussion","geo_score":0.0,"meeting day":"Friday","beginners":null,"dist":13,"hca":"HCA","town":"Somerset","id":"abyljptzsz8c","geo_precision":"unmatched"},"type":"Feature","geometry":null},{"properties":{"zip":"08807","mtg time":"8:30 PM","county":"Somerset","meeting location":"Somerset Medical Center","meeting address":"110 Rehill Ave","mtg location notes":"Hamilton Room","mtg type":"Discussion","geo_score":0.805,"meeting day":"Friday","beginners":"B 8:00PM","dist":13,"hca":"HCA","town":"Somerville","id":"abyljpwqhjm4","geo_precision":"range"},"type":"Feature","geometry":{"type":"Point","coordinates":[-74.595979,40.567603]}},{"properties":{"zip":"07871","mtg time":"11:00 AM","county":"Sussex","meeting location":"Shepard of the Hills Lutheran Ch","meeting address":"246 Woodport Road","mtg location notes":null,"mtg type":"Discussion","geo_score":0.78,"meeting day":"Friday","beginners":null,"dist":1,"hca":"HCA","town":"Sparta","id":"abyljpu6tfig","geo_precision":"range"},"type":"Feature","geometry":{"type":"Point","coordinates":[-74.627844,41.021864]}},{"properties":{"zip":"07874","mtg time":"8:30 PM","county":"Sussex","meeting location":"Lutheran Church of Our Savior","meeting address":"143 Brooklyn-Stanhope Rd","mtg location notes":null,"mtg type":"Discussion","geo_score":0.888,"meeting day":"Friday","beginners":null,"dist":1,"hca":"HCA","town":"Stanhope","id":"abyljq180sny","geo_precision":"range"},"type":"Feature","geometry":{"type":"Point","coordinates":[-74.670325,40.916816]}},{"properties":{"zip":"07980","mtg time":"7:00 PM","county":"Morris","meeting location":"First Presbyterian Church","meeting address":"158 Central Avenue","mtg location notes":null,"mtg type":"Adult Child; Book Study \"Survival to Recovery\"","geo_score":0.902,"meeting day":"Friday","beginners":null,"dist":2,"hca":null,"town":"Stirling","id":"abyljq1agde9","geo_precision":"range"},"type":"Feature","geometry":{"type":"Point","coordinates":[-74.495033,40.675287]}},{"properties":{"zip":"07980","mtg time":"8:15 PM","county":"Morris","meeting location":"First Presbyterian Church","meeting address":"158 Central Avenue","mtg location notes":null,"mtg type":"Adult Child","geo_score":0.902,"meeting day":"Friday","beginners":"B 8:15PM","dist":2,"hca":null,"town":"Stirling","id":"abyljpwq2kzo","geo_precision":"range"},"type":"Feature","geometry":{"type":"Point","coordinates":[-74.495033,40.675287]}},{"properties":{"zip":"08247","mtg time":"10:00 AM","county":"Cape May","meeting location":"St. Mary's Episcopal Church","meeting address":"9425 Third Avenue","mtg location notes":null,"mtg type":"Step &amp; Tradition","geo_score":0.819,"meeting day":"Friday","beginners":"B 10:00AM","dist":27,"hca":null,"town":"Stone Harbor","id":"abyljq0juzkm","geo_precision":"range"},"type":"Feature","geometry":{"type":"Point","coordinates":[-74.759784,39.055703]}},{"properties":{"zip":"07901","mtg time":"8:30 PM","county":"Union","meeting location":"Christ Church","meeting address":"561 Springfield Avenue","mtg location notes":null,"mtg type":"Discussion","geo_score":0.902,"meeting day":"Friday","beginners":null,"dist":12,"hca":"HCA","town":"Summit","id":"abyljpy787d0","geo_precision":"range"},"type":"Feature","geometry":{"type":"Point","coordinates":[-74.364807,40.716372]}},{"properties":{"zip":"08753","mtg time":"7:30 PM","county":"Ocean","meeting location":"Holy Cross Lutheran Church","meeting address":"1500 Hooper Avenue","mtg location notes":null,"mtg type":"Step &amp; Tradition","geo_score":0.902,"meeting day":"Friday","beginners":null,"dist":23,"hca":null,"town":"Toms River","id":"abyljptqwitn","geo_precision":"range"},"type":"Feature","geometry":{"type":"Point","coordinates":[-74.168861,39.997333]}},{"properties":{"zip":"08611","mtg time":"8:30 PM","county":"Burlington","meeting location":"Al-Anon Club","meeting address":"761 Cass Street","mtg location notes":null,"mtg type":null,"geo_score":0.902,"meeting day":"Friday","beginners":null,"dist":22,"hca":null,"town":"Trenton","id":"abyljpt4kyq9","geo_precision":"range"},"type":"Feature","geometry":{"type":"Point","coordinates":[-74.751564,40.2064]}},{"properties":{"zip":"07044","mtg time":"1:15 PM","county":"Essex","meeting location":"First Presbyterian Church","meeting address":"10 Fairview Ave","mtg location notes":"Off Bloomfield Ave","mtg type":"Discussion","geo_score":0.902,"meeting day":"Friday","beginners":null,"dist":9,"hca":null,"town":"Verona","id":"abyljpxi2jgi","geo_precision":"range"},"type":"Feature","geometry":{"type":"Point","coordinates":[-74.250684,40.835076]}},{"properties":{"zip":"07882","mtg time":"7:00 PM","county":"Warren","meeting location":"St. Lukes Lutheran Church","meeting address":"214 Route 31 North","mtg location notes":null,"mtg type":"Discussion, 1st week Step, 3rd week Tradition","geo_score":0.707,"meeting day":"Friday","beginners":null,"dist":3,"hca":"HCA","town":"Washington","id":"abyljpwiiwf7","geo_precision":"range"},"type":"Feature","geometry":{"type":"Point","coordinates":[-74.976938,40.751345]}},{"properties":{"zip":"07675","mtg time":"7:30 PM","county":"Bergen","meeting location":"St. Charles Borromeo School building","meeting address":"1760 Stagecoach and Johnson Rd.","mtg location notes":null,"mtg type":"Discussion","geo_score":0.423,"meeting day":"Friday","beginners":"B","dist":6,"hca":"HCA","town":"Washington Twp","id":"abyljq364wcf","geo_precision":"street"},"type":"Feature","geometry":{"type":"Point","coordinates":[-73.985299,40.931872]}},{"properties":{"zip":"08108","mtg time":"6:30 PM","county":"Camden","meeting location":"The Starting Point","meeting address":"215 Highland Ave, Suite C","mtg location notes":null,"mtg type":"Open Discussion","geo_score":0.482,"meeting day":"Friday","beginners":null,"dist":25,"hca":null,"town":"Westmont","id":"abyljpyyr9p1","geo_precision":"street"},"type":"Feature","geometry":{"type":"Point","coordinates":[-75.045403,39.907635]}},{"properties":{"zip":"07675","mtg time":"10:00 AM","county":"Bergen","meeting location":"Westwood United Methodist Church","meeting address":"105 Fairview Avenue","mtg location notes":"Kinderkamack Rd. &amp; Bergen St.","mtg type":null,"geo_score":0.902,"meeting day":"Friday","beginners":"B 9:00AM","dist":7,"hca":null,"town":"Westwood","id":"abyljq11rklv","geo_precision":"range"},"type":"Feature","geometry":{"type":"Point","coordinates":[-74.028499,40.989422]}},{"properties":{"zip":"08201","mtg time":"11:00 AM","county":"Atlantic","meeting location":"Absecon United Methodist Church","meeting address":"100 Pitney Road","mtg location notes":null,"mtg type":"Step &amp; Tradition","geo_score":0.902,"meeting day":"Monday","beginners":null,"dist":27,"hca":"HCA","town":"Absecon","id":"abyljpsd748u","geo_precision":"range"},"type":"Feature","geometry":{"type":"Point","coordinates":[-74.500038,39.428109]}},{"properties":{"zip":"08201","mtg time":"5:30 PM","county":"Atlantic","meeting location":"Presbyterian Church","meeting address":"208 New Jersey Avenue","mtg location notes":null,"mtg type":"Discussion","geo_score":0.902,"meeting day":"Monday","beginners":null,"dist":27,"hca":null,"town":"Absecon","id":"abyljpqa41a3","geo_precision":"range"},"type":"Feature","geometry":{"type":"Point","coordinates":[-74.503754,39.427877]}},{"properties":{"zip":"08865","mtg time":"8:00 PM","county":"Warren","meeting location":"United Presbyterian Church","meeting address":"859 High Street","mtg location notes":null,"mtg type":"Discussion (1st week step)","geo_score":0.478,"meeting day":"Monday","beginners":null,"dist":1,"hca":"HCA","town":"Alpha","id":"abyljq4ydif6","geo_precision":"street"},"type":"Feature","geometry":{"type":"Point","coordinates":[-74.743749,40.5326]}},{"properties":{"zip":"07922","mtg time":"8:00 PM","county":"Union","meeting location":"Westminster Presbyterian Church","meeting address":"725 Mountain Avenue","mtg location notes":null,"mtg type":null,"geo_score":0.902,"meeting day":"Monday","beginners":"B 7:30PM","dist":12,"hca":"HCA","town":"Berkeley Heights","id":"abyljps8lk6y","geo_precision":"range"},"type":"Feature","geometry":{"type":"Point","coordinates":[-74.433601,40.668641]}},{"properties":{"zip":"08009","mtg time":"7:30 PM","county":"Camden","meeting location":"Church of the Good Shepard","meeting address":"108 West Broad Street","mtg location notes":null,"mtg type":"Beginner","geo_score":0.902,"meeting day":"Monday","beginners":null,"dist":25,"hca":null,"town":"Berlin","id":"abyljpy19v2u","geo_precision":"range"},"type":"Feature","geometry":{"type":"Point","coordinates":[-74.933855,39.792509]}},{"properties":{"zip":"08730","mtg time":"7:30 PM","county":"Monmouth","meeting location":"Church of Brielle","meeting address":"821 Riverview Drive","mtg location notes":null,"mtg type":"Step","geo_score":0.902,"meeting day":"Monday","beginners":null,"dist":18,"hca":null,"town":"Brielle","id":"abyljpy4mtf4","geo_precision":"range"},"type":"Feature","geometry":{"type":"Point","coordinates":[-74.060502,40.104724]}},{"properties":{"zip":"08210","mtg time":"7:00 PM","county":"Cape May","meeting location":"Cape Regional Medical Center","meeting address":"Rt 9 &amp; Stone Harbor Boulevard","mtg location notes":"Classroom A","mtg type":"Discussion (4th week closed)","geo_score":0.612,"meeting day":"Monday","beginners":"B 7:00PM","dist":27,"hca":"HCA","town":"Cape May Court House","id":"abyljq31nbln","geo_precision":"street"},"type":"Feature","geometry":{"type":"Point","coordinates":[-74.837978,39.08736]}},{"properties":{"zip":"07930","mtg time":"10:00 AM","county":"Morris","meeting location":"Community Presbyterian Church","meeting address":"220 Main Street","mtg location notes":"Basement","mtg type":"Discussion","geo_score":0.902,"meeting day":"Monday","beginners":null,"dist":2,"hca":"HCA","town":"Chester","id":"abyljq4tjvrp","geo_precision":"range"},"type":"Feature","geometry":{"type":"Point","coordinates":[-74.691586,40.786649]}},{"properties":{"zip":"07722","mtg time":"12:00 PM","county":"Monmouth","meeting location":"St. Mary's Catholic Church","meeting address":"1 Phalanx Road","mtg location notes":null,"mtg type":"Discussion","geo_score":0.488,"meeting day":"Monday","beginners":null,"dist":16,"hca":null,"town":"Colts Neck","id":"abyljq3dlabv","geo_precision":"zip"},"type":"Feature","geometry":{"type":"Point","coordinates":[-74.160911,40.302848]}},{"properties":{"zip":"08512","mtg time":"8:00 PM","county":"Middlesex","meeting location":"First Presbyterian Church","meeting address":"22 South Main Street","mtg location notes":null,"mtg type":"Step &amp; Tradition","geo_score":0.902,"meeting day":"Monday","beginners":"B 8:00PM","dist":14,"hca":"HCA","town":"Cranbury","id":"abyljptbbcwu","geo_precision":"range"},"type":"Feature","geometry":{"type":"Point","coordinates":[-74.517977,40.30796]}},{"properties":{"zip":"08816","mtg time":"8:00 PM","county":"Middlesex","meeting location":"Nativity Evangelical Church","meeting address":"552 Ryders Lane","mtg location notes":"Dunham Corner Rd.","mtg type":"Discussion","geo_score":0.902,"meeting day":"Monday","beginners":"B 7:15PM","dist":15,"hca":"HCA","town":"East Brunswick","id":"abyljq0du05z","geo_precision":"range"},"type":"Feature","geometry":{"type":"Point","coordinates":[-74.421465,40.42248]}},{"properties":{"zip":"08820","mtg time":"6:30 PM","county":"Middlesex","meeting location":"St James Episcopal Church","meeting address":"2136 Woodbridge Avenue","mtg location notes":null,"mtg type":"Discussion","geo_score":0.805,"meeting day":"Monday","beginners":null,"dist":14,"hca":null,"town":"Edison","id":"abyljptwa50q","geo_precision":"range"},"type":"Feature","geometry":{"type":"Point","coordinates":[-74.397875,40.500547]}},{"properties":{"zip":"07631","mtg time":"8:00 PM","county":"Bergen","meeting location":"St. Paul's Episcopal Church -2nd Fl","meeting address":"113 Engle Street","mtg location notes":null,"mtg type":"Discussion","geo_score":0.805,"meeting day":"Monday","beginners":"B 7:30PM","dist":7,"hca":null,"town":"Englewood","id":"abyljptsxx44","geo_precision":"street"},"type":"Feature","geometry":{"type":"Point","coordinates":[-73.969923,40.899001]}},{"properties":{"zip":"07727","mtg time":"1:00 PM","county":"Monmouth","meeting location":"First United Methodist Church","meeting address":"8 Main Street","mtg location notes":null,"mtg type":null,"geo_score":0.902,"meeting day":"Monday","beginners":"B 12:30PM","dist":19,"hca":null,"town":"Farmingdale","id":"abyljq0bf94r","geo_precision":"range"},"type":"Feature","geometry":{"type":"Point","coordinates":[-74.170671,40.199134]}},{"properties":{"zip":"08822","mtg time":"8:00 PM","county":"Hunterdon","meeting location":"Hunterdon Medical Center","meeting address":"2100 Wescott Drive","mtg location notes":"Meeting Room C","mtg type":"Discussion","geo_score":0.902,"meeting day":"Monday","beginners":null,"dist":3,"hca":"HCA","town":"Flemington","id":"abyljpu12ntr","geo_precision":"range"},"type":"Feature","geometry":{"type":"Point","coordinates":[-74.858189,40.531273]}},{"properties":{"zip":"07728","mtg time":"4:00 PM","county":"Monmouth","meeting location":"New Attitudes Clubhouse","meeting address":"45 Throckmorton Street","mtg location notes":null,"mtg type":"Discussion","geo_score":0.488,"meeting day":"Monday","beginners":null,"dist":19,"hca":"HCA","town":"Freehold","id":"abyljpz84cpn","geo_precision":"zip"},"type":"Feature","geometry":{"type":"Point","coordinates":[-74.301258,40.242056]}},{"properties":{"zip":"07728","mtg time":"8:00 PM","county":"Monmouth","meeting location":"Centrastate Medical Center","meeting address":"901 W Main Street","mtg location notes":"Nursing Conference Center","mtg type":"Discussion","geo_score":0.902,"meeting day":"Monday","beginners":null,"dist":19,"hca":"HCA","town":"Freehold","id":"abyljpxd9ub5","geo_precision":"range"},"type":"Feature","geometry":{"type":"Point","coordinates":[-74.308688,40.237995]}},{"properties":{"zip":"07843","mtg time":"7:30 PM","county":"Sussex","meeting location":"West Side United Methodist Church","meeting address":"16 Maxim Drive","mtg location notes":null,"mtg type":null,"geo_score":0.488,"meeting day":"Monday","beginners":null,"dist":1,"hca":null,"town":"Hopatcong","id":"abyljpxda1yh","geo_precision":"zip"},"type":"Feature","geometry":{"type":"Point","coordinates":[-74.659969,40.936753]}},{"properties":{"zip":"08528","mtg time":"10:00 AM","county":"Somerset","meeting location":"Kingston Presbyterian Church","meeting address":"4561 State Highway 27","mtg location notes":null,"mtg type":"Discussion","geo_score":0.64,"meeting day":"Monday","beginners":null,"dist":13,"hca":null,"town":"Kingston","id":"abyljpsi2udn","geo_precision":"street"},"type":"Feature","geometry":{"type":"Point","coordinates":[-74.6134,40.37562]}},{"properties":{"zip":"08530","mtg time":"8:00 PM","county":"Hunterdon","meeting location":"St. Andrew Episcopal Church","meeting address":"500 York Street","mtg location notes":"Basement","mtg type":"Gay","geo_score":0.708,"meeting day":"Monday","beginners":null,"dist":3,"hca":"HCA","town":"Lambertville","id":"abyljq3cjrxk","geo_precision":"street"},"type":"Feature","geometry":{"type":"Point","coordinates":[-74.94162,40.369119]}},{"properties":{"zip":"08221","mtg time":"7:00 PM","county":"Atlantic","meeting location":"Seaview Baptist Church","meeting address":"2025 Shore Road","mtg location notes":null,"mtg type":"Steps/Tradition","geo_score":0.709,"meeting day":"Monday","beginners":null,"dist":27,"hca":null,"town":"Linwood","id":"abyljpsmhpup","geo_precision":"street"},"type":"Feature","geometry":{"type":"Point","coordinates":[-74.582495,39.330731]}},{"properties":{"zip":"07739","mtg time":"8:00 PM","county":"Monmouth","meeting location":"St. John's Episcopal Church","meeting address":"Little Silver Point Road","mtg location notes":null,"mtg type":"Discussion","geo_score":0.799,"meeting day":"Monday","beginners":null,"dist":17,"hca":null,"town":"Little Silver","id":"abyljq1q2gae","geo_precision":"street"},"type":"Feature","geometry":{"type":"Point","coordinates":[-74.037646,40.331042]}},{"properties":{"zip":"08050","mtg time":"10:30 AM","county":"Ocean","meeting location":"Kings of Kings Church","meeting address":"1000 North Main St","mtg location notes":"Rt 9","mtg type":"Discussion (S&amp;T 1st week)","geo_score":0.675,"meeting day":"Monday","beginners":"B 10:00AM","dist":24,"hca":null,"town":"Manahawkin","id":"abyljpr0j4cq","geo_precision":"street"},"type":"Feature","geometry":{"type":"Point","coordinates":[-74.260656,39.693869]}},{"properties":{"zip":"08052","mtg time":"7:45 PM","county":"Burlington","meeting location":"Holy Trinity Lutheran Church","meeting address":"26 S Forklanding Road","mtg location notes":null,"mtg type":"Discussion","geo_score":0.902,"meeting day":"Monday","beginners":null,"dist":22,"hca":null,"town":"Maple Shade","id":"abyljq4ql4lp","geo_precision":"range"},"type":"Feature","geometry":{"type":"Point","coordinates":[-75.001841,39.955139]}},{"properties":{"zip":"08055","mtg time":"8:00 PM","county":"Burlington","meeting location":"Cathedral in the Woods","meeting address":"100 Stokes Road","mtg location notes":"2nd Floor","mtg type":"Beginners","geo_score":0.902,"meeting day":"Monday","beginners":"B","dist":22,"hca":null,"town":"Medford Lakes","id":"abyljq6dzbk3","geo_precision":"range"},"type":"Feature","geometry":{"type":"Point","coordinates":[-74.822058,39.88829]}},{"properties":{"zip":"07432","mtg time":"8:30 PM","county":"Bergen","meeting location":"United Methodist Church","meeting address":"269 Godwin Avenue","mtg location notes":null,"mtg type":"Discussion","geo_score":0.902,"meeting day":"Monday","beginners":"B 7:30PM","dist":5,"hca":null,"town":"Midland Park","id":"abyljpw851qv","geo_precision":"range"},"type":"Feature","geometry":{"type":"Point","coordinates":[-74.141478,40.990564]}},{"properties":{"zip":"07042","mtg time":"1:00 PM","county":"Essex","meeting location":"St. Luke's Episcopal Church","meeting address":"73 South Fullerton Avenue","mtg location notes":null,"mtg type":"Discussion","geo_score":0.902,"meeting day":"Monday","beginners":null,"dist":9,"hca":"HCA","town":"Montclair","id":"abyljq5vezx4","geo_precision":"range"},"type":"Feature","geometry":{"type":"Point","coordinates":[-74.218868,40.808959]}},{"properties":{"zip":"07042","mtg time":"7:30 PM","county":"Essex","meeting location":"Mountainside Hospital","meeting address":"1 Bay Avenue","mtg location notes":"Room off Cafeteria","mtg type":"Discussion","geo_score":0.902,"meeting day":"Monday","beginners":null,"dist":9,"hca":"HCA","town":"Montclair","id":"abyljq2l5xtv","geo_precision":"range"},"type":"Feature","geometry":{"type":"Point","coordinates":[-74.204548,40.812328]}},{"properties":{"zip":"07960","mtg time":"7:30PM","county":"Morris","meeting location":"Assumption Church","meeting address":"91 Maple Avenue","mtg location notes":"Basement - Library","mtg type":"Discussion","geo_score":0.902,"meeting day":"Monday","beginners":null,"dist":2,"hca":"unko","town":"Morristown","id":"abyljprz5oq7","geo_precision":"range"},"type":"Feature","geometry":{"type":"Point","coordinates":[-74.47738,40.791379]}},{"properties":{"zip":"08059","mtg time":"7:00 PM","county":"Camden","meeting location":"First United Methodist Church","meeting address":"201 New Jersey Avenue","mtg location notes":null,"mtg type":null,"geo_score":0.902,"meeting day":"Monday","beginners":"B 7:00PM","dist":25,"hca":null,"town":"Mount Ephraim","id":"abyljq4ivmry","geo_precision":"range"},"type":"Feature","geometry":{"type":"Point","coordinates":[-75.089187,39.883863]}},{"properties":{"zip":"07046","mtg time":"8:00 PM","county":"Morris","meeting location":"Community Church","meeting address":"48 Briarcliff Road","mtg location notes":"off the Boulevard","mtg type":"Discussion","geo_score":0.902,"meeting day":"Monday","beginners":null,"dist":2,"hca":null,"town":"Mountain Lakes","id":"abyljq1slu4e","geo_precision":"range"},"type":"Feature","geometry":{"type":"Point","coordinates":[-74.435759,40.892732]}},{"properties":{"zip":"08902","mtg time":"8:00 PM","county":"Middlesex","meeting location":"The Reformed Church","meeting address":"17 Laurel Place","mtg location notes":null,"mtg type":"Discussion","geo_score":0.902,"meeting day":"Monday","beginners":null,"dist":15,"hca":"HCA","town":"North Brunswick","id":"abyljq0mn2wz","geo_precision":"range"},"type":"Feature","geometry":{"type":"Point","coordinates":[-74.453554,40.468641]}},{"properties":{"zip":"07755","mtg time":"10:00 AM","county":"Monmouth","meeting location":"Oakhurst United Methodist Church","meeting address":"103 Monmouth Road","mtg location notes":null,"mtg type":"Discusion","geo_score":0.902,"meeting day":"Monday","beginners":null,"dist":18,"hca":"HCA","town":"Oakhurst","id":"abyljpyxtaoe","geo_precision":"range"},"type":"Feature","geometry":{"type":"Point","coordinates":[-74.014871,40.267888]}},{"properties":{"zip":"07442","mtg time":"1:00 PM","county":"Passaic","meeting location":"Christ Episcopal Church","meeting address":"400 Ramapo Avenue","mtg location notes":"At Passaic Ave","mtg type":"Discussion","geo_score":0.902,"meeting day":"Monday","beginners":"B 12:15PM","dist":4,"hca":"HCA","town":"Pompton Lakes","id":"abyljpv0u5tb","geo_precision":"range"},"type":"Feature","geometry":{"type":"Point","coordinates":[-74.286592,40.998035]}},{"properties":{"zip":"07065","mtg time":"7:30 PM","county":"Union","meeting location":"Second Presbyterian Church","meeting address":"1221 New Brunswick Avenue","mtg location notes":null,"mtg type":"Discussion","geo_score":0.902,"meeting day":"Monday","beginners":null,"dist":11,"hca":null,"town":"Rahway","id":"abyljq1ni6jn","geo_precision":"range"},"type":"Feature","geometry":{"type":"Point","coordinates":[-74.276553,40.602808]}},{"properties":{"zip":"07869","mtg time":"7:00 PM","county":"Morris","meeting location":"Mt. Fern Methodist Church","meeting address":"443 Quaker Church Road","mtg location notes":"Parish House","mtg type":"Discussion","geo_score":0.902,"meeting day":"Monday","beginners":null,"dist":2,"hca":"HCA","town":"Randolph","id":"abyljpqb34s7","geo_precision":"range"},"type":"Feature","geometry":{"type":"Point","coordinates":[-74.585029,40.866665]}},{"properties":{"zip":"07701","mtg time":"7:30 PM","county":"Monmouth","meeting location":"Holy Trinity Lutheran Church","meeting address":"150 River Road","mtg location notes":null,"mtg type":"Mens Discussion","geo_score":0.829,"meeting day":"Monday","beginners":null,"dist":17,"hca":null,"town":"Red Bank","id":"abyljq3igjlt","geo_precision":"range"},"type":"Feature","geometry":{"type":"Point","coordinates":[-74.059239,40.35318]}},{"properties":{"zip":"07701","mtg time":"8:00 PM","county":"Monmouth","meeting location":"Tower Hill Presbyterian Church","meeting address":"255 Harding Road","mtg location notes":"Parlor Room","mtg type":"Women's","geo_score":0.902,"meeting day":"Monday","beginners":null,"dist":17,"hca":null,"town":"Red Bank","id":"abyljpy7wdla","geo_precision":"range"},"type":"Feature","geometry":{"type":"Point","coordinates":[-74.05326,40.347175]}},{"properties":{"zip":"07661","mtg time":"1:00PM","county":"Bergen","meeting location":"First Congregational Church","meeting address":"109 Continental Avenue","mtg location notes":null,"mtg type":null,"geo_score":0.902,"meeting day":"Monday","beginners":"B 12:00PM","dist":7,"hca":null,"town":"River Edge","id":"abyljq26xxv6","geo_precision":"range"},"type":"Feature","geometry":{"type":"Point","coordinates":[-74.033733,40.932877]}},{"properties":{"zip":"08553","mtg time":"10:00 AM","county":"Somerset","meeting location":"First Reformed Church of Rocky Hill","meeting address":"91 Rte 518","mtg location notes":"(Washington St.)","mtg type":"Discussion","geo_score":0.74,"meeting day":"Monday","beginners":"B 10:00AM","dist":13,"hca":"HCA","town":"Rocky Hill","id":"abyljpu6z4pm","geo_precision":"range"},"type":"Feature","geometry":{"type":"Point","coordinates":[-74.634508,40.399932]}},{"properties":{"zip":"07070","mtg time":"8:00 PM","county":"Bergen","meeting location":"First Presbyterian Church","meeting address":"32 Ridge Road","mtg location notes":"Parish House","mtg type":"Discussion","geo_score":0.902,"meeting day":"Monday","beginners":null,"dist":6,"hca":null,"town":"Rutherford","id":"abyljpx842hj","geo_precision":"range"},"type":"Feature","geometry":{"type":"Point","coordinates":[-74.107049,40.824452]}},{"properties":{"zip":"07094","mtg time":"7:30 PM","county":"Hudson","meeting location":"First Reformed Church of Secaucus","meeting address":"53 Centre Avenue","mtg location notes":null,"mtg type":null,"geo_score":0.873,"meeting day":"Monday","beginners":null,"dist":8,"hca":"HCA","town":"Secaucus","id":"abyljppzb7mo","geo_precision":"range"},"type":"Feature","geometry":{"type":"Point","coordinates":[-74.057313,40.788297]}},{"properties":{"zip":"08008","mtg time":"7:00 PM","county":"Ocean","meeting location":"Shiloh 7th Day Baptist Church","meeting address":"116 East Avenue","mtg location notes":null,"mtg type":null,"geo_score":0.645,"meeting day":"Monday","beginners":null,"dist":23,"hca":null,"town":"Shiloh","id":"abyljpx3ivmg","geo_precision":"range"},"type":"Feature","geometry":{"type":"Point","coordinates":[-74.205932,39.60614]}},{"properties":{"zip":"07078","mtg time":"10:00 AM","county":"Essex","meeting location":"St. Rose of Lima RC Church","meeting address":"50 Short Hills Road","mtg location notes":"Ryan Hall - Rectory Basement - Enter door by cemetery","mtg type":"Step","geo_score":0.844,"meeting day":"Monday","beginners":null,"dist":9,"hca":null,"town":"Short Hills","id":"abyljq3r0ffd","geo_precision":"range"},"type":"Feature","geometry":{"type":"Point","coordinates":[-74.319306,40.722413]}},{"properties":{"zip":"07871","mtg time":"8:00 PM","county":"Sussex","meeting location":"Sparta United Methodist Church","meeting address":"71 Sparta Avenue","mtg location notes":null,"mtg type":null,"geo_score":0.488,"meeting day":"Monday","beginners":"B 8:00PM","dist":1,"hca":"HCA","town":"Sparta","id":"abyljq2uh3b0","geo_precision":"zip"},"type":"Feature","geometry":{"type":"Point","coordinates":[-74.718191,41.040597]}},{"properties":{"zip":"07980","mtg time":"10:00 AM","county":"Morris","meeting location":"St. Joseph's Shrine","meeting address":"1050 Long Hill Road","mtg location notes":"Multi-Purpose room","mtg type":"Discussion","geo_score":0.488,"meeting day":"Monday","beginners":null,"dist":2,"hca":null,"town":"Stirling","id":"abyljq35uzs2","geo_precision":"street"},"type":"Feature","geometry":{"type":"Point","coordinates":[-74.584277,40.624537]}},{"properties":{"zip":"07876","mtg time":"12:30 PM","county":"Morris","meeting location":"Redeemer Lutheran Church","meeting address":"203 Eyland Avenue","mtg location notes":null,"mtg type":"Discussion","geo_score":0.902,"meeting day":"Monday","beginners":null,"dist":2,"hca":null,"town":"Succasunna","id":"abyljq47l38l","geo_precision":"range"},"type":"Feature","geometry":{"type":"Point","coordinates":[-74.655408,40.848714]}},{"properties":{"zip":"08753","mtg time":"11:00 AM","county":"Ocean","meeting location":"St. Luke's Roman Catholic Church","meeting address":"1674 Old Freehold Road","mtg location notes":"Madonna Room","mtg type":"Discussion","geo_score":0.708,"meeting day":"Monday","beginners":null,"dist":23,"hca":null,"town":"Toms River","id":"abyljpsn8xri","geo_precision":"street"},"type":"Feature","geometry":{"type":"Point","coordinates":[-74.200931,40.002219]}},{"properties":{"zip":"08753","mtg time":"7:30 PM","county":"Ocean","meeting location":"Pinelands Reform Church","meeting address":"898 State Hwy 37 West","mtg location notes":null,"mtg type":"Discussion","geo_score":0.676,"meeting day":"Monday","beginners":null,"dist":23,"hca":null,"town":"Toms River","id":"abyljppz5aaj","geo_precision":"range"},"type":"Feature","geometry":{"type":"Point","coordinates":[-74.183662,39.962852]}},{"properties":{"zip":"08753","mtg time":"8:00 PM","county":"Ocean","meeting location":"MTI","meeting address":"1201 Rte 37 E","mtg location notes":"Basement, Room 16","mtg type":null,"geo_score":0.707,"meeting day":"Monday","beginners":null,"dist":23,"hca":null,"town":"Toms River","id":"abyljpwqxajk","geo_precision":"range"},"type":"Feature","geometry":{"type":"Point","coordinates":[-74.160078,39.953483]}},{"properties":{"zip":"07083","mtg time":"7:30 PM","county":"Union","meeting location":"First Baptist Church","meeting address":"525 Thoreau Terrace","mtg location notes":null,"mtg type":"Discussion","geo_score":0.902,"meeting day":"Monday","beginners":null,"dist":11,"hca":null,"town":"Union","id":"abyljpq8gqr6","geo_precision":"range"},"type":"Feature","geometry":{"type":"Point","coordinates":[-74.264282,40.685613]}},{"properties":{"zip":"08406","mtg time":"7:00 PM","county":"Atlantic","meeting location":"Church of the Epiphany","meeting address":"6605 Atlantic Avenue","mtg location notes":"Church Rectory building - behind church","mtg type":"Step &amp; tradition; Discussion","geo_score":0.862,"meeting day":"Monday","beginners":null,"dist":27,"hca":"HCA","town":"Ventnor","id":"abyljpzpqoab","geo_precision":"range"},"type":"Feature","geometry":{"type":"Point","coordinates":[-74.484295,39.335291]}},{"properties":{"zip":"08758","mtg time":"7:30 PM","county":"Ocean","meeting location":"Waretown United Methodist Church","meeting address":"27 Bryant Road","mtg location notes":null,"mtg type":"Discussion","geo_score":0.902,"meeting day":"Monday","beginners":null,"dist":24,"hca":null,"town":"Waretown","id":"abyljpq5tzn5","geo_precision":"range"},"type":"Feature","geometry":{"type":"Point","coordinates":[-74.192751,39.791034]}},{"properties":{"zip":"08108","mtg time":"8:15 PM","county":"Camden","meeting location":"The Starting Point","meeting address":"215 Highland Ave, Suite C","mtg location notes":null,"mtg type":"11th Step Meeting","geo_score":0.482,"meeting day":"Monday","beginners":null,"dist":25,"hca":null,"town":"Westmont","id":"abyljq4ck0br","geo_precision":"street"},"type":"Feature","geometry":{"type":"Point","coordinates":[-75.045403,39.907635]}},{"properties":{"zip":"07712","mtg time":"10:00 AM","county":"Monmouth","meeting location":"VFW Hall Post 1333","meeting address":"701 Lake Avenue","mtg location notes":"Basement","mtg type":"Discussion","geo_score":0.902,"meeting day":"Saturday","beginners":null,"dist":18,"hca":null,"town":"Asbury Park","id":"abyljpzp9k2n","geo_precision":"range"},"type":"Feature","geometry":{"type":"Point","coordinates":[-74.01369,40.215109]}},{"properties":{"zip":"08724","mtg time":"10:00 AM","county":"Ocean","meeting location":"Ocean Medical Center","meeting address":"425 Jack Martin Boulevard","mtg location notes":"Community Room","mtg type":"Parents","geo_score":0.563,"meeting day":"Saturday","beginners":null,"dist":23,"hca":"HCA","town":"Brick","id":"abyljptc8mb3","geo_precision":"street"},"type":"Feature","geometry":{"type":"Point","coordinates":[-74.113192,40.091035]}},{"properties":{"zip":"08723","mtg time":"10:00 AM","county":"Ocean","meeting location":"St. Thomas Lutheran Church","meeting address":"135 Salmon Street","mtg location notes":null,"mtg type":"Beginners","geo_score":0.805,"meeting day":"Saturday","beginners":null,"dist":23,"hca":"HCA","town":"Brick","id":"abyljq0j75yp","geo_precision":"street"},"type":"Feature","geometry":{"type":"Point","coordinates":[-74.139147,40.063303]}},{"properties":{"zip":"08724","mtg time":"11:30 AM","county":"Ocean","meeting location":"Ocean Medical Center","meeting address":"425 Jack Martin Blvd.","mtg location notes":"Community Room","mtg type":"Discussion","geo_score":0.563,"meeting day":"Saturday","beginners":null,"dist":23,"hca":"HCA","town":"Brick","id":"abyljq2l3t7s","geo_precision":"street"},"type":"Feature","geometry":{"type":"Point","coordinates":[-74.113192,40.091035]}},{"properties":{"zip":"07066","mtg time":"7:30 PM","county":"Union","meeting location":"Osceola Presbyterian Church","meeting address":"1689 Raritan Road","mtg location notes":"Basbysitter","mtg type":"Discussion","geo_score":0.902,"meeting day":"Saturday","beginners":null,"dist":11,"hca":"HCA","town":"Clark","id":"abyljq571p9u","geo_precision":"range"},"type":"Feature","geometry":{"type":"Point","coordinates":[-74.289914,40.639868]}},{"properties":{"zip":"08816","mtg time":"8:00 PM","county":"Middlesex","meeting location":"Nativity Evangelical Lutheran Church","meeting address":"552 Ryders Lane","mtg location notes":"Dunham Corner Rd.","mtg type":"Discussion","geo_score":0.902,"meeting day":"Saturday","beginners":null,"dist":15,"hca":"HCA","town":"East Brunswick","id":"abyljpwjbpbi","geo_precision":"range"},"type":"Feature","geometry":{"type":"Point","coordinates":[-74.421465,40.42248]}},{"properties":{"zip":"08820","mtg time":"7:30 PM","county":"Middlesex","meeting location":"New Dover Methodist Church","meeting address":"687 New Dover Road","mtg location notes":"Choir Room","mtg type":"Discussion (No meeting 12/24,12/31)","geo_score":0.902,"meeting day":"Saturday","beginners":null,"dist":14,"hca":"HCA","town":"Edison","id":"abyljps3m43d","geo_precision":"range"},"type":"Feature","geometry":{"type":"Point","coordinates":[-74.34101,40.585431]}},{"properties":{"zip":"07024","mtg time":"10:30 AM","county":"Bergen","meeting location":"First Reformed Church","meeting address":"2420 Lemoine Avenue","mtg location notes":"Rt. 9W North","mtg type":"Discussion Adult Child","geo_score":0.902,"meeting day":"Saturday","beginners":null,"dist":7,"hca":null,"town":"Fort Lee","id":"abyljpxp2h4a","geo_precision":"range"},"type":"Feature","geometry":{"type":"Point","coordinates":[-73.962391,40.863672]}},{"properties":{"zip":"08035","mtg time":"8:00 PM","county":"Camden","meeting location":"First Methodist Church","meeting address":"7th &amp; Garden Street","mtg location notes":null,"mtg type":"Step and Tradition","geo_score":0.49,"meeting day":"Saturday","beginners":"B","dist":25,"hca":null,"town":"Haddon Heights","id":"abyljpujqthu","geo_precision":"street"},"type":"Feature","geometry":{"type":"Point","coordinates":[-75.063966,39.885253]}},{"properties":{"zip":"07508","mtg time":"8:15PM","county":"Passaic","meeting location":"Bridgeway Community Church","meeting address":"381 Haledon Avenue","mtg location notes":"Enter kitchen door on side of church","mtg type":"Topic","geo_score":0.902,"meeting day":"Saturday","beginners":"B 7:30-8:15PM","dist":4,"hca":null,"town":"Haledon","id":"abyljq35wob5","geo_precision":"range"},"type":"Feature","geometry":{"type":"Point","coordinates":[-74.180685,40.936516]}},{"properties":{"zip":"08690","mtg time":"10:15 AM","county":"Mercer","meeting location":"St. Mark's United Methodist Church","meeting address":"465 Paxson Avenue","mtg location notes":null,"mtg type":null,"geo_score":0.488,"meeting day":"Saturday","beginners":null,"dist":21,"hca":null,"town":"Hamilton","id":"abyljpyw539r","geo_precision":"zip"},"type":"Feature","geometry":{"type":"Point","coordinates":[-74.653213,40.227332]}},{"properties":{"zip":"08827","mtg time":"9:45 AM","county":"Hunterdon","meeting location":"Friends of Bill W Club","meeting address":"165 Rte 31 South","mtg location notes":null,"mtg type":"\"How Al-Anon Works\" book study","geo_score":0.707,"meeting day":"Saturday","beginners":null,"dist":3,"hca":"HCA","town":"Hampton","id":"abyljq39brg4","geo_precision":"range"},"type":"Feature","geometry":{"type":"Point","coordinates":[-74.960528,40.71008]}},{"properties":{"zip":"07030","mtg time":"10:00 AM","county":"Hudson","meeting location":"St. Matthew's Lutheran Parish Centr","meeting address":"731 Washington Street","mtg location notes":null,"mtg type":"Discussion","geo_score":0.902,"meeting day":"Saturday","beginners":null,"dist":8,"hca":null,"town":"Hoboken","id":"abyljq3fhch0","geo_precision":"range"},"type":"Feature","geometry":{"type":"Point","coordinates":[-74.028309,40.745574]}},{"properties":{"zip":"07423","mtg time":"10:00 AM","county":"Bergen","meeting location":"St. Lukes Roman Catholic Church","meeting address":"340 N Franklin Turnpike","mtg location notes":"Parish Center","mtg type":"Discussion","geo_score":0.902,"meeting day":"Saturday","beginners":"B 9:15AM","dist":5,"hca":null,"town":"Ho-Ho-Kus","id":"abyljq1ce9x8","geo_precision":"range"},"type":"Feature","geometry":{"type":"Point","coordinates":[-74.115193,41.00565]}},{"properties":{"zip":"07304","mtg time":"8:45AM","county":"Hudson","meeting location":"St. Paul's Church","meeting address":"38 Duncan Avenue","mtg location notes":null,"mtg type":null,"geo_score":0.902,"meeting day":"Saturday","beginners":null,"dist":8,"hca":null,"town":"Jersey City","id":"abyljpw4xg1m","geo_precision":"range"},"type":"Feature","geometry":{"type":"Point","coordinates":[-74.072147,40.724629]}},{"properties":{"zip":"07032","mtg time":"10:00 AM","county":"Hudson","meeting location":"First Presbyterian Church","meeting address":"663 Kearny Avenue","mtg location notes":"Basement","mtg type":"Discussion","geo_score":0.902,"meeting day":"Saturday","beginners":null,"dist":8,"hca":null,"town":"Kearny","id":"abyljq2ijvwk","geo_precision":"range"},"type":"Feature","geometry":{"type":"Point","coordinates":[-74.143312,40.774382]}},{"properties":{"zip":"08701","mtg time":"9:15 AM","county":"Ocean","meeting location":"Kimball Medical Center","meeting address":"600 River Avenue","mtg location notes":"Room D","mtg type":null,"geo_score":0.837,"meeting day":"Saturday","beginners":null,"dist":23,"hca":null,"town":"Lakewood","id":"abyljq3444gs","geo_precision":"range"},"type":"Feature","geometry":{"type":"Point","coordinates":[-74.21735,40.074178]}},{"properties":{"zip":"08701","mtg time":"6:00 PM","county":"Ocean","meeting location":"Bethel Spanish Pentecostal Church","meeting address":"219 Clifton Avenue","mtg location notes":null,"mtg type":null,"geo_score":0.902,"meeting day":"Saturday","beginners":null,"dist":23,"hca":null,"town":"Lakewood","id":"abyljpw6o399","geo_precision":"range"},"type":"Feature","geometry":{"type":"Point","coordinates":[-74.214703,40.09294]}},{"properties":{"zip":"07748","mtg time":"9:30 AM","county":"Monmouth","meeting location":"Westminster Presbyterian Church","meeting address":"94 Tindall Road","mtg location notes":null,"mtg type":"Discussion","geo_score":0.902,"meeting day":"Saturday","beginners":null,"dist":16,"hca":"HCA","town":"Middletown","id":"abyljpskzhmx","geo_precision":"range"},"type":"Feature","geometry":{"type":"Point","coordinates":[-74.100837,40.402578]}},{"properties":{"zip":"07432","mtg time":"8:30 PM","county":"Bergen","meeting location":"United Methodist Church","meeting address":"269 Godwin Avenue","mtg location notes":null,"mtg type":"Discussion","geo_score":0.902,"meeting day":"Saturday","beginners":"B 7:30PM","dist":5,"hca":null,"town":"Midland Park","id":"abyljpq8qrdn","geo_precision":"range"},"type":"Feature","geometry":{"type":"Point","coordinates":[-74.141478,40.990564]}},{"properties":{"zip":"07042","mtg time":"10:30 AM","county":"Essex","meeting location":"Mountainside Hospital","meeting address":"1 Bay Avenue","mtg location notes":"Conference Room 2","mtg type":"Informal Speaker","geo_score":0.902,"meeting day":"Saturday","beginners":null,"dist":9,"hca":"HCA","town":"Montclair","id":"abyljq1qguwg","geo_precision":"range"},"type":"Feature","geometry":{"type":"Point","coordinates":[-74.204548,40.812328]}},{"properties":{"zip":"07042","mtg time":"7:30 PM","county":"Essex","meeting location":"St John's Episcopal Church","meeting address":"55 Montclair Ave","mtg location notes":null,"mtg type":"Step","geo_score":0.902,"meeting day":"Saturday","beginners":null,"dist":9,"hca":"HCA","town":"Montclair","id":"abyljpwz2nvn","geo_precision":"range"},"type":"Feature","geometry":{"type":"Point","coordinates":[-74.205996,40.820598]}},{"properties":{"zip":"08060","mtg time":"10:30 AM","county":"Burlington","meeting location":"First Presbyterian Church","meeting address":"125 Garden Street","mtg location notes":"2nd floor","mtg type":"4th Step","geo_score":0.902,"meeting day":"Saturday","beginners":null,"dist":22,"hca":null,"town":"Mount Holly","id":"abyljq5snbta","geo_precision":"range"},"type":"Feature","geometry":{"type":"Point","coordinates":[-74.784259,39.996983]}},{"properties":{"zip":"08901","mtg time":"11:00 AM","county":"Middlesex","meeting location":"Emmanuel Lutheran Church","meeting address":"1-3 Kirkpatrick &amp; New Streets","mtg location notes":null,"mtg type":"Discussion","geo_score":0.765,"meeting day":"Saturday","beginners":null,"dist":15,"hca":null,"town":"New Brunswick","id":"abyljq4iayaf","geo_precision":"street"},"type":"Feature","geometry":{"type":"Point","coordinates":[-74.44651,40.494008]}},{"properties":{"zip":"07054","mtg time":"7:30 PM","county":"Morris","meeting location":"St. Gregory's Episcopal Church","meeting address":"480 S Beverwyck Road","mtg location notes":null,"mtg type":"Discussion","geo_score":0.488,"meeting day":"Saturday","beginners":"Adult Child","dist":2,"hca":null,"town":"Parsippany","id":"abyljptvqhme","geo_precision":"zip"},"type":"Feature","geometry":{"type":"Point","coordinates":[-74.407706,40.852118]}},{"properties":{"zip":"08540","mtg time":"5:30 PM","county":"Mercer","meeting location":"24 Hour Club of Princeton","meeting address":"1225 State Road","mtg location notes":"Rear","mtg type":"Adult Children; Discus., Stp &amp; Trad","geo_score":0.902,"meeting day":"Saturday","beginners":"B 5:30PM","dist":20,"hca":"HCA","town":"Princeton","id":"abyljpqnua90","geo_precision":"range"},"type":"Feature","geometry":{"type":"Point","coordinates":[-74.651118,40.399743]}},{"properties":{"zip":"08540","mtg time":"8:30AM","county":"Mercer","meeting location":"Trinity Church","meeting address":"33 Mercer Street","mtg location notes":null,"mtg type":"Discussion (Babysitting available)","geo_score":0.902,"meeting day":"Saturday","beginners":null,"dist":20,"hca":"HCA","town":"Princeton","id":"abyljq1ly3pa","geo_precision":"range"},"type":"Feature","geometry":{"type":"Point","coordinates":[-74.663925,40.34789]}},{"properties":{"zip":"07701","mtg time":"5:30 PM","county":"Monmouth","meeting location":"Tower Hill Presbyterian Church","meeting address":"255 Harding Road","mtg location notes":"Room 223","mtg type":"Discussion Quarterly Speaker","geo_score":0.902,"meeting day":"Saturday","beginners":null,"dist":17,"hca":"HCA","town":"Red Bank","id":"abyljpq3nro9","geo_precision":"range"},"type":"Feature","geometry":{"type":"Point","coordinates":[-74.05326,40.347175]}},{"properties":{"zip":"08553","mtg time":"10:00 AM","county":"Somerset","meeting location":"First Reformed Church of Rocky Hill","meeting address":"91 Rte 518","mtg location notes":"(Washington St.)","mtg type":null,"geo_score":0.74,"meeting day":"Saturday","beginners":null,"dist":13,"hca":"HCA","town":"Rocky Hill","id":"abyljpr6q4b1","geo_precision":"range"},"type":"Feature","geometry":{"type":"Point","coordinates":[-74.634508,40.399932]}},{"properties":{"zip":"07081","mtg time":"8:00 PM","county":"Union","meeting location":"First Presbyterian Church-Parish Hs","meeting address":"37 Church Mall","mtg location notes":null,"mtg type":"Discussion","geo_score":0.902,"meeting day":"Saturday","beginners":null,"dist":12,"hca":"HCA","town":"Springfield","id":"abyljpzbft2d","geo_precision":"range"},"type":"Feature","geometry":{"type":"Point","coordinates":[-74.310487,40.711215]}},{"properties":{"zip":"07083","mtg time":"9:00am","county":"Union","meeting location":"St. Luke and All Saints Episcopal Curch","meeting address":"398 Chestnut Street","mtg location notes":"Main Hall","mtg type":"Women's","geo_score":0.902,"meeting day":"Saturday","beginners":null,"dist":11,"hca":"HCA","town":"Union","id":"abyljpupk4an","geo_precision":"range"},"type":"Feature","geometry":{"type":"Point","coordinates":[-74.268305,40.679772]}},{"properties":{"zip":"08043","mtg time":"11:00 AM","county":"Camden","meeting location":"Hope United Methodist Church","meeting address":"700 Cooper Road","mtg location notes":null,"mtg type":"Beginners","geo_score":0.902,"meeting day":"Saturday","beginners":null,"dist":25,"hca":"HCA","town":"Voorhees","id":"abyljprqpude","geo_precision":"range"},"type":"Feature","geometry":{"type":"Point","coordinates":[-74.952377,39.860749]}},{"properties":{"zip":"07924","mtg time":"8:00 PM","county":"Somerset","meeting location":"St. Elizabeth\"s School","meeting address":"30 Seney Drive","mtg location notes":"Monsignor Tourney Rm","mtg type":"Discussion","geo_score":0.902,"meeting day":"Sunday","beginners":null,"dist":13,"hca":"HCA","town":"Bernardsville","id":"abyljpu61oyo","geo_precision":"range"},"type":"Feature","geometry":{"type":"Point","coordinates":[-74.571469,40.724524]}},{"properties":{"zip":"08724","mtg time":"7:00 PM","county":"Ocean","meeting location":"Ocean Medical Center","meeting address":"425 Jack Martin Boulevard","mtg location notes":"2nd floor conf rm near cafeteria","mtg type":"Adult Child","geo_score":0.563,"meeting day":"Sunday","beginners":null,"dist":23,"hca":"HCA","town":"Brick","id":"abyljq0iq21p","geo_precision":"street"},"type":"Feature","geometry":{"type":"Point","coordinates":[-74.113192,40.091035]}},{"properties":{"zip":"08210","mtg time":"10:00 AM","county":"Cape May","meeting location":"Cape Regional Medical Center","meeting address":"2 Stone Harbor Boulevard","mtg location notes":"Conference room 3","mtg type":"Discussion and Step on 2nd Week","geo_score":0.902,"meeting day":"Sunday","beginners":"B 10:00AM","dist":27,"hca":"HCA","town":"Cape May Court House","id":"abyljpxnaa95","geo_precision":"range"},"type":"Feature","geometry":{"type":"Point","coordinates":[-74.81868,39.08741]}},{"properties":{"zip":"07410","mtg time":"7:30 PM","county":"Bergen","meeting location":"Van Riper Ellis Broadway Baptist Ch","meeting address":"701 River Road","mtg location notes":null,"mtg type":"Discussion Adult Child","geo_score":0.537,"meeting day":"Sunday","beginners":null,"dist":5,"hca":"HCA","town":"Fair Lawn","id":"abyljptybtcw","geo_precision":"street"},"type":"Feature","geometry":{"type":"Point","coordinates":[-74.136496,40.937684]}},{"properties":{"zip":"07421","mtg time":"7:30 PM","county":"Passaic","meeting location":"Our Lady Queen of Peace Church","meeting address":"1911 Union Valley Road","mtg location notes":null,"mtg type":"Discussion","geo_score":0.724,"meeting day":"Sunday","beginners":null,"dist":4,"hca":"HCA","town":"Hewitt","id":"abyljq1lnafh","geo_precision":"street"},"type":"Feature","geometry":{"type":"Point","coordinates":[-74.355688,41.154787]}},{"properties":{"zip":"07642","mtg time":"6:30PM","county":"Bergen","meeting location":"Pascack Bible Church","meeting address":"180 Piermont Avenue","mtg location notes":"Back door","mtg type":null,"geo_score":0.902,"meeting day":"Sunday","beginners":null,"dist":6,"hca":"HCA","town":"Hillsdale","id":"abyljq23wx3j","geo_precision":"range"},"type":"Feature","geometry":{"type":"Point","coordinates":[-74.026553,41.008361]}},{"properties":{"zip":"07642","mtg time":"8:15PM","county":"Bergen","meeting location":"Pascack Bible Church","meeting address":"181 Piermont Avenue","mtg location notes":"Back door","mtg type":"Alateen meeting at the same time.","geo_score":0.902,"meeting day":"Sunday","beginners":"B 7:30PM","dist":6,"hca":"HCA","town":"Hillsdale","id":"abyljpy2udeo","geo_precision":"range"},"type":"Feature","geometry":{"type":"Point","coordinates":[-74.026277,41.008365]}},{"properties":{"zip":"07733","mtg time":"10:00 AM","county":"Monmouth","meeting location":"Bayshore Community Hospital (Ground floor)","meeting address":"727 N. Beers Street","mtg location notes":"Conf room B","mtg type":"Discussion","geo_score":0.471,"meeting day":"Sunday","beginners":null,"dist":16,"hca":"HCA","town":"Holmdel","id":"abyljpqvpo1x","geo_precision":"street"},"type":"Feature","geometry":{"type":"Point","coordinates":[-74.195174,40.410514]}},{"properties":{"zip":"07848","mtg time":"7:30 PM","county":"Sussex","meeting location":"Sunrise House","meeting address":"37 Sunset Inn Road","mtg location notes":null,"mtg type":null,"geo_score":0.805,"meeting day":"Sunday","beginners":null,"dist":1,"hca":null,"town":"Lafayette","id":"abyljpz4adah","geo_precision":"street"},"type":"Feature","geometry":{"type":"Point","coordinates":[-74.687622,41.07742]}},{"properties":{"zip":"07036","mtg time":"7:00 PM","county":"Union","meeting location":"St Theresa's of the Child Jesus Ch.","meeting address":"131 East Edgar Rd","mtg location notes":"Rectory basement","mtg type":"Discussion Polish","geo_score":0.902,"meeting day":"Sunday","beginners":null,"dist":11,"hca":null,"town":"Linden","id":"abyljq411ops","geo_precision":"range"},"type":"Feature","geometry":{"type":"Point","coordinates":[-74.241578,40.628442]}},{"properties":{"zip":"08050","mtg time":"7:00 PM","county":"Ocean","meeting location":"Mill Creek Community Center","meeting address":"1199 Mill Creek Rd","mtg location notes":null,"mtg type":"Step &amp; Tradition","geo_score":0.902,"meeting day":"Sunday","beginners":null,"dist":24,"hca":"HCA","town":"Manahawkin","id":"abyljpxe2vf4","geo_precision":"range"},"type":"Feature","geometry":{"type":"Point","coordinates":[-74.229923,39.665355]}},{"properties":{"zip":"07432","mtg time":"7:30 PM","county":"Bergen","meeting location":"United Methodist Church","meeting address":"269 Godwin Avenue","mtg location notes":null,"mtg type":"Discussion/Beginners","geo_score":0.902,"meeting day":"Sunday","beginners":null,"dist":5,"hca":null,"town":"Midland Park","id":"abyljq3hs64r","geo_precision":"range"},"type":"Feature","geometry":{"type":"Point","coordinates":[-74.141478,40.990564]}},{"properties":{"zip":"08332","mtg time":"8:00 PM","county":"Cumberland","meeting location":"Christ Church","meeting address":"225 Sassafras Street","mtg location notes":null,"mtg type":"4th step last week","geo_score":0.902,"meeting day":"Sunday","beginners":"B 8:00PM","dist":26,"hca":null,"town":"Millville","id":"abyljq36rbut","geo_precision":"range"},"type":"Feature","geometry":{"type":"Point","coordinates":[-75.035901,39.396189]}},{"properties":{"zip":"07042","mtg time":"6:30 PM","county":"Essex","meeting location":"Cent. Presbyterian Church","meeting address":"46 Park Street","mtg location notes":null,"mtg type":"Discussion","geo_score":0.902,"meeting day":"Sunday","beginners":null,"dist":9,"hca":null,"town":"Montclair","id":"abyljq4fx295","geo_precision":"range"},"type":"Feature","geometry":{"type":"Point","coordinates":[-74.216854,40.817548]}},{"properties":{"zip":"07857","mtg time":"6:00","county":"Morris","meeting location":"Grace Church on the Mount","meeting address":"Rte 46 East","mtg location notes":".5 mile from Netcong Circle","mtg type":null,"geo_score":0.476,"meeting day":"Sunday","beginners":"B","dist":2,"hca":"HCA","town":"Netcong","id":"abyljpr0s5e2","geo_precision":"street"},"type":"Feature","geometry":{"type":"Point","coordinates":[-74.699908,40.896983]}},{"properties":{"zip":"07857","mtg time":"6:30 PM","county":"Morris","meeting location":"Grace Church on the Mount","meeting address":"Rte 46 East","mtg location notes":".5 mile from Netcong Circle","mtg type":null,"geo_score":0.476,"meeting day":"Sunday","beginners":null,"dist":2,"hca":"HCA","town":"Netcong","id":"abyljpwi7jst","geo_precision":"street"},"type":"Feature","geometry":{"type":"Point","coordinates":[-74.699908,40.896983]}},{"properties":{"zip":"08901","mtg time":"10:30 AM","county":"Middlesex","meeting location":"Cook College, Rutgers University","meeting address":"Ag Extension Conference Center, College Farm Road, Bldg. 6058","mtg location notes":null,"mtg type":"Step","geo_score":0.415,"meeting day":"Sunday","beginners":null,"dist":15,"hca":"HCA","town":"New Brunswick","id":"abyljq4hcf32","geo_precision":"street"},"type":"Feature","geometry":{"type":"Point","coordinates":[-74.45388,40.505103]}},{"properties":{"zip":"07065","mtg time":"7:00 PM","county":"Union","meeting location":"St. Paul's Church","meeting address":"88 Elm Avenue","mtg location notes":null,"mtg type":"Discussion","geo_score":0.902,"meeting day":"Sunday","beginners":null,"dist":11,"hca":null,"town":"Rahway","id":"abyljq0q05qo","geo_precision":"range"},"type":"Feature","geometry":{"type":"Point","coordinates":[-74.276955,40.608248]}},{"properties":{"zip":"07701","mtg time":"7:00 PM","county":"Monmouth","meeting location":"Holy Trinity Lutheran Church","meeting address":"150 River Road","mtg location notes":null,"mtg type":"Discussion","geo_score":0.829,"meeting day":"Sunday","beginners":null,"dist":17,"hca":"HCA","town":"Red Bank","id":"abyljpzvale9","geo_precision":"range"},"type":"Feature","geometry":{"type":"Point","coordinates":[-74.059239,40.35318]}},{"properties":{"zip":"07701","mtg time":"7:30 PM","county":"Monmouth","meeting location":"First Baptist Church","meeting address":"84 Maple  Avenue","mtg location notes":null,"mtg type":"Adult Child","geo_score":0.873,"meeting day":"Sunday","beginners":null,"dist":17,"hca":null,"town":"Red Bank","id":"abyljq5gmwgk","geo_precision":"range"},"type":"Feature","geometry":{"type":"Point","coordinates":[-74.069058,40.348069]}},{"properties":{"zip":"07901","mtg time":"8:45 AM","county":"Union","meeting location":"Overlook Hosp.","meeting address":"99 Beauvoir Avenue","mtg location notes":null,"mtg type":"Book Study","geo_score":0.902,"meeting day":"Sunday","beginners":null,"dist":12,"hca":"HCA","town":"Summit","id":"abyljpx5tt5x","geo_precision":"range"},"type":"Feature","geometry":{"type":"Point","coordinates":[-74.356567,40.713479]}},{"properties":{"zip":"07901","mtg time":"10:00 AM","county":"Union","meeting location":"Overlook Hosp.","meeting address":"99 Beauvoir Avenue","mtg location notes":null,"mtg type":"Book Study","geo_score":0.902,"meeting day":"Sunday","beginners":null,"dist":12,"hca":"HCA","town":"Summit","id":"abyljq0uqkrn","geo_precision":"range"},"type":"Feature","geometry":{"type":"Point","coordinates":[-74.356567,40.713479]}},{"properties":{"zip":"08087","mtg time":"7:30 PM","county":"Ocean","meeting location":"Tip Seaman's Park - Admin Bldg","meeting address":"Rte 9 &amp; West Main Street","mtg location notes":null,"mtg type":null,"geo_score":0.551,"meeting day":"Sunday","beginners":null,"dist":24,"hca":"HCA","town":"Tuckerton","id":"abyljq27049h","geo_precision":"street"},"type":"Feature","geometry":{"type":"Point","coordinates":[-74.345348,39.618556]}},{"properties":{"zip":"08889","mtg time":"8:00 PM","county":"Hunterdon","meeting location":"Rockaway Reform Church","meeting address":"115 Main Street","mtg location notes":"Route 523","mtg type":"Discussion","geo_score":0.897,"meeting day":"Sunday","beginners":null,"dist":3,"hca":null,"town":"Whitehouse Station","id":"abyljq05zet7","geo_precision":"range"},"type":"Feature","geometry":{"type":"Point","coordinates":[-74.768095,40.618746]}},{"properties":{"zip":"08502","mtg time":"7:00PM","county":"Somerset","meeting location":"Carrier Clinic","meeting address":"252 Rte 601","mtg location notes":"Chapel - follow signs to Admissions Bldg., Park in adjacent lots","mtg type":null,"geo_score":0.74,"meeting day":"Thursday","beginners":null,"dist":13,"hca":"HCA","town":"Belle Mead","id":"abyljprp36ii","geo_precision":"range"},"type":"Feature","geometry":{"type":"Point","coordinates":[-74.682201,40.465087]}},{"properties":{"zip":"08008","mtg time":"7:00 PM","county":"Ocean","meeting location":"St. Francis Community Center","meeting address":"4700 Long Beach Boulevard","mtg location notes":null,"mtg type":"Discussion","geo_score":0.872,"meeting day":"Thursday","beginners":null,"dist":24,"hca":"HCA","town":"Brant Beach, LBI","id":"abyljpwyuo69","geo_precision":"range"},"type":"Feature","geometry":{"type":"Point","coordinates":[-74.191859,39.628502]}},{"properties":{"zip":"07927","mtg time":"7:30 PM","county":"Morris","meeting location":"Notre Dame of Mt. Carmel Church","meeting address":"75 Ridgedale Avenue","mtg location notes":null,"mtg type":"Step","geo_score":0.902,"meeting day":"Thursday","beginners":null,"dist":2,"hca":"HCA","town":"Cedar Knolls","id":"abyljq0z5gnv","geo_precision":"range"},"type":"Feature","geometry":{"type":"Point","coordinates":[-74.449322,40.821959]}},{"properties":{"zip":"07927","mtg time":"8:30 PM","county":"Morris","meeting location":"Notre Dame of Mt. Carmel Church","meeting address":"75 Ridgedale Avenue","mtg location notes":null,"mtg type":"Discussion","geo_score":0.902,"meeting day":"Thursday","beginners":null,"dist":2,"hca":"HCA","town":"Cedar Knolls","id":"abyljpsvo0by","geo_precision":"range"},"type":"Feature","geometry":{"type":"Point","coordinates":[-74.449322,40.821959]}},{"properties":{"zip":"07928","mtg time":"1:00 PM","county":"Morris","meeting location":"Chatham United Methodist Church","meeting address":"460 Main Street","mtg location notes":"2nd Floor","mtg type":"Discussion","geo_score":0.805,"meeting day":"Thursday","beginners":null,"dist":2,"hca":"HCA","town":"Chatham","id":"abyljq58ok0t","geo_precision":"street"},"type":"Feature","geometry":{"type":"Point","coordinates":[-74.39432,40.746044]}},{"properties":{"zip":"07016","mtg time":"7:30 PM","county":"Union","meeting location":"Calvary Tabernacle - Harvest Training Center","meeting address":"69 Myrtle Street","mtg location notes":"2nd driveway - use Office entrance","mtg type":"Discussion","geo_score":0.902,"meeting day":"Thursday","beginners":"B 6:45PM","dist":11,"hca":null,"town":"Cranford","id":"abyljpsd0f7q","geo_precision":"range"},"type":"Feature","geometry":{"type":"Point","coordinates":[-74.288868,40.650999]}},{"properties":{"zip":"08731","mtg time":"8:00 PM","county":"Ocean","meeting location":"Forked River Presbyterian Church","meeting address":"131 North Main St","mtg location notes":"(Route 9)","mtg type":"Step &amp; Tradition","geo_score":0.902,"meeting day":"Thursday","beginners":null,"dist":23,"hca":null,"town":"Forked River","id":"abyljptf50pv","geo_precision":"range"},"type":"Feature","geometry":{"type":"Point","coordinates":[-74.189464,39.842149]}},{"properties":{"zip":"07728","mtg time":"8:15 PM","county":"Monmouth","meeting location":"First Presbyterian Church School","meeting address":"118 West Main Street","mtg location notes":null,"mtg type":"Discussion","geo_score":0.902,"meeting day":"Thursday","beginners":"B 7:15PM","dist":19,"hca":null,"town":"Freehold","id":"abyljq321v8f","geo_precision":"range"},"type":"Feature","geometry":{"type":"Point","coordinates":[-74.28156,40.255075]}},{"properties":{"zip":"08825","mtg time":"7:30 PM","county":"Hunterdon","meeting location":"Frenchtown United Methodist Church","meeting address":"16 Third Street","mtg location notes":null,"mtg type":"Discussion","geo_score":0.805,"meeting day":"Thursday","beginners":null,"dist":3,"hca":null,"town":"Frenchtown","id":"abyljpsmiedh","geo_precision":"range"},"type":"Feature","geometry":{"type":"Point","coordinates":[-75.060709,40.528255]}},{"properties":{"zip":"07840","mtg time":"8:00PM","county":"Warren","meeting location":"Hackettstown Medical Arts Building","meeting address":"108 Bilby Road, Suite 101","mtg location notes":"Main Entrance - rear","mtg type":"Step","geo_score":0.857,"meeting day":"Thursday","beginners":null,"dist":1,"hca":null,"town":"Hackettstown","id":"abyljpubwum1","geo_precision":"street"},"type":"Feature","geometry":{"type":"Point","coordinates":[-74.824446,40.871551]}},{"properties":{"zip":"08033","mtg time":"1:00 PM","county":"Camden","meeting location":"First Presbyterian Church","meeting address":"20 Kings Highway East","mtg location notes":null,"mtg type":"Step","geo_score":0.902,"meeting day":"Thursday","beginners":"B 1:00PM","dist":25,"hca":null,"town":"Haddonfield","id":"abyljq0q6v3j","geo_precision":"range"},"type":"Feature","geometry":{"type":"Point","coordinates":[-75.03478,39.896545]}},{"properties":{"zip":"08033","mtg time":"6:00 PM","county":"Camden","meeting location":"First Presbyterian Church","meeting address":"20 Kings Highway East","mtg location notes":null,"mtg type":null,"geo_score":0.902,"meeting day":"Thursday","beginners":"B 6:00PM","dist":25,"hca":null,"town":"Haddonfield","id":"abyljq3fdaa2","geo_precision":"range"},"type":"Feature","geometry":{"type":"Point","coordinates":[-75.03478,39.896545]}},{"properties":{"zip":"08610","mtg time":"8:00 PM","county":"Mercer","meeting location":"St. Mark's Lutheran Church","meeting address":"350 White Horse Avenue","mtg location notes":null,"mtg type":"Discussion","geo_score":0.841,"meeting day":"Thursday","beginners":null,"dist":21,"hca":null,"town":"Hamilton","id":"abyljq02mcri","geo_precision":"range"},"type":"Feature","geometry":{"type":"Point","coordinates":[-74.701189,40.195024]}},{"properties":{"zip":"08828","mtg time":"1:00 PM","county":"Middlesex","meeting location":"St. George Episcopal Church","meeting address":"56 Main Street","mtg location notes":"Ericson Hall","mtg type":"Discussion","geo_score":0.805,"meeting day":"Thursday","beginners":null,"dist":15,"hca":"HCA","town":"Helmetta","id":"abyljq5cgf2s","geo_precision":"range"},"type":"Feature","geometry":{"type":"Point","coordinates":[-74.360695,40.459375]}},{"properties":{"zip":"08528","mtg time":"8:00 PM","county":"Somerset","meeting location":"Kingston Presbyterian Church","meeting address":"4561 State Highway 27","mtg location notes":null,"mtg type":"Discussion","geo_score":0.64,"meeting day":"Thursday","beginners":null,"dist":13,"hca":null,"town":"Kingston","id":"abyljpwwirhe","geo_precision":"street"},"type":"Feature","geometry":{"type":"Point","coordinates":[-74.6134,40.37562]}},{"properties":{"zip":"08833","mtg time":"8:00PM","county":"Hunterdon","meeting location":"Round Valley United Methodist Church","meeting address":"33 Main Street","mtg location notes":"downstairs, 1st door on the left","mtg type":"Discussion","geo_score":0.85,"meeting day":"Thursday","beginners":null,"dist":3,"hca":null,"town":"Lebanon Borough","id":"abyljpyg68e7","geo_precision":"range"},"type":"Feature","geometry":{"type":"Point","coordinates":[-74.837854,40.642002]}},{"properties":{"zip":"07739","mtg time":"7:00 PM","county":"Monmouth","meeting location":"St. John's Episcopal Church","meeting address":"325 Little Silver Point Road","mtg location notes":null,"mtg type":"Discussion","geo_score":0.863,"meeting day":"Thursday","beginners":null,"dist":17,"hca":"HCA","town":"Little Silver","id":"abyljq10nai2","geo_precision":"range"},"type":"Feature","geometry":{"type":"Point","coordinates":[-74.021672,40.337267]}},{"properties":{"zip":"08050","mtg time":"10:30 AM","county":"Ocean","meeting location":"Mill Creek Community Center","meeting address":"1199 Mill Creek Road","mtg location notes":null,"mtg type":"Step/Topic","geo_score":0.902,"meeting day":"Thursday","beginners":"B 10:00AM","dist":24,"hca":"HCA","town":"Manahawkin","id":"abyljq6crt2z","geo_precision":"range"},"type":"Feature","geometry":{"type":"Point","coordinates":[-74.229923,39.665355]}},{"properties":{"zip":"08736","mtg time":"7:30 PM","county":"Monmouth","meeting location":"United Methodist Church","meeting address":"23 Church Street","mtg location notes":null,"mtg type":"Discussion","geo_score":0.902,"meeting day":"Thursday","beginners":"B 7:30PM","dist":18,"hca":"HCA","town":"Manasquan","id":"abyljpwjawxl","geo_precision":"range"},"type":"Feature","geometry":{"type":"Point","coordinates":[-74.054743,40.123066]}},{"properties":{"zip":"08223","mtg time":"8:00 PM","county":"Cape May","meeting location":"Church of the Resurrection","meeting address":"200 West Tuckahoe Road","mtg location notes":null,"mtg type":"Discussion; Steps &amp; Tradition","geo_score":0.488,"meeting day":"Thursday","beginners":null,"dist":27,"hca":null,"town":"Marmora","id":"abyljpvyepsu","geo_precision":"zip"},"type":"Feature","geometry":{"type":"Point","coordinates":[-74.672382,39.240115]}},{"properties":{"zip":"07747","mtg time":"7:30 PM","county":"Monmouth","meeting location":"Trinity Episcopal Church","meeting address":"79 Ryers Lane","mtg location notes":null,"mtg type":"Discussion","geo_score":0.805,"meeting day":"Thursday","beginners":null,"dist":16,"hca":"HCA","town":"Matawan","id":"abyljpxr0an3","geo_precision":"range"},"type":"Feature","geometry":{"type":"Point","coordinates":[-74.242659,40.392046]}},{"properties":{"zip":"08330","mtg time":"8:30 PM","county":"Atlantic","meeting location":"Presbyterian Church","meeting address":"6001 Main Street","mtg location notes":null,"mtg type":null,"geo_score":0.902,"meeting day":"Thursday","beginners":null,"dist":27,"hca":null,"town":"Mays Landing","id":"abyljprcmpim","geo_precision":"range"},"type":"Feature","geometry":{"type":"Point","coordinates":[-74.729314,39.452856]}},{"properties":{"zip":"08109","mtg time":"7:00 PM","county":"Camden","meeting location":"First Presbyterian Church","meeting address":"10 W Maple Avenue, 3rd Floor","mtg location notes":"Corner of N. Center St and W. Maple Avenue","mtg type":"Young Peoples","geo_score":0.524,"meeting day":"Thursday","beginners":null,"dist":25,"hca":"unko","town":"Merchantville","id":"abyljpxd9ntz","geo_precision":"street"},"type":"Feature","geometry":{"type":"Point","coordinates":[-75.04693,39.948395]}},{"properties":{"zip":"07432","mtg time":"8:15 PM","county":"Bergen","meeting location":"United Methodist Church","meeting address":"269 Godwin Avenue","mtg location notes":null,"mtg type":"Discussion","geo_score":0.902,"meeting day":"Thursday","beginners":"B 7:30PM","dist":5,"hca":null,"town":"Midland Park","id":"abyljpq3bhd8","geo_precision":"range"},"type":"Feature","geometry":{"type":"Point","coordinates":[-74.141478,40.990564]}},{"properties":{"zip":"08850","mtg time":"8:00 PM","county":"Middlesex","meeting location":"St. Paul's United Church of Christ","meeting address":"62 South Main Street","mtg location notes":null,"mtg type":"Discussion","geo_score":0.902,"meeting day":"Thursday","beginners":null,"dist":15,"hca":"HCA","town":"Milltown","id":"abyljq0ta46k","geo_precision":"range"},"type":"Feature","geometry":{"type":"Point","coordinates":[-74.435665,40.450392]}},{"properties":{"zip":"08332","mtg time":"8:00 PM","county":"Cumberland","meeting location":"First Presbyterian Church","meeting address":"119 N 2nd Street","mtg location notes":null,"mtg type":"Discussion (S&amp;T 1st week)","geo_score":0.829,"meeting day":"Thursday","beginners":null,"dist":26,"hca":null,"town":"Millville","id":"abyljpsnky5a","geo_precision":"range"},"type":"Feature","geometry":{"type":"Point","coordinates":[-75.036984,39.397109]}},{"properties":{"zip":"07042","mtg time":"8:00 PM","county":"Essex","meeting location":"First Lutheran Church","meeting address":"153 Park Street","mtg location notes":"Rear door to left","mtg type":"Discussion Book Study","geo_score":0.902,"meeting day":"Thursday","beginners":null,"dist":9,"hca":null,"town":"Montclair","id":"abyljpq7ao25","geo_precision":"range"},"type":"Feature","geometry":{"type":"Point","coordinates":[-74.210377,40.824648]}},{"properties":{"zip":"07755","mtg time":"10:00 AM","county":"Monmouth","meeting location":"Oakhurst United Methodist","meeting address":"103 Monmouth Road","mtg location notes":null,"mtg type":"Discussion","geo_score":0.902,"meeting day":"Thursday","beginners":null,"dist":18,"hca":"HCA","town":"Oakhurst","id":"abyljpskjqjf","geo_precision":"range"},"type":"Feature","geometry":{"type":"Point","coordinates":[-74.014871,40.267888]}},{"properties":{"zip":"08065","mtg time":"7:00 PM","county":"Burlington","meeting location":"Epworth United Methodist Church","meeting address":"501 Morgan Ave","mtg location notes":"At 5th","mtg type":"Step &amp; Tradition","geo_score":0.902,"meeting day":"Thursday","beginners":"B 7:00PM","dist":22,"hca":null,"town":"Palmyra","id":"abyljpxhtjxf","geo_precision":"range"},"type":"Feature","geometry":{"type":"Point","coordinates":[-75.019763,40.005226]}},{"properties":{"zip":"07652","mtg time":"12:30 PM","county":"Bergen","meeting location":"St. Matthew's Episcopal Church","meeting address":"167 Spring Valley Road","mtg location notes":null,"mtg type":"Discussion","geo_score":0.902,"meeting day":"Thursday","beginners":null,"dist":5,"hca":"HCA","town":"Paramus","id":"abyljq4ttwsx","geo_precision":"range"},"type":"Feature","geometry":{"type":"Point","coordinates":[-74.057575,40.927543]}},{"properties":{"zip":"08071","mtg time":"7:30 PM","county":"Gloucester","meeting location":"First Baptist Church","meeting address":"30 North Broadway","mtg location notes":"back of church - across from post office","mtg type":"Discussion","geo_score":0.902,"meeting day":"Thursday","beginners":"B 7:30PM","dist":26,"hca":"HCA","town":"Pitman","id":"abyljpyxi0us","geo_precision":"range"},"type":"Feature","geometry":{"type":"Point","coordinates":[-75.131831,39.733345]}},{"properties":{"zip":"08542","mtg time":"10:00am","county":"Mercer","meeting location":"Nassau Presbyterian Church","meeting address":"61 Nassau Street","mtg location notes":"Parking on street","mtg type":"Discussion","geo_score":0.902,"meeting day":"Thursday","beginners":null,"dist":20,"hca":"HCA","town":"Princeton","id":"abyljpysmpwl","geo_precision":"range"},"type":"Feature","geometry":{"type":"Point","coordinates":[-74.660962,40.349257]}},{"properties":{"zip":"07446","mtg time":"10:00 AM","county":"Bergen","meeting location":"Lutheran Church of the Redeemer","meeting address":"55 Wyckoff Avenue","mtg location notes":"Fellowship Hall","mtg type":"Discussion (Babysitter)","geo_score":0.402,"meeting day":"Thursday","beginners":null,"dist":5,"hca":null,"town":"Ramsey","id":"abyljq138j47","geo_precision":"street"},"type":"Feature","geometry":{"type":"Point","coordinates":[-74.629246,41.2192]}},{"properties":{"zip":"07701","mtg time":"12:00 PM","county":"Monmouth","meeting location":"Tower Hill Presbyterian Church","meeting address":"255 Harding Road","mtg location notes":"Parlor","mtg type":"Discussion","geo_score":0.902,"meeting day":"Thursday","beginners":null,"dist":17,"hca":"HCA","town":"Red Bank","id":"abyljq20xq4e","geo_precision":"range"},"type":"Feature","geometry":{"type":"Point","coordinates":[-74.05326,40.347175]}},{"properties":{"zip":"07701","mtg time":"7:00 PM","county":"Monmouth","meeting location":"Holy Trinity Lutheran Church","meeting address":"150 River Road","mtg location notes":null,"mtg type":"Discussion","geo_score":0.829,"meeting day":"Thursday","beginners":null,"dist":17,"hca":"HCA","town":"Red Bank","id":"abyljq0zawpa","geo_precision":"range"},"type":"Feature","geometry":{"type":"Point","coordinates":[-74.059239,40.35318]}},{"properties":{"zip":"07542","mtg time":"7:30PM","county":"Bergen","meeting location":"Bethlehem Lutheran Church","meeting address":"155 Linwood Avenue","mtg location notes":"Fellowship Hall; park in back of lot - rear entrance","mtg type":"Men's","geo_score":0.683,"meeting day":"Thursday","beginners":"B 7:30PM","dist":5,"hca":null,"town":"Ridgewood","id":"abyljq59gpzv","geo_precision":"range"},"type":"Feature","geometry":{"type":"Point","coordinates":[-74.194985,40.918043]}},{"properties":{"zip":"07076","mtg time":"1:00 PM","county":"Union","meeting location":"All Saints Episcopal Church","meeting address":"559 Park Avenue","mtg location notes":null,"mtg type":"Discussion","geo_score":0.902,"meeting day":"Thursday","beginners":null,"dist":12,"hca":"HCA","town":"Scotch Plains","id":"abyljq2y65w6","geo_precision":"range"},"type":"Feature","geometry":{"type":"Point","coordinates":[-74.394938,40.648376]}},{"properties":{"zip":"07871","mtg time":"11:00AM","county":"Sussex","meeting location":"Sparta United Methodist Church","meeting address":"71 Sparta Avenue","mtg location notes":null,"mtg type":"4th Step Study Group","geo_score":0.488,"meeting day":"Thursday","beginners":null,"dist":1,"hca":"HCA","town":"Sparta","id":"abyljpztsqsi","geo_precision":"zip"},"type":"Feature","geometry":{"type":"Point","coordinates":[-74.718191,41.040597]}},{"properties":{"zip":"08084","mtg time":"7:45 PM","county":"Camden","meeting location":"JFK Hospital, 3rd Floor Conference Room","meeting address":"18 E Laurel Road","mtg location notes":null,"mtg type":"Discussion","geo_score":0.876,"meeting day":"Thursday","beginners":null,"dist":25,"hca":"HCA","town":"Stratford","id":"abyljpsxb47n","geo_precision":"range"},"type":"Feature","geometry":{"type":"Point","coordinates":[-75.010387,39.826422]}},{"properties":{"zip":"08560","mtg time":"7:30 PM","county":"Mercer","meeting location":"Unitarian Universalist Church at Washington Crossing","meeting address":"268 Washington Crossing-Pennington Road","mtg location notes":null,"mtg type":"Discussion(Gay/Lesbian)","geo_score":0.849,"meeting day":"Thursday","beginners":null,"dist":21,"hca":null,"town":"Titusville","id":"abyljq1obqn6","geo_precision":"range"},"type":"Feature","geometry":{"type":"Point","coordinates":[-74.833733,40.30712]}},{"properties":{"zip":"08753","mtg time":"7:30 PM","county":"Ocean","meeting location":"The Presbyterian Church of Toms River","meeting address":"1070 Hooper Avenue","mtg location notes":null,"mtg type":"Discussion","geo_score":0.902,"meeting day":"Thursday","beginners":"B 7:30PM","dist":23,"hca":null,"town":"Toms River","id":"abyljq5nel6c","geo_precision":"range"},"type":"Feature","geometry":{"type":"Point","coordinates":[-74.184218,39.968458]}},{"properties":{"zip":"07043","mtg time":"8:00 PM","county":"Essex","meeting location":"St. James Episcopal Church","meeting address":"581 Valley Road","mtg location notes":null,"mtg type":"Men's","geo_score":0.902,"meeting day":"Thursday","beginners":null,"dist":9,"hca":null,"town":"Upper Montclair","id":"abyljq2ehfpd","geo_precision":"range"},"type":"Feature","geometry":{"type":"Point","coordinates":[-74.207949,40.840646]}},{"properties":{"zip":"07044","mtg time":"10:30 AM","county":"Essex","meeting location":"Episcopal Church of the Holy Spirit","meeting address":"36 Gould Street","mtg location notes":"Fellowship Hall Upstairs","mtg type":"(Child Friendly)","geo_score":0.902,"meeting day":"Thursday","beginners":null,"dist":9,"hca":null,"town":"Verona","id":"abyljprvmrnh","geo_precision":"range"},"type":"Feature","geometry":{"type":"Point","coordinates":[-74.246761,40.832599]}},{"properties":{"zip":"08251","mtg time":"11:00 AM","county":"Cape May","meeting location":"Villas Lower Twp. Rec. Ctr.","meeting address":"2600 Bayshore Road","mtg location notes":null,"mtg type":"Step &amp; Tradition; Discussion","geo_score":0.902,"meeting day":"Thursday","beginners":null,"dist":27,"hca":"HCA","town":"Villas","id":"abyljpszqab7","geo_precision":"range"},"type":"Feature","geometry":{"type":"Point","coordinates":[-74.938899,39.009088]}},{"properties":{"zip":"08060","mtg time":"7:00 PM","county":"Burlington","meeting location":"Hampton Hospital","meeting address":"650 Rancocas Mount Holly Road","mtg location notes":null,"mtg type":"Beginners","geo_score":0.52,"meeting day":"Thursday","beginners":null,"dist":22,"hca":"HCA","town":"Westhampton","id":"abyljpvvvexi","geo_precision":"street"},"type":"Feature","geometry":{"type":"Point","coordinates":[-74.847169,40.009636]}},{"properties":{"zip":"08759","mtg time":"11:00 AM","county":"Ocean","meeting location":"St. Elizabeth Ann Seton","meeting address":"30 Schoolhouse Road","mtg location notes":null,"mtg type":null,"geo_score":0.488,"meeting day":"Thursday","beginners":null,"dist":24,"hca":"HCA","town":"Whiting","id":"abyljptbhojt","geo_precision":"zip"},"type":"Feature","geometry":{"type":"Point","coordinates":[-74.389037,39.938173]}},{"properties":{"zip":"07095","mtg time":"7:30 PM","county":"Middlesex","meeting location":"Woodbridge United Methodist Church","meeting address":"69 Main Street","mtg location notes":null,"mtg type":"Discussion","geo_score":0.902,"meeting day":"Thursday","beginners":null,"dist":14,"hca":null,"town":"Woodbridge","id":"abyljq1vyt3o","geo_precision":"range"},"type":"Feature","geometry":{"type":"Point","coordinates":[-74.278521,40.554416]}},{"properties":{"zip":"08876","mtg time":"7:00 PM","county":"Somerset","meeting location":"Branch Point Church","meeting address":"3421 Rte 22 East","mtg location notes":"Board Room","mtg type":"Discussion","geo_score":0.577,"meeting day":"Tuesday","beginners":"B 7:00PM","dist":13,"hca":"HCA","town":"Branchburg","id":"abyljpz7lazb","geo_precision":"range"},"type":"Feature","geometry":{"type":"Point","coordinates":[-74.710194,40.608498]}},{"properties":{"zip":"08724","mtg time":"7:00 PM","county":"Ocean","meeting location":"Meridian Nursing and Rehabilitation","meeting address":"415 Jack Martin Boulevard","mtg location notes":"Dining Room","mtg type":"Discussion","geo_score":0.564,"meeting day":"Tuesday","beginners":null,"dist":23,"hca":"HCA","town":"Brick","id":"abyljpv2kt6l","geo_precision":"street"},"type":"Feature","geometry":{"type":"Point","coordinates":[-74.113192,40.091035]}},{"properties":{"zip":"08204","mtg time":"10:00 AM","county":"Cape May","meeting location":"First Presbyterian Church","meeting address":"500 Hughes Street","mtg location notes":null,"mtg type":"Step &amp; Tradition","geo_score":0.488,"meeting day":"Tuesday","beginners":"B 9:15AM","dist":27,"hca":null,"town":"Cape May","id":"abyljpxy0mw1","geo_precision":"zip"},"type":"Feature","geometry":{"type":"Point","coordinates":[-74.883504,39.005946]}},{"properties":{"zip":"08204","mtg time":"7:30 PM","county":"Cape May","meeting location":"First Presbyterian Church","meeting address":"500 Hughes Street","mtg location notes":null,"mtg type":null,"geo_score":0.488,"meeting day":"Tuesday","beginners":"B 7:30PM","dist":27,"hca":"HCA","town":"Cape May","id":"abyljq1yldfj","geo_precision":"zip"},"type":"Feature","geometry":{"type":"Point","coordinates":[-74.883504,39.005946]}},{"properties":{"zip":"08069","mtg time":"8:00 PM","county":"Salem","meeting location":"Union Presbyterian Church","meeting address":"254 Shell Road","mtg location notes":"Enter door off parking lot on Shell Rd","mtg type":"Discussion","geo_score":0.895,"meeting day":"Tuesday","beginners":null,"dist":26,"hca":"HCA","town":"Carney's Point","id":"abyljq03y4gd","geo_precision":"range"},"type":"Feature","geometry":{"type":"Point","coordinates":[-75.470851,39.71387]}},{"properties":{"zip":"07012","mtg time":"7:30 PM","county":"Passaic","meeting location":"St. Andrew the Apostle Church","meeting address":"400 Mt. Prospect Avenue","mtg location notes":"Basement","mtg type":null,"geo_score":0.476,"meeting day":"Tuesday","beginners":null,"dist":4,"hca":null,"town":"Clifton","id":"abyljpvrt12t","geo_precision":"street"},"type":"Feature","geometry":{"type":"Point","coordinates":[-74.157468,40.856381]}},{"properties":{"zip":"07624","mtg time":"8:00 PM","county":"Bergen","meeting location":"Closter Reformed Church","meeting address":"300 West Street","mtg location notes":null,"mtg type":"Discussion","geo_score":0.777,"meeting day":"Tuesday","beginners":null,"dist":7,"hca":"HCA","town":"Closter","id":"abyljppv7eg3","geo_precision":"range"},"type":"Feature","geometry":{"type":"Point","coordinates":[-73.965063,40.974834]}},{"properties":{"zip":"07067","mtg time":"7:30 PM","county":"Middlesex","meeting location":"St John Vianney School Room 108","meeting address":"420 Inman Avenue","mtg location notes":null,"mtg type":"Discussion","geo_score":0.902,"meeting day":"Tuesday","beginners":null,"dist":14,"hca":"HCA","town":"Colonia","id":"abyljq4uobrn","geo_precision":"range"},"type":"Feature","geometry":{"type":"Point","coordinates":[-74.321841,40.599309]}},{"properties":{"zip":"07832","mtg time":"7:30 PM","county":"Warren","meeting location":"Knowlton Presbyterian Church","meeting address":"3 Knowlton Road","mtg location notes":null,"mtg type":null,"geo_score":0.902,"meeting day":"Tuesday","beginners":"B 7:00PM","dist":1,"hca":"HCA","town":"Columbia","id":"abyljpueexim","geo_precision":"range"},"type":"Feature","geometry":{"type":"Point","coordinates":[-75.025773,40.934146]}},{"properties":{"zip":"07016","mtg time":"7:30 PM","county":"Union","meeting location":"United Methodist Church","meeting address":"201 Lincoln Avenue East","mtg location notes":null,"mtg type":"Discussion","geo_score":0.902,"meeting day":"Tuesday","beginners":null,"dist":11,"hca":null,"town":"Cranford","id":"abyljpqgf2is","geo_precision":"range"},"type":"Feature","geometry":{"type":"Point","coordinates":[-74.303551,40.650225]}},{"properties":{"zip":"07016","mtg time":"12:00pm","county":"Union","meeting location":"Trinity Episcopal Church","meeting address":"119 Forest Avenue","mtg location notes":"Corner of North Ave &amp; Forest Ave","mtg type":"Topic Meeting","geo_score":0.902,"meeting day":"Tuesday","beginners":null,"dist":11,"hca":null,"town":"Cranford","id":"abyljq3evckg","geo_precision":"range"},"type":"Feature","geometry":{"type":"Point","coordinates":[-74.300193,40.658521]}},{"properties":{"zip":"08628","mtg time":"7:30 PM","county":"Mercer","meeting location":"Ewing Presbyterian Church","meeting address":"100 Scotch Road","mtg location notes":"Educational Building","mtg type":null,"geo_score":0.824,"meeting day":"Tuesday","beginners":null,"dist":21,"hca":null,"town":"Ewing","id":"abyljpzgfkt6","geo_precision":"range"},"type":"Feature","geometry":{"type":"Point","coordinates":[-74.800012,40.270648]}},{"properties":{"zip":"07728","mtg time":"6:45 PM","county":"Monmouth","meeting location":"St Peters Episcopal Church","meeting address":"33 Throckmorton Street","mtg location notes":null,"mtg type":"Discussion","geo_score":0.488,"meeting day":"Tuesday","beginners":"B 5:45PM","dist":19,"hca":null,"town":"Freehold","id":"abyljq08yd5a","geo_precision":"zip"},"type":"Feature","geometry":{"type":"Point","coordinates":[-74.301258,40.242056]}},{"properties":{"zip":"08033","mtg time":"7:30 PM","county":"Camden","meeting location":"First Presbyterian Church","meeting address":"20 Kings Highway East","mtg location notes":null,"mtg type":null,"geo_score":0.902,"meeting day":"Tuesday","beginners":"B 7:30PM","dist":25,"hca":null,"town":"Haddonfield","id":"abyljprvalbh","geo_precision":"range"},"type":"Feature","geometry":{"type":"Point","coordinates":[-75.03478,39.896545]}},{"properties":{"zip":"08610","mtg time":"8:00 PM","county":"Mercer","meeting location":"St. Mark's Lutheran Church","meeting address":"350 Whitehorse Avenue","mtg location notes":null,"mtg type":"Beginner (7:30 pm)","geo_score":0.822,"meeting day":"Tuesday","beginners":null,"dist":21,"hca":null,"town":"Hamilton","id":"abyljq1hs3v7","geo_precision":"range"},"type":"Feature","geometry":{"type":"Point","coordinates":[-74.701189,40.195024]}},{"properties":{"zip":"07405","mtg time":"7:30 PM","county":"Morris","meeting location":"Butler United Methodist Church","meeting address":"5 Bartholdi Avenue","mtg location notes":null,"mtg type":"Discussion","geo_score":0.902,"meeting day":"Tuesday","beginners":null,"dist":2,"hca":"HCA","town":"Kinnelon","id":"abyljpy8c0o2","geo_precision":"range"},"type":"Feature","geometry":{"type":"Point","coordinates":[-74.339817,40.999218]}},{"properties":{"zip":"07848","mtg time":"8:00PM","county":"Sussex","meeting location":"Lafayette Federated Church","meeting address":"180 Rte 15 North","mtg location notes":null,"mtg type":"Step","geo_score":0.707,"meeting day":"Tuesday","beginners":null,"dist":1,"hca":null,"town":"Lafayette","id":"abyljpzi6kkj","geo_precision":"range"},"type":"Feature","geometry":{"type":"Point","coordinates":[-74.710365,41.117325]}},{"properties":{"zip":"08701","mtg time":"7:30 PM","county":"Ocean","meeting location":"Preferred Behavioral Health","meeting address":"700 Airport Road","mtg location notes":null,"mtg type":null,"geo_score":0.902,"meeting day":"Tuesday","beginners":null,"dist":23,"hca":null,"town":"Lakewood","id":"abyljq3mgw7s","geo_precision":"range"},"type":"Feature","geometry":{"type":"Point","coordinates":[-74.174617,40.058983]}},{"properties":{"zip":"08648","mtg time":"7:15 PM","county":"Mercer","meeting location":"Lawrenceville Presby Church","meeting address":"2688 Main Street","mtg location notes":"Youth Center","mtg type":"Discussion","geo_score":0.61,"meeting day":"Tuesday","beginners":null,"dist":21,"hca":null,"town":"Lawrenceville","id":"abyljpqri4lt","geo_precision":"street"},"type":"Feature","geometry":{"type":"Point","coordinates":[-74.663811,40.171892]}},{"properties":{"zip":"07739","mtg time":"7:00 PM","county":"Monmouth","meeting location":"St. John's Episcopal Church","meeting address":"325 Little Silver Point Road","mtg location notes":null,"mtg type":"Discussion","geo_score":0.863,"meeting day":"Tuesday","beginners":null,"dist":17,"hca":null,"town":"Little Silver","id":"abyljq608t0z","geo_precision":"range"},"type":"Feature","geometry":{"type":"Point","coordinates":[-74.021672,40.337267]}},{"properties":{"zip":"07039","mtg time":"1:00 PM","county":"Essex","meeting location":"St. Raphael Church","meeting address":"346 E. Mount Pleasant Ave","mtg location notes":null,"mtg type":"Discussion Book Study","geo_score":0.451,"meeting day":"Tuesday","beginners":null,"dist":9,"hca":"HCA","town":"Livingston","id":"abyljprhm3aq","geo_precision":"street"},"type":"Feature","geometry":{"type":"Point","coordinates":[-74.322926,40.795172]}},{"properties":{"zip":"07071","mtg time":"10:00 AM","county":"Bergen","meeting location":"United Presbyterian Church","meeting address":"511 Ridge Road","mtg location notes":"Entrance in back","mtg type":"Discussion","geo_score":0.902,"meeting day":"Tuesday","beginners":null,"dist":6,"hca":"HCA","town":"Lyndhurst","id":"abyljpu2je7q","geo_precision":"range"},"type":"Feature","geometry":{"type":"Point","coordinates":[-74.122221,40.803852]}},{"properties":{"zip":"08050","mtg time":"7:30PM","county":"Ocean","meeting location":"Lutheran Church of the Holy Spirit","meeting address":"333 North Main Street","mtg location notes":null,"mtg type":"Discussion","geo_score":0.676,"meeting day":"Tuesday","beginners":"B 7:00PM","dist":24,"hca":"HCA","town":"Manahawkin","id":"abyljq1n9ews","geo_precision":"street"},"type":"Feature","geometry":{"type":"Point","coordinates":[-74.260656,39.693869]}},{"properties":{"zip":"07726","mtg time":"8:30 PM","county":"Monmouth","meeting location":"St. Thomas More Church RC Church","meeting address":"186 Gordon's Corner Road","mtg location notes":null,"mtg type":"Discussion","geo_score":0.886,"meeting day":"Tuesday","beginners":null,"dist":19,"hca":"HCA","town":"Manalapan","id":"abyljpwgi0dw","geo_precision":"range"},"type":"Feature","geometry":{"type":"Point","coordinates":[-74.325415,40.307457]}},{"properties":{"zip":"08736","mtg time":"8:00 PM","county":"Monmouth","meeting location":"United Methodist Church","meeting address":"23 Church Street","mtg location notes":null,"mtg type":"Men's","geo_score":0.902,"meeting day":"Tuesday","beginners":null,"dist":18,"hca":"HCA","town":"Manasquan","id":"abyljptvyjfx","geo_precision":"range"},"type":"Feature","geometry":{"type":"Point","coordinates":[-74.054743,40.123066]}},{"properties":{"zip":"08836","mtg time":"7:00 PM","county":"Somerset","meeting location":"Christ Presbyterian Church","meeting address":"1600 Washington Valley Road","mtg location notes":null,"mtg type":"Discussion","geo_score":0.78,"meeting day":"Tuesday","beginners":null,"dist":13,"hca":"HCA","town":"Martinsville","id":"abyljpse8xjb","geo_precision":"range"},"type":"Feature","geometry":{"type":"Point","coordinates":[-74.578408,40.612598]}},{"properties":{"zip":"07042","mtg time":"8:00 PM","county":"Essex","meeting location":"First Lutheran Church","meeting address":"153 Park Street","mtg location notes":null,"mtg type":"Discussion","geo_score":0.902,"meeting day":"Tuesday","beginners":null,"dist":9,"hca":"HCA","town":"Montclair","id":"abyljpr1tiv3","geo_precision":"range"},"type":"Feature","geometry":{"type":"Point","coordinates":[-74.210377,40.824648]}},{"properties":{"zip":"08057","mtg time":"1:00 PM","county":"Burlington","meeting location":"St. Matthew's Lutheran Church","meeting address":"318 Chester Avenue","mtg location notes":null,"mtg type":"Discussion &amp; Step","geo_score":0.902,"meeting day":"Tuesday","beginners":null,"dist":22,"hca":null,"town":"Moorestown","id":"abyljpxixt56","geo_precision":"range"},"type":"Feature","geometry":{"type":"Point","coordinates":[-74.94384,39.967978]}},{"properties":{"zip":"08057","mtg time":"8:00 PM","county":"Burlington","meeting location":"Trinity Episcopal Church","meeting address":"207 W Main Street","mtg location notes":null,"mtg type":"Men's","geo_score":0.902,"meeting day":"Tuesday","beginners":null,"dist":22,"hca":null,"town":"Moorestown","id":"abyljpw35m3z","geo_precision":"range"},"type":"Feature","geometry":{"type":"Point","coordinates":[-74.950859,39.962156]}},{"properties":{"zip":"08533","mtg time":"7:00 PM","county":"Ocean","meeting location":"Plumsted Alliance Building","meeting address":"2 Meadow Brook Lane","mtg location notes":"Rear","mtg type":null,"geo_score":0.883,"meeting day":"Tuesday","beginners":null,"dist":24,"hca":null,"town":"New Egypt","id":"abyljpya2956","geo_precision":"range"},"type":"Feature","geometry":{"type":"Point","coordinates":[-74.536821,40.068639]}},{"properties":{"zip":"07104","mtg time":"8:00 PM","county":"Essex","meeting location":"Our Lady of Good Counsel Church","meeting address":"654 Summer Avenue","mtg location notes":null,"mtg type":null,"geo_score":0.902,"meeting day":"Tuesday","beginners":"Spanish","dist":10,"hca":null,"town":"Newark","id":"abyljptomtfy","geo_precision":"range"},"type":"Feature","geometry":{"type":"Point","coordinates":[-74.163603,40.774833]}},{"properties":{"zip":"08226","mtg time":"8:00 PM","county":"Cape May","meeting location":"St. Johns' Lutheran Church","meeting address":"1001 Central Avenue","mtg location notes":null,"mtg type":"Discussion; Step &amp; Tradition","geo_score":0.902,"meeting day":"Tuesday","beginners":"B 8:00PM","dist":27,"hca":"HCA","town":"Ocean City","id":"abyljq2ihwcv","geo_precision":"range"},"type":"Feature","geometry":{"type":"Point","coordinates":[-74.578493,39.276103]}},{"properties":{"zip":"08742","mtg time":"1:00 PM","county":"Ocean","meeting location":"St. Mary's By the Sea Episcopal Church","meeting address":"804 Bay Avenue","mtg location notes":"Corner of Bay &amp; Atlantic Aves.","mtg type":"Discussion","geo_score":0.902,"meeting day":"Tuesday","beginners":null,"dist":23,"hca":null,"town":"Point Pleasant","id":"abyljpw0pwu4","geo_precision":"range"},"type":"Feature","geometry":{"type":"Point","coordinates":[-74.051804,40.088551]}},{"properties":{"zip":"07701","mtg time":"6:30 PM","county":"Monmouth","meeting location":"United Methodist Church","meeting address":"247 Broad Street","mtg location notes":"Room B-4 Basement","mtg type":"Step","geo_score":0.902,"meeting day":"Tuesday","beginners":null,"dist":17,"hca":null,"town":"Red Bank","id":"abyljq2chqp9","geo_precision":"range"},"type":"Feature","geometry":{"type":"Point","coordinates":[-74.064169,40.342358]}},{"properties":{"zip":"07542","mtg time":"7:30PM","county":"Bergen","meeting location":"Bethlehem Lutheran Church","meeting address":"155 Linwood Avenue","mtg location notes":"Fellowship Hall; park in back of lot - rear entrance","mtg type":"Discussion","geo_score":0.683,"meeting day":"Tuesday","beginners":"B 7:30PM","dist":5,"hca":null,"town":"Ridgewood","id":"abyljpx9j07f","geo_precision":"range"},"type":"Feature","geometry":{"type":"Point","coordinates":[-74.194985,40.918043]}},{"properties":{"zip":"07666","mtg time":"7:30 PM","county":"Bergen","meeting location":"St. Mark's Episcopal Church","meeting address":"118 Chadwick Road","mtg location notes":null,"mtg type":"Discussion Alateen","geo_score":0.488,"meeting day":"Tuesday","beginners":null,"dist":7,"hca":"HCA","town":"Teaneck","id":"abyljpt0ctwb","geo_precision":"zip"},"type":"Feature","geometry":{"type":"Point","coordinates":[-74.003194,40.902044]}},{"properties":{"zip":"07666","mtg time":"8:15 PM","county":"Bergen","meeting location":"St. Mark's Episcopal Church","meeting address":"118 Chadwick Road","mtg location notes":null,"mtg type":"Discussion Speaker","geo_score":0.488,"meeting day":"Tuesday","beginners":null,"dist":7,"hca":"HCA","town":"Teaneck","id":"abyljpqcy79f","geo_precision":"zip"},"type":"Feature","geometry":{"type":"Point","coordinates":[-74.003194,40.902044]}},{"properties":{"zip":"08611","mtg time":"8:00 PM","county":"Burlington","meeting location":"Al-Anon Club","meeting address":"761 Cass Street","mtg location notes":null,"mtg type":null,"geo_score":0.902,"meeting day":"Tuesday","beginners":null,"dist":22,"hca":null,"town":"Trenton","id":"abyljpy27v9c","geo_precision":"range"},"type":"Feature","geometry":{"type":"Point","coordinates":[-74.751564,40.2064]}},{"properties":{"zip":"07087","mtg time":"8:00 PM","county":"Hudson","meeting location":"Holy Family Church","meeting address":"530 35 Street","mtg location notes":null,"mtg type":"Step &amp; Tradition Spanish","geo_score":0.401,"meeting day":"Tuesday","beginners":null,"dist":8,"hca":null,"town":"Union City","id":"abyljptc12t3","geo_precision":"street"},"type":"Feature","geometry":{"type":"Point","coordinates":[-74.146581,40.859088]}},{"properties":{"zip":"07044","mtg time":"8:00 PM","county":"Essex","meeting location":"First Presbyterian Church","meeting address":"10 Fairview Avenue","mtg location notes":null,"mtg type":"Discussion Adult Child","geo_score":0.902,"meeting day":"Tuesday","beginners":null,"dist":9,"hca":null,"town":"Verona","id":"abyljpy75zbl","geo_precision":"range"},"type":"Feature","geometry":{"type":"Point","coordinates":[-74.250684,40.835076]}},{"properties":{"zip":"07675","mtg time":"7:30 PM","county":"Bergen","meeting location":"Church of the Holy Family","meeting address":"226 Hurffville Road","mtg location notes":null,"mtg type":"Discussion; Step &amp; Tradition","geo_score":0.488,"meeting day":"Tuesday","beginners":"B 7:30PM","dist":6,"hca":null,"town":"Washington Twp. / Sewell","id":"abyljq1c103b","geo_precision":"zip"},"type":"Feature","geometry":{"type":"Point","coordinates":[-74.021278,41.011453]}},{"properties":{"zip":"07470","mtg time":"8:00 PM","county":"Passaic","meeting location":"Preakness Reformed Church","meeting address":"131 Church Lane","mtg location notes":null,"mtg type":"Adult Child","geo_score":0.902,"meeting day":"Tuesday","beginners":null,"dist":4,"hca":"HCA","town":"Wayne","id":"abyljq0znj0p","geo_precision":"range"},"type":"Feature","geometry":{"type":"Point","coordinates":[-74.232489,40.953567]}},{"properties":{"zip":"07719","mtg time":"7:00 PM","county":"Monmouth","meeting location":"West Belmar Methodist Church","meeting address":"1000 17th Avenue","mtg location notes":null,"mtg type":"Discussion","geo_score":0.829,"meeting day":"Tuesday","beginners":null,"dist":18,"hca":null,"town":"West Belmar","id":"abyljpumx9hu","geo_precision":"range"},"type":"Feature","geometry":{"type":"Point","coordinates":[-74.032909,40.172861]}},{"properties":{"zip":"07090","mtg time":"7:30 PM","county":"Union","meeting location":"First Congressional Church","meeting address":"125 Elmer Street","mtg location notes":"Basement Room E","mtg type":"Discussion","geo_score":0.902,"meeting day":"Tuesday","beginners":null,"dist":11,"hca":null,"town":"Westfield","id":"abyljpu1kr3a","geo_precision":"range"},"type":"Feature","geometry":{"type":"Point","coordinates":[-74.345235,40.652157]}},{"properties":{"zip":"08046","mtg time":"7:15 PM","county":"Burlington","meeting location":"St Luke's Lutheran Church","meeting address":"2 Salem Road","mtg location notes":null,"mtg type":null,"geo_score":0.902,"meeting day":"Tuesday","beginners":"B","dist":22,"hca":"HCA","town":"Willingboro","id":"abyljptmjp5m","geo_precision":"range"},"type":"Feature","geometry":{"type":"Point","coordinates":[-74.894635,40.031763]}},{"properties":{"zip":"07712","mtg time":"7:00PM","county":"Monmouth","meeting location":"Trinity Episcopal Church","meeting address":"503 Asbury Avenue","mtg location notes":null,"mtg type":null,"geo_score":0.902,"meeting day":"Wednesday","beginners":null,"dist":18,"hca":null,"town":"Asbury Park","id":"abyljpqnd0at","geo_precision":"range"},"type":"Feature","geometry":{"type":"Point","coordinates":[-74.008968,40.219845]}},{"properties":{"zip":"07920","mtg time":"8:00 PM","county":"Somerset","meeting location":"Presbyterian Church","meeting address":"1 East Oak Street","mtg location notes":"Witherspoon Room","mtg type":"Discussion","geo_score":0.805,"meeting day":"Wednesday","beginners":"B 7:30PM","dist":13,"hca":null,"town":"Basking Ridge","id":"abyljq2k2b15","geo_precision":"street"},"type":"Feature","geometry":{"type":"Point","coordinates":[-74.546032,40.706944]}},{"properties":{"zip":"07002","mtg time":"8:00 PM","county":"Hudson","meeting location":"Office on Aging","meeting address":"16 West 4th Street","mtg location notes":null,"mtg type":null,"geo_score":0.829,"meeting day":"Wednesday","beginners":null,"dist":8,"hca":null,"town":"Bayonne","id":"abyljq32yxg0","geo_precision":"range"},"type":"Feature","geometry":{"type":"Point","coordinates":[-74.128248,40.649994]}},{"properties":{"zip":"07005","mtg time":"10:00 AM","county":"Morris","meeting location":"St. Claire's/Riverside Hosp","meeting address":"130 Powerville Road","mtg location notes":null,"mtg type":"Discussion","geo_score":0.805,"meeting day":"Wednesday","beginners":null,"dist":2,"hca":"HCA","town":"Boonton","id":"abyljpzrqety","geo_precision":"street"},"type":"Feature","geometry":{"type":"Point","coordinates":[-74.427,40.910152]}},{"properties":{"zip":"08015","mtg time":"10:30 AM","county":"Burlington","meeting location":"United Methodist Church","meeting address":"2 Pemberton-Brown Mills","mtg location notes":null,"mtg type":"Step","geo_score":0.841,"meeting day":"Wednesday","beginners":null,"dist":22,"hca":null,"town":"Browns Mills","id":"abyljpqubzy2","geo_precision":"range"},"type":"Feature","geometry":{"type":"Point","coordinates":[-74.584293,39.972531]}},{"properties":{"zip":"07928","mtg time":"8:00 PM","county":"Morris","meeting location":"Corpus Christi RC Church","meeting address":"234 Southern Boulevard","mtg location notes":null,"mtg type":"Discussion","geo_score":0.902,"meeting day":"Wednesday","beginners":"B 7:30PM","dist":2,"hca":"HCA","town":"Chatham","id":"abyljpy64yka","geo_precision":"range"},"type":"Feature","geometry":{"type":"Point","coordinates":[-74.416887,40.731056]}},{"properties":{"zip":"08002","mtg time":"7:45 PM","county":"Camden","meeting location":"JFK Hospital","meeting address":"Cooper Landing &amp; Chapel Ave.","mtg location notes":"5th floor Boardroom - After 8PM use Emergency room Entrance","mtg type":"Discussion","geo_score":0.857,"meeting day":"Wednesday","beginners":null,"dist":25,"hca":"HCA","town":"Cherry Hill","id":"abyljq60weq6","geo_precision":"street"},"type":"Feature","geometry":{"type":"Point","coordinates":[-75.010838,39.9278]}},{"properties":{"zip":"07021","mtg time":"8:00 PM","county":"Essex","meeting location":"St. Peter's Episcopal Church","meeting address":"271 Roseland Avenue","mtg location notes":null,"mtg type":"Discussion","geo_score":0.902,"meeting day":"Wednesday","beginners":null,"dist":9,"hca":null,"town":"Essex Fells","id":"abyljppx5zgf","geo_precision":"range"},"type":"Feature","geometry":{"type":"Point","coordinates":[-74.287335,40.828273]}},{"properties":{"zip":"08822","mtg time":"12:00 PM","county":"Hunterdon","meeting location":"Son Rise Bible Church","meeting address":"262 South Main Street","mtg location notes":null,"mtg type":"Discussion","geo_score":0.902,"meeting day":"Wednesday","beginners":null,"dist":3,"hca":null,"town":"Flemington","id":"abyljq3ssaap","geo_precision":"range"},"type":"Feature","geometry":{"type":"Point","coordinates":[-74.861744,40.497362]}},{"properties":{"zip":"08822","mtg time":"7:30 PM","county":"Hunterdon","meeting location":"Hunterdon Medical Center","meeting address":"2100 Westcott Drive","mtg location notes":"Board room","mtg type":"Discussion","geo_score":0.53,"meeting day":"Wednesday","beginners":null,"dist":3,"hca":"HCA","town":"Flemington","id":"abyljpvfeijt","geo_precision":"street"},"type":"Feature","geometry":{"type":"Point","coordinates":[-74.364143,40.600389]}},{"properties":{"zip":"08826","mtg time":"9:30 AM","county":"Hunterdon","meeting location":"Spruce Run Lutheran Church","meeting address":"442 West Hill Road","mtg location notes":null,"mtg type":"Discussion","geo_score":0.902,"meeting day":"Wednesday","beginners":null,"dist":3,"hca":"HCA","town":"Glen Gardner","id":"abyljpt6hh5g","geo_precision":"range"},"type":"Feature","geometry":{"type":"Point","coordinates":[-74.920964,40.709046]}},{"properties":{"zip":"07840","mtg time":"7:30 PM","county":"Warren","meeting location":"Hackettstown Comm. Hosp.","meeting address":"651 Willow Grove Street","mtg location notes":"room of cafeteria","mtg type":null,"geo_score":0.902,"meeting day":"Wednesday","beginners":null,"dist":1,"hca":null,"town":"Hackettstown","id":"abyljpsig713","geo_precision":"range"},"type":"Feature","geometry":{"type":"Point","coordinates":[-74.812106,40.863789]}},{"properties":{"zip":"08690","mtg time":"8:00 PM","county":"Mercer","meeting location":"Hamilton Sq. Baptist Church","meeting address":"3752 Nottingham Way","mtg location notes":null,"mtg type":null,"geo_score":0.488,"meeting day":"Wednesday","beginners":null,"dist":21,"hca":null,"town":"Hamilton Sq.","id":"abyljq11z8g5","geo_precision":"zip"},"type":"Feature","geometry":{"type":"Point","coordinates":[-74.653213,40.227332]}},{"properties":{"zip":"08520","mtg time":"8:00 PM","county":"Mercer","meeting location":"St. Anthony of Padua School","meeting address":"Maxwell Ave","mtg location notes":"Off Route 33","mtg type":"Discussion Step &amp; Tradition 1st wk","geo_score":0.714,"meeting day":"Wednesday","beginners":"B 8:00PM","dist":20,"hca":null,"town":"Hightstown","id":"abyljpzb3rgb","geo_precision":"zip"},"type":"Feature","geometry":{"type":"Point","coordinates":[-74.491264,40.263999]}},{"properties":{"zip":"07030","mtg time":"7:30 PM","county":"Hudson","meeting location":"Sts. Peter &amp; Paul Church","meeting address":"404 Hudson Street","mtg location notes":"Front door - Church basement","mtg type":"Step","geo_score":0.902,"meeting day":"Wednesday","beginners":null,"dist":8,"hca":null,"town":"Hoboken","id":"abyljpwrhosp","geo_precision":"range"},"type":"Feature","geometry":{"type":"Point","coordinates":[-74.028436,40.741981]}},{"properties":{"zip":"07731","mtg time":"1:00 PM","county":"Monmouth","meeting location":"St. Veronica's RC Church","meeting address":"2301 Rte 9","mtg location notes":"Basement","mtg type":"Discussion","geo_score":0.683,"meeting day":"Wednesday","beginners":null,"dist":19,"hca":null,"town":"Howell","id":"abyljpq02qno","geo_precision":"range"},"type":"Feature","geometry":{"type":"Point","coordinates":[-74.242569,40.176662]}},{"properties":{"zip":"08830","mtg time":"7:30 PM","county":"Middlesex","meeting location":"St. Cecilia's Church School","meeting address":"45 Wilus Way","mtg location notes":null,"mtg type":"Step and Discussion","geo_score":0.902,"meeting day":"Wednesday","beginners":"B 6:30PM","dist":14,"hca":null,"town":"Iselin","id":"abyljpv9lyr0","geo_precision":"range"},"type":"Feature","geometry":{"type":"Point","coordinates":[-74.321515,40.573808]}},{"properties":{"zip":"07848","mtg time":"8:00 PM","county":"Sussex","meeting location":"Sunrise House","meeting address":"37 Sunset Inn Road","mtg location notes":null,"mtg type":"Discussion","geo_score":0.805,"meeting day":"Wednesday","beginners":null,"dist":1,"hca":null,"town":"Lafayette","id":"abyljprxk7k8","geo_precision":"street"},"type":"Feature","geometry":{"type":"Point","coordinates":[-74.687622,41.07742]}},{"properties":{"zip":"07605","mtg time":"7:30 PM","county":"Bergen","meeting location":"Leonia Presbyterian Church","meeting address":"181 Ft. Lee Road","mtg location notes":"Auditorium","mtg type":"Discussion","geo_score":0.408,"meeting day":"Wednesday","beginners":null,"dist":7,"hca":"HCA","town":"Leonia","id":"abyljq4m6d14","geo_precision":"street"},"type":"Feature","geometry":{"type":"Point","coordinates":[-73.993988,41.000706]}},{"properties":{"zip":"08221","mtg time":"7:00 PM","county":"Atlantic","meeting location":"Our Lady of Sorrows RC Church","meeting address":"724 Maple Avenue","mtg location notes":"Poplar &amp; Wabash Ave.","mtg type":"Step &amp; Tradition; Discussion","geo_score":0.902,"meeting day":"Wednesday","beginners":null,"dist":27,"hca":null,"town":"Linwood","id":"abyljpvc8fl5","geo_precision":"range"},"type":"Feature","geometry":{"type":"Point","coordinates":[-74.571029,39.354429]}},{"properties":{"zip":"07747","mtg time":"10:00 AM","county":"Monmouth","meeting location":"St Clement's RC Church","meeting address":"172 Freneau Avenue","mtg location notes":"Rt 79","mtg type":"Discussion","geo_score":0.902,"meeting day":"Wednesday","beginners":null,"dist":16,"hca":"HCA","town":"Matawan","id":"abyljpsnz76h","geo_precision":"range"},"type":"Feature","geometry":{"type":"Point","coordinates":[-74.236848,40.393699]}},{"properties":{"zip":"08109","mtg time":"7:30 PM","county":"Camden","meeting location":"First Presbyterian Church","meeting address":"10 W Maple Avenue","mtg location notes":null,"mtg type":"Adult Child","geo_score":0.902,"meeting day":"Wednesday","beginners":null,"dist":25,"hca":"unko","town":"Merchantville","id":"abyljq15gmwp","geo_precision":"range"},"type":"Feature","geometry":{"type":"Point","coordinates":[-75.048687,39.950427]}},{"properties":{"zip":"07042","mtg time":"1:15 PM","county":"Essex","meeting location":"Mountainside Hospital","meeting address":"1 Bay Avenue","mtg location notes":"Schering-Plough Conference Room","mtg type":"\"Paths to Recovery\" Book Study","geo_score":0.902,"meeting day":"Wednesday","beginners":null,"dist":9,"hca":"HCA","town":"Montclair","id":"abyljpwjb08m","geo_precision":"range"},"type":"Feature","geometry":{"type":"Point","coordinates":[-74.204548,40.812328]}},{"properties":{"zip":"07042","mtg time":"8:00 PM","county":"Essex","meeting location":"Central Presbyterian Church","meeting address":"46 Park Street","mtg location notes":null,"mtg type":"Discussion","geo_score":0.902,"meeting day":"Wednesday","beginners":null,"dist":9,"hca":"HCA","town":"Montclair","id":"abyljpycc133","geo_precision":"range"},"type":"Feature","geometry":{"type":"Point","coordinates":[-74.216854,40.817548]}},{"properties":{"zip":"07105","mtg time":"8:00 PM","county":"Essex","meeting location":"Immaculate Heart of Mary","meeting address":"114 Prospect Street","mtg location notes":null,"mtg type":null,"geo_score":0.902,"meeting day":"Wednesday","beginners":"Spanish","dist":10,"hca":null,"town":"Newark","id":"abyljq17cqmh","geo_precision":"range"},"type":"Feature","geometry":{"type":"Point","coordinates":[-74.164728,40.728394]}},{"properties":{"zip":"08204","mtg time":"5:30 PM","county":"Cape May","meeting location":"St. John of God Church","meeting address":"680 Townbank Road","mtg location notes":null,"mtg type":"Step &amp; Tradition; Discussion","geo_score":0.878,"meeting day":"Wednesday","beginners":null,"dist":27,"hca":"HCA","town":"North Cape May","id":"abyljq0n42u6","geo_precision":"range"},"type":"Feature","geometry":{"type":"Point","coordinates":[-74.928294,38.975278]}},{"properties":{"zip":"07648","mtg time":"10:00 AM","county":"Bergen","meeting location":"Immaculate Conception Church","meeting address":"211 Summit Street","mtg location notes":null,"mtg type":"Discussion","geo_score":0.902,"meeting day":"Wednesday","beginners":"4th Step 9:15AM","dist":7,"hca":null,"town":"Norwood","id":"abyljpz1xqiw","geo_precision":"range"},"type":"Feature","geometry":{"type":"Point","coordinates":[-73.960122,40.996895]}},{"properties":{"zip":"07436","mtg time":"7:15 PM","county":"Bergen","meeting location":"Messiah Lutheran Church","meeting address":"228 Ramapo Valley Road","mtg location notes":"Entrance by exit driveway, past playground","mtg type":"Step/Discussion","geo_score":0.902,"meeting day":"Wednesday","beginners":null,"dist":6,"hca":null,"town":"Oakland","id":"abyljq4yz9sl","geo_precision":"range"},"type":"Feature","geometry":{"type":"Point","coordinates":[-74.248212,41.018931]}},{"properties":{"zip":"08854","mtg time":"8:15 PM","county":"Middlesex","meeting location":"Friendship Hall","meeting address":"456 New Market Road","mtg location notes":null,"mtg type":"Discussion","geo_score":0.902,"meeting day":"Wednesday","beginners":null,"dist":14,"hca":null,"town":"Piscataway","id":"abyljq1pca4z","geo_precision":"range"},"type":"Feature","geometry":{"type":"Point","coordinates":[-74.459497,40.57997]}},{"properties":{"zip":"08540","mtg time":"8:30 PM","county":"Mercer","meeting location":"Trinity Episcopal Church","meeting address":"33 Mercer Street","mtg location notes":null,"mtg type":"Discussion","geo_score":0.902,"meeting day":"Wednesday","beginners":null,"dist":20,"hca":null,"town":"Princeton","id":"abyljq3d1qg7","geo_precision":"range"},"type":"Feature","geometry":{"type":"Point","coordinates":[-74.663925,40.34789]}},{"properties":{"zip":"07701","mtg time":"8:00 PM","county":"Monmouth","meeting location":"Holy Trinity Lutheran Church","meeting address":"150 River Road","mtg location notes":null,"mtg type":"Discussion","geo_score":0.829,"meeting day":"Wednesday","beginners":null,"dist":17,"hca":null,"town":"Red Bank","id":"abyljq2gckgc","geo_precision":"range"},"type":"Feature","geometry":{"type":"Point","coordinates":[-74.059239,40.35318]}},{"properties":{"zip":"07542","mtg time":"8:45 PM","county":"Bergen","meeting location":"Old Paramus Church","meeting address":"660 East Glen Avenue","mtg location notes":null,"mtg type":"Discussion","geo_score":0.464,"meeting day":"Wednesday","beginners":"B 7:30PM","dist":5,"hca":null,"town":"Ridgewood","id":"abyljpvbssk6","geo_precision":"street"},"type":"Feature","geometry":{"type":"Point","coordinates":[-74.194564,40.966909]}},{"properties":{"zip":"08243","mtg time":"11:00 AM","county":"Cape May","meeting location":"Sea Isle City United Methodist Church","meeting address":"4102 Central Avenue","mtg location notes":"JFK Blvd.and Park Rd; Back church parking lot","mtg type":"Discussion; Step &amp; Tradition","geo_score":0.902,"meeting day":"Wednesday","beginners":null,"dist":27,"hca":null,"town":"Sea Isle City","id":"abyljptpf0vh","geo_precision":"range"},"type":"Feature","geometry":{"type":"Point","coordinates":[-74.693334,39.156432]}},{"properties":{"zip":"07079","mtg time":"7:30 PM","county":"Essex","meeting location":"First Presbyterian Church","meeting address":"111 Irvington Avenue","mtg location notes":null,"mtg type":"Discussion","geo_score":0.902,"meeting day":"Wednesday","beginners":null,"dist":9,"hca":null,"town":"South Orange","id":"abyljproejvm","geo_precision":"range"},"type":"Feature","geometry":{"type":"Point","coordinates":[-74.257243,40.745594]}},{"properties":{"zip":"07871","mtg time":"12:00 PM","county":"Sussex","meeting location":"Shepard of the Hills Lutheran Ch","meeting address":"246 Woodport Road","mtg location notes":null,"mtg type":null,"geo_score":0.78,"meeting day":"Wednesday","beginners":null,"dist":1,"hca":"HCA","town":"Sparta","id":"abyljq53qa56","geo_precision":"range"},"type":"Feature","geometry":{"type":"Point","coordinates":[-74.627844,41.021864]}},{"properties":{"zip":"07901","mtg time":"8:00 PM","county":"Union","meeting location":"St. John's Lutheran Church","meeting address":"587 Springfield Avenue","mtg location notes":null,"mtg type":null,"geo_score":0.902,"meeting day":"Wednesday","beginners":"B 7:30PM","dist":12,"hca":null,"town":"Summit","id":"abyljpw4kaxx","geo_precision":"range"},"type":"Feature","geometry":{"type":"Point","coordinates":[-74.369876,40.715186]}},{"properties":{"zip":"08753","mtg time":"8:00 PM","county":"Ocean","meeting location":"MTI","meeting address":"1201 Rt 37 E","mtg location notes":"Basement, Room 16","mtg type":null,"geo_score":0.503,"meeting day":"Wednesday","beginners":null,"dist":23,"hca":null,"town":"Toms River","id":"abyljpwf82wd","geo_precision":"street"},"type":"Feature","geometry":{"type":"Point","coordinates":[-74.188263,39.964452]}},{"properties":{"zip":"07057","mtg time":"8:00pm","county":"Bergen","meeting location":"Church of the Transfiguration","meeting address":"135 Hathaway Street","mtg location notes":null,"mtg type":"Polish","geo_score":0.876,"meeting day":"Wednesday","beginners":null,"dist":6,"hca":null,"town":"Wallington","id":"abyljpxxpglr","geo_precision":"range"},"type":"Feature","geometry":{"type":"Point","coordinates":[-74.112745,40.854855]}},{"properties":{"zip":"07470","mtg time":"8:00 PM","county":"Passaic","meeting location":"Preakness Reformed Church","meeting address":"131 Church Lane","mtg location notes":"Room #2","mtg type":"Discussion","geo_score":0.902,"meeting day":"Wednesday","beginners":"B 7:30PM","dist":4,"hca":null,"town":"Wayne","id":"abyljprguk7a","geo_precision":"range"},"type":"Feature","geometry":{"type":"Point","coordinates":[-74.232489,40.953567]}},{"properties":{"zip":"07712","mtg time":"9:00 AM","county":"Monmouth","meeting location":"St Anselm RC Church","meeting address":"1028 Wayside Road","mtg location notes":null,"mtg type":"Step","geo_score":0.902,"meeting day":"Wednesday","beginners":null,"dist":18,"hca":"HCA","town":"Wayside","id":"abyljprn4yhn","geo_precision":"range"},"type":"Feature","geometry":{"type":"Point","coordinates":[-74.077363,40.270724]}},{"properties":{"zip":"07712","mtg time":"10:00 AM","county":"Monmouth","meeting location":"St Anselm RC Church","meeting address":"1028 Wayside Road","mtg location notes":"Babysitter July &amp; August","mtg type":"Discussion","geo_score":0.902,"meeting day":"Wednesday","beginners":null,"dist":18,"hca":"HCA","town":"Wayside","id":"abyljpsdwudx","geo_precision":"range"},"type":"Feature","geometry":{"type":"Point","coordinates":[-74.077363,40.270724]}},{"properties":{"zip":"08092","mtg time":"8:00 PM","county":"Ocean","meeting location":"United Methodist Church","meeting address":"189 Church Street","mtg location notes":"Thomas Road &amp; Route 9","mtg type":null,"geo_score":0.902,"meeting day":"Wednesday","beginners":null,"dist":24,"hca":null,"town":"West Creek","id":"abyljptkiuh9","geo_precision":"range"},"type":"Feature","geometry":{"type":"Point","coordinates":[-74.309378,39.633764]}},{"properties":{"zip":"07480","mtg time":"8:00 PM","county":"Passaic","meeting location":"West Milford Presbyterian Church","meeting address":"1452 Union Valley Road","mtg location notes":null,"mtg type":"Discussion","geo_score":0.902,"meeting day":"Wednesday","beginners":null,"dist":4,"hca":"HCA","town":"West Milford","id":"abyljq1kehlv","geo_precision":"range"},"type":"Feature","geometry":{"type":"Point","coordinates":[-74.371818,41.128167]}},{"properties":{"zip":"07090","mtg time":"8:30 PM","county":"Union","meeting location":"First Congressional Church","meeting address":"125 Elmer Street","mtg location notes":null,"mtg type":"Parents","geo_score":0.902,"meeting day":"Wednesday","beginners":"B 7:30PM","dist":11,"hca":null,"town":"Westfield","id":"abyljpxqwoek","geo_precision":"range"},"type":"Feature","geometry":{"type":"Point","coordinates":[-74.345235,40.652157]}},{"properties":{"zip":"08096","mtg time":"7:30 PM","county":"Gloucester","meeting location":"Presbyterian Church","meeting address":"67 S Broad Street","mtg location notes":null,"mtg type":"Discussion; Step &amp; Tradition","geo_score":0.902,"meeting day":"Wednesday","beginners":null,"dist":26,"hca":null,"town":"Woodbury","id":"abyljq3clt2y","geo_precision":"range"},"type":"Feature","geometry":{"type":"Point","coordinates":[-75.15423,39.836914]}}],"is_temporal":false,"author":{"url":"","metadata":"","contact_name":"Webmaster - Al-Anon","contact_address":"","source":"","contact_phone":""},"source":"","pagination":{"sort":null,"start":0,"total":292,"limit":1000000},"state":"complete","tags":"","published":"2014-08-16T22:46:17-04:00","id":317071}