{"type":"FeatureCollection","data_type":"Dataset","url_type":null,"permissions":[{"permissions":{"download":true,"edit":true,"view":true},"group_id":61356},{"permissions":{"download":true,"view":true},"group_id":"everyone"}],"classification":null,"title":"COTABATO PROJECT LOCATION","count":11,"stream_id":317486,"contributor":{"url":"http://geocommons.com/users/59514","name":"joules"},"data_attributes":null,"calculation_params":null,"icon_link":null,"link":"http://geocommons.com/overlays/317486.json","extent":[124.473,6.83051,124.933,7.27978],"geometry_types":["point"],"unique_name":null,"name":"COTABATO PROJECT LOCATION","feature_count":11,"description":"","next_feature":null,"is_raster":false,"short_classification":"Y","stats":{"lon":{"max":124.933109,"variance":0.0258338195766542,"mean":124.616785363636,"stdev":0.160729025308605,"min":124.473398,"median":124.582056},"cost":{"max":48323561.02,"variance":216844035226190.0,"mean":14438702.2809091,"stdev":14725625.1217458,"min":2496188.14,"median":5423927.59},"physical_target":{"max":10.275,"variance":14.3608840909091,"mean":3.95409090909091,"stdev":3.78957571383778,"min":0.6,"median":1.78},"lat":{"max":7.279779,"variance":0.0266189413920909,"mean":7.14253809090909,"stdev":0.163153122532457,"min":6.830514,"median":7.22635}},"features":[{"properties":{"lon":124.582056,"sub_project_title":"Rehab of Dualing-San Mateo-Sta. Cruz FMR","kilometer":"km","region":"XII","cost":48323561.02,"physical_target":10.275,"municipality":"ALEOSAN","id":"abzg480jz0q9","lat":7.171849,"province":"NORTH COTABATO"},"type":"Feature","geometry":{"type":"Point","coordinates":[124.582056,7.171849]}},{"properties":{"lon":124.594992,"sub_project_title":"CONCRETING AND REHAB OG UPPER BULANAN-MALAMOTE FMR","kilometer":"km","region":"XII","cost":8915136.5,"physical_target":2.76,"municipality":"MIDSAYAP","id":"abzg47xjbktp","lat":7.22635,"province":"NORTH COTABATO"},"type":"Feature","geometry":{"type":"Point","coordinates":[124.594992,7.22635]}},{"properties":{"lon":124.639357,"sub_project_title":"Improvement/Rehabilitaion of Pob-Bualan FMR","kilometer":"km","region":"XII","cost":26854772.16,"physical_target":8.48,"municipality":"PIKIT","id":"abzg47yyuhpr","lat":7.143126,"province":"NORTH COTABATO"},"type":"Feature","geometry":{"type":"Point","coordinates":[124.639357,7.143126]}},{"properties":{"lon":124.638175,"sub_project_title":"Rehab of Sitio Sulok, Dungunan FMR","kilometer":"km","region":"XII","cost":2496188.14,"physical_target":1.78,"municipality":"PIKIT","id":"abzg47yvgvds","lat":7.06371,"province":"NORTH COTABATO"},"type":"Feature","geometry":{"type":"Point","coordinates":[124.638175,7.06371]}},{"properties":{"lon":124.906528,"sub_project_title":"Rehab of New Panay-F Cajelo-New Culasi-Kanibong","kilometer":"km","region":"XII","cost":21643965.3,"physical_target":7.0,"municipality":"TULUNAN","id":"abzg4886j58i","lat":6.830514,"province":"NORTH COTABATO"},"type":"Feature","geometry":{"type":"Point","coordinates":[124.906528,6.830514]}},{"properties":{"lon":124.933109,"sub_project_title":"Rehab of Paraiso-Daig FMR","kilometer":"km","region":"XII","cost":27131527.39,"physical_target":8.6,"municipality":"TULUNAN","id":"abzg480wqx18","lat":6.845927,"province":"NORTH COTABATO"},"type":"Feature","geometry":{"type":"Point","coordinates":[124.933109,6.845927]}},{"properties":{"lon":124.473398,"sub_project_title":"Concreting of  Cabpangi - Katitisan  FMR","kilometer":"km","region":"XII","cost":5260674.88,"physical_target":1.0,"municipality":"LIBUNGAN","id":"abzg47w5kplp","lat":7.279779,"province":"NORTH COTABATO"},"type":"Feature","geometry":{"type":"Point","coordinates":[124.473398,7.279779]}},{"properties":{"lon":124.487807,"sub_project_title":"Concreting of Baguer-Ulamian  FMR","kilometer":"km","region":"XII","cost":5050427.4,"physical_target":1.0,"municipality":"LIBUNGAN","id":"abzg47ut70ne","lat":7.259444,"province":"NORTH COTABATO"},"type":"Feature","geometry":{"type":"Point","coordinates":[124.487807,7.259444]}},{"properties":{"lon":124.502409,"sub_project_title":"Concreting of Batiocan-Demapaco FMR","kilometer":"km","region":"XII","cost":5002557.28,"physical_target":1.0,"municipality":"LIBUNGAN","id":"abzg47v9o6rb","lat":7.260179,"province":"NORTH COTABATO"},"type":"Feature","geometry":{"type":"Point","coordinates":[124.502409,7.260179]}},{"properties":{"lon":124.509801,"sub_project_title":"Concreting of Gumaga-Matibong FMR","kilometer":"km","region":"XII","cost":5423927.59,"physical_target":1.0,"municipality":"LIBUNGAN","id":"abzg48206ey9","lat":7.246531,"province":"NORTH COTABATO"},"type":"Feature","geometry":{"type":"Point","coordinates":[124.509801,7.246531]}},{"properties":{"lon":124.517007,"sub_project_title":"Concreting of Poblacion-Gumaga FMR","kilometer":"km","region":"XII","cost":2722987.43,"physical_target":0.6,"municipality":"LIBUNGAN","id":"abzg480s5q7r","lat":7.24051,"province":"NORTH COTABATO"},"type":"Feature","geometry":{"type":"Point","coordinates":[124.517007,7.24051]}}],"is_temporal":false,"author":{"url":"","metadata":"","contact_name":"","contact_address":"","source":"","contact_phone":""},"source":"","pagination":{"sort":null,"start":0,"total":11,"limit":1000000},"state":"complete","tags":"cotabato,production,rice","published":"2014-08-16T23:22:30-04:00","id":317486}