{"type":"FeatureCollection","data_type":"Dataset","url_type":null,"permissions":[{"permissions":{"download":true,"view":true},"group_id":"everyone"}],"classification":null,"title":"Dec2010 gun","count":66,"stream_id":317692,"contributor":{"url":"http://geocommons.com/users/35326","name":"markt2704"},"data_attributes":null,"calculation_params":null,"icon_link":null,"link":"http://geocommons.com/overlays/317692.json","extent":[-159.473,21.4239,-71.7154,61.5495],"geometry_types":["point"],"unique_name":null,"name":"Dec2010 gun","feature_count":66,"description":"","next_feature":null,"is_raster":false,"short_classification":"Y","stats":{"date":{"max":"2010/12/31 00:00:00 -0500","variance":648760706685.314,"mean":"2010/12/16 00:21:49 -0500","stdev":805456.831050128,"min":"2010/12/01 00:00:00 -0500","median":"2010/12/16 00:00:00 -0500"},"id_no":{"max":10040963,"variance":887302.832634033,"mean":10039451.7575758,"stdev":941.967532685725,"min":10037873,"median":10039530}},"features":[{"properties":{"city":"Durham","category":"Robbery","date":{"end_time":"2010/12/02 00:00:00 -0500","original":"Dec 1 2010","granularity":"day","time":"2010/12/01 00:00:00 -0500"},"type":"Robbery","geo_score":0.538,"id_no":10037873,"id":"abzzl6geea1w","geo_precision":"street","location":"1815 FRONT ST","state":"NC"},"type":"Feature","geometry":{"type":"Point","coordinates":[-100.906562,38.469747]}},{"properties":{"city":"Durham","category":"Robbery","date":{"end_time":"2010/12/02 00:00:00 -0500","original":"Dec 1 2010","granularity":"day","time":"2010/12/01 00:00:00 -0500"},"type":"Robbery","geo_score":0.583,"id_no":10037880,"id":"abzzl6ei6vfk","geo_precision":"street","location":"2000 AVONDALE DR","state":"NC"},"type":"Feature","geometry":{"type":"Point","coordinates":[-86.547844,36.334295]}},{"properties":{"city":"Durham","category":"Robbery","date":{"end_time":"2010/12/02 00:00:00 -0500","original":"Dec 1 2010","granularity":"day","time":"2010/12/01 00:00:00 -0500"},"type":"Robbery","geo_score":0.353,"id_no":10037876,"id":"abzzl6ieou9z","geo_precision":"street","location":"1299 ROSEWOOD ST/E LAWSON ST","state":"NC"},"type":"Feature","geometry":{"type":"Point","coordinates":[-87.13707,46.303999]}},{"properties":{"city":"Durham","category":"Aggravated Assault","date":{"end_time":"2010/12/02 00:00:00 -0500","original":"Dec 1 2010","granularity":"day","time":"2010/12/01 00:00:00 -0500"},"type":"Assault Offenses","geo_score":0.471,"id_no":10037902,"id":"abzzl6px48s6","geo_precision":"street","location":"702 CARPENTER FLETCHER RD","state":"NC"},"type":"Feature","geometry":{"type":"Point","coordinates":[-104.31377,41.031572]}},{"properties":{"city":"Durham","category":"Robbery","date":{"end_time":"2010/12/02 00:00:00 -0500","original":"Dec 1 2010","granularity":"day","time":"2010/12/01 00:00:00 -0500"},"type":"Robbery","geo_score":0.784,"id_no":10037901,"id":"abzzl6jpmtfi","geo_precision":"range","location":"2920 CHAPEL HILL RD","state":"NC"},"type":"Feature","geometry":{"type":"Point","coordinates":[-90.527927,32.118747]}},{"properties":{"city":"Durham","category":"Aggravated Assault","date":{"end_time":"2010/12/03 00:00:00 -0500","original":"Dec 2 2010","granularity":"day","time":"2010/12/02 00:00:00 -0500"},"type":"Assault Offenses","geo_score":0.512,"id_no":10038014,"id":"abzzl6h0nnib","geo_precision":"street","location":"1803 MOREHEAD AVE","state":"NC"},"type":"Feature","geometry":{"type":"Point","coordinates":[-90.497986,33.446593]}},{"properties":{"city":"Durham","category":"Robbery","date":{"end_time":"2010/12/03 00:00:00 -0500","original":"Dec 2 2010","granularity":"day","time":"2010/12/02 00:00:00 -0500"},"type":"Robbery","geo_score":0.0,"id_no":10038012,"id":"abzzl6q9hnxz","geo_precision":"unmatched","location":"3615 N ROXBORO ST","state":"NC"},"type":"Feature","geometry":null},{"properties":{"city":"Durham","category":"Robbery","date":{"end_time":"2010/12/04 00:00:00 -0500","original":"Dec 3 2010","granularity":"day","time":"2010/12/03 00:00:00 -0500"},"type":"Robbery","geo_score":0.778,"id_no":10038086,"id":"abzzl6ll14jq","geo_precision":"range","location":"1502 LAKELAND ST","state":"NC"},"type":"Feature","geometry":{"type":"Point","coordinates":[-73.120216,40.807633]}},{"properties":{"city":"Durham","category":"Robbery","date":{"end_time":"2010/12/06 00:00:00 -0500","original":"Dec 5 2010","granularity":"day","time":"2010/12/05 00:00:00 -0500"},"type":"Robbery","geo_score":0.568,"id_no":10038314,"id":"abzzl6ikwdte","geo_precision":"street","location":"2816 ROSS RD","state":"NC"},"type":"Feature","geometry":{"type":"Point","coordinates":[-97.1307,31.709507]}},{"properties":{"city":"Durham","category":"Robbery","date":{"end_time":"2010/12/06 00:00:00 -0500","original":"Dec 5 2010","granularity":"day","time":"2010/12/05 00:00:00 -0500"},"type":"Robbery","geo_score":0.535,"id_no":10038321,"id":"abzzl6r2rq4c","geo_precision":"range","location":"599 N GREGSON ST/W TRINITY AVE","state":"NC"},"type":"Feature","geometry":{"type":"Point","coordinates":[-92.375369,45.303382]}},{"properties":{"city":"Durham","category":"Robbery","date":{"end_time":"2010/12/07 00:00:00 -0500","original":"Dec 6 2010","granularity":"day","time":"2010/12/06 00:00:00 -0500"},"type":"Robbery","geo_score":0.655,"id_no":10038445,"id":"abzzl6mpaq8p","geo_precision":"range","location":"301 W TRINITY AVE","state":"NC"},"type":"Feature","geometry":{"type":"Point","coordinates":[-122.808715,40.70023]}},{"properties":{"city":"Durham","category":"Robbery","date":{"end_time":"2010/12/07 00:00:00 -0500","original":"Dec 6 2010","granularity":"day","time":"2010/12/06 00:00:00 -0500"},"type":"Robbery","geo_score":0.772,"id_no":10038446,"id":"abzzl6nizn1a","geo_precision":"range","location":"600 HORTON RD","state":"NC"},"type":"Feature","geometry":{"type":"Point","coordinates":[-86.30449,34.224186]}},{"properties":{"city":"Durham","category":"Robbery","date":{"end_time":"2010/12/08 00:00:00 -0500","original":"Dec 7 2010","granularity":"day","time":"2010/12/07 00:00:00 -0500"},"type":"Robbery","geo_score":0.721,"id_no":10038542,"id":"abzzl6nvofoc","geo_precision":"range","location":"401 E LAKEWOOD AVE","state":"NC"},"type":"Feature","geometry":{"type":"Point","coordinates":[-122.667037,45.41267]}},{"properties":{"city":"Durham","category":"Robbery","date":{"end_time":"2010/12/08 00:00:00 -0500","original":"Dec 7 2010","granularity":"day","time":"2010/12/07 00:00:00 -0500"},"type":"Robbery","geo_score":0.0,"id_no":10038553,"id":"abzzl6g21yjc","geo_precision":"unmatched","location":"115 HONEYSUCKLE LN","state":"NC"},"type":"Feature","geometry":null},{"properties":{"city":"Durham","category":"Robbery","date":{"end_time":"2010/12/09 00:00:00 -0500","original":"Dec 8 2010","granularity":"day","time":"2010/12/08 00:00:00 -0500"},"type":"Robbery","geo_score":0.0,"id_no":10038588,"id":"abzzl6giormb","geo_precision":"unmatched","location":"3500 N ROXBORO RD","state":"NC"},"type":"Feature","geometry":null},{"properties":{"city":"Durham","category":"Robbery","date":{"end_time":"2010/12/10 00:00:00 -0500","original":"Dec 9 2010","granularity":"day","time":"2010/12/09 00:00:00 -0500"},"type":"Robbery","geo_score":0.207,"id_no":10038676,"id":"abzzl6jgb4gl","geo_precision":"street","location":"4435 NC 55 HWY","state":"NC"},"type":"Feature","geometry":{"type":"Point","coordinates":[-157.799029,21.423886]}},{"properties":{"city":"Durham","category":"Robbery","date":{"end_time":"2010/12/10 00:00:00 -0500","original":"Dec 9 2010","granularity":"day","time":"2010/12/09 00:00:00 -0500"},"type":"Robbery","geo_score":0.478,"id_no":10038718,"id":"abzzl6i5bfxr","geo_precision":"street","location":"608 HARDEE ST","state":"NC"},"type":"Feature","geometry":{"type":"Point","coordinates":[-86.361336,43.69645]}},{"properties":{"city":"Durham","category":"Robbery","date":{"end_time":"2010/12/10 00:00:00 -0500","original":"Dec 9 2010","granularity":"day","time":"2010/12/09 00:00:00 -0500"},"type":"Robbery","geo_score":0.768,"id_no":10038795,"id":"abzzl6cx9sj7","geo_precision":"range","location":"2500 ERWIN RD","state":"NC"},"type":"Feature","geometry":{"type":"Point","coordinates":[-78.651363,35.318077]}},{"properties":{"city":"Durham","category":"Robbery","date":{"end_time":"2010/12/10 00:00:00 -0500","original":"Dec 9 2010","granularity":"day","time":"2010/12/09 00:00:00 -0500"},"type":"Robbery","geo_score":0.72,"id_no":10038799,"id":"abzzl6crxsni","geo_precision":"range","location":"2685 DURHAM CHAPEL HILL BLVD","state":"NC"},"type":"Feature","geometry":{"type":"Point","coordinates":[-78.929747,35.974222]}},{"properties":{"city":"Durham","category":"Robbery","date":{"end_time":"2010/12/10 00:00:00 -0500","original":"Dec 9 2010","granularity":"day","time":"2010/12/09 00:00:00 -0500"},"type":"Robbery","geo_score":0.491,"id_no":10038800,"id":"abzzl6nl5h8n","geo_precision":"range","location":"1199 MONMOUTH AVE/N BUCHANAN BLVD","state":"NC"},"type":"Feature","geometry":{"type":"Point","coordinates":[-83.103562,39.147457]}},{"properties":{"city":"Durham","category":"Robbery","date":{"end_time":"2010/12/12 00:00:00 -0500","original":"Dec 11 2010","granularity":"day","time":"2010/12/11 00:00:00 -0500"},"type":"Robbery","geo_score":0.589,"id_no":10038912,"id":"abzzl6nrl3ib","geo_precision":"street","location":"4835 HOPE VALLEY RD","state":"NC"},"type":"Feature","geometry":{"type":"Point","coordinates":[-71.715439,41.491412]}},{"properties":{"city":"Durham","category":"Robbery","date":{"end_time":"2010/12/12 00:00:00 -0500","original":"Dec 11 2010","granularity":"day","time":"2010/12/11 00:00:00 -0500"},"type":"Robbery","geo_score":0.784,"id_no":10038915,"id":"abzzl6nnl7nc","geo_precision":"range","location":"2836 CHAPEL HILL RD","state":"NC"},"type":"Feature","geometry":{"type":"Point","coordinates":[-90.52919,32.119456]}},{"properties":{"city":"Durham","category":"Aggravated Assault","date":{"end_time":"2010/12/12 00:00:00 -0500","original":"Dec 11 2010","granularity":"day","time":"2010/12/11 00:00:00 -0500"},"type":"Assault Offenses","geo_score":0.655,"id_no":10038943,"id":"abzzl6brlqpq","geo_precision":"range","location":"199 W ENTERPRISE ST/SOUTH ST","state":"NC"},"type":"Feature","geometry":{"type":"Point","coordinates":[-86.093383,33.998273]}},{"properties":{"city":"Durham","category":"Robbery","date":{"end_time":"2010/12/12 00:00:00 -0500","original":"Dec 11 2010","granularity":"day","time":"2010/12/11 00:00:00 -0500"},"type":"Robbery","geo_score":0.53,"id_no":10039012,"id":"abzzl6rkt4vs","geo_precision":"street","location":"3908 TOWNSEND ST","state":"NC"},"type":"Feature","geometry":{"type":"Point","coordinates":[-76.918888,42.359505]}},{"properties":{"city":"Durham","category":"Aggravated Assault","date":{"end_time":"2010/12/13 00:00:00 -0500","original":"Dec 12 2010","granularity":"day","time":"2010/12/12 00:00:00 -0500"},"type":"Assault Offenses","geo_score":0.59,"id_no":10039021,"id":"abzzl6i1chay","geo_precision":"street","location":"2627 HILLSBOROUGH RD","state":"NC"},"type":"Feature","geometry":{"type":"Point","coordinates":[-79.097216,36.031307]}},{"properties":{"city":"Durham","category":"Robbery","date":{"end_time":"2010/12/13 00:00:00 -0500","original":"Dec 12 2010","granularity":"day","time":"2010/12/12 00:00:00 -0500"},"type":"Robbery","geo_score":0.603,"id_no":10039043,"id":"abzzl6k7y5zv","geo_precision":"range","location":"1517 GLENN SCHOOL RD","state":"NC"},"type":"Feature","geometry":{"type":"Point","coordinates":[-85.225163,33.214787]}},{"properties":{"city":"Durham","category":"Theft From Motor Vehicle","date":{"end_time":"2010/12/14 00:00:00 -0500","original":"Dec 13 2010","granularity":"day","time":"2010/12/13 00:00:00 -0500"},"type":"Larceny/Theft Offenses","geo_score":0.45,"id_no":10039159,"id":"abzzl6c17tgj","geo_precision":"street","location":"1220 RED ASH CIR","state":"NC"},"type":"Feature","geometry":{"type":"Point","coordinates":[-83.903605,36.074071]}},{"properties":{"city":"Durham","category":"Robbery","date":{"end_time":"2010/12/14 00:00:00 -0500","original":"Dec 13 2010","granularity":"day","time":"2010/12/13 00:00:00 -0500"},"type":"Robbery","geo_score":0.512,"id_no":10039194,"id":"abzzl6r4l59b","geo_precision":"range","location":"213 N BRIGGS AVE","state":"NC"},"type":"Feature","geometry":{"type":"Point","coordinates":[-78.011137,39.10671]}},{"properties":{"city":"Durham","category":"Robbery","date":{"end_time":"2010/12/14 00:00:00 -0500","original":"Dec 13 2010","granularity":"day","time":"2010/12/13 00:00:00 -0500"},"type":"Robbery","geo_score":0.434,"id_no":10039202,"id":"abzzl6nia9cd","geo_precision":"city","location":"4001 MERIWETHER DR","state":"NC"},"type":"Feature","geometry":{"type":"Point","coordinates":[-89.635712,46.573559]}},{"properties":{"city":"Durham","category":"Robbery","date":{"end_time":"2010/12/16 00:00:00 -0500","original":"Dec 15 2010","granularity":"day","time":"2010/12/15 00:00:00 -0500"},"type":"Robbery","geo_score":0.499,"id_no":10039335,"id":"abzzl6k6sfwx","geo_precision":"range","location":"3600 N DUKE ST","state":"NC"},"type":"Feature","geometry":{"type":"Point","coordinates":[-95.487087,29.392727]}},{"properties":{"city":"Durham","category":"Robbery","date":{"end_time":"2010/12/16 00:00:00 -0500","original":"Dec 15 2010","granularity":"day","time":"2010/12/15 00:00:00 -0500"},"type":"Robbery","geo_score":0.583,"id_no":10039366,"id":"abzzl6qadpsm","geo_precision":"street","location":"2115 AVONDALE DR","state":"NC"},"type":"Feature","geometry":{"type":"Point","coordinates":[-86.547844,36.334295]}},{"properties":{"city":"Durham","category":"Aggravated Assault","date":{"end_time":"2010/12/16 00:00:00 -0500","original":"Dec 15 2010","granularity":"day","time":"2010/12/15 00:00:00 -0500"},"type":"Assault Offenses","geo_score":0.679,"id_no":10039401,"id":"abzzl6cef350","geo_precision":"range","location":"309 WAKE PL","state":"NC"},"type":"Feature","geometry":{"type":"Point","coordinates":[-76.444241,37.562529]}},{"properties":{"city":"Durham","category":"Aggravated Assault","date":{"end_time":"2010/12/17 00:00:00 -0500","original":"Dec 16 2010","granularity":"day","time":"2010/12/16 00:00:00 -0500"},"type":"Assault Offenses","geo_score":0.384,"id_no":10039436,"id":"abzzl6mjcbjj","geo_precision":"street","location":"614 MIDDLE ST","state":"NC"},"type":"Feature","geometry":{"type":"Point","coordinates":[-84.383487,34.950179]}},{"properties":{"city":"Durham","category":"Robbery","date":{"end_time":"2010/12/17 00:00:00 -0500","original":"Dec 16 2010","granularity":"day","time":"2010/12/16 00:00:00 -0500"},"type":"Robbery","geo_score":0.207,"id_no":10039530,"id":"abzzl6jzzk0t","geo_precision":"street","location":"4706 NC 55 HWY","state":"NC"},"type":"Feature","geometry":{"type":"Point","coordinates":[-157.799029,21.423886]}},{"properties":{"city":"Durham","category":"Robbery","date":{"end_time":"2010/12/17 00:00:00 -0500","original":"Dec 16 2010","granularity":"day","time":"2010/12/16 00:00:00 -0500"},"type":"Robbery","geo_score":0.585,"id_no":10039534,"id":"abzzl6psnn1w","geo_precision":"street","location":"544 LIBERTY ST","state":"NC"},"type":"Feature","geometry":{"type":"Point","coordinates":[-91.110778,39.888031]}},{"properties":{"city":"Durham","category":"Robbery","date":{"end_time":"2010/12/18 00:00:00 -0500","original":"Dec 17 2010","granularity":"day","time":"2010/12/17 00:00:00 -0500"},"type":"Robbery","geo_score":0.429,"id_no":10039649,"id":"abzzl6d18eha","geo_precision":"street","location":"2713 OMAH ST","state":"NC"},"type":"Feature","geometry":{"type":"Point","coordinates":[-159.47252,21.911839]}},{"properties":{"city":"Durham","category":"Robbery","date":{"end_time":"2010/12/19 00:00:00 -0500","original":"Dec 18 2010","granularity":"day","time":"2010/12/18 00:00:00 -0500"},"type":"Robbery","geo_score":0.543,"id_no":10039703,"id":"abzzl6n3lckg","geo_precision":"street","location":"1002 W CHAPEL HILL ST","state":"NC"},"type":"Feature","geometry":{"type":"Point","coordinates":[-75.730781,39.698074]}},{"properties":{"city":"Durham","category":"Robbery","date":{"end_time":"2010/12/19 00:00:00 -0500","original":"Dec 18 2010","granularity":"day","time":"2010/12/18 00:00:00 -0500"},"type":"Robbery","geo_score":0.785,"id_no":10039714,"id":"abzzl6jlhnav","geo_precision":"range","location":"4640 HILLSBOROUGH RD","state":"NC"},"type":"Feature","geometry":{"type":"Point","coordinates":[-79.106436,36.01269]}},{"properties":{"city":"Durham","category":"Robbery","date":{"end_time":"2010/12/19 00:00:00 -0500","original":"Dec 18 2010","granularity":"day","time":"2010/12/18 00:00:00 -0500"},"type":"Robbery","geo_score":0.557,"id_no":10039717,"id":"abzzl6ji6drt","geo_precision":"street","location":"1816 HILLANDALE RD","state":"NC"},"type":"Feature","geometry":{"type":"Point","coordinates":[-76.565522,39.379909]}},{"properties":{"city":"Durham","category":"Aggravated Assault","date":{"end_time":"2010/12/20 00:00:00 -0500","original":"Dec 19 2010","granularity":"day","time":"2010/12/19 00:00:00 -0500"},"type":"Assault Offenses","geo_score":0.0,"id_no":10039737,"id":"abzzl6ngzhdv","geo_precision":"unmatched","location":"1302 JACKSON ST","state":"NC"},"type":"Feature","geometry":null},{"properties":{"city":"Durham","category":"Forcible Rape","date":{"end_time":"2010/12/20 00:00:00 -0500","original":"Dec 19 2010","granularity":"day","time":"2010/12/19 00:00:00 -0500"},"type":"Forcible Rape","geo_score":0.416,"id_no":10039767,"id":"abzzl6l867uh","geo_precision":"city","location":"0 TRAIL VIEW LN","state":"NC"},"type":"Feature","geometry":{"type":"Point","coordinates":[-90.784542,33.232065]}},{"properties":{"city":"Durham","category":"Robbery","date":{"end_time":"2010/12/20 00:00:00 -0500","original":"Dec 19 2010","granularity":"day","time":"2010/12/19 00:00:00 -0500"},"type":"Robbery","geo_score":0.545,"id_no":10039780,"id":"abzzl6dtohaw","geo_precision":"street","location":"511 MARTHA ST","state":"NC"},"type":"Feature","geometry":{"type":"Point","coordinates":[-82.270157,38.371116]}},{"properties":{"city":"Durham","category":"Robbery","date":{"end_time":"2010/12/21 00:00:00 -0500","original":"Dec 20 2010","granularity":"day","time":"2010/12/20 00:00:00 -0500"},"type":"Robbery","geo_score":0.592,"id_no":10039900,"id":"abzzl6m1bypk","geo_precision":"range","location":"1058 W CLUB BLVD","state":"NC"},"type":"Feature","geometry":{"type":"Point","coordinates":[-101.036617,39.383285]}},{"properties":{"city":"Durham","category":"Robbery","date":{"end_time":"2010/12/21 00:00:00 -0500","original":"Dec 20 2010","granularity":"day","time":"2010/12/20 00:00:00 -0500"},"type":"Robbery","geo_score":0.551,"id_no":10039908,"id":"abzzl6kxlm53","geo_precision":"street","location":"3700 FAYETTEVILLE ST","state":"NC"},"type":"Feature","geometry":{"type":"Point","coordinates":[-84.545614,33.443047]}},{"properties":{"city":"Durham","category":"Robbery","date":{"end_time":"2010/12/22 00:00:00 -0500","original":"Dec 21 2010","granularity":"day","time":"2010/12/21 00:00:00 -0500"},"type":"Robbery","geo_score":0.639,"id_no":10039913,"id":"abzzl6hymnsu","geo_precision":"range","location":"405 E PILOT ST","state":"NC"},"type":"Feature","geometry":{"type":"Point","coordinates":[-83.779543,37.769283]}},{"properties":{"city":"Durham","category":"Robbery","date":{"end_time":"2010/12/22 00:00:00 -0500","original":"Dec 21 2010","granularity":"day","time":"2010/12/21 00:00:00 -0500"},"type":"Robbery","geo_score":0.0,"id_no":10039982,"id":"abzzl6mu9q91","geo_precision":"unmatched","location":"3557 N ROXBORO ST","state":"NC"},"type":"Feature","geometry":null},{"properties":{"city":"Durham","category":"Robbery","date":{"end_time":"2010/12/23 00:00:00 -0500","original":"Dec 22 2010","granularity":"day","time":"2010/12/22 00:00:00 -0500"},"type":"Robbery","geo_score":0.785,"id_no":10040034,"id":"abzzl6ctfxr1","geo_precision":"range","location":"3446 HILLSBOROUGH RD","state":"NC"},"type":"Feature","geometry":{"type":"Point","coordinates":[-79.097443,36.030946]}},{"properties":{"city":"Durham","category":"Robbery","date":{"end_time":"2010/12/23 00:00:00 -0500","original":"Dec 22 2010","granularity":"day","time":"2010/12/22 00:00:00 -0500"},"type":"Robbery","geo_score":0.784,"id_no":10040134,"id":"abzzl6h2me9u","geo_precision":"range","location":"1925 CHAPEL HILL RD","state":"NC"},"type":"Feature","geometry":{"type":"Point","coordinates":[-90.540088,32.127909]}},{"properties":{"city":"Durham","category":"Aggravated Assault","date":{"end_time":"2010/12/23 00:00:00 -0500","original":"Dec 22 2010","granularity":"day","time":"2010/12/22 00:00:00 -0500"},"type":"Assault Offenses","geo_score":0.653,"id_no":10040136,"id":"abzzl6n69r7e","geo_precision":"range","location":"418 HARDEE ST","state":"NC"},"type":"Feature","geometry":{"type":"Point","coordinates":[-86.361156,43.698756]}},{"properties":{"city":"Durham","category":"Robbery","date":{"end_time":"2010/12/24 00:00:00 -0500","original":"Dec 23 2010","granularity":"day","time":"2010/12/23 00:00:00 -0500"},"type":"Robbery","geo_score":0.472,"id_no":10040230,"id":"abzzl6roc427","geo_precision":"street","location":"700 S LASALLE ST","state":"NC"},"type":"Feature","geometry":{"type":"Point","coordinates":[-89.111601,41.367591]}},{"properties":{"city":"Durham","category":"Aggravated Assault","date":{"end_time":"2010/12/25 00:00:00 -0500","original":"Dec 24 2010","granularity":"day","time":"2010/12/24 00:00:00 -0500"},"type":"Assault Offenses","geo_score":0.59,"id_no":10040300,"id":"abzzl6dc1m2i","geo_precision":"street","location":"5322 FAYETTEVILLE RD","state":"NC"},"type":"Feature","geometry":{"type":"Point","coordinates":[-79.090626,35.031836]}},{"properties":{"city":"Durham","category":"Aggravated Assault","date":{"end_time":"2010/12/26 00:00:00 -0500","original":"Dec 25 2010","granularity":"day","time":"2010/12/25 00:00:00 -0500"},"type":"Assault Offenses","geo_score":0.589,"id_no":10040335,"id":"abzzl6fdn322","geo_precision":"street","location":"901 CHALK LEVEL RD","state":"NC"},"type":"Feature","geometry":{"type":"Point","coordinates":[-79.288043,36.898617]}},{"properties":{"city":"Durham","category":"Aggravated Assault","date":{"end_time":"2010/12/27 00:00:00 -0500","original":"Dec 26 2010","granularity":"day","time":"2010/12/26 00:00:00 -0500"},"type":"Assault Offenses","geo_score":0.784,"id_no":10040395,"id":"abzzl6o209pw","geo_precision":"range","location":"2836 CHAPEL HILL RD","state":"NC"},"type":"Feature","geometry":{"type":"Point","coordinates":[-90.52919,32.119456]}},{"properties":{"city":"Durham","category":"Robbery","date":{"end_time":"2010/12/27 00:00:00 -0500","original":"Dec 26 2010","granularity":"day","time":"2010/12/26 00:00:00 -0500"},"type":"Robbery","geo_score":0.784,"id_no":10040462,"id":"abzzl6caphfo","geo_precision":"range","location":"2947 CHAPEL HILL RD","state":"NC"},"type":"Feature","geometry":{"type":"Point","coordinates":[-90.527622,32.118396]}},{"properties":{"city":"Durham","category":"Robbery","date":{"end_time":"2010/12/28 00:00:00 -0500","original":"Dec 27 2010","granularity":"day","time":"2010/12/27 00:00:00 -0500"},"type":"Robbery","geo_score":0.577,"id_no":10040545,"id":"abzzl6p2yekb","geo_precision":"range","location":"1130 E GEER ST","state":"NC"},"type":"Feature","geometry":{"type":"Point","coordinates":[-83.73812,43.40527]}},{"properties":{"city":"Durham","category":"Robbery","date":{"end_time":"2010/12/29 00:00:00 -0500","original":"Dec 28 2010","granularity":"day","time":"2010/12/28 00:00:00 -0500"},"type":"Robbery","geo_score":0.583,"id_no":10040646,"id":"abzzl6lagpks","geo_precision":"street","location":"2000 AVONDALE DR","state":"NC"},"type":"Feature","geometry":{"type":"Point","coordinates":[-86.547844,36.334295]}},{"properties":{"city":"Durham","category":"Robbery","date":{"end_time":"2010/12/29 00:00:00 -0500","original":"Dec 28 2010","granularity":"day","time":"2010/12/28 00:00:00 -0500"},"type":"Robbery","geo_score":0.469,"id_no":10040645,"id":"abzzl6qh1q1i","geo_precision":"street","location":"403 PRICE AVE","state":"NC"},"type":"Feature","geometry":{"type":"Point","coordinates":[-79.858475,36.513401]}},{"properties":{"city":"Durham","category":"Aggravated Assault","date":{"end_time":"2010/12/30 00:00:00 -0500","original":"Dec 29 2010","granularity":"day","time":"2010/12/29 00:00:00 -0500"},"type":"Assault Offenses","geo_score":0.668,"id_no":10040729,"id":"abzzl6hdfiq3","geo_precision":"range","location":"1505 GUNTER ST","state":"NC"},"type":"Feature","geometry":{"type":"Point","coordinates":[-86.304754,34.344823]}},{"properties":{"city":"Durham","category":"Robbery","date":{"end_time":"2010/12/30 00:00:00 -0500","original":"Dec 29 2010","granularity":"day","time":"2010/12/29 00:00:00 -0500"},"type":"Robbery","geo_score":0.437,"id_no":10040730,"id":"abzzl6bzn5b1","geo_precision":"street","location":"225 OLD OXFORD RD","state":"NC"},"type":"Feature","geometry":{"type":"Point","coordinates":[-90.022945,40.070633]}},{"properties":{"city":"Durham","category":"Robbery","date":{"end_time":"2010/12/31 00:00:00 -0500","original":"Dec 30 2010","granularity":"day","time":"2010/12/30 00:00:00 -0500"},"type":"Robbery","geo_score":0.207,"id_no":10040839,"id":"abzzl6ild62y","geo_precision":"street","location":"4904 NC 55 HWY","state":"NC"},"type":"Feature","geometry":{"type":"Point","coordinates":[-157.799029,21.423886]}},{"properties":{"city":"Durham","category":"Robbery","date":{"end_time":"2010/12/31 00:00:00 -0500","original":"Dec 30 2010","granularity":"day","time":"2010/12/30 00:00:00 -0500"},"type":"Robbery","geo_score":0.784,"id_no":10040870,"id":"abzzl6et7itl","geo_precision":"range","location":"2920 CHAPEL HILL RD","state":"NC"},"type":"Feature","geometry":{"type":"Point","coordinates":[-90.527927,32.118747]}},{"properties":{"city":"Durham","category":"Robbery","date":{"end_time":"2011/01/01 00:00:00 -0500","original":"Dec 31 2010","granularity":"day","time":"2010/12/31 00:00:00 -0500"},"type":"Robbery","geo_score":0.226,"id_no":10040874,"id":"abzzl6rnkp2w","geo_precision":"street","location":"614 E KNOX ST","state":"NC"},"type":"Feature","geometry":{"type":"Point","coordinates":[-149.541251,61.54954]}},{"properties":{"city":"Durham","category":"Robbery","date":{"end_time":"2011/01/01 00:00:00 -0500","original":"Dec 31 2010","granularity":"day","time":"2010/12/31 00:00:00 -0500"},"type":"Robbery","geo_score":0.681,"id_no":10040876,"id":"abzzl6drdlq3","geo_precision":"street","location":"1917 FIDELITY DR","state":"NC"},"type":"Feature","geometry":{"type":"Point","coordinates":[-90.164425,39.129536]}},{"properties":{"city":"Durham","category":"Robbery","date":{"end_time":"2011/01/01 00:00:00 -0500","original":"Dec 31 2010","granularity":"day","time":"2010/12/31 00:00:00 -0500"},"type":"Robbery","geo_score":0.0,"id_no":10040877,"id":"abzzl6lb99on","geo_precision":"unmatched","location":"4604 N ROXBORO ST","state":"NC"},"type":"Feature","geometry":null},{"properties":{"city":"Durham","category":"Robbery","date":{"end_time":"2011/01/01 00:00:00 -0500","original":"Dec 31 2010","granularity":"day","time":"2010/12/31 00:00:00 -0500"},"type":"Robbery","geo_score":0.516,"id_no":10040882,"id":"abzzl6fpvlxt","geo_precision":"street","location":"1699 MOREHEAD AVE/CHAPEL HILL RD","state":"NC"},"type":"Feature","geometry":{"type":"Point","coordinates":[-79.048527,35.845794]}},{"properties":{"city":"Durham","category":"Aggravated Assault","date":{"end_time":"2011/01/01 00:00:00 -0500","original":"Dec 31 2010","granularity":"day","time":"2010/12/31 00:00:00 -0500"},"type":"Assault Offenses","geo_score":0.462,"id_no":10040963,"id":"abzzl6qgbenx","geo_precision":"street","location":"650 HARDEE ST","state":"NC"},"type":"Feature","geometry":{"type":"Point","coordinates":[-86.361336,43.69645]}}],"is_temporal":true,"author":{"url":"","metadata":"","contact_name":"","contact_address":"","source":"","contact_phone":""},"source":"","pagination":{"sort":null,"start":0,"total":66,"limit":1000000},"state":"complete","tags":"","published":"2014-08-16T23:32:35-04:00","id":317692}