{"type":"FeatureCollection","data_type":"Dataset","url_type":null,"permissions":[{"permissions":{"download":true,"view":true},"group_id":"everyone"}],"classification":null,"title":"Dec2010 gun","count":66,"stream_id":317684,"contributor":{"url":"http://geocommons.com/users/35326","name":"markt2704"},"data_attributes":null,"calculation_params":null,"icon_link":null,"link":"http://geocommons.com/overlays/317684.json","extent":[-78.9069,35.9818,-78.9069,35.9818],"geometry_types":["point"],"unique_name":null,"name":"Dec2010 gun","feature_count":66,"description":"","next_feature":null,"is_raster":false,"short_classification":"Y","stats":{"date":{"max":"2010/12/31 00:00:00 -0500","variance":648760706685.314,"mean":"2010/12/16 00:21:49 -0500","stdev":805456.831050128,"min":"2010/12/01 00:00:00 -0500","median":"2010/12/16 00:00:00 -0500"},"id_no":{"max":10040963,"variance":887302.832634033,"mean":10039451.7575758,"stdev":941.967532685725,"min":10037873,"median":10039530}},"features":[{"properties":{"city":"Durham","category":"Robbery","date":{"end_time":"2010/12/02 00:00:00 -0500","original":"Dec 1 2010","granularity":"day","time":"2010/12/01 00:00:00 -0500"},"type":"Robbery","geo_score":0.714,"id_no":10037873,"id":"abzzd9l9t83v","geo_precision":"city","location":"1815 FRONT ST","state":"NC"},"type":"Feature","geometry":{"type":"Point","coordinates":[-78.906933,35.981803]}},{"properties":{"city":"Durham","category":"Robbery","date":{"end_time":"2010/12/02 00:00:00 -0500","original":"Dec 1 2010","granularity":"day","time":"2010/12/01 00:00:00 -0500"},"type":"Robbery","geo_score":0.714,"id_no":10037880,"id":"abzzd9odx0zh","geo_precision":"city","location":"2000 AVONDALE DR","state":"NC"},"type":"Feature","geometry":{"type":"Point","coordinates":[-78.906933,35.981803]}},{"properties":{"city":"Durham","category":"Robbery","date":{"end_time":"2010/12/02 00:00:00 -0500","original":"Dec 1 2010","granularity":"day","time":"2010/12/01 00:00:00 -0500"},"type":"Robbery","geo_score":0.714,"id_no":10037876,"id":"abzzd9yf1vt9","geo_precision":"city","location":"1299 ROSEWOOD ST/E LAWSON ST","state":"NC"},"type":"Feature","geometry":{"type":"Point","coordinates":[-78.906933,35.981803]}},{"properties":{"city":"Durham","category":"Aggravated Assault","date":{"end_time":"2010/12/02 00:00:00 -0500","original":"Dec 1 2010","granularity":"day","time":"2010/12/01 00:00:00 -0500"},"type":"Assault Offenses","geo_score":0.714,"id_no":10037902,"id":"abzzd9yal680","geo_precision":"city","location":"702 CARPENTER FLETCHER RD","state":"NC"},"type":"Feature","geometry":{"type":"Point","coordinates":[-78.906933,35.981803]}},{"properties":{"city":"Durham","category":"Robbery","date":{"end_time":"2010/12/02 00:00:00 -0500","original":"Dec 1 2010","granularity":"day","time":"2010/12/01 00:00:00 -0500"},"type":"Robbery","geo_score":0.714,"id_no":10037901,"id":"abzzd9ubnni6","geo_precision":"city","location":"2920 CHAPEL HILL RD","state":"NC"},"type":"Feature","geometry":{"type":"Point","coordinates":[-78.906933,35.981803]}},{"properties":{"city":"Durham","category":"Aggravated Assault","date":{"end_time":"2010/12/03 00:00:00 -0500","original":"Dec 2 2010","granularity":"day","time":"2010/12/02 00:00:00 -0500"},"type":"Assault Offenses","geo_score":0.714,"id_no":10038014,"id":"abzzd9vr6snf","geo_precision":"city","location":"1803 MOREHEAD AVE","state":"NC"},"type":"Feature","geometry":{"type":"Point","coordinates":[-78.906933,35.981803]}},{"properties":{"city":"Durham","category":"Robbery","date":{"end_time":"2010/12/03 00:00:00 -0500","original":"Dec 2 2010","granularity":"day","time":"2010/12/02 00:00:00 -0500"},"type":"Robbery","geo_score":0.714,"id_no":10038012,"id":"abzzd9uyu1uz","geo_precision":"city","location":"3615 N ROXBORO ST","state":"NC"},"type":"Feature","geometry":{"type":"Point","coordinates":[-78.906933,35.981803]}},{"properties":{"city":"Durham","category":"Robbery","date":{"end_time":"2010/12/04 00:00:00 -0500","original":"Dec 3 2010","granularity":"day","time":"2010/12/03 00:00:00 -0500"},"type":"Robbery","geo_score":0.714,"id_no":10038086,"id":"abzzd9j9mjlg","geo_precision":"city","location":"1502 LAKELAND ST","state":"NC"},"type":"Feature","geometry":{"type":"Point","coordinates":[-78.906933,35.981803]}},{"properties":{"city":"Durham","category":"Robbery","date":{"end_time":"2010/12/06 00:00:00 -0500","original":"Dec 5 2010","granularity":"day","time":"2010/12/05 00:00:00 -0500"},"type":"Robbery","geo_score":0.714,"id_no":10038314,"id":"abzzd9nofr58","geo_precision":"city","location":"2816 ROSS RD","state":"NC"},"type":"Feature","geometry":{"type":"Point","coordinates":[-78.906933,35.981803]}},{"properties":{"city":"Durham","category":"Robbery","date":{"end_time":"2010/12/06 00:00:00 -0500","original":"Dec 5 2010","granularity":"day","time":"2010/12/05 00:00:00 -0500"},"type":"Robbery","geo_score":0.714,"id_no":10038321,"id":"abzzd9mhhev9","geo_precision":"city","location":"599 N GREGSON ST/W TRINITY AVE","state":"NC"},"type":"Feature","geometry":{"type":"Point","coordinates":[-78.906933,35.981803]}},{"properties":{"city":"Durham","category":"Robbery","date":{"end_time":"2010/12/07 00:00:00 -0500","original":"Dec 6 2010","granularity":"day","time":"2010/12/06 00:00:00 -0500"},"type":"Robbery","geo_score":0.714,"id_no":10038445,"id":"abzzd9rorpt6","geo_precision":"city","location":"301 W TRINITY AVE","state":"NC"},"type":"Feature","geometry":{"type":"Point","coordinates":[-78.906933,35.981803]}},{"properties":{"city":"Durham","category":"Robbery","date":{"end_time":"2010/12/07 00:00:00 -0500","original":"Dec 6 2010","granularity":"day","time":"2010/12/06 00:00:00 -0500"},"type":"Robbery","geo_score":0.714,"id_no":10038446,"id":"abzzd9pdhi7p","geo_precision":"city","location":"600 HORTON RD","state":"NC"},"type":"Feature","geometry":{"type":"Point","coordinates":[-78.906933,35.981803]}},{"properties":{"city":"Durham","category":"Robbery","date":{"end_time":"2010/12/08 00:00:00 -0500","original":"Dec 7 2010","granularity":"day","time":"2010/12/07 00:00:00 -0500"},"type":"Robbery","geo_score":0.714,"id_no":10038542,"id":"abzzd9uzqiju","geo_precision":"city","location":"401 E LAKEWOOD AVE","state":"NC"},"type":"Feature","geometry":{"type":"Point","coordinates":[-78.906933,35.981803]}},{"properties":{"city":"Durham","category":"Robbery","date":{"end_time":"2010/12/08 00:00:00 -0500","original":"Dec 7 2010","granularity":"day","time":"2010/12/07 00:00:00 -0500"},"type":"Robbery","geo_score":0.714,"id_no":10038553,"id":"abzzd9qqhj6p","geo_precision":"city","location":"115 HONEYSUCKLE LN","state":"NC"},"type":"Feature","geometry":{"type":"Point","coordinates":[-78.906933,35.981803]}},{"properties":{"city":"Durham","category":"Robbery","date":{"end_time":"2010/12/09 00:00:00 -0500","original":"Dec 8 2010","granularity":"day","time":"2010/12/08 00:00:00 -0500"},"type":"Robbery","geo_score":0.714,"id_no":10038588,"id":"abzzd9s7e4xf","geo_precision":"city","location":"3500 N ROXBORO RD","state":"NC"},"type":"Feature","geometry":{"type":"Point","coordinates":[-78.906933,35.981803]}},{"properties":{"city":"Durham","category":"Robbery","date":{"end_time":"2010/12/10 00:00:00 -0500","original":"Dec 9 2010","granularity":"day","time":"2010/12/09 00:00:00 -0500"},"type":"Robbery","geo_score":0.714,"id_no":10038676,"id":"abzzd9vk4nhf","geo_precision":"city","location":"4435 NC 55 HWY","state":"NC"},"type":"Feature","geometry":{"type":"Point","coordinates":[-78.906933,35.981803]}},{"properties":{"city":"Durham","category":"Robbery","date":{"end_time":"2010/12/10 00:00:00 -0500","original":"Dec 9 2010","granularity":"day","time":"2010/12/09 00:00:00 -0500"},"type":"Robbery","geo_score":0.714,"id_no":10038718,"id":"abzzd9lprbtt","geo_precision":"city","location":"608 HARDEE ST","state":"NC"},"type":"Feature","geometry":{"type":"Point","coordinates":[-78.906933,35.981803]}},{"properties":{"city":"Durham","category":"Robbery","date":{"end_time":"2010/12/10 00:00:00 -0500","original":"Dec 9 2010","granularity":"day","time":"2010/12/09 00:00:00 -0500"},"type":"Robbery","geo_score":0.714,"id_no":10038795,"id":"abzzd9wqxhxd","geo_precision":"city","location":"2500 ERWIN RD","state":"NC"},"type":"Feature","geometry":{"type":"Point","coordinates":[-78.906933,35.981803]}},{"properties":{"city":"Durham","category":"Robbery","date":{"end_time":"2010/12/10 00:00:00 -0500","original":"Dec 9 2010","granularity":"day","time":"2010/12/09 00:00:00 -0500"},"type":"Robbery","geo_score":0.714,"id_no":10038799,"id":"abzzd9uwgwz8","geo_precision":"city","location":"2685 DURHAM CHAPEL HILL BLVD","state":"NC"},"type":"Feature","geometry":{"type":"Point","coordinates":[-78.906933,35.981803]}},{"properties":{"city":"Durham","category":"Robbery","date":{"end_time":"2010/12/10 00:00:00 -0500","original":"Dec 9 2010","granularity":"day","time":"2010/12/09 00:00:00 -0500"},"type":"Robbery","geo_score":0.714,"id_no":10038800,"id":"abzzd9l52arj","geo_precision":"city","location":"1199 MONMOUTH AVE/N BUCHANAN BLVD","state":"NC"},"type":"Feature","geometry":{"type":"Point","coordinates":[-78.906933,35.981803]}},{"properties":{"city":"Durham","category":"Robbery","date":{"end_time":"2010/12/12 00:00:00 -0500","original":"Dec 11 2010","granularity":"day","time":"2010/12/11 00:00:00 -0500"},"type":"Robbery","geo_score":0.714,"id_no":10038912,"id":"abzzd9spy2vq","geo_precision":"city","location":"4835 HOPE VALLEY RD","state":"NC"},"type":"Feature","geometry":{"type":"Point","coordinates":[-78.906933,35.981803]}},{"properties":{"city":"Durham","category":"Robbery","date":{"end_time":"2010/12/12 00:00:00 -0500","original":"Dec 11 2010","granularity":"day","time":"2010/12/11 00:00:00 -0500"},"type":"Robbery","geo_score":0.714,"id_no":10038915,"id":"abzzd9qdd9qe","geo_precision":"city","location":"2836 CHAPEL HILL RD","state":"NC"},"type":"Feature","geometry":{"type":"Point","coordinates":[-78.906933,35.981803]}},{"properties":{"city":"Durham","category":"Aggravated Assault","date":{"end_time":"2010/12/12 00:00:00 -0500","original":"Dec 11 2010","granularity":"day","time":"2010/12/11 00:00:00 -0500"},"type":"Assault Offenses","geo_score":0.714,"id_no":10038943,"id":"abzzd9vmumzp","geo_precision":"city","location":"199 W ENTERPRISE ST/SOUTH ST","state":"NC"},"type":"Feature","geometry":{"type":"Point","coordinates":[-78.906933,35.981803]}},{"properties":{"city":"Durham","category":"Robbery","date":{"end_time":"2010/12/12 00:00:00 -0500","original":"Dec 11 2010","granularity":"day","time":"2010/12/11 00:00:00 -0500"},"type":"Robbery","geo_score":0.714,"id_no":10039012,"id":"abzzd9mecexw","geo_precision":"city","location":"3908 TOWNSEND ST","state":"NC"},"type":"Feature","geometry":{"type":"Point","coordinates":[-78.906933,35.981803]}},{"properties":{"city":"Durham","category":"Aggravated Assault","date":{"end_time":"2010/12/13 00:00:00 -0500","original":"Dec 12 2010","granularity":"day","time":"2010/12/12 00:00:00 -0500"},"type":"Assault Offenses","geo_score":0.714,"id_no":10039021,"id":"abzzd9l3aqv6","geo_precision":"city","location":"2627 HILLSBOROUGH RD","state":"NC"},"type":"Feature","geometry":{"type":"Point","coordinates":[-78.906933,35.981803]}},{"properties":{"city":"Durham","category":"Robbery","date":{"end_time":"2010/12/13 00:00:00 -0500","original":"Dec 12 2010","granularity":"day","time":"2010/12/12 00:00:00 -0500"},"type":"Robbery","geo_score":0.714,"id_no":10039043,"id":"abzzd9qj4ezu","geo_precision":"city","location":"1517 GLENN SCHOOL RD","state":"NC"},"type":"Feature","geometry":{"type":"Point","coordinates":[-78.906933,35.981803]}},{"properties":{"city":"Durham","category":"Theft From Motor Vehicle","date":{"end_time":"2010/12/14 00:00:00 -0500","original":"Dec 13 2010","granularity":"day","time":"2010/12/13 00:00:00 -0500"},"type":"Larceny/Theft Offenses","geo_score":0.714,"id_no":10039159,"id":"abzzd9nc037z","geo_precision":"city","location":"1220 RED ASH CIR","state":"NC"},"type":"Feature","geometry":{"type":"Point","coordinates":[-78.906933,35.981803]}},{"properties":{"city":"Durham","category":"Robbery","date":{"end_time":"2010/12/14 00:00:00 -0500","original":"Dec 13 2010","granularity":"day","time":"2010/12/13 00:00:00 -0500"},"type":"Robbery","geo_score":0.714,"id_no":10039194,"id":"abzzd9jgzpoh","geo_precision":"city","location":"213 N BRIGGS AVE","state":"NC"},"type":"Feature","geometry":{"type":"Point","coordinates":[-78.906933,35.981803]}},{"properties":{"city":"Durham","category":"Robbery","date":{"end_time":"2010/12/14 00:00:00 -0500","original":"Dec 13 2010","granularity":"day","time":"2010/12/13 00:00:00 -0500"},"type":"Robbery","geo_score":0.714,"id_no":10039202,"id":"abzzd9rbwotz","geo_precision":"city","location":"4001 MERIWETHER DR","state":"NC"},"type":"Feature","geometry":{"type":"Point","coordinates":[-78.906933,35.981803]}},{"properties":{"city":"Durham","category":"Robbery","date":{"end_time":"2010/12/16 00:00:00 -0500","original":"Dec 15 2010","granularity":"day","time":"2010/12/15 00:00:00 -0500"},"type":"Robbery","geo_score":0.714,"id_no":10039335,"id":"abzzd9uynpco","geo_precision":"city","location":"3600 N DUKE ST","state":"NC"},"type":"Feature","geometry":{"type":"Point","coordinates":[-78.906933,35.981803]}},{"properties":{"city":"Durham","category":"Robbery","date":{"end_time":"2010/12/16 00:00:00 -0500","original":"Dec 15 2010","granularity":"day","time":"2010/12/15 00:00:00 -0500"},"type":"Robbery","geo_score":0.714,"id_no":10039366,"id":"abzzd9ixoekq","geo_precision":"city","location":"2115 AVONDALE DR","state":"NC"},"type":"Feature","geometry":{"type":"Point","coordinates":[-78.906933,35.981803]}},{"properties":{"city":"Durham","category":"Aggravated Assault","date":{"end_time":"2010/12/16 00:00:00 -0500","original":"Dec 15 2010","granularity":"day","time":"2010/12/15 00:00:00 -0500"},"type":"Assault Offenses","geo_score":0.714,"id_no":10039401,"id":"abzzd9kv3j0l","geo_precision":"city","location":"309 WAKE PL","state":"NC"},"type":"Feature","geometry":{"type":"Point","coordinates":[-78.906933,35.981803]}},{"properties":{"city":"Durham","category":"Aggravated Assault","date":{"end_time":"2010/12/17 00:00:00 -0500","original":"Dec 16 2010","granularity":"day","time":"2010/12/16 00:00:00 -0500"},"type":"Assault Offenses","geo_score":0.714,"id_no":10039436,"id":"abzzd9i5ju3j","geo_precision":"city","location":"614 MIDDLE ST","state":"NC"},"type":"Feature","geometry":{"type":"Point","coordinates":[-78.906933,35.981803]}},{"properties":{"city":"Durham","category":"Robbery","date":{"end_time":"2010/12/17 00:00:00 -0500","original":"Dec 16 2010","granularity":"day","time":"2010/12/16 00:00:00 -0500"},"type":"Robbery","geo_score":0.714,"id_no":10039530,"id":"abzzd9m8sr1t","geo_precision":"city","location":"4706 NC 55 HWY","state":"NC"},"type":"Feature","geometry":{"type":"Point","coordinates":[-78.906933,35.981803]}},{"properties":{"city":"Durham","category":"Robbery","date":{"end_time":"2010/12/17 00:00:00 -0500","original":"Dec 16 2010","granularity":"day","time":"2010/12/16 00:00:00 -0500"},"type":"Robbery","geo_score":0.714,"id_no":10039534,"id":"abzzd9r8getw","geo_precision":"city","location":"544 LIBERTY ST","state":"NC"},"type":"Feature","geometry":{"type":"Point","coordinates":[-78.906933,35.981803]}},{"properties":{"city":"Durham","category":"Robbery","date":{"end_time":"2010/12/18 00:00:00 -0500","original":"Dec 17 2010","granularity":"day","time":"2010/12/17 00:00:00 -0500"},"type":"Robbery","geo_score":0.714,"id_no":10039649,"id":"abzzd9m99aq0","geo_precision":"city","location":"2713 OMAH ST","state":"NC"},"type":"Feature","geometry":{"type":"Point","coordinates":[-78.906933,35.981803]}},{"properties":{"city":"Durham","category":"Robbery","date":{"end_time":"2010/12/19 00:00:00 -0500","original":"Dec 18 2010","granularity":"day","time":"2010/12/18 00:00:00 -0500"},"type":"Robbery","geo_score":0.714,"id_no":10039703,"id":"abzzd9js31mn","geo_precision":"city","location":"1002 W CHAPEL HILL ST","state":"NC"},"type":"Feature","geometry":{"type":"Point","coordinates":[-78.906933,35.981803]}},{"properties":{"city":"Durham","category":"Robbery","date":{"end_time":"2010/12/19 00:00:00 -0500","original":"Dec 18 2010","granularity":"day","time":"2010/12/18 00:00:00 -0500"},"type":"Robbery","geo_score":0.714,"id_no":10039714,"id":"abzzd9xp16x3","geo_precision":"city","location":"4640 HILLSBOROUGH RD","state":"NC"},"type":"Feature","geometry":{"type":"Point","coordinates":[-78.906933,35.981803]}},{"properties":{"city":"Durham","category":"Robbery","date":{"end_time":"2010/12/19 00:00:00 -0500","original":"Dec 18 2010","granularity":"day","time":"2010/12/18 00:00:00 -0500"},"type":"Robbery","geo_score":0.714,"id_no":10039717,"id":"abzzd9jqu9l8","geo_precision":"city","location":"1816 HILLANDALE RD","state":"NC"},"type":"Feature","geometry":{"type":"Point","coordinates":[-78.906933,35.981803]}},{"properties":{"city":"Durham","category":"Aggravated Assault","date":{"end_time":"2010/12/20 00:00:00 -0500","original":"Dec 19 2010","granularity":"day","time":"2010/12/19 00:00:00 -0500"},"type":"Assault Offenses","geo_score":0.714,"id_no":10039737,"id":"abzzd9m9b017","geo_precision":"city","location":"1302 JACKSON ST","state":"NC"},"type":"Feature","geometry":{"type":"Point","coordinates":[-78.906933,35.981803]}},{"properties":{"city":"Durham","category":"Forcible Rape","date":{"end_time":"2010/12/20 00:00:00 -0500","original":"Dec 19 2010","granularity":"day","time":"2010/12/19 00:00:00 -0500"},"type":"Forcible Rape","geo_score":0.714,"id_no":10039767,"id":"abzzd9ulozih","geo_precision":"city","location":"0 TRAIL VIEW LN","state":"NC"},"type":"Feature","geometry":{"type":"Point","coordinates":[-78.906933,35.981803]}},{"properties":{"city":"Durham","category":"Robbery","date":{"end_time":"2010/12/20 00:00:00 -0500","original":"Dec 19 2010","granularity":"day","time":"2010/12/19 00:00:00 -0500"},"type":"Robbery","geo_score":0.714,"id_no":10039780,"id":"abzzd9j81vvd","geo_precision":"city","location":"511 MARTHA ST","state":"NC"},"type":"Feature","geometry":{"type":"Point","coordinates":[-78.906933,35.981803]}},{"properties":{"city":"Durham","category":"Robbery","date":{"end_time":"2010/12/21 00:00:00 -0500","original":"Dec 20 2010","granularity":"day","time":"2010/12/20 00:00:00 -0500"},"type":"Robbery","geo_score":0.714,"id_no":10039900,"id":"abzzd9tns3eg","geo_precision":"city","location":"1058 W CLUB BLVD","state":"NC"},"type":"Feature","geometry":{"type":"Point","coordinates":[-78.906933,35.981803]}},{"properties":{"city":"Durham","category":"Robbery","date":{"end_time":"2010/12/21 00:00:00 -0500","original":"Dec 20 2010","granularity":"day","time":"2010/12/20 00:00:00 -0500"},"type":"Robbery","geo_score":0.714,"id_no":10039908,"id":"abzzd9tkvf6g","geo_precision":"city","location":"3700 FAYETTEVILLE ST","state":"NC"},"type":"Feature","geometry":{"type":"Point","coordinates":[-78.906933,35.981803]}},{"properties":{"city":"Durham","category":"Robbery","date":{"end_time":"2010/12/22 00:00:00 -0500","original":"Dec 21 2010","granularity":"day","time":"2010/12/21 00:00:00 -0500"},"type":"Robbery","geo_score":0.714,"id_no":10039913,"id":"abzzd9mb300z","geo_precision":"city","location":"405 E PILOT ST","state":"NC"},"type":"Feature","geometry":{"type":"Point","coordinates":[-78.906933,35.981803]}},{"properties":{"city":"Durham","category":"Robbery","date":{"end_time":"2010/12/22 00:00:00 -0500","original":"Dec 21 2010","granularity":"day","time":"2010/12/21 00:00:00 -0500"},"type":"Robbery","geo_score":0.714,"id_no":10039982,"id":"abzzd9u66rq3","geo_precision":"city","location":"3557 N ROXBORO ST","state":"NC"},"type":"Feature","geometry":{"type":"Point","coordinates":[-78.906933,35.981803]}},{"properties":{"city":"Durham","category":"Robbery","date":{"end_time":"2010/12/23 00:00:00 -0500","original":"Dec 22 2010","granularity":"day","time":"2010/12/22 00:00:00 -0500"},"type":"Robbery","geo_score":0.714,"id_no":10040034,"id":"abzzd9sx62cp","geo_precision":"city","location":"3446 HILLSBOROUGH RD","state":"NC"},"type":"Feature","geometry":{"type":"Point","coordinates":[-78.906933,35.981803]}},{"properties":{"city":"Durham","category":"Robbery","date":{"end_time":"2010/12/23 00:00:00 -0500","original":"Dec 22 2010","granularity":"day","time":"2010/12/22 00:00:00 -0500"},"type":"Robbery","geo_score":0.714,"id_no":10040134,"id":"abzzd9xq9hq3","geo_precision":"city","location":"1925 CHAPEL HILL RD","state":"NC"},"type":"Feature","geometry":{"type":"Point","coordinates":[-78.906933,35.981803]}},{"properties":{"city":"Durham","category":"Aggravated Assault","date":{"end_time":"2010/12/23 00:00:00 -0500","original":"Dec 22 2010","granularity":"day","time":"2010/12/22 00:00:00 -0500"},"type":"Assault Offenses","geo_score":0.714,"id_no":10040136,"id":"abzzd9omgko3","geo_precision":"city","location":"418 HARDEE ST","state":"NC"},"type":"Feature","geometry":{"type":"Point","coordinates":[-78.906933,35.981803]}},{"properties":{"city":"Durham","category":"Robbery","date":{"end_time":"2010/12/24 00:00:00 -0500","original":"Dec 23 2010","granularity":"day","time":"2010/12/23 00:00:00 -0500"},"type":"Robbery","geo_score":0.714,"id_no":10040230,"id":"abzzd9ld5i3z","geo_precision":"city","location":"700 S LASALLE ST","state":"NC"},"type":"Feature","geometry":{"type":"Point","coordinates":[-78.906933,35.981803]}},{"properties":{"city":"Durham","category":"Aggravated Assault","date":{"end_time":"2010/12/25 00:00:00 -0500","original":"Dec 24 2010","granularity":"day","time":"2010/12/24 00:00:00 -0500"},"type":"Assault Offenses","geo_score":0.714,"id_no":10040300,"id":"abzzd9mfnzj7","geo_precision":"city","location":"5322 FAYETTEVILLE RD","state":"NC"},"type":"Feature","geometry":{"type":"Point","coordinates":[-78.906933,35.981803]}},{"properties":{"city":"Durham","category":"Aggravated Assault","date":{"end_time":"2010/12/26 00:00:00 -0500","original":"Dec 25 2010","granularity":"day","time":"2010/12/25 00:00:00 -0500"},"type":"Assault Offenses","geo_score":0.714,"id_no":10040335,"id":"abzzd9qnmsh9","geo_precision":"city","location":"901 CHALK LEVEL RD","state":"NC"},"type":"Feature","geometry":{"type":"Point","coordinates":[-78.906933,35.981803]}},{"properties":{"city":"Durham","category":"Aggravated Assault","date":{"end_time":"2010/12/27 00:00:00 -0500","original":"Dec 26 2010","granularity":"day","time":"2010/12/26 00:00:00 -0500"},"type":"Assault Offenses","geo_score":0.714,"id_no":10040395,"id":"abzzd9pfvyqb","geo_precision":"city","location":"2836 CHAPEL HILL RD","state":"NC"},"type":"Feature","geometry":{"type":"Point","coordinates":[-78.906933,35.981803]}},{"properties":{"city":"Durham","category":"Robbery","date":{"end_time":"2010/12/27 00:00:00 -0500","original":"Dec 26 2010","granularity":"day","time":"2010/12/26 00:00:00 -0500"},"type":"Robbery","geo_score":0.714,"id_no":10040462,"id":"abzzd9j5oa42","geo_precision":"city","location":"2947 CHAPEL HILL RD","state":"NC"},"type":"Feature","geometry":{"type":"Point","coordinates":[-78.906933,35.981803]}},{"properties":{"city":"Durham","category":"Robbery","date":{"end_time":"2010/12/28 00:00:00 -0500","original":"Dec 27 2010","granularity":"day","time":"2010/12/27 00:00:00 -0500"},"type":"Robbery","geo_score":0.714,"id_no":10040545,"id":"abzzd9pn7eet","geo_precision":"city","location":"1130 E GEER ST","state":"NC"},"type":"Feature","geometry":{"type":"Point","coordinates":[-78.906933,35.981803]}},{"properties":{"city":"Durham","category":"Robbery","date":{"end_time":"2010/12/29 00:00:00 -0500","original":"Dec 28 2010","granularity":"day","time":"2010/12/28 00:00:00 -0500"},"type":"Robbery","geo_score":0.714,"id_no":10040646,"id":"abzzd9s5pw22","geo_precision":"city","location":"2000 AVONDALE DR","state":"NC"},"type":"Feature","geometry":{"type":"Point","coordinates":[-78.906933,35.981803]}},{"properties":{"city":"Durham","category":"Robbery","date":{"end_time":"2010/12/29 00:00:00 -0500","original":"Dec 28 2010","granularity":"day","time":"2010/12/28 00:00:00 -0500"},"type":"Robbery","geo_score":0.714,"id_no":10040645,"id":"abzzd9smx3ja","geo_precision":"city","location":"403 PRICE AVE","state":"NC"},"type":"Feature","geometry":{"type":"Point","coordinates":[-78.906933,35.981803]}},{"properties":{"city":"Durham","category":"Aggravated Assault","date":{"end_time":"2010/12/30 00:00:00 -0500","original":"Dec 29 2010","granularity":"day","time":"2010/12/29 00:00:00 -0500"},"type":"Assault Offenses","geo_score":0.714,"id_no":10040729,"id":"abzzd9i78dlq","geo_precision":"city","location":"1505 GUNTER ST","state":"NC"},"type":"Feature","geometry":{"type":"Point","coordinates":[-78.906933,35.981803]}},{"properties":{"city":"Durham","category":"Robbery","date":{"end_time":"2010/12/30 00:00:00 -0500","original":"Dec 29 2010","granularity":"day","time":"2010/12/29 00:00:00 -0500"},"type":"Robbery","geo_score":0.714,"id_no":10040730,"id":"abzzd9jn9exj","geo_precision":"city","location":"225 OLD OXFORD RD","state":"NC"},"type":"Feature","geometry":{"type":"Point","coordinates":[-78.906933,35.981803]}},{"properties":{"city":"Durham","category":"Robbery","date":{"end_time":"2010/12/31 00:00:00 -0500","original":"Dec 30 2010","granularity":"day","time":"2010/12/30 00:00:00 -0500"},"type":"Robbery","geo_score":0.714,"id_no":10040839,"id":"abzzd9k7t6r3","geo_precision":"city","location":"4904 NC 55 HWY","state":"NC"},"type":"Feature","geometry":{"type":"Point","coordinates":[-78.906933,35.981803]}},{"properties":{"city":"Durham","category":"Robbery","date":{"end_time":"2010/12/31 00:00:00 -0500","original":"Dec 30 2010","granularity":"day","time":"2010/12/30 00:00:00 -0500"},"type":"Robbery","geo_score":0.714,"id_no":10040870,"id":"abzzd9l6ktu8","geo_precision":"city","location":"2920 CHAPEL HILL RD","state":"NC"},"type":"Feature","geometry":{"type":"Point","coordinates":[-78.906933,35.981803]}},{"properties":{"city":"Durham","category":"Robbery","date":{"end_time":"2011/01/01 00:00:00 -0500","original":"Dec 31 2010","granularity":"day","time":"2010/12/31 00:00:00 -0500"},"type":"Robbery","geo_score":0.714,"id_no":10040874,"id":"abzzd9up9r05","geo_precision":"city","location":"614 E KNOX ST","state":"NC"},"type":"Feature","geometry":{"type":"Point","coordinates":[-78.906933,35.981803]}},{"properties":{"city":"Durham","category":"Robbery","date":{"end_time":"2011/01/01 00:00:00 -0500","original":"Dec 31 2010","granularity":"day","time":"2010/12/31 00:00:00 -0500"},"type":"Robbery","geo_score":0.714,"id_no":10040876,"id":"abzzd9sjligv","geo_precision":"city","location":"1917 FIDELITY DR","state":"NC"},"type":"Feature","geometry":{"type":"Point","coordinates":[-78.906933,35.981803]}},{"properties":{"city":"Durham","category":"Robbery","date":{"end_time":"2011/01/01 00:00:00 -0500","original":"Dec 31 2010","granularity":"day","time":"2010/12/31 00:00:00 -0500"},"type":"Robbery","geo_score":0.714,"id_no":10040877,"id":"abzzd9n79hu7","geo_precision":"city","location":"4604 N ROXBORO ST","state":"NC"},"type":"Feature","geometry":{"type":"Point","coordinates":[-78.906933,35.981803]}},{"properties":{"city":"Durham","category":"Robbery","date":{"end_time":"2011/01/01 00:00:00 -0500","original":"Dec 31 2010","granularity":"day","time":"2010/12/31 00:00:00 -0500"},"type":"Robbery","geo_score":0.714,"id_no":10040882,"id":"abzzd9k1nfd9","geo_precision":"city","location":"1699 MOREHEAD AVE/CHAPEL HILL RD","state":"NC"},"type":"Feature","geometry":{"type":"Point","coordinates":[-78.906933,35.981803]}},{"properties":{"city":"Durham","category":"Aggravated Assault","date":{"end_time":"2011/01/01 00:00:00 -0500","original":"Dec 31 2010","granularity":"day","time":"2010/12/31 00:00:00 -0500"},"type":"Assault Offenses","geo_score":0.714,"id_no":10040963,"id":"abzzd9i3nr00","geo_precision":"city","location":"650 HARDEE ST","state":"NC"},"type":"Feature","geometry":{"type":"Point","coordinates":[-78.906933,35.981803]}}],"is_temporal":true,"author":{"url":"","metadata":"","contact_name":"","contact_address":"","source":"","contact_phone":""},"source":"","pagination":{"sort":null,"start":0,"total":66,"limit":1000000},"state":"complete","tags":"","published":"2014-08-16T23:32:25-04:00","id":317684}