{"type":"FeatureCollection","data_type":"Dataset","url_type":null,"permissions":[{"permissions":{"download":true,"view":true},"group_id":"everyone"}],"classification":null,"title":"Dec2010 gun","count":66,"stream_id":317693,"contributor":{"url":"http://geocommons.com/users/60953","name":"librarianjohn"},"data_attributes":null,"calculation_params":null,"icon_link":null,"link":"http://geocommons.com/overlays/317693.json","extent":[-78.9802,35.447,-78.8257,36.0676],"geometry_types":["point"],"unique_name":null,"name":"Dec2010 gun","feature_count":66,"description":"","next_feature":null,"is_raster":false,"short_classification":"Y","stats":{"date":{"max":"2010/12/31 00:00:00 -0500","variance":648760706685.314,"mean":"2010/12/16 00:21:49 -0500","stdev":805456.831050128,"min":"2010/12/01 00:00:00 -0500","median":"2010/12/16 00:00:00 -0500"},"id_no":{"max":10040963,"variance":887302.832634033,"mean":10039451.7575758,"stdev":941.967532685725,"min":10037873,"median":10039530}},"features":[{"properties":{"city":"Durham","category":"Robbery","date":{"end_time":"2010/12/02 00:00:00 -0500","original":"Dec 1 2010","granularity":"day","time":"2010/12/01 00:00:00 -0500"},"type":"Robbery","geo_score":0.902,"id_no":10037873,"id":"abzzm1oco8sz","geo_precision":"range","location":"1815 FRONT ST","state":"NC"},"type":"Feature","geometry":{"type":"Point","coordinates":[-78.936348,36.030106]}},{"properties":{"city":"Durham","category":"Robbery","date":{"end_time":"2010/12/02 00:00:00 -0500","original":"Dec 1 2010","granularity":"day","time":"2010/12/01 00:00:00 -0500"},"type":"Robbery","geo_score":0.902,"id_no":10037880,"id":"abzzm1zjuuri","geo_precision":"range","location":"2000 AVONDALE DR","state":"NC"},"type":"Feature","geometry":{"type":"Point","coordinates":[-78.888714,36.015859]}},{"properties":{"city":"Durham","category":"Robbery","date":{"end_time":"2010/12/02 00:00:00 -0500","original":"Dec 1 2010","granularity":"day","time":"2010/12/01 00:00:00 -0500"},"type":"Robbery","geo_score":0.857,"id_no":10037876,"id":"abzzm1t7tefi","geo_precision":"street","location":"1299 ROSEWOOD ST/E LAWSON ST","state":"NC"},"type":"Feature","geometry":{"type":"Point","coordinates":[-78.892201,35.975052]}},{"properties":{"city":"Durham","category":"Aggravated Assault","date":{"end_time":"2010/12/02 00:00:00 -0500","original":"Dec 1 2010","granularity":"day","time":"2010/12/01 00:00:00 -0500"},"type":"Assault Offenses","geo_score":0.902,"id_no":10037902,"id":"abzzm1tzhyi0","geo_precision":"range","location":"702 CARPENTER FLETCHER RD","state":"NC"},"type":"Feature","geometry":{"type":"Point","coordinates":[-78.909196,35.922611]}},{"properties":{"city":"Durham","category":"Robbery","date":{"end_time":"2010/12/02 00:00:00 -0500","original":"Dec 1 2010","granularity":"day","time":"2010/12/01 00:00:00 -0500"},"type":"Robbery","geo_score":0.902,"id_no":10037901,"id":"abzzm1nes5uu","geo_precision":"range","location":"2920 CHAPEL HILL RD","state":"NC"},"type":"Feature","geometry":{"type":"Point","coordinates":[-78.938884,35.970324]}},{"properties":{"city":"Durham","category":"Aggravated Assault","date":{"end_time":"2010/12/03 00:00:00 -0500","original":"Dec 2 2010","granularity":"day","time":"2010/12/02 00:00:00 -0500"},"type":"Assault Offenses","geo_score":0.902,"id_no":10038014,"id":"abzzm1pom1r2","geo_precision":"range","location":"1803 MOREHEAD AVE","state":"NC"},"type":"Feature","geometry":{"type":"Point","coordinates":[-78.926408,35.992191]}},{"properties":{"city":"Durham","category":"Robbery","date":{"end_time":"2010/12/03 00:00:00 -0500","original":"Dec 2 2010","granularity":"day","time":"2010/12/02 00:00:00 -0500"},"type":"Robbery","geo_score":0.488,"id_no":10038012,"id":"abzzm1p5zrgv","geo_precision":"city","location":"3615 N ROXBORO ST","state":"NC"},"type":"Feature","geometry":{"type":"Point","coordinates":[-78.906933,35.981803]}},{"properties":{"city":"Durham","category":"Robbery","date":{"end_time":"2010/12/04 00:00:00 -0500","original":"Dec 3 2010","granularity":"day","time":"2010/12/03 00:00:00 -0500"},"type":"Robbery","geo_score":0.902,"id_no":10038086,"id":"abzzm1s5xtle","geo_precision":"range","location":"1502 LAKELAND ST","state":"NC"},"type":"Feature","geometry":{"type":"Point","coordinates":[-78.891836,35.970927]}},{"properties":{"city":"Durham","category":"Robbery","date":{"end_time":"2010/12/06 00:00:00 -0500","original":"Dec 5 2010","granularity":"day","time":"2010/12/05 00:00:00 -0500"},"type":"Robbery","geo_score":0.902,"id_no":10038314,"id":"abzzm1ueyi3h","geo_precision":"range","location":"2816 ROSS RD","state":"NC"},"type":"Feature","geometry":{"type":"Point","coordinates":[-78.845681,35.992362]}},{"properties":{"city":"Durham","category":"Robbery","date":{"end_time":"2010/12/06 00:00:00 -0500","original":"Dec 5 2010","granularity":"day","time":"2010/12/05 00:00:00 -0500"},"type":"Robbery","geo_score":0.857,"id_no":10038321,"id":"abzzm1lk3jem","geo_precision":"street","location":"599 N GREGSON ST/W TRINITY AVE","state":"NC"},"type":"Feature","geometry":{"type":"Point","coordinates":[-78.908534,36.000803]}},{"properties":{"city":"Durham","category":"Robbery","date":{"end_time":"2010/12/07 00:00:00 -0500","original":"Dec 6 2010","granularity":"day","time":"2010/12/06 00:00:00 -0500"},"type":"Robbery","geo_score":0.902,"id_no":10038445,"id":"abzzm1r4vln4","geo_precision":"range","location":"301 W TRINITY AVE","state":"NC"},"type":"Feature","geometry":{"type":"Point","coordinates":[-78.898719,36.00548]}},{"properties":{"city":"Durham","category":"Robbery","date":{"end_time":"2010/12/07 00:00:00 -0500","original":"Dec 6 2010","granularity":"day","time":"2010/12/06 00:00:00 -0500"},"type":"Robbery","geo_score":0.902,"id_no":10038446,"id":"abzzm1slfioo","geo_precision":"range","location":"600 HORTON RD","state":"NC"},"type":"Feature","geometry":{"type":"Point","coordinates":[-78.908031,36.051234]}},{"properties":{"city":"Durham","category":"Robbery","date":{"end_time":"2010/12/08 00:00:00 -0500","original":"Dec 7 2010","granularity":"day","time":"2010/12/07 00:00:00 -0500"},"type":"Robbery","geo_score":0.902,"id_no":10038542,"id":"abzzm1w1otu0","geo_precision":"range","location":"401 E LAKEWOOD AVE","state":"NC"},"type":"Feature","geometry":{"type":"Point","coordinates":[-78.898519,35.986202]}},{"properties":{"city":"Durham","category":"Robbery","date":{"end_time":"2010/12/08 00:00:00 -0500","original":"Dec 7 2010","granularity":"day","time":"2010/12/07 00:00:00 -0500"},"type":"Robbery","geo_score":0.679,"id_no":10038553,"id":"abzzm1sheskv","geo_precision":"range","location":"115 HONEYSUCKLE LN","state":"NC"},"type":"Feature","geometry":{"type":"Point","coordinates":[-78.952052,35.447048]}},{"properties":{"city":"Durham","category":"Robbery","date":{"end_time":"2010/12/09 00:00:00 -0500","original":"Dec 8 2010","granularity":"day","time":"2010/12/08 00:00:00 -0500"},"type":"Robbery","geo_score":0.488,"id_no":10038588,"id":"abzzm1zcu0n3","geo_precision":"city","location":"3500 N ROXBORO RD","state":"NC"},"type":"Feature","geometry":{"type":"Point","coordinates":[-78.906933,35.981803]}},{"properties":{"city":"Durham","category":"Robbery","date":{"end_time":"2010/12/10 00:00:00 -0500","original":"Dec 9 2010","granularity":"day","time":"2010/12/09 00:00:00 -0500"},"type":"Robbery","geo_score":0.707,"id_no":10038676,"id":"abzzm1tiidfv","geo_precision":"range","location":"4435 NC 55 HWY","state":"NC"},"type":"Feature","geometry":{"type":"Point","coordinates":[-78.8938,35.90812]}},{"properties":{"city":"Durham","category":"Robbery","date":{"end_time":"2010/12/10 00:00:00 -0500","original":"Dec 9 2010","granularity":"day","time":"2010/12/09 00:00:00 -0500"},"type":"Robbery","geo_score":0.708,"id_no":10038718,"id":"abzzm1l8ce2s","geo_precision":"street","location":"608 HARDEE ST","state":"NC"},"type":"Feature","geometry":{"type":"Point","coordinates":[-78.865766,35.991333]}},{"properties":{"city":"Durham","category":"Robbery","date":{"end_time":"2010/12/10 00:00:00 -0500","original":"Dec 9 2010","granularity":"day","time":"2010/12/09 00:00:00 -0500"},"type":"Robbery","geo_score":0.902,"id_no":10038795,"id":"abzzm1zh25og","geo_precision":"range","location":"2500 ERWIN RD","state":"NC"},"type":"Feature","geometry":{"type":"Point","coordinates":[-78.944094,36.008719]}},{"properties":{"city":"Durham","category":"Robbery","date":{"end_time":"2010/12/10 00:00:00 -0500","original":"Dec 9 2010","granularity":"day","time":"2010/12/09 00:00:00 -0500"},"type":"Robbery","geo_score":0.89,"id_no":10038799,"id":"abzzm1vx2jvf","geo_precision":"range","location":"2685 DURHAM CHAPEL HILL BLVD","state":"NC"},"type":"Feature","geometry":{"type":"Point","coordinates":[-78.929747,35.974222]}},{"properties":{"city":"Durham","category":"Robbery","date":{"end_time":"2010/12/10 00:00:00 -0500","original":"Dec 9 2010","granularity":"day","time":"2010/12/09 00:00:00 -0500"},"type":"Robbery","geo_score":0.857,"id_no":10038800,"id":"abzzm1ryqlnr","geo_precision":"street","location":"1199 MONMOUTH AVE/N BUCHANAN BLVD","state":"NC"},"type":"Feature","geometry":{"type":"Point","coordinates":[-78.898712,36.006589]}},{"properties":{"city":"Durham","category":"Robbery","date":{"end_time":"2010/12/12 00:00:00 -0500","original":"Dec 11 2010","granularity":"day","time":"2010/12/11 00:00:00 -0500"},"type":"Robbery","geo_score":0.902,"id_no":10038912,"id":"abzzm1ylkti5","geo_precision":"range","location":"4835 HOPE VALLEY RD","state":"NC"},"type":"Feature","geometry":{"type":"Point","coordinates":[-78.959754,35.920085]}},{"properties":{"city":"Durham","category":"Robbery","date":{"end_time":"2010/12/12 00:00:00 -0500","original":"Dec 11 2010","granularity":"day","time":"2010/12/11 00:00:00 -0500"},"type":"Robbery","geo_score":0.902,"id_no":10038915,"id":"abzzm1sa8xqk","geo_precision":"range","location":"2836 CHAPEL HILL RD","state":"NC"},"type":"Feature","geometry":{"type":"Point","coordinates":[-78.938277,35.971468]}},{"properties":{"city":"Durham","category":"Aggravated Assault","date":{"end_time":"2010/12/12 00:00:00 -0500","original":"Dec 11 2010","granularity":"day","time":"2010/12/11 00:00:00 -0500"},"type":"Assault Offenses","geo_score":0.543,"id_no":10038943,"id":"abzzm1tp67n7","geo_precision":"street","location":"199 W ENTERPRISE ST/SOUTH ST","state":"NC"},"type":"Feature","geometry":{"type":"Point","coordinates":[-78.902904,35.9836]}},{"properties":{"city":"Durham","category":"Robbery","date":{"end_time":"2010/12/12 00:00:00 -0500","original":"Dec 11 2010","granularity":"day","time":"2010/12/11 00:00:00 -0500"},"type":"Robbery","geo_score":0.902,"id_no":10039012,"id":"abzzm1qlctjz","geo_precision":"range","location":"3908 TOWNSEND ST","state":"NC"},"type":"Feature","geometry":{"type":"Point","coordinates":[-78.918292,36.053708]}},{"properties":{"city":"Durham","category":"Aggravated Assault","date":{"end_time":"2010/12/13 00:00:00 -0500","original":"Dec 12 2010","granularity":"day","time":"2010/12/12 00:00:00 -0500"},"type":"Assault Offenses","geo_score":0.902,"id_no":10039021,"id":"abzzm1nhgtap","geo_precision":"range","location":"2627 HILLSBOROUGH RD","state":"NC"},"type":"Feature","geometry":{"type":"Point","coordinates":[-78.929864,36.011423]}},{"properties":{"city":"Durham","category":"Robbery","date":{"end_time":"2010/12/13 00:00:00 -0500","original":"Dec 12 2010","granularity":"day","time":"2010/12/12 00:00:00 -0500"},"type":"Robbery","geo_score":0.902,"id_no":10039043,"id":"abzzm20b38hk","geo_precision":"range","location":"1517 GLENN SCHOOL RD","state":"NC"},"type":"Feature","geometry":{"type":"Point","coordinates":[-78.840808,36.030797]}},{"properties":{"city":"Durham","category":"Theft From Motor Vehicle","date":{"end_time":"2010/12/14 00:00:00 -0500","original":"Dec 13 2010","granularity":"day","time":"2010/12/13 00:00:00 -0500"},"type":"Larceny/Theft Offenses","geo_score":0.902,"id_no":10039159,"id":"abzzm1p469ot","geo_precision":"range","location":"1220 RED ASH CIR","state":"NC"},"type":"Feature","geometry":{"type":"Point","coordinates":[-78.920847,36.05796]}},{"properties":{"city":"Durham","category":"Robbery","date":{"end_time":"2010/12/14 00:00:00 -0500","original":"Dec 13 2010","granularity":"day","time":"2010/12/13 00:00:00 -0500"},"type":"Robbery","geo_score":0.902,"id_no":10039194,"id":"abzzm1u9adbp","geo_precision":"range","location":"213 N BRIGGS AVE","state":"NC"},"type":"Feature","geometry":{"type":"Point","coordinates":[-78.874983,35.988621]}},{"properties":{"city":"Durham","category":"Robbery","date":{"end_time":"2010/12/14 00:00:00 -0500","original":"Dec 13 2010","granularity":"day","time":"2010/12/13 00:00:00 -0500"},"type":"Robbery","geo_score":0.902,"id_no":10039202,"id":"abzzm1xofxn4","geo_precision":"range","location":"4001 MERIWETHER DR","state":"NC"},"type":"Feature","geometry":{"type":"Point","coordinates":[-78.890155,36.042201]}},{"properties":{"city":"Durham","category":"Robbery","date":{"end_time":"2010/12/16 00:00:00 -0500","original":"Dec 15 2010","granularity":"day","time":"2010/12/15 00:00:00 -0500"},"type":"Robbery","geo_score":0.902,"id_no":10039335,"id":"abzzm1z8un75","geo_precision":"range","location":"3600 N DUKE ST","state":"NC"},"type":"Feature","geometry":{"type":"Point","coordinates":[-78.905729,36.050094]}},{"properties":{"city":"Durham","category":"Robbery","date":{"end_time":"2010/12/16 00:00:00 -0500","original":"Dec 15 2010","granularity":"day","time":"2010/12/15 00:00:00 -0500"},"type":"Robbery","geo_score":0.902,"id_no":10039366,"id":"abzzm1tvg9xl","geo_precision":"range","location":"2115 AVONDALE DR","state":"NC"},"type":"Feature","geometry":{"type":"Point","coordinates":[-78.8894,36.016623]}},{"properties":{"city":"Durham","category":"Aggravated Assault","date":{"end_time":"2010/12/16 00:00:00 -0500","original":"Dec 15 2010","granularity":"day","time":"2010/12/15 00:00:00 -0500"},"type":"Assault Offenses","geo_score":0.902,"id_no":10039401,"id":"abzzm1rdbq9v","geo_precision":"range","location":"309 WAKE PL","state":"NC"},"type":"Feature","geometry":{"type":"Point","coordinates":[-78.890568,36.001081]}},{"properties":{"city":"Durham","category":"Aggravated Assault","date":{"end_time":"2010/12/17 00:00:00 -0500","original":"Dec 16 2010","granularity":"day","time":"2010/12/16 00:00:00 -0500"},"type":"Assault Offenses","geo_score":0.902,"id_no":10039436,"id":"abzzm1zqf0c4","geo_precision":"range","location":"614 MIDDLE ST","state":"NC"},"type":"Feature","geometry":{"type":"Point","coordinates":[-78.881275,35.977713]}},{"properties":{"city":"Durham","category":"Robbery","date":{"end_time":"2010/12/17 00:00:00 -0500","original":"Dec 16 2010","granularity":"day","time":"2010/12/16 00:00:00 -0500"},"type":"Robbery","geo_score":0.707,"id_no":10039530,"id":"abzzm1wd6m4x","geo_precision":"range","location":"4706 NC 55 HWY","state":"NC"},"type":"Feature","geometry":{"type":"Point","coordinates":[-78.895895,35.901596]}},{"properties":{"city":"Durham","category":"Robbery","date":{"end_time":"2010/12/17 00:00:00 -0500","original":"Dec 16 2010","granularity":"day","time":"2010/12/16 00:00:00 -0500"},"type":"Robbery","geo_score":0.902,"id_no":10039534,"id":"abzzm1z2lvgg","geo_precision":"range","location":"544 LIBERTY ST","state":"NC"},"type":"Feature","geometry":{"type":"Point","coordinates":[-78.894793,35.993218]}},{"properties":{"city":"Durham","category":"Robbery","date":{"end_time":"2010/12/18 00:00:00 -0500","original":"Dec 17 2010","granularity":"day","time":"2010/12/17 00:00:00 -0500"},"type":"Robbery","geo_score":0.902,"id_no":10039649,"id":"abzzm1v31a44","geo_precision":"range","location":"2713 OMAH ST","state":"NC"},"type":"Feature","geometry":{"type":"Point","coordinates":[-78.931201,36.033137]}},{"properties":{"city":"Durham","category":"Robbery","date":{"end_time":"2010/12/19 00:00:00 -0500","original":"Dec 18 2010","granularity":"day","time":"2010/12/18 00:00:00 -0500"},"type":"Robbery","geo_score":0.902,"id_no":10039703,"id":"abzzm1tqz8x3","geo_precision":"range","location":"1002 W CHAPEL HILL ST","state":"NC"},"type":"Feature","geometry":{"type":"Point","coordinates":[-78.915714,35.996871]}},{"properties":{"city":"Durham","category":"Robbery","date":{"end_time":"2010/12/19 00:00:00 -0500","original":"Dec 18 2010","granularity":"day","time":"2010/12/18 00:00:00 -0500"},"type":"Robbery","geo_score":0.902,"id_no":10039714,"id":"abzzm1vs24oz","geo_precision":"range","location":"4640 HILLSBOROUGH RD","state":"NC"},"type":"Feature","geometry":{"type":"Point","coordinates":[-78.980238,36.032968]}},{"properties":{"city":"Durham","category":"Robbery","date":{"end_time":"2010/12/19 00:00:00 -0500","original":"Dec 18 2010","granularity":"day","time":"2010/12/18 00:00:00 -0500"},"type":"Robbery","geo_score":0.902,"id_no":10039717,"id":"abzzm1y5cr9r","geo_precision":"range","location":"1816 HILLANDALE RD","state":"NC"},"type":"Feature","geometry":{"type":"Point","coordinates":[-78.935759,36.029045]}},{"properties":{"city":"Durham","category":"Aggravated Assault","date":{"end_time":"2010/12/20 00:00:00 -0500","original":"Dec 19 2010","granularity":"day","time":"2010/12/19 00:00:00 -0500"},"type":"Assault Offenses","geo_score":0.488,"id_no":10039737,"id":"abzzm1u7p45e","geo_precision":"city","location":"1302 JACKSON ST","state":"NC"},"type":"Feature","geometry":{"type":"Point","coordinates":[-78.906933,35.981803]}},{"properties":{"city":"Durham","category":"Forcible Rape","date":{"end_time":"2010/12/20 00:00:00 -0500","original":"Dec 19 2010","granularity":"day","time":"2010/12/19 00:00:00 -0500"},"type":"Forcible Rape","geo_score":0.358,"id_no":10039767,"id":"abzzm1n51zdp","geo_precision":"street","location":"0 TRAIL VIEW LN","state":"NC"},"type":"Feature","geometry":{"type":"Point","coordinates":[-78.825724,35.966377]}},{"properties":{"city":"Durham","category":"Robbery","date":{"end_time":"2010/12/20 00:00:00 -0500","original":"Dec 19 2010","granularity":"day","time":"2010/12/19 00:00:00 -0500"},"type":"Robbery","geo_score":0.902,"id_no":10039780,"id":"abzzm1p9q8bo","geo_precision":"range","location":"511 MARTHA ST","state":"NC"},"type":"Feature","geometry":{"type":"Point","coordinates":[-78.897058,35.970395]}},{"properties":{"city":"Durham","category":"Robbery","date":{"end_time":"2010/12/21 00:00:00 -0500","original":"Dec 20 2010","granularity":"day","time":"2010/12/20 00:00:00 -0500"},"type":"Robbery","geo_score":0.902,"id_no":10039900,"id":"abzzm1l354rp","geo_precision":"range","location":"1058 W CLUB BLVD","state":"NC"},"type":"Feature","geometry":{"type":"Point","coordinates":[-78.908835,36.016983]}},{"properties":{"city":"Durham","category":"Robbery","date":{"end_time":"2010/12/21 00:00:00 -0500","original":"Dec 20 2010","granularity":"day","time":"2010/12/20 00:00:00 -0500"},"type":"Robbery","geo_score":0.863,"id_no":10039908,"id":"abzzm1ttxp4n","geo_precision":"range","location":"3700 FAYETTEVILLE ST","state":"NC"},"type":"Feature","geometry":{"type":"Point","coordinates":[-78.906146,35.953977]}},{"properties":{"city":"Durham","category":"Robbery","date":{"end_time":"2010/12/22 00:00:00 -0500","original":"Dec 21 2010","granularity":"day","time":"2010/12/21 00:00:00 -0500"},"type":"Robbery","geo_score":0.902,"id_no":10039913,"id":"abzzm1wa1vmv","geo_precision":"range","location":"405 E PILOT ST","state":"NC"},"type":"Feature","geometry":{"type":"Point","coordinates":[-78.90876,35.96614]}},{"properties":{"city":"Durham","category":"Robbery","date":{"end_time":"2010/12/22 00:00:00 -0500","original":"Dec 21 2010","granularity":"day","time":"2010/12/21 00:00:00 -0500"},"type":"Robbery","geo_score":0.488,"id_no":10039982,"id":"abzzm1lm12yi","geo_precision":"city","location":"3557 N ROXBORO ST","state":"NC"},"type":"Feature","geometry":{"type":"Point","coordinates":[-78.906933,35.981803]}},{"properties":{"city":"Durham","category":"Robbery","date":{"end_time":"2010/12/23 00:00:00 -0500","original":"Dec 22 2010","granularity":"day","time":"2010/12/22 00:00:00 -0500"},"type":"Robbery","geo_score":0.902,"id_no":10040034,"id":"abzzm1qx7w7c","geo_precision":"range","location":"3446 HILLSBOROUGH RD","state":"NC"},"type":"Feature","geometry":{"type":"Point","coordinates":[-78.944825,36.018746]}},{"properties":{"city":"Durham","category":"Robbery","date":{"end_time":"2010/12/23 00:00:00 -0500","original":"Dec 22 2010","granularity":"day","time":"2010/12/22 00:00:00 -0500"},"type":"Robbery","geo_score":0.902,"id_no":10040134,"id":"abzzm1zshfbz","geo_precision":"range","location":"1925 CHAPEL HILL RD","state":"NC"},"type":"Feature","geometry":{"type":"Point","coordinates":[-78.926419,35.987163]}},{"properties":{"city":"Durham","category":"Aggravated Assault","date":{"end_time":"2010/12/23 00:00:00 -0500","original":"Dec 22 2010","granularity":"day","time":"2010/12/22 00:00:00 -0500"},"type":"Assault Offenses","geo_score":0.708,"id_no":10040136,"id":"abzzm1uyde6u","geo_precision":"street","location":"418 HARDEE ST","state":"NC"},"type":"Feature","geometry":{"type":"Point","coordinates":[-78.865766,35.991333]}},{"properties":{"city":"Durham","category":"Robbery","date":{"end_time":"2010/12/24 00:00:00 -0500","original":"Dec 23 2010","granularity":"day","time":"2010/12/23 00:00:00 -0500"},"type":"Robbery","geo_score":0.902,"id_no":10040230,"id":"abzzm1kt65p4","geo_precision":"range","location":"700 S LASALLE ST","state":"NC"},"type":"Feature","geometry":{"type":"Point","coordinates":[-78.94758,36.00843]}},{"properties":{"city":"Durham","category":"Aggravated Assault","date":{"end_time":"2010/12/25 00:00:00 -0500","original":"Dec 24 2010","granularity":"day","time":"2010/12/24 00:00:00 -0500"},"type":"Assault Offenses","geo_score":0.902,"id_no":10040300,"id":"abzzm1p72gb1","geo_precision":"range","location":"5322 FAYETTEVILLE RD","state":"NC"},"type":"Feature","geometry":{"type":"Point","coordinates":[-78.922583,35.927146]}},{"properties":{"city":"Durham","category":"Aggravated Assault","date":{"end_time":"2010/12/26 00:00:00 -0500","original":"Dec 25 2010","granularity":"day","time":"2010/12/25 00:00:00 -0500"},"type":"Assault Offenses","geo_score":0.902,"id_no":10040335,"id":"abzzm1t1afu1","geo_precision":"range","location":"901 CHALK LEVEL RD","state":"NC"},"type":"Feature","geometry":{"type":"Point","coordinates":[-78.910859,36.051147]}},{"properties":{"city":"Durham","category":"Aggravated Assault","date":{"end_time":"2010/12/27 00:00:00 -0500","original":"Dec 26 2010","granularity":"day","time":"2010/12/26 00:00:00 -0500"},"type":"Assault Offenses","geo_score":0.902,"id_no":10040395,"id":"abzzm1zbnhxv","geo_precision":"range","location":"2836 CHAPEL HILL RD","state":"NC"},"type":"Feature","geometry":{"type":"Point","coordinates":[-78.938277,35.971468]}},{"properties":{"city":"Durham","category":"Robbery","date":{"end_time":"2010/12/27 00:00:00 -0500","original":"Dec 26 2010","granularity":"day","time":"2010/12/26 00:00:00 -0500"},"type":"Robbery","geo_score":0.902,"id_no":10040462,"id":"abzzm1wef40l","geo_precision":"range","location":"2947 CHAPEL HILL RD","state":"NC"},"type":"Feature","geometry":{"type":"Point","coordinates":[-78.939201,35.969553]}},{"properties":{"city":"Durham","category":"Robbery","date":{"end_time":"2010/12/28 00:00:00 -0500","original":"Dec 27 2010","granularity":"day","time":"2010/12/27 00:00:00 -0500"},"type":"Robbery","geo_score":0.902,"id_no":10040545,"id":"abzzm1sp9idi","geo_precision":"range","location":"1130 E GEER ST","state":"NC"},"type":"Feature","geometry":{"type":"Point","coordinates":[-78.873521,36.005496]}},{"properties":{"city":"Durham","category":"Robbery","date":{"end_time":"2010/12/29 00:00:00 -0500","original":"Dec 28 2010","granularity":"day","time":"2010/12/28 00:00:00 -0500"},"type":"Robbery","geo_score":0.902,"id_no":10040646,"id":"abzzm1t6myim","geo_precision":"range","location":"2000 AVONDALE DR","state":"NC"},"type":"Feature","geometry":{"type":"Point","coordinates":[-78.888714,36.015859]}},{"properties":{"city":"Durham","category":"Robbery","date":{"end_time":"2010/12/29 00:00:00 -0500","original":"Dec 28 2010","granularity":"day","time":"2010/12/28 00:00:00 -0500"},"type":"Robbery","geo_score":0.902,"id_no":10040645,"id":"abzzm1o1oyrc","geo_precision":"range","location":"403 PRICE AVE","state":"NC"},"type":"Feature","geometry":{"type":"Point","coordinates":[-78.900891,35.979659]}},{"properties":{"city":"Durham","category":"Aggravated Assault","date":{"end_time":"2010/12/30 00:00:00 -0500","original":"Dec 29 2010","granularity":"day","time":"2010/12/29 00:00:00 -0500"},"type":"Assault Offenses","geo_score":0.902,"id_no":10040729,"id":"abzzm1kxfeqn","geo_precision":"range","location":"1505 GUNTER ST","state":"NC"},"type":"Feature","geometry":{"type":"Point","coordinates":[-78.92174,35.988364]}},{"properties":{"city":"Durham","category":"Robbery","date":{"end_time":"2010/12/30 00:00:00 -0500","original":"Dec 29 2010","granularity":"day","time":"2010/12/29 00:00:00 -0500"},"type":"Robbery","geo_score":0.55,"id_no":10040730,"id":"abzzm1kzxbnc","geo_precision":"street","location":"225 OLD OXFORD RD","state":"NC"},"type":"Feature","geometry":{"type":"Point","coordinates":[-78.934343,36.067589]}},{"properties":{"city":"Durham","category":"Robbery","date":{"end_time":"2010/12/31 00:00:00 -0500","original":"Dec 30 2010","granularity":"day","time":"2010/12/30 00:00:00 -0500"},"type":"Robbery","geo_score":0.707,"id_no":10040839,"id":"abzzm1y73nu6","geo_precision":"range","location":"4904 NC 55 HWY","state":"NC"},"type":"Feature","geometry":{"type":"Point","coordinates":[-78.897027,35.895163]}},{"properties":{"city":"Durham","category":"Robbery","date":{"end_time":"2010/12/31 00:00:00 -0500","original":"Dec 30 2010","granularity":"day","time":"2010/12/30 00:00:00 -0500"},"type":"Robbery","geo_score":0.902,"id_no":10040870,"id":"abzzm1ocl3fr","geo_precision":"range","location":"2920 CHAPEL HILL RD","state":"NC"},"type":"Feature","geometry":{"type":"Point","coordinates":[-78.938884,35.970324]}},{"properties":{"city":"Durham","category":"Robbery","date":{"end_time":"2011/01/01 00:00:00 -0500","original":"Dec 31 2010","granularity":"day","time":"2010/12/31 00:00:00 -0500"},"type":"Robbery","geo_score":0.532,"id_no":10040874,"id":"abzzm1wsikuh","geo_precision":"street","location":"614 E KNOX ST","state":"NC"},"type":"Feature","geometry":{"type":"Point","coordinates":[-78.979722,36.041737]}},{"properties":{"city":"Durham","category":"Robbery","date":{"end_time":"2011/01/01 00:00:00 -0500","original":"Dec 31 2010","granularity":"day","time":"2010/12/31 00:00:00 -0500"},"type":"Robbery","geo_score":0.902,"id_no":10040876,"id":"abzzm1mhqdta","geo_precision":"range","location":"1917 FIDELITY DR","state":"NC"},"type":"Feature","geometry":{"type":"Point","coordinates":[-78.865866,35.993853]}},{"properties":{"city":"Durham","category":"Robbery","date":{"end_time":"2011/01/01 00:00:00 -0500","original":"Dec 31 2010","granularity":"day","time":"2010/12/31 00:00:00 -0500"},"type":"Robbery","geo_score":0.488,"id_no":10040877,"id":"abzzm1pxgf7u","geo_precision":"city","location":"4604 N ROXBORO ST","state":"NC"},"type":"Feature","geometry":{"type":"Point","coordinates":[-78.906933,35.981803]}},{"properties":{"city":"Durham","category":"Robbery","date":{"end_time":"2011/01/01 00:00:00 -0500","original":"Dec 31 2010","granularity":"day","time":"2010/12/31 00:00:00 -0500"},"type":"Robbery","geo_score":0.857,"id_no":10040882,"id":"abzzm1q27dgx","geo_precision":"street","location":"1699 MOREHEAD AVE/CHAPEL HILL RD","state":"NC"},"type":"Feature","geometry":{"type":"Point","coordinates":[-78.90328,35.98964]}},{"properties":{"city":"Durham","category":"Aggravated Assault","date":{"end_time":"2011/01/01 00:00:00 -0500","original":"Dec 31 2010","granularity":"day","time":"2010/12/31 00:00:00 -0500"},"type":"Assault Offenses","geo_score":0.708,"id_no":10040963,"id":"abzzm1sbk5gl","geo_precision":"street","location":"650 HARDEE ST","state":"NC"},"type":"Feature","geometry":{"type":"Point","coordinates":[-78.865766,35.991333]}}],"is_temporal":true,"author":{"url":"","metadata":"","contact_name":"","contact_address":"","source":"","contact_phone":""},"source":"","pagination":{"sort":null,"start":0,"total":66,"limit":1000000},"state":"complete","tags":"","published":"2014-08-16T23:32:36-04:00","id":317693}