{"type":"FeatureCollection","data_type":"Dataset","url_type":null,"permissions":[{"permissions":{"download":true,"view":true},"group_id":"everyone"}],"classification":null,"title":"EDO_ADD","count":6,"stream_id":317859,"contributor":{"url":"http://geocommons.com/users/57761","name":"saracompion"},"data_attributes":null,"calculation_params":null,"icon_link":null,"link":"http://geocommons.com/overlays/317859.json","extent":[-84.5654,37.0606,-82.7711,38.6462],"geometry_types":["point"],"unique_name":null,"name":"EDO_ADD","feature_count":6,"description":"","next_feature":null,"is_raster":false,"short_classification":"Y","stats":{"survey binary":{"max":1,"variance":0.3,"mean":0.5,"stdev":0.547722557505166,"min":0,"median":1}},"features":[{"properties":{"city":"PRESTONSBURG","survey binary":1,"add":"ADD","zip":"41653-8074","geo_score":0.585,"edo name":"Big Sandy Area Development District Inc.","id":"ac05w9euolpz","address":"110 RESOURCE COURT","survey complete":"yes","geo_precision":"zip","state":"KY"},"type":"Feature","geometry":{"type":"Point","coordinates":[-82.771139,37.536748]}},{"properties":{"city":"LONDON","survey binary":1,"add":"ADD","zip":"40743-1740","geo_score":0.442,"edo name":"Cumberland Valley Area Development District","id":"ac05w9iltx2x","address":"342 OLD WHITLEY ROAD, PO BOX 1740","survey complete":"yes","geo_precision":"street","state":"KY"},"type":"Feature","geometry":{"type":"Point","coordinates":[-84.060049,37.060584]}},{"properties":{"city":"GRAYSON","survey binary":1,"add":"ADD","zip":"41143-6107","geo_score":0.585,"edo name":"FIVCO Area Development District","id":"ac05w9fg29ey","address":"32 FIVCO CT","survey complete":"yes","geo_precision":"zip","state":"KY"},"type":"Feature","geometry":{"type":"Point","coordinates":[-83.000742,38.324893]}},{"properties":{"city":"MAYSVILLE","survey binary":0,"add":"ADD","zip":"41056-0460","geo_score":0.604,"edo name":"Buffalo Trace Area Development District Inc.","id":"ac05w9laimci","address":"201 Government St. Suite 300","survey complete":null,"geo_precision":"street","state":"KY"},"type":"Feature","geometry":{"type":"Point","coordinates":[-83.760866,38.646153]}},{"properties":{"city":"MOREHEAD","survey binary":0,"add":"ADD","zip":"40351-7985","geo_score":0.683,"edo name":"Gateway Area Development District Inc.","id":"ac05w9n7fabk","address":"110 LAKE PARK DR","survey complete":null,"geo_precision":"range","state":"KY"},"type":"Feature","geometry":{"type":"Point","coordinates":[-84.565383,37.863335]}},{"properties":{"city":"HAZARD","survey binary":0,"add":"ADD","zip":"41701-5322","geo_score":0.865,"edo name":"Kentucky River Area Development District Inc.","id":"ac05w9lyo8qp","address":"917 PERRY PARK RD","survey complete":null,"geo_precision":"range","state":"KY"},"type":"Feature","geometry":{"type":"Point","coordinates":[-83.189148,37.24739]}}],"is_temporal":false,"author":{"url":"","metadata":null,"contact_name":null,"contact_address":null,"source":null,"contact_phone":null},"source":"","pagination":{"sort":null,"start":0,"total":6,"limit":1000000},"state":"complete","tags":"","published":"2014-08-16T23:46:57-04:00","id":317859}