{"type":"FeatureCollection","data_type":"Dataset","url_type":null,"permissions":[{"permissions":{"download":true,"view":true},"group_id":"everyone"}],"classification":null,"title":"Most Socially Networked Cities","count":100,"stream_id":317824,"contributor":{"url":"http://geocommons.com/users/45691","name":"CalebChase"},"data_attributes":null,"calculation_params":null,"icon_link":null,"link":"http://geocommons.com/overlays/317824.json","extent":[-157.858,21.3069,-70.2553,61.2181],"geometry_types":["point"],"unique_name":null,"name":"Most Socially Networked Cities","feature_count":100,"description":"First, Men's Health figured out each city's LinkedIn and Facebook users per capita, and then tapped the NetProspex marketing database to figure out each location's amount of overall Twitter usage.\r\n\r\nNot stopping there, the next step was to consult online ad network Chitika to quantify traffic from MySpace, Friendster, Reddit and Digg, and finally, SimplyMap helped determine the percentage of households using chat rooms and blogs.","next_feature":null,"is_raster":false,"short_classification":"Y","stats":{"latitude":{"max":61.2180556,"variance":31.4566903092913,"mean":37.529438867,"stdev":5.60862641912361,"min":21.3069444,"median":37.9577016},"rank":{"max":100,"variance":841.666666666667,"mean":50.5,"stdev":29.011491975882,"min":1,"median":51},"longitude":{"max":-70.2553259,"variance":307.587979896558,"mean":-94.471981609,"stdev":17.538186334298,"min":-157.8583333,"median":-90.1994042}},"features":[{"properties":{"city":"Washington","score":"A+","latitude":38.8951118,"rank":1,"longitude":-77.0363658,"id":"ac03z6f486ni","state":"DC"},"type":"Feature","geometry":{"type":"Point","coordinates":[-77.0363658,38.8951118]}},{"properties":{"city":"Atlanta","score":"A+","latitude":33.7489954,"rank":2,"longitude":-84.3879824,"id":"ac03z6i6b8o5","state":"GA"},"type":"Feature","geometry":{"type":"Point","coordinates":[-84.3879824,33.7489954]}},{"properties":{"city":"Denver","score":"A+","latitude":39.737567,"rank":3,"longitude":-104.9847179,"id":"ac03z6essgpv","state":"CO"},"type":"Feature","geometry":{"type":"Point","coordinates":[-104.9847179,39.737567]}},{"properties":{"city":"Minneapolis","score":"A+","latitude":44.983334,"rank":4,"longitude":-93.26667,"id":"ac03z630gt7f","state":"MN"},"type":"Feature","geometry":{"type":"Point","coordinates":[-93.26667,44.983334]}},{"properties":{"city":"Seattle","score":"A+","latitude":47.6062095,"rank":5,"longitude":-122.3320708,"id":"ac03z63e3y31","state":"WA"},"type":"Feature","geometry":{"type":"Point","coordinates":[-122.3320708,47.6062095]}},{"properties":{"city":"San Francisco","score":"A","latitude":37.7749295,"rank":6,"longitude":-122.4194155,"id":"ac03z6331w5c","state":"CA"},"type":"Feature","geometry":{"type":"Point","coordinates":[-122.4194155,37.7749295]}},{"properties":{"city":"Orlando","score":"A","latitude":28.5383355,"rank":7,"longitude":-81.3792365,"id":"ac03z6fqmsc9","state":"FL"},"type":"Feature","geometry":{"type":"Point","coordinates":[-81.3792365,28.5383355]}},{"properties":{"city":"Austin","score":"A","latitude":30.267153,"rank":8,"longitude":-97.7430608,"id":"ac03z64sdu5v","state":"TX"},"type":"Feature","geometry":{"type":"Point","coordinates":[-97.7430608,30.267153]}},{"properties":{"city":"Boston","score":"A","latitude":42.3584308,"rank":9,"longitude":-71.0597732,"id":"ac03z6cydtkx","state":"MA"},"type":"Feature","geometry":{"type":"Point","coordinates":[-71.0597732,42.3584308]}},{"properties":{"city":"Salt Lake City","score":"A-","latitude":40.7607793,"rank":10,"longitude":-111.8910474,"id":"ac03z68kth9c","state":"UT"},"type":"Feature","geometry":{"type":"Point","coordinates":[-111.8910474,40.7607793]}},{"properties":{"city":"Cincinnati","score":"A-","latitude":39.1031182,"rank":11,"longitude":-84.5120196,"id":"ac03z6fur9yj","state":"OH"},"type":"Feature","geometry":{"type":"Point","coordinates":[-84.5120196,39.1031182]}},{"properties":{"city":"Raleigh","score":"A-","latitude":35.772096,"rank":12,"longitude":-78.6386145,"id":"ac03z6iyafe0","state":"NC"},"type":"Feature","geometry":{"type":"Point","coordinates":[-78.6386145,35.772096]}},{"properties":{"city":"Burlington","score":"A-","latitude":44.4758825,"rank":13,"longitude":-73.212072,"id":"ac03z6hezmjt","state":"VT"},"type":"Feature","geometry":{"type":"Point","coordinates":[-73.212072,44.4758825]}},{"properties":{"city":"Portland","score":"B+","latitude":45.5234515,"rank":14,"longitude":-122.6762071,"id":"ac03z69sbzpe","state":"OR"},"type":"Feature","geometry":{"type":"Point","coordinates":[-122.6762071,45.5234515]}},{"properties":{"city":"Madison","score":"B+","latitude":43.0730517,"rank":15,"longitude":-89.4012302,"id":"ac03z6hjim4n","state":"WI"},"type":"Feature","geometry":{"type":"Point","coordinates":[-89.4012302,43.0730517]}},{"properties":{"city":"Dallas","score":"B+","latitude":32.7801399,"rank":16,"longitude":-96.8004511,"id":"ac03z6h9s89w","state":"TX"},"type":"Feature","geometry":{"type":"Point","coordinates":[-96.8004511,32.7801399]}},{"properties":{"city":"Portland","score":"B","latitude":43.661471,"rank":17,"longitude":-70.2553259,"id":"ac03z6d1l5gp","state":"ME"},"type":"Feature","geometry":{"type":"Point","coordinates":[-70.2553259,43.661471]}},{"properties":{"city":"Sacramento","score":"B","latitude":38.5815719,"rank":18,"longitude":-121.4943996,"id":"ac03z64hamjc","state":"CA"},"type":"Feature","geometry":{"type":"Point","coordinates":[-121.4943996,38.5815719]}},{"properties":{"city":"Aurora","score":"B","latitude":39.7294319,"rank":19,"longitude":-104.8319195,"id":"ac03z66fs2ku","state":"CO"},"type":"Feature","geometry":{"type":"Point","coordinates":[-104.8319195,39.7294319]}},{"properties":{"city":"Boise","score":"B","latitude":43.6140237,"rank":20,"longitude":-116.20365,"id":"ac03z65f30v5","state":"ID"},"type":"Feature","geometry":{"type":"Point","coordinates":[-116.20365,43.6140237]}},{"properties":{"city":"Charlotte","score":"B","latitude":35.2270869,"rank":21,"longitude":-80.8431267,"id":"ac03z6aqlja4","state":"NC"},"type":"Feature","geometry":{"type":"Point","coordinates":[-80.8431267,35.2270869]}},{"properties":{"city":"Wilmington","score":"B","latitude":39.7458333,"rank":22,"longitude":-75.5466667,"id":"ac03z6hzvnpy","state":"DE"},"type":"Feature","geometry":{"type":"Point","coordinates":[-75.5466667,39.7458333]}},{"properties":{"city":"Oakland","score":"B","latitude":37.8043637,"rank":23,"longitude":-122.2711137,"id":"ac03z636dgcq","state":"CA"},"type":"Feature","geometry":{"type":"Point","coordinates":[-122.2711137,37.8043637]}},{"properties":{"city":"St. Louis","score":"B","latitude":38.6270025,"rank":24,"longitude":-90.1994042,"id":"ac03z68nazll","state":"MO"},"type":"Feature","geometry":{"type":"Point","coordinates":[-90.1994042,38.6270025]}},{"properties":{"city":"Las Vegas","score":"B","latitude":36.114646,"rank":25,"longitude":-115.172816,"id":"ac03z6fjc9ih","state":"NV"},"type":"Feature","geometry":{"type":"Point","coordinates":[-115.172816,36.114646]}},{"properties":{"city":"Columbus","score":"B","latitude":39.9611755,"rank":26,"longitude":-82.9987942,"id":"ac03z6958rtj","state":"OH"},"type":"Feature","geometry":{"type":"Point","coordinates":[-82.9987942,39.9611755]}},{"properties":{"city":"San Diego","score":"B","latitude":32.7153292,"rank":27,"longitude":-117.1572551,"id":"ac03z662qp49","state":"CA"},"type":"Feature","geometry":{"type":"Point","coordinates":[-117.1572551,32.7153292]}},{"properties":{"city":"San Jose","score":"B","latitude":37.3393857,"rank":28,"longitude":-121.8949555,"id":"ac03z6ee47i7","state":"CA"},"type":"Feature","geometry":{"type":"Point","coordinates":[-121.8949555,37.3393857]}},{"properties":{"city":"St. Paul","score":"B-","latitude":44.9537029,"rank":29,"longitude":-93.0899578,"id":"ac03z6gg0f9s","state":"MN"},"type":"Feature","geometry":{"type":"Point","coordinates":[-93.0899578,44.9537029]}},{"properties":{"city":"Plano","score":"B-","latitude":33.0198431,"rank":30,"longitude":-96.6988856,"id":"ac03z69ja5en","state":"TX"},"type":"Feature","geometry":{"type":"Point","coordinates":[-96.6988856,33.0198431]}},{"properties":{"city":"Tampa","score":"B-","latitude":27.950575,"rank":31,"longitude":-82.4571776,"id":"ac03z67si6fb","state":"FL"},"type":"Feature","geometry":{"type":"Point","coordinates":[-82.4571776,27.950575]}},{"properties":{"city":"Nashville","score":"B-","latitude":36.1666667,"rank":32,"longitude":-86.7833333,"id":"ac03z6gzdy94","state":"TN"},"type":"Feature","geometry":{"type":"Point","coordinates":[-86.7833333,36.1666667]}},{"properties":{"city":"Los Angeles","score":"B-","latitude":34.0522342,"rank":33,"longitude":-118.2436849,"id":"ac03z69v50dh","state":"CA"},"type":"Feature","geometry":{"type":"Point","coordinates":[-118.2436849,34.0522342]}},{"properties":{"city":"Phoenix","score":"B-","latitude":33.4483771,"rank":34,"longitude":-112.0740373,"id":"ac03z6dg5buo","state":"AZ"},"type":"Feature","geometry":{"type":"Point","coordinates":[-112.0740373,33.4483771]}},{"properties":{"city":"Newark","score":"B-","latitude":40.735657,"rank":35,"longitude":-74.1723667,"id":"ac03z650uxpv","state":"NJ"},"type":"Feature","geometry":{"type":"Point","coordinates":[-74.1723667,40.735657]}},{"properties":{"city":"Miami","score":"B-","latitude":25.7889689,"rank":36,"longitude":-80.2264393,"id":"ac03z6e2ehcm","state":"FL"},"type":"Feature","geometry":{"type":"Point","coordinates":[-80.2264393,25.7889689]}},{"properties":{"city":"Norfolk","score":"C+","latitude":36.8507689,"rank":37,"longitude":-76.2858726,"id":"ac03z62u7dkh","state":"VA"},"type":"Feature","geometry":{"type":"Point","coordinates":[-76.2858726,36.8507689]}},{"properties":{"city":"Richmond","score":"C+","latitude":37.5407246,"rank":38,"longitude":-77.4360481,"id":"ac03z6ev4f5r","state":"VA"},"type":"Feature","geometry":{"type":"Point","coordinates":[-77.4360481,37.5407246]}},{"properties":{"city":"Chicago","score":"C+","latitude":41.8781136,"rank":39,"longitude":-87.6297982,"id":"ac03z6d7325g","state":"IL"},"type":"Feature","geometry":{"type":"Point","coordinates":[-87.6297982,41.8781136]}},{"properties":{"city":"Durham","score":"C+","latitude":35.999451,"rank":40,"longitude":-78.898811,"id":"ac03z631vjzm","state":"NC"},"type":"Feature","geometry":{"type":"Point","coordinates":[-78.898811,35.999451]}},{"properties":{"city":"Colorado Springs","score":"C+","latitude":38.8338816,"rank":41,"longitude":-104.8213634,"id":"ac03z6akfr49","state":"CO"},"type":"Feature","geometry":{"type":"Point","coordinates":[-104.8213634,38.8338816]}},{"properties":{"city":"Des Moines","score":"C+","latitude":41.6005448,"rank":42,"longitude":-93.6091064,"id":"ac03z64dxhrj","state":"IA"},"type":"Feature","geometry":{"type":"Point","coordinates":[-93.6091064,41.6005448]}},{"properties":{"city":"Jersey City","score":"C+","latitude":40.7281575,"rank":43,"longitude":-74.0776417,"id":"ac03z6i8jauq","state":"NJ"},"type":"Feature","geometry":{"type":"Point","coordinates":[-74.0776417,40.7281575]}},{"properties":{"city":"Indianapolis","score":"C+","latitude":39.7685825,"rank":44,"longitude":-86.1579557,"id":"ac03z6db6ym3","state":"IN"},"type":"Feature","geometry":{"type":"Point","coordinates":[-86.1579557,39.7685825]}},{"properties":{"city":"Milwaukee","score":"C+","latitude":43.0389025,"rank":45,"longitude":-87.9064736,"id":"ac03z69jo1a4","state":"WI"},"type":"Feature","geometry":{"type":"Point","coordinates":[-87.9064736,43.0389025]}},{"properties":{"city":"Fargo","score":"C+","latitude":46.8771863,"rank":46,"longitude":-96.7898034,"id":"ac03z63de82t","state":"ND"},"type":"Feature","geometry":{"type":"Point","coordinates":[-96.7898034,46.8771863]}},{"properties":{"city":"Columbia","score":"C+","latitude":34.0007104,"rank":47,"longitude":-81.0348144,"id":"ac03z6azfjht","state":"SC"},"type":"Feature","geometry":{"type":"Point","coordinates":[-81.0348144,34.0007104]}},{"properties":{"city":"Houston","score":"C+","latitude":29.7601927,"rank":48,"longitude":-95.3693896,"id":"ac03z6es6ttb","state":"TX"},"type":"Feature","geometry":{"type":"Point","coordinates":[-95.3693896,29.7601927]}},{"properties":{"city":"Philadelphia","score":"C+","latitude":39.952335,"rank":49,"longitude":-75.163789,"id":"ac03z6j0x1fr","state":"PA"},"type":"Feature","geometry":{"type":"Point","coordinates":[-75.163789,39.952335]}},{"properties":{"city":"Birmingham","score":"C+","latitude":33.5206608,"rank":50,"longitude":-86.80249,"id":"ac03z698rd0j","state":"AL"},"type":"Feature","geometry":{"type":"Point","coordinates":[-86.80249,33.5206608]}},{"properties":{"city":"Cleveland","score":"C+","latitude":41.4994954,"rank":51,"longitude":-81.6954088,"id":"ac03z6dmazs3","state":"OH"},"type":"Feature","geometry":{"type":"Point","coordinates":[-81.6954088,41.4994954]}},{"properties":{"city":"Kansas City","score":"C","latitude":39.0997265,"rank":52,"longitude":-94.5785667,"id":"ac03z6gbu87z","state":"MO"},"type":"Feature","geometry":{"type":"Point","coordinates":[-94.5785667,39.0997265]}},{"properties":{"city":"New York","score":"C","latitude":40.7143528,"rank":53,"longitude":-74.0059731,"id":"ac03z6g0mlqd","state":"NY"},"type":"Feature","geometry":{"type":"Point","coordinates":[-74.0059731,40.7143528]}},{"properties":{"city":"Greensboro","score":"C","latitude":36.0726354,"rank":54,"longitude":-79.7919754,"id":"ac03z62qyupi","state":"NC"},"type":"Feature","geometry":{"type":"Point","coordinates":[-79.7919754,36.0726354]}},{"properties":{"city":"Reno","score":"C","latitude":39.5296329,"rank":55,"longitude":-119.8138027,"id":"ac03z62qatsr","state":"NV"},"type":"Feature","geometry":{"type":"Point","coordinates":[-119.8138027,39.5296329]}},{"properties":{"city":"Manchester","score":"C","latitude":42.9956397,"rank":56,"longitude":-71.4547891,"id":"ac03z67z2l4u","state":"NH"},"type":"Feature","geometry":{"type":"Point","coordinates":[-71.4547891,42.9956397]}},{"properties":{"city":"Providence","score":"C","latitude":41.8239891,"rank":57,"longitude":-71.4128343,"id":"ac03z6977wyt","state":"RI"},"type":"Feature","geometry":{"type":"Point","coordinates":[-71.4128343,41.8239891]}},{"properties":{"city":"Baltimore","score":"C","latitude":39.2903848,"rank":58,"longitude":-76.6121893,"id":"ac03z6bzx95q","state":"MD"},"type":"Feature","geometry":{"type":"Point","coordinates":[-76.6121893,39.2903848]}},{"properties":{"city":"Little Rock","score":"C","latitude":34.7464809,"rank":59,"longitude":-92.2895948,"id":"ac03z63g5xcf","state":"AR"},"type":"Feature","geometry":{"type":"Point","coordinates":[-92.2895948,34.7464809]}},{"properties":{"city":"Louisville","score":"C","latitude":38.2526647,"rank":60,"longitude":-85.7584557,"id":"ac03z6ieppkg","state":"KY"},"type":"Feature","geometry":{"type":"Point","coordinates":[-85.7584557,38.2526647]}},{"properties":{"city":"Sioux Falls","score":"C-","latitude":43.5499749,"rank":61,"longitude":-96.700327,"id":"ac03z69x2u1o","state":"SD"},"type":"Feature","geometry":{"type":"Point","coordinates":[-96.700327,43.5499749]}},{"properties":{"city":"Omaha","score":"C-","latitude":41.2523634,"rank":62,"longitude":-95.9979883,"id":"ac03z6cy7e6f","state":"NE"},"type":"Feature","geometry":{"type":"Point","coordinates":[-95.9979883,41.2523634]}},{"properties":{"city":"Pittsburgh","score":"C-","latitude":40.4406248,"rank":63,"longitude":-79.9958864,"id":"ac03z6aeg7pd","state":"PA"},"type":"Feature","geometry":{"type":"Point","coordinates":[-79.9958864,40.4406248]}},{"properties":{"city":"Baton Rouge","score":"C-","latitude":30.4582829,"rank":64,"longitude":-91.1403196,"id":"ac03z6bqno0y","state":"LA"},"type":"Feature","geometry":{"type":"Point","coordinates":[-91.1403196,30.4582829]}},{"properties":{"city":"Lexington","score":"C","latitude":38.0405837,"rank":65,"longitude":-84.5037164,"id":"ac03z65y7vuj","state":"KY"},"type":"Feature","geometry":{"type":"Point","coordinates":[-84.5037164,38.0405837]}},{"properties":{"city":"Wichita","score":"C-","latitude":37.6888889,"rank":66,"longitude":-97.3361111,"id":"ac03z68sxzdb","state":"KS"},"type":"Feature","geometry":{"type":"Point","coordinates":[-97.3361111,37.6888889]}},{"properties":{"city":"Anchorage","score":"C-","latitude":61.2180556,"rank":67,"longitude":-149.9002778,"id":"ac03z6fwn3p0","state":"AK"},"type":"Feature","geometry":{"type":"Point","coordinates":[-149.9002778,61.2180556]}},{"properties":{"city":"Lincoln","score":"C-","latitude":40.806862,"rank":68,"longitude":-96.681679,"id":"ac03z6cgjz8c","state":"NE"},"type":"Feature","geometry":{"type":"Point","coordinates":[-96.681679,40.806862]}},{"properties":{"city":"Cheyenne","score":"D+","latitude":41.1399814,"rank":69,"longitude":-104.8202462,"id":"ac03z69mn507","state":"WY"},"type":"Feature","geometry":{"type":"Point","coordinates":[-104.8202462,41.1399814]}},{"properties":{"city":"New Orleans","score":"D+","latitude":29.9510658,"rank":70,"longitude":-90.0715323,"id":"ac03z6di2xrz","state":"LA"},"type":"Feature","geometry":{"type":"Point","coordinates":[-90.0715323,29.9510658]}},{"properties":{"city":"Tucson","score":"D+","latitude":32.2217429,"rank":71,"longitude":-110.926479,"id":"ac03z66wpmbr","state":"AZ"},"type":"Feature","geometry":{"type":"Point","coordinates":[-110.926479,32.2217429]}},{"properties":{"city":"Buffalo","score":"D+","latitude":42.8864468,"rank":72,"longitude":-78.8783689,"id":"ac03z67kf2qe","state":"NY"},"type":"Feature","geometry":{"type":"Point","coordinates":[-78.8783689,42.8864468]}},{"properties":{"city":"Honolulu","score":"D+","latitude":21.3069444,"rank":73,"longitude":-157.8583333,"id":"ac03z6ilhb96","state":"HI"},"type":"Feature","geometry":{"type":"Point","coordinates":[-157.8583333,21.3069444]}},{"properties":{"city":"Santa Ana","score":"D+","latitude":33.7455731,"rank":74,"longitude":-117.8678338,"id":"ac03z6ezx6at","state":"CA"},"type":"Feature","geometry":{"type":"Point","coordinates":[-117.8678338,33.7455731]}},{"properties":{"city":"Charleston","score":"D+","latitude":38.3498195,"rank":75,"longitude":-81.6326234,"id":"ac03z63o55al","state":"WV"},"type":"Feature","geometry":{"type":"Point","coordinates":[-81.6326234,38.3498195]}},{"properties":{"city":"Oklahoma City","score":"D+","latitude":35.4675602,"rank":76,"longitude":-97.5164276,"id":"ac03z64dowed","state":"OK"},"type":"Feature","geometry":{"type":"Point","coordinates":[-97.5164276,35.4675602]}},{"properties":{"city":"Virginia Beach","score":"D+","latitude":36.8529263,"rank":77,"longitude":-75.977985,"id":"ac03z6fl6x0y","state":"VA"},"type":"Feature","geometry":{"type":"Point","coordinates":[-75.977985,36.8529263]}},{"properties":{"city":"Winston-Salem","score":"D+","latitude":36.0998596,"rank":78,"longitude":-80.244216,"id":"ac03z6csucg4","state":"NC"},"type":"Feature","geometry":{"type":"Point","coordinates":[-80.244216,36.0998596]}},{"properties":{"city":"Tulsa","score":"D+","latitude":36.1539816,"rank":79,"longitude":-95.992775,"id":"ac03z6gvcwld","state":"OK"},"type":"Feature","geometry":{"type":"Point","coordinates":[-95.992775,36.1539816]}},{"properties":{"city":"Albuquerque","score":"D","latitude":35.110703,"rank":80,"longitude":-106.609991,"id":"ac03z65tb5t1","state":"NM"},"type":"Feature","geometry":{"type":"Point","coordinates":[-106.609991,35.110703]}},{"properties":{"city":"Fort Worth","score":"D","latitude":32.725409,"rank":81,"longitude":-97.3208496,"id":"ac03z640aab5","state":"TX"},"type":"Feature","geometry":{"type":"Point","coordinates":[-97.3208496,32.725409]}},{"properties":{"city":"San Antonio","score":"D","latitude":29.4241219,"rank":82,"longitude":-98.4936282,"id":"ac03z6glptf5","state":"TX"},"type":"Feature","geometry":{"type":"Point","coordinates":[-98.4936282,29.4241219]}},{"properties":{"city":"Jackson","score":"D","latitude":32.2987573,"rank":83,"longitude":-90.1848103,"id":"ac03z67hvaub","state":"MS"},"type":"Feature","geometry":{"type":"Point","coordinates":[-90.1848103,32.2987573]}},{"properties":{"city":"Chesapeake","score":"D","latitude":36.7682088,"rank":84,"longitude":-76.2874927,"id":"ac03z63towhq","state":"VA"},"type":"Feature","geometry":{"type":"Point","coordinates":[-76.2874927,36.7682088]}},{"properties":{"city":"Jacksonville","score":"D","latitude":30.3321838,"rank":85,"longitude":-81.655651,"id":"ac03z6h9wtg3","state":"FL"},"type":"Feature","geometry":{"type":"Point","coordinates":[-81.655651,30.3321838]}},{"properties":{"city":"Riverside","score":"D","latitude":33.9533487,"rank":86,"longitude":-117.3961564,"id":"ac03z6gilvie","state":"CA"},"type":"Feature","geometry":{"type":"Point","coordinates":[-117.3961564,33.9533487]}},{"properties":{"city":"Memphis","score":"D-","latitude":35.1495343,"rank":87,"longitude":-90.0489801,"id":"ac03z6h51dzn","state":"TN"},"type":"Feature","geometry":{"type":"Point","coordinates":[-90.0489801,35.1495343]}},{"properties":{"city":"St. Petersburg","score":"D-","latitude":27.7730556,"rank":88,"longitude":-82.64,"id":"ac03z6dqnqik","state":"FL"},"type":"Feature","geometry":{"type":"Point","coordinates":[-82.64,27.7730556]}},{"properties":{"city":"Toledo","score":"D-","latitude":41.6639383,"rank":89,"longitude":-83.555212,"id":"ac03z6eiin7s","state":"OH"},"type":"Feature","geometry":{"type":"Point","coordinates":[-83.555212,41.6639383]}},{"properties":{"city":"Corpus Christi","score":"D-","latitude":27.8005828,"rank":90,"longitude":-97.396381,"id":"ac03z62soolo","state":"TX"},"type":"Feature","geometry":{"type":"Point","coordinates":[-97.396381,27.8005828]}},{"properties":{"city":"Billings","score":"D-","latitude":45.7832856,"rank":91,"longitude":-108.5006904,"id":"ac03z67t4hfz","state":"MT"},"type":"Feature","geometry":{"type":"Point","coordinates":[-108.5006904,45.7832856]}},{"properties":{"city":"Fort Wayne","score":"D-","latitude":41.079273,"rank":92,"longitude":-85.1393513,"id":"ac03z6gaq429","state":"IN"},"type":"Feature","geometry":{"type":"Point","coordinates":[-85.1393513,41.079273]}},{"properties":{"city":"Bridgeport","score":"D-","latitude":41.1865478,"rank":93,"longitude":-73.1951767,"id":"ac03z63wnh82","state":"CT"},"type":"Feature","geometry":{"type":"Point","coordinates":[-73.1951767,41.1865478]}},{"properties":{"city":"Detroit","score":"D-","latitude":42.331427,"rank":94,"longitude":-83.0457538,"id":"ac03z6em7eje","state":"MI"},"type":"Feature","geometry":{"type":"Point","coordinates":[-83.0457538,42.331427]}},{"properties":{"city":"Fresno","score":"F","latitude":36.7468422,"rank":95,"longitude":-119.7725868,"id":"ac03z6h13qfd","state":"CA"},"type":"Feature","geometry":{"type":"Point","coordinates":[-119.7725868,36.7468422]}},{"properties":{"city":"Bakersfield","score":"F","latitude":35.3732921,"rank":96,"longitude":-119.0187125,"id":"ac03z6bdvih0","state":"CA"},"type":"Feature","geometry":{"type":"Point","coordinates":[-119.0187125,35.3732921]}},{"properties":{"city":"Lubbock","score":"F","latitude":33.5778631,"rank":97,"longitude":-101.8551665,"id":"ac03z6hgihmn","state":"TX"},"type":"Feature","geometry":{"type":"Point","coordinates":[-101.8551665,33.5778631]}},{"properties":{"city":"Stockton","score":"F","latitude":37.9577016,"rank":98,"longitude":-121.2907796,"id":"ac03z6asvfge","state":"CA"},"type":"Feature","geometry":{"type":"Point","coordinates":[-121.2907796,37.9577016]}},{"properties":{"city":"Laredo","score":"F","latitude":27.506407,"rank":99,"longitude":-99.5075421,"id":"ac03z6b5fmsl","state":"TX"},"type":"Feature","geometry":{"type":"Point","coordinates":[-99.5075421,27.506407]}},{"properties":{"city":"El Paso","score":"F","latitude":31.7587198,"rank":100,"longitude":-106.4869314,"id":"ac03z67afmyx","state":"TX"},"type":"Feature","geometry":{"type":"Point","coordinates":[-106.4869314,31.7587198]}}],"is_temporal":false,"author":{"url":"http://mashable.com/2011/03/19/top-100-cities/","metadata":"","contact_name":"","contact_address":"","source":"Mashable","contact_phone":""},"source":"http://mashable.com/2011/03/19/top-100-cities/","pagination":{"sort":null,"start":0,"total":100,"limit":1000000},"state":"complete","tags":"cities,social engagement","published":"2013-02-05T17:00:00Z","id":317824}