{"type":"FeatureCollection","data_type":"Dataset","url_type":null,"permissions":[{"permissions":{"download":true,"view":true},"group_id":"everyone"}],"classification":null,"title":"Gleaners Walmart locations","count":17,"stream_id":318480,"contributor":{"url":"http://geocommons.com/users/32393","name":"eoliver88"},"data_attributes":null,"calculation_params":null,"icon_link":null,"link":"http://geocommons.com/overlays/318480.json","extent":[-86.82,38.7042,-84.9023,40.0467],"geometry_types":["point"],"unique_name":null,"name":"Gleaners Walmart locations","feature_count":17,"description":"","next_feature":null,"is_raster":false,"short_classification":"Y","stats":{},"features":[{"properties":{"name":"Greencastle Walmart Supercenter Store #902","city":"Greencastle","zip":"46135","geo_score":1.0,"id":"ac1r0gs0ip3u","address":"1750 Indianapolis Road","geo_precision":"range","state":"IN"},"type":"Feature","geometry":{"type":"Point","coordinates":[-86.820036,39.646105]}},{"properties":{"name":"Lebanon Walmart Supercenter Store #1275","city":"Lebanon","zip":"46052","geo_score":0.607,"id":"ac1r0h3aed9b","address":"2440 N. Lebanon St.","geo_precision":"street","state":"IN"},"type":"Feature","geometry":{"type":"Point","coordinates":[-86.46922,40.04667]}},{"properties":{"name":"Columbus Walmart Supercenter Store #4216","city":"Columbus","zip":"47201","geo_score":0.625,"id":"ac1r0gtyztc8","address":"2025 Merchant Mile","geo_precision":"street","state":"IN"},"type":"Feature","geometry":{"type":"Point","coordinates":[-85.921977,39.202429]}},{"properties":{"name":"Columbus Walmart Supercenter Store #1371","city":"Columbus","zip":"47201","geo_score":0.488,"id":"ac1r0gzxoqsq","address":"735 Whitfield Drive","geo_precision":"street","state":"IN"},"type":"Feature","geometry":{"type":"Point","coordinates":[-85.91984,39.23768]}},{"properties":{"name":"Seymour Walmart Supercenter Store #1033","city":"Seymour","zip":"47274","geo_score":1.0,"id":"ac1r0gt4m8wp","address":"1600 East Tipton St.","geo_precision":"range","state":"IN"},"type":"Feature","geometry":{"type":"Point","coordinates":[-85.861543,38.958096]}},{"properties":{"name":"North Vernon Walmart Store #1157","city":"North Vernon","zip":"47265","geo_score":0.614,"id":"ac1r0gwto8z1","address":"2410 N. State Hwy 3","geo_precision":"street","state":"IN"},"type":"Feature","geometry":{"type":"Point","coordinates":[-85.628682,39.005244]}},{"properties":{"name":"Shelbyville Walmart Supercenter Store #884","city":"Shelbyville","zip":"46176","geo_score":0.715,"id":"ac1r0h46fokx","address":"2500 Progress Pkwy","geo_precision":"street","state":"IN"},"type":"Feature","geometry":{"type":"Point","coordinates":[-85.742623,39.520461]}},{"properties":{"name":"Franklin Walmart Supercenter Store #995","city":"Franklin","zip":"46131","geo_score":0.619,"id":"ac1r0gug47dp","address":"2125 N. Morton St.","geo_precision":"street","state":"IN"},"type":"Feature","geometry":{"type":"Point","coordinates":[-86.054085,39.48532]}},{"properties":{"name":"Greensburg Walmart Supercenter Store #1180","city":"Greensburg","zip":"47240","geo_score":0.871,"id":"ac1r0gt4mixn","address":"790 Greensburg Commons Ctr","geo_precision":"range","state":"IN"},"type":"Feature","geometry":{"type":"Point","coordinates":[-85.480848,39.358456]}},{"properties":{"name":"Rushville Walmart Store #1262","city":"Rushville","zip":"46173","geo_score":0.806,"id":"ac1r0gs5b9a5","address":"1850 North Main Street","geo_precision":"street","state":"IN"},"type":"Feature","geometry":{"type":"Point","coordinates":[-85.444886,39.628716]}},{"properties":{"name":"Connersville Walmart Supercenter Store #1729","city":"Connersville","zip":"47331","geo_score":1.0,"id":"ac1r0gqb2kjp","address":"4200 Western Avenue","geo_precision":"range","state":"IN"},"type":"Feature","geometry":{"type":"Point","coordinates":[-85.138432,39.680687]}},{"properties":{"name":"Richmond Walmart Supercenter Store #1745","city":"Richmond","zip":"47374","geo_score":0.619,"id":"ac1r0gxvid28","address":"3601 E. Main St.","geo_precision":"street","state":"IN"},"type":"Feature","geometry":{"type":"Point","coordinates":[-84.902339,39.829113]}},{"properties":{"name":"Greenfield Walmart Supercenter Store #1141","city":"Greenfield","zip":"46140","geo_score":0.614,"id":"ac1r0gqp5s20","address":"1965 N. State St.","geo_precision":"street","state":"IN"},"type":"Feature","geometry":{"type":"Point","coordinates":[-85.769387,39.786155]}},{"properties":{"name":"Martinsville Walmart Supercenter Store #1356","city":"Martinsville","zip":"46151","geo_score":0.828,"id":"ac1r0gyshw78","address":"410 Grand Valley Blvd.","geo_precision":"range","state":"IN"},"type":"Feature","geometry":{"type":"Point","coordinates":[-86.412824,39.431687]}},{"properties":{"name":"Madison Walmart Supercenter Store #1327","city":"Madison","zip":"47250","geo_score":1.0,"id":"ac1r0gpt3z6u","address":"567 Ivy Tech Dr.","geo_precision":"range","state":"IN"},"type":"Feature","geometry":{"type":"Point","coordinates":[-85.375798,38.782063]}},{"properties":{"name":"Scottsburg Walmart Supercenter","city":"Scottsburg","zip":"47170","geo_score":0.585,"id":"ac1r0gswg6e4","address":"1618 West McClain Avenue","geo_precision":"zip","state":"IN"},"type":"Feature","geometry":{"type":"Point","coordinates":[-85.95053,38.704224]}},{"properties":{"name":"Noblesville Walmart Supercenter Store #923","city":"Noblesville","zip":"46060","geo_score":0.902,"id":"ac1r0gv6bekq","address":"16865 Clover Rd.","geo_precision":"range","state":"IN"},"type":"Feature","geometry":{"type":"Point","coordinates":[-85.998061,40.037709]}}],"is_temporal":false,"author":{"url":"","metadata":"","contact_name":"","contact_address":"","source":"","contact_phone":""},"source":"","pagination":{"sort":null,"start":0,"total":17,"limit":1000000},"state":"complete","tags":"gfbeo","published":"2014-08-17T00:34:10-04:00","id":318480}