{"type":"FeatureCollection","data_type":"Dataset","url_type":null,"permissions":[{"permissions":{"download":true,"view":true},"group_id":48121},{"permissions":{"download":true,"view":true},"group_id":"everyone"}],"classification":null,"title":"Gleaners active pantries (non-Marion)","count":65,"stream_id":318788,"contributor":{"url":"http://geocommons.com/users/32393","name":"eoliver88"},"data_attributes":null,"calculation_params":null,"icon_link":null,"link":"http://geocommons.com/overlays/318788.json","extent":[-86.7929,38.7042,-84.8765,40.0857],"geometry_types":["point"],"unique_name":null,"name":"Gleaners active pantries (non-Marion)","feature_count":65,"description":"","next_feature":null,"is_raster":false,"short_classification":"Y","stats":{"2012 lbs":{"max":157419,"variance":1286126606.45529,"mean":35237.3692307692,"stdev":35862.6073571804,"min":317,"median":22030}},"features":[{"properties":{"name":"Berean Baptist Church","city":"Greenwood","zip":"46142","geo_score":0.598,"id":"ac2enyrlvhl4","address":"1191 W. County Line Rd.","geo_precision":"street","state":"IN","2012 lbs":46418},"type":"Feature","geometry":{"type":"Point","coordinates":[-85.967536,39.346939]}},{"properties":{"name":"First Church of the Nazarene Food Pantry","city":"Martinsville","zip":"46151","geo_score":0.732,"id":"ac2enyzijphd","address":"1609 John R. Wooden Drive","geo_precision":"street","state":"IN","2012 lbs":79901},"type":"Feature","geometry":{"type":"Point","coordinates":[-86.472243,39.543194]}},{"properties":{"name":"New Providence","city":"Greencastle","zip":"46135","geo_score":1.0,"id":"ac2enyzvepsi","address":"6526 South County Road 550 East","geo_precision":"range","state":"IN","2012 lbs":69226},"type":"Feature","geometry":{"type":"Point","coordinates":[-86.753277,39.565965]}},{"properties":{"name":"St. Mark's Episcopal Church","city":"Plainfield","zip":"46168","geo_score":0.932,"id":"ac2enz459lyl","address":"710 East Buchanan","geo_precision":"range","state":"IN","2012 lbs":670},"type":"Feature","geometry":{"type":"Point","coordinates":[-86.393159,39.702903]}},{"properties":{"name":"Hancock County Food Pantry","city":"Greenfield","zip":"46140","geo_score":0.707,"id":"ac2enytf563p","address":"741 1/2 South State Road 9","geo_precision":"range","state":"IN","2012 lbs":105442},"type":"Feature","geometry":{"type":"Point","coordinates":[-85.769314,39.785216]}},{"properties":{"name":"Our Lady of Greenwood","city":"Greenwood","zip":"46143","geo_score":1.0,"id":"ac2enz3qrz7x","address":"335 South Meridian St.","geo_precision":"range","state":"IN","2012 lbs":47941},"type":"Feature","geometry":{"type":"Point","coordinates":[-86.106224,39.6069]}},{"properties":{"name":"Zionsville Presbyterian Church","city":"Zionsville","zip":"46077","geo_score":0.805,"id":"ac2enysg54pe","address":"4775 West 116th St.","geo_precision":"street","state":"IN","2012 lbs":53209},"type":"Feature","geometry":{"type":"Point","coordinates":[-86.240961,39.955315]}},{"properties":{"name":"Churches in Mission","city":"Mooresville","zip":"46158","geo_score":1.0,"id":"ac2enytk9kd4","address":"27 South Indiana St.","geo_precision":"range","state":"IN","2012 lbs":14916},"type":"Feature","geometry":{"type":"Point","coordinates":[-86.374851,39.611863]}},{"properties":{"name":"The Caring Center","city":"Lebanon","zip":"46052","geo_score":0.988,"id":"ac2enyyet70s","address":"1230 Ransdell Court","geo_precision":"range","state":"IN","2012 lbs":19921},"type":"Feature","geometry":{"type":"Point","coordinates":[-86.481804,40.042777]}},{"properties":{"name":"Community Sharing Foundation","city":"Connersville","zip":"47331","geo_score":0.927,"id":"ac2enyuu7jol","address":"119 West 4th St.","geo_precision":"range","state":"IN","2012 lbs":12635},"type":"Feature","geometry":{"type":"Point","coordinates":[-85.140885,39.640613]}},{"properties":{"name":"Christian Community Co-Operative Closet","city":"Liberty","zip":"47353","geo_score":1.0,"id":"ac2enyvgis2l","address":"101 West Campbell St.","geo_precision":"range","state":"IN","2012 lbs":2586},"type":"Feature","geometry":{"type":"Point","coordinates":[-84.931823,39.63913]}},{"properties":{"name":"Temple of God Pantry","city":"Richmond","zip":"47374","geo_score":1.0,"id":"ac2enz3ye09d","address":"1005 Hunt St.","geo_precision":"range","state":"IN","2012 lbs":17047},"type":"Feature","geometry":{"type":"Point","coordinates":[-84.903555,39.83997]}},{"properties":{"name":"Interfaith Missions DBA Community Food Pantry","city":"Richmond","zip":"47374","geo_score":0.935,"id":"ac2enz0g9kj6","address":"306 North 19th St.","geo_precision":"range","state":"IN","2012 lbs":24147},"type":"Feature","geometry":{"type":"Point","coordinates":[-84.876499,39.834337]}},{"properties":{"name":"Brooklyn Christian Church","city":"Brooklyn","zip":"46111","geo_score":0.878,"id":"ac2enz16pg7n","address":"7 South Church St.","geo_precision":"range","state":"IN","2012 lbs":1204},"type":"Feature","geometry":{"type":"Point","coordinates":[-86.369229,39.537566]}},{"properties":{"name":"Community Service Center/Wellspring","city":"Martinsville","zip":"46151","geo_score":0.932,"id":"ac2enyubo78n","address":"301 West Harrison","geo_precision":"range","state":"IN","2012 lbs":974},"type":"Feature","geometry":{"type":"Point","coordinates":[-86.432909,39.429713]}},{"properties":{"name":"Morgantown Community Food Pantry","city":"Morgantown","zip":"46160","geo_score":1.0,"id":"ac2enyrm5h2u","address":"20 West Washington St.","geo_precision":"range","state":"IN","2012 lbs":3356},"type":"Feature","geometry":{"type":"Point","coordinates":[-86.262118,39.371255]}},{"properties":{"name":"Little Blue River Friends","city":"Morristown","zip":"46161","geo_score":0.707,"id":"ac2enyrgawy9","address":"122 South 1000 West","geo_precision":"street","state":"IN","2012 lbs":30912},"type":"Feature","geometry":{"type":"Point","coordinates":[-85.633063,39.705726]}},{"properties":{"name":"Jefferson Township Trustee","city":"Hagerstown","zip":"47346","geo_score":1.0,"id":"ac2enyr7ec81","address":"47 East Main St.","geo_precision":"range","state":"IN","2012 lbs":1086},"type":"Feature","geometry":{"type":"Point","coordinates":[-85.160842,39.910739]}},{"properties":{"name":"Birth to Five, Inc.","city":"Richmond","zip":"47374","geo_score":0.941,"id":"ac2enyxxshij","address":"498 NW 18th St.","geo_precision":"range","state":"IN","2012 lbs":639},"type":"Feature","geometry":{"type":"Point","coordinates":[-84.926916,39.835936]}},{"properties":{"name":"Scott County Clearinghouse","city":"Scottsburg","zip":"47170","geo_score":0.585,"id":"ac2enz1gqvmf","address":"1057 West Community Way","geo_precision":"zip","state":"IN","2012 lbs":45000},"type":"Feature","geometry":{"type":"Point","coordinates":[-85.95053,38.704224]}},{"properties":{"name":"Human Services, Inc.","city":"Columbus","zip":"47202","geo_score":0.77,"id":"ac2enz2l2aut","address":"1585 Indianapolis Rd.","geo_precision":"range","state":"IN","2012 lbs":3908},"type":"Feature","geometry":{"type":"Point","coordinates":[-85.930757,39.213083]}},{"properties":{"name":"Jennings County Coordinating Council","city":"North Vernon","zip":"47265","geo_score":1.0,"id":"ac2enyyda9lo","address":"201 Hoosier St.","geo_precision":"range","state":"IN","2012 lbs":8196},"type":"Feature","geometry":{"type":"Point","coordinates":[-85.628194,39.008026]}},{"properties":{"name":"Human Services, Inc. Jackson County","city":"Seymour","zip":"47274","geo_score":1.0,"id":"ac2enz4hsxnk","address":"1115 East Oak St.","geo_precision":"range","state":"IN","2012 lbs":317},"type":"Feature","geometry":{"type":"Point","coordinates":[-85.873652,38.953403]}},{"properties":{"name":"Light and Life Free Methodist","city":"Avon","zip":"46123","geo_score":0.463,"id":"ac2enyxvhjjh","address":"8264 East Co. Rd. 100 S.","geo_precision":"street","state":"IN","2012 lbs":16448},"type":"Feature","geometry":{"type":"Point","coordinates":[-85.606552,39.883886]}},{"properties":{"name":"Hanover United Methodist Church","city":"Hanover","zip":"47243","geo_score":1.0,"id":"ac2enz36crpn","address":"254 East LaGrange Road","geo_precision":"range","state":"IN","2012 lbs":19655},"type":"Feature","geometry":{"type":"Point","coordinates":[-85.471683,38.716733]}},{"properties":{"name":"Hanover Baptist Church","city":"Hanover","zip":"47243","geo_score":1.0,"id":"ac2enyo9om04","address":"151 West Main St.","geo_precision":"range","state":"IN","2012 lbs":14262},"type":"Feature","geometry":{"type":"Point","coordinates":[-85.475607,38.714259]}},{"properties":{"name":"Helping Hands Richmond","city":"Richmond","zip":"47374","geo_score":1.0,"id":"ac2enz043mjz","address":"808 Liberty Avenue","geo_precision":"range","state":"IN","2012 lbs":30449},"type":"Feature","geometry":{"type":"Point","coordinates":[-84.896923,39.817877]}},{"properties":{"name":"Vineyard Community Church","city":"Greenwood","zip":"46142","geo_score":1.0,"id":"ac2enz3saevi","address":"512 South Madison Avenue","geo_precision":"range","state":"IN","2012 lbs":129779},"type":"Feature","geometry":{"type":"Point","coordinates":[-86.10833,39.609649]}},{"properties":{"name":"Resurrection Lutheran Church","city":"Madison","zip":"47250","geo_score":1.0,"id":"ac2enywdds60","address":"1429 Clifty Dr.","geo_precision":"range","state":"IN","2012 lbs":2070},"type":"Feature","geometry":{"type":"Point","coordinates":[-85.415991,38.771778]}},{"properties":{"name":"Community Provisions of Jackson County, Inc.","city":"Seymour","zip":"47274","geo_score":1.0,"id":"ac2enz39ilri","address":"107 West Bruce St.","geo_precision":"range","state":"IN","2012 lbs":20038},"type":"Feature","geometry":{"type":"Point","coordinates":[-85.887452,38.956204]}},{"properties":{"name":"Anchor House","city":"Seymour","zip":"47274","geo_score":0.619,"id":"ac2enyp27cmr","address":"250 S. Vine St.","geo_precision":"street","state":"IN","2012 lbs":18133},"type":"Feature","geometry":{"type":"Point","coordinates":[-85.885044,38.960344]}},{"properties":{"name":"North Madison Christian Church","city":"Madison","zip":"47250","geo_score":0.955,"id":"ac2enyxhjsk3","address":"1400 East State Road 62","geo_precision":"range","state":"IN","2012 lbs":86943},"type":"Feature","geometry":{"type":"Point","coordinates":[-85.36834,38.787281]}},{"properties":{"name":"Batesville Pantry","city":"Batesville","zip":"47006","geo_score":1.0,"id":"ac2enz3xiy16","address":"120 Sycamore St.","geo_precision":"range","state":"IN","2012 lbs":26493},"type":"Feature","geometry":{"type":"Point","coordinates":[-85.222273,39.29741]}},{"properties":{"name":"Gateway Church","city":"Richmond","zip":"47374","geo_score":0.554,"id":"ac2enyzu5e1v","address":"3361 S.R. 227 N.","geo_precision":"street","state":"IN","2012 lbs":157419},"type":"Feature","geometry":{"type":"Point","coordinates":[-84.947738,39.808025]}},{"properties":{"name":"Interchurch Food Pantry","city":"Franklin","zip":"46131","geo_score":1.0,"id":"ac2enyzht9ax","address":"2900 Graham Rd.","geo_precision":"range","state":"IN","2012 lbs":19918},"type":"Feature","geometry":{"type":"Point","coordinates":[-86.057729,39.51586]}},{"properties":{"name":"First Baptist Church Centerville","city":"Centerville","zip":"47330","geo_score":1.0,"id":"ac2enz1y7ggh","address":"109 Mattie Harris Road","geo_precision":"range","state":"IN","2012 lbs":1645},"type":"Feature","geometry":{"type":"Point","coordinates":[-84.986306,39.818122]}},{"properties":{"name":"Hungry Hearts Mission","city":"Madison","zip":"47250","geo_score":1.0,"id":"ac2enz3smqvh","address":"1636 Clifty Drive","geo_precision":"range","state":"IN","2012 lbs":105867},"type":"Feature","geometry":{"type":"Point","coordinates":[-85.422399,38.771227]}},{"properties":{"name":"Good Samaritan Food Pantry","city":"North Vernon","zip":"47265","geo_score":0.514,"id":"ac2enyzi8191","address":"2250 N. State Rd. 7","geo_precision":"street","state":"IN","2012 lbs":113202},"type":"Feature","geometry":{"type":"Point","coordinates":[-85.625911,39.002936]}},{"properties":{"name":"Fishers United Methodist Church","city":"Fishers","zip":"46038","geo_score":0.806,"id":"ac2enysz8g3z","address":"9690 East 116th St.","geo_precision":"street","state":"IN","2012 lbs":36949},"type":"Feature","geometry":{"type":"Point","coordinates":[-85.999597,39.956982]}},{"properties":{"name":"Pentacostal Tabernacle","city":"Connersville","zip":"47331","geo_score":0.935,"id":"ac2enyxk6w03","address":"116 East 11th St.","geo_precision":"range","state":"IN","2012 lbs":37857},"type":"Feature","geometry":{"type":"Point","coordinates":[-85.13463,39.647179]}},{"properties":{"name":"Northside Christian Church","city":"Greenfield","zip":"46140","geo_score":1.0,"id":"ac2enyvjfvf8","address":"1304 Greenfield Dr.","geo_precision":"range","state":"IN","2012 lbs":2924},"type":"Feature","geometry":{"type":"Point","coordinates":[-85.776096,39.800806]}},{"properties":{"name":"Edinburgh Food Pantry","city":"Edinburgh","zip":"46124","geo_score":1.0,"id":"ac2enz0e8124","address":"106 South Holland St.","geo_precision":"range","state":"IN","2012 lbs":59157},"type":"Feature","geometry":{"type":"Point","coordinates":[-85.965494,39.354256]}},{"properties":{"name":"Sunman Food Pantry","city":"Sunman","zip":"47041","geo_score":0.359,"id":"ac2enypuywe2","address":"8917 East County Rd. 1300 N.","geo_precision":"street","state":"IN","2012 lbs":27714},"type":"Feature","geometry":{"type":"Point","coordinates":[-84.910737,39.407568]}},{"properties":{"name":"Shared Blessings Community Food Pantry","city":"Danville","zip":"46122","geo_score":1.0,"id":"ac2enyxzw9n2","address":"820 West Mill St.","geo_precision":"range","state":"IN","2012 lbs":13207},"type":"Feature","geometry":{"type":"Point","coordinates":[-86.53641,39.757046]}},{"properties":{"name":"The Journey Church","city":"Plainfield","zip":"46168","geo_score":1.0,"id":"ac2enyp21czt","address":"620 North Carr Road","geo_precision":"range","state":"IN","2012 lbs":46824},"type":"Feature","geometry":{"type":"Point","coordinates":[-86.390162,39.711903]}},{"properties":{"name":"Walls of Faith Mission","city":"Whiteland","zip":"46184","geo_score":0.861,"id":"ac2enyw2ps7h","address":"330 West Whiteland Road","geo_precision":"street","state":"IN","2012 lbs":77479},"type":"Feature","geometry":{"type":"Point","coordinates":[-86.083379,39.54998]}},{"properties":{"name":"Blue River Community Harvest Inc.","city":"Carthage","zip":"46115","geo_score":0.961,"id":"ac2enyurkckm","address":"9462 Carthage Pike","geo_precision":"range","state":"IN","2012 lbs":24676},"type":"Feature","geometry":{"type":"Point","coordinates":[-85.56625,39.748551]}},{"properties":{"name":"5 Loaves &amp; 2 Fish Food Pantry","city":"Lebanon","zip":"46052","geo_score":0.883,"id":"ac2enz30yy4k","address":"319 East South St.","geo_precision":"range","state":"IN","2012 lbs":30888},"type":"Feature","geometry":{"type":"Point","coordinates":[-86.46627,40.04667]}},{"properties":{"name":"Reach Ministries","city":"Cloverdale","zip":"46120","geo_score":0.955,"id":"ac2enz0xdnid","address":"14 Crosswinds Dr.","geo_precision":"range","state":"IN","2012 lbs":47921},"type":"Feature","geometry":{"type":"Point","coordinates":[-86.792914,39.521716]}},{"properties":{"name":"Ripley County Food Pantry Inc.","city":"Osgood","zip":"47037","geo_score":0.614,"id":"ac2enyobs1t8","address":"524 W. Beech Street","geo_precision":"street","state":"IN","2012 lbs":77219},"type":"Feature","geometry":{"type":"Point","coordinates":[-85.295769,39.131346]}},{"properties":{"name":"Northside Church of Christ","city":"Richmond","zip":"47374","geo_score":0.806,"id":"ac2enyrh7xn1","address":"1962 Chester Blvd.","geo_precision":"street","state":"IN","2012 lbs":35028},"type":"Feature","geometry":{"type":"Point","coordinates":[-84.888847,39.851555]}},{"properties":{"name":"Mt. Comfort Vineyard Food Pantry","city":"Greenfield","zip":"46140","geo_score":0.683,"id":"ac2enyrdyuki","address":"1672 N. 600 W.","geo_precision":"range","state":"IN","2012 lbs":63269},"type":"Feature","geometry":{"type":"Point","coordinates":[-85.790908,39.871739]}},{"properties":{"name":"Love in the Name of Christ","city":"Lebanon","zip":"46052","geo_score":1.0,"id":"ac2enz3ivxrt","address":"817 West Pearl St.","geo_precision":"range","state":"IN","2012 lbs":7999},"type":"Feature","geometry":{"type":"Point","coordinates":[-86.475474,40.045734]}},{"properties":{"name":"Shepherd's Shelves Food Pantry","city":"Pittsboro","zip":"46167","geo_score":0.614,"id":"ac2enz0hxaiy","address":"216 N. Maple St.","geo_precision":"street","state":"IN","2012 lbs":18043},"type":"Feature","geometry":{"type":"Point","coordinates":[-86.467061,39.863831]}},{"properties":{"name":"House of Refuge","city":"Sheridan","zip":"46069","geo_score":1.0,"id":"ac2enyt9a29s","address":"20854 Lamong Rd.","geo_precision":"range","state":"IN","2012 lbs":23937},"type":"Feature","geometry":{"type":"Point","coordinates":[-86.203515,40.085695]}},{"properties":{"name":"Loving Hands Food and Clothes Pantry","city":"Noblesville","zip":"46060","geo_score":0.935,"id":"ac2enz1cm7xd","address":"772 North 10th St.","geo_precision":"range","state":"IN","2012 lbs":13985},"type":"Feature","geometry":{"type":"Point","coordinates":[-86.012079,40.053399]}},{"properties":{"name":"Milan Community Emergency Relief","city":"Milan","zip":"47031","geo_score":0.571,"id":"ac2enyu7q600","address":"205 W. Carr St.","geo_precision":"street","state":"IN","2012 lbs":8590},"type":"Feature","geometry":{"type":"Point","coordinates":[-85.128048,39.121534]}},{"properties":{"name":"Our Shepherd Lutheran Church &amp; School","city":"Avon","zip":"46123","geo_score":0.359,"id":"ac2enz2uuvr8","address":"9201 E. County Rd. 100 North","geo_precision":"street","state":"IN","2012 lbs":22030},"type":"Feature","geometry":{"type":"Point","coordinates":[-86.108629,39.59538]}},{"properties":{"name":"Stilesville Christian Church","city":"Stilesville","zip":"46180","geo_score":0.808,"id":"ac2enyuvqabj","address":"8425 Morgan St.","geo_precision":"street","state":"IN","2012 lbs":67373},"type":"Feature","geometry":{"type":"Point","coordinates":[-86.631417,39.638107]}},{"properties":{"name":"St. Maria Goretti Catholic Church","city":"Westfield","zip":"46074","geo_score":1.0,"id":"ac2enyvvci1w","address":"17102 Spring Mill Rd.","geo_precision":"range","state":"IN","2012 lbs":18707},"type":"Feature","geometry":{"type":"Point","coordinates":[-86.164962,40.031943]}},{"properties":{"name":"Whitestone Christian Church","city":"Coatesville","zip":"46121","geo_score":1.0,"id":"ac2enyqslsb0","address":"8045 US Highway 36","geo_precision":"range","state":"IN","2012 lbs":36296},"type":"Feature","geometry":{"type":"Point","coordinates":[-86.672482,39.760699]}},{"properties":{"name":"Our Lady of Mt. Carmel Catholic Church","city":"Carmel","zip":"46032","geo_score":0.805,"id":"ac2enytxb8hz","address":"1045 West 146th St.","geo_precision":"street","state":"IN","2012 lbs":115020},"type":"Feature","geometry":{"type":"Point","coordinates":[-86.160393,39.999525]}},{"properties":{"name":"Saints Francis &amp; Clare Church","city":"Greenwood","zip":"46143","geo_score":0.805,"id":"ac2enyszti1s","address":"5901 Olive Branch Rd.","geo_precision":"street","state":"IN","2012 lbs":7679},"type":"Feature","geometry":{"type":"Point","coordinates":[-86.19704,39.591809]}},{"properties":{"name":"Carmel UMC Food Pantry","city":"Carmel","zip":"46032","geo_score":0.98,"id":"ac2enyxrx2um","address":"621 South Rangeline Rd.","geo_precision":"range","state":"IN","2012 lbs":11147},"type":"Feature","geometry":{"type":"Point","coordinates":[-86.126927,39.971077]}},{"properties":{"name":"Mill Creek Christian Support Center","city":"Clayton","zip":"46118","geo_score":0.585,"id":"ac2enyu9xkxs","address":"141 East Kentucky St.","geo_precision":"zip","state":"IN","2012 lbs":6539},"type":"Feature","geometry":{"type":"Point","coordinates":[-86.574167,39.688102]}}],"is_temporal":false,"author":{"url":"","metadata":"","contact_name":"","contact_address":"","source":"","contact_phone":""},"source":"","pagination":{"sort":null,"start":0,"total":65,"limit":1000000},"state":"complete","tags":"gfbeo","published":"2014-08-17T01:00:45-04:00","id":318788}