{"type":"FeatureCollection","data_type":"Dataset","url_type":null,"permissions":[{"permissions":{"download":true,"view":true},"group_id":"everyone"}],"classification":null,"title":"RERERRER","count":399,"stream_id":318958,"contributor":{"url":"http://geocommons.com/users/61249","name":"rubens"},"data_attributes":null,"calculation_params":null,"icon_link":null,"link":"http://geocommons.com/overlays/318958.json","extent":[-102.196,32.9239,-79.1767,45.8368],"geometry_types":["point"],"unique_name":null,"name":"RERERRER","feature_count":399,"description":"","next_feature":null,"is_raster":false,"short_classification":"Y","stats":{},"features":[{"properties":{"city":"RECIFE","geo_score":0.346,"id":"ac2hf0fpnyyy","address":"1TR BULHOES MARQUES 15","geo_precision":"street","state":"PE"},"type":"Feature","geometry":{"type":"Point","coordinates":[-102.196283,44.718874]}},{"properties":{"city":"RECIFE","geo_score":0.346,"id":"ac2hf0d7dgp3","address":"1TR BULHOES MARQUES 15","geo_precision":"street","state":"PE"},"type":"Feature","geometry":{"type":"Point","coordinates":[-102.196283,44.718874]}},{"properties":{"city":"RECIFE","geo_score":0.346,"id":"ac2hf0a0hess","address":"1TR BULHOES MARQUES 15","geo_precision":"street","state":"PE"},"type":"Feature","geometry":{"type":"Point","coordinates":[-102.196283,44.718874]}},{"properties":{"city":"RECIFE","geo_score":0.346,"id":"ac2hf08059as","address":"1TR BULHOES MARQUES 15","geo_precision":"street","state":"PE"},"type":"Feature","geometry":{"type":"Point","coordinates":[-102.196283,44.718874]}},{"properties":{"city":"RECIFE","geo_score":0.601,"id":"ac2hf0g2eihl","address":"AV AFONSO OLINDENSE 1376","geo_precision":"city","state":"PE"},"type":"Feature","geometry":{"type":"Point","coordinates":[-85.544131,34.885356]}},{"properties":{"city":"RECIFE","geo_score":0.602,"id":"ac2hf032fzg6","address":"AV AFONSO OLINDENSE 895","geo_precision":"city","state":"PE"},"type":"Feature","geometry":{"type":"Point","coordinates":[-85.544131,34.885356]}},{"properties":{"city":"RECIFE","geo_score":0.366,"id":"ac2hf0ckonkc","address":"AV ANTONIO DE GOES 570","geo_precision":"street","state":"PE"},"type":"Feature","geometry":{"type":"Point","coordinates":[-88.055973,45.836825]}},{"properties":{"city":"RECIFE","geo_score":0.366,"id":"ac2hf0f4nn3v","address":"AV ANTONIO DE GOES 570","geo_precision":"street","state":"PE"},"type":"Feature","geometry":{"type":"Point","coordinates":[-88.055973,45.836825]}},{"properties":{"city":"RECIFE","geo_score":0.366,"id":"ac2hf04fqmda","address":"AV ANTONIO DE GOES 570","geo_precision":"street","state":"PE"},"type":"Feature","geometry":{"type":"Point","coordinates":[-88.055973,45.836825]}},{"properties":{"city":"RECIFE","geo_score":0.358,"id":"ac2hf03py9n2","address":"AV BARAO DE BONITO 671","geo_precision":"street","state":"PE"},"type":"Feature","geometry":{"type":"Point","coordinates":[-91.731422,32.92389]}},{"properties":{"city":"RECIFE","geo_score":0.358,"id":"ac2hf0azdfkb","address":"AV BARAO DE BONITO 515","geo_precision":"street","state":"PE"},"type":"Feature","geometry":{"type":"Point","coordinates":[-91.731422,32.92389]}},{"properties":{"city":"RECIFE","geo_score":0.358,"id":"ac2hf0gfg71k","address":"AV BARAO DE BONITO 671","geo_precision":"street","state":"PE"},"type":"Feature","geometry":{"type":"Point","coordinates":[-91.731422,32.92389]}},{"properties":{"city":"RECIFE","geo_score":0.358,"id":"ac2hf0aeene9","address":"AV BARAO DE BONITO 671","geo_precision":"street","state":"PE"},"type":"Feature","geometry":{"type":"Point","coordinates":[-91.731422,32.92389]}},{"properties":{"city":"RECIFE","geo_score":0.0,"id":"ac2hf06898jx","address":"AV BEBERIBE 3530","geo_precision":"unmatched","state":"PE"},"type":"Feature","geometry":null},{"properties":{"city":"RECIFE","geo_score":0.0,"id":"ac2hf0dhf31q","address":"AV BEBERIBE 2395","geo_precision":"unmatched","state":"PE"},"type":"Feature","geometry":null},{"properties":{"city":"RECIFE","geo_score":0.0,"id":"ac2hf074jraq","address":"AV BEBERIBE 3530","geo_precision":"unmatched","state":"PE"},"type":"Feature","geometry":null},{"properties":{"city":"RECIFE","geo_score":0.0,"id":"ac2hf0eihunu","address":"AV BEBERIBE 875","geo_precision":"unmatched","state":"PE"},"type":"Feature","geometry":null},{"properties":{"city":"RECIFE","geo_score":0.0,"id":"ac2hf0cpatt2","address":"AV BEBERIBE 3530","geo_precision":"unmatched","state":"PE"},"type":"Feature","geometry":null},{"properties":{"city":"RECIFE","geo_score":0.0,"id":"ac2hf0awjsqp","address":"AV BEBERIBE 2395","geo_precision":"unmatched","state":"PE"},"type":"Feature","geometry":null},{"properties":{"city":"RECIFE","geo_score":0.0,"id":"ac2hf0aifscw","address":"AV BEBERIBE 3785","geo_precision":"unmatched","state":"PE"},"type":"Feature","geometry":null},{"properties":{"city":"RECIFE","geo_score":0.0,"id":"ac2hf061g6s6","address":"AV BEBERIBE 3530","geo_precision":"unmatched","state":"PE"},"type":"Feature","geometry":null},{"properties":{"city":"RECIFE","geo_score":0.0,"id":"ac2hf02aorah","address":"AV BEBERIBE 2395","geo_precision":"unmatched","state":"PE"},"type":"Feature","geometry":null},{"properties":{"city":"RECIFE","geo_score":0.0,"id":"ac2hf095fcy5","address":"AV BEBERIBE 2395","geo_precision":"unmatched","state":"PE"},"type":"Feature","geometry":null},{"properties":{"city":"RECIFE","geo_score":0.0,"id":"ac2hf0f7vxet","address":"AV BEBERIBE 2395","geo_precision":"unmatched","state":"PE"},"type":"Feature","geometry":null},{"properties":{"city":"RECIFE","geo_score":0.0,"id":"ac2hf0416sgy","address":"AV BEBERIBE 2530","geo_precision":"unmatched","state":"PE"},"type":"Feature","geometry":null},{"properties":{"city":"RECIFE","geo_score":0.0,"id":"ac2hf05zjgok","address":"AV BEBERIBE 3530","geo_precision":"unmatched","state":"PE"},"type":"Feature","geometry":null},{"properties":{"city":"RECIFE","geo_score":0.0,"id":"ac2hf07y1a1l","address":"AV BEBERIBE 2395","geo_precision":"unmatched","state":"PE"},"type":"Feature","geometry":null},{"properties":{"city":"RECIFE","geo_score":0.0,"id":"ac2hf01e4kks","address":"AV BEBERIBE 3530","geo_precision":"unmatched","state":"PE"},"type":"Feature","geometry":null},{"properties":{"city":"RECIFE","geo_score":0.0,"id":"ac2hf02wa31x","address":"AV BEBERIBE 3530","geo_precision":"unmatched","state":"PE"},"type":"Feature","geometry":null},{"properties":{"city":"RECIFE","geo_score":0.0,"id":"ac2hf02sdvqk","address":"AV BEBERIBE 3785","geo_precision":"unmatched","state":"PE"},"type":"Feature","geometry":null},{"properties":{"city":"RECIFE","geo_score":0.0,"id":"ac2hf077fa4d","address":"AV BEBERIBE 2395","geo_precision":"unmatched","state":"PE"},"type":"Feature","geometry":null},{"properties":{"city":"RECIFE","geo_score":0.0,"id":"ac2hf086a9k4","address":"AV BEBERIBE 875","geo_precision":"unmatched","state":"PE"},"type":"Feature","geometry":null},{"properties":{"city":"RECIFE","geo_score":0.0,"id":"ac2hf01ll71x","address":"AV BEBERIBE 3530","geo_precision":"unmatched","state":"PE"},"type":"Feature","geometry":null},{"properties":{"city":"RECIFE","geo_score":0.0,"id":"ac2hf0h70gmw","address":"AV BEBERIBE 2395","geo_precision":"unmatched","state":"PE"},"type":"Feature","geometry":null},{"properties":{"city":"RECIFE","geo_score":0.0,"id":"ac2hf020l190","address":"AV BEBERIBE 2395","geo_precision":"unmatched","state":"PE"},"type":"Feature","geometry":null},{"properties":{"city":"RECIFE","geo_score":0.0,"id":"ac2hf08nk8bj","address":"AV BEBERIBE 875","geo_precision":"unmatched","state":"PE"},"type":"Feature","geometry":null},{"properties":{"city":"RECIFE","geo_score":0.0,"id":"ac2hf0f5gc9j","address":"AV BEBERIBE 3530","geo_precision":"unmatched","state":"PE"},"type":"Feature","geometry":null},{"properties":{"city":"RECIFE","geo_score":0.0,"id":"ac2hf0d5fkwu","address":"AV BEBERIBE 875","geo_precision":"unmatched","state":"PE"},"type":"Feature","geometry":null},{"properties":{"city":"RECIFE","geo_score":0.0,"id":"ac2hf08ss3t3","address":"AV BEBERIBE 2395","geo_precision":"unmatched","state":"PE"},"type":"Feature","geometry":null},{"properties":{"city":"RECIFE","geo_score":0.0,"id":"ac2hf0alfoa5","address":"AV BEBERIBE 2395","geo_precision":"unmatched","state":"PE"},"type":"Feature","geometry":null},{"properties":{"city":"RECIFE","geo_score":0.0,"id":"ac2hf05w5gtq","address":"AV BEBERIBE 3530","geo_precision":"unmatched","state":"PE"},"type":"Feature","geometry":null},{"properties":{"city":"RECIFE","geo_score":0.0,"id":"ac2hf01yzho4","address":"AV BEBERIBE 2395","geo_precision":"unmatched","state":"PE"},"type":"Feature","geometry":null},{"properties":{"city":"RECIFE","geo_score":0.0,"id":"ac2hf04mcrv0","address":"AV BEBERIBE 2395","geo_precision":"unmatched","state":"PE"},"type":"Feature","geometry":null},{"properties":{"city":"RECIFE","geo_score":0.0,"id":"ac2hf0d8b6vv","address":"AV BEBERIBE 3530","geo_precision":"unmatched","state":"PE"},"type":"Feature","geometry":null},{"properties":{"city":"RECIFE","geo_score":0.0,"id":"ac2hf0dxv5zg","address":"AV BEBERIBE 3530","geo_precision":"unmatched","state":"PE"},"type":"Feature","geometry":null},{"properties":{"city":"RECIFE","geo_score":0.0,"id":"ac2hf093g6t5","address":"AV BEBERIBE 3785","geo_precision":"unmatched","state":"PE"},"type":"Feature","geometry":null},{"properties":{"city":"RECIFE","geo_score":0.0,"id":"ac2hf06mhov8","address":"AV BEBERIBE 3530","geo_precision":"unmatched","state":"PE"},"type":"Feature","geometry":null},{"properties":{"city":"RECIFE","geo_score":0.0,"id":"ac2hf06t6urn","address":"AV BEBERIBE 3530","geo_precision":"unmatched","state":"PE"},"type":"Feature","geometry":null},{"properties":{"city":"RECIFE","geo_score":0.0,"id":"ac2hf0dgo7p9","address":"AV BEBERIBE 2395","geo_precision":"unmatched","state":"PE"},"type":"Feature","geometry":null},{"properties":{"city":"RECIFE","geo_score":0.0,"id":"ac2hf0c3u712","address":"AV BEBERIBE 2395","geo_precision":"unmatched","state":"PE"},"type":"Feature","geometry":null},{"properties":{"city":"RECIFE","geo_score":0.0,"id":"ac2hf05v3pz0","address":"AV BEBERIBE 3785","geo_precision":"unmatched","state":"PE"},"type":"Feature","geometry":null},{"properties":{"city":"RECIFE","geo_score":0.0,"id":"ac2hf091p1f1","address":"AV BEBERIBE 3530","geo_precision":"unmatched","state":"PE"},"type":"Feature","geometry":null},{"properties":{"city":"RECIFE","geo_score":0.0,"id":"ac2hf0eqvvhu","address":"AV BEBERIBE 3785","geo_precision":"unmatched","state":"PE"},"type":"Feature","geometry":null},{"properties":{"city":"RECIFE","geo_score":0.33,"id":"ac2hf06ipk2i","address":"AV BEIRA RIO 1035","geo_precision":"street","state":"PE"},"type":"Feature","geometry":{"type":"Point","coordinates":[-89.23656,43.449389]}},{"properties":{"city":"RECIFE","geo_score":0.339,"id":"ac2hf08o1jf7","address":"AV BEIRA RIO 590","geo_precision":"street","state":"PE"},"type":"Feature","geometry":{"type":"Point","coordinates":[-89.23656,43.449389]}},{"properties":{"city":"RECIFE","geo_score":0.339,"id":"ac2hf0hbqln5","address":"AV BEIRA RIO 590","geo_precision":"street","state":"PE"},"type":"Feature","geometry":{"type":"Point","coordinates":[-89.23656,43.449389]}},{"properties":{"city":"RECIFE","geo_score":0.339,"id":"ac2hf0bai7fp","address":"AV BEIRA RIO 771","geo_precision":"street","state":"PE"},"type":"Feature","geometry":{"type":"Point","coordinates":[-89.23656,43.449389]}},{"properties":{"city":"RECIFE","geo_score":0.339,"id":"ac2hf03uqanq","address":"AV BEIRA RIO 855","geo_precision":"street","state":"PE"},"type":"Feature","geometry":{"type":"Point","coordinates":[-89.23656,43.449389]}},{"properties":{"city":"RECIFE","geo_score":0.339,"id":"ac2hf0b7y5r5","address":"AV BEIRA RIO 360","geo_precision":"street","state":"PE"},"type":"Feature","geometry":{"type":"Point","coordinates":[-89.23656,43.449389]}},{"properties":{"city":"RECIFE","geo_score":0.351,"id":"ac2hf0eqwuyv","address":"AV BEIRA RIO 330","geo_precision":"street","state":"PE"},"type":"Feature","geometry":{"type":"Point","coordinates":[-84.486333,38.547053]}},{"properties":{"city":"RECIFE","geo_score":0.33,"id":"ac2hf018t0sj","address":"AV BEIRA RIO 1091","geo_precision":"street","state":"PE"},"type":"Feature","geometry":{"type":"Point","coordinates":[-89.23656,43.449389]}},{"properties":{"city":"RECIFE","geo_score":0.339,"id":"ac2hf0bjs4yj","address":"AV BEIRA RIO 230","geo_precision":"street","state":"PE"},"type":"Feature","geometry":{"type":"Point","coordinates":[-89.23656,43.449389]}},{"properties":{"city":"RECIFE","geo_score":0.339,"id":"ac2hf06xmny7","address":"AV BEIRA RIO 879","geo_precision":"street","state":"PE"},"type":"Feature","geometry":{"type":"Point","coordinates":[-89.23656,43.449389]}},{"properties":{"city":"RECIFE","geo_score":0.339,"id":"ac2hf06hjdwc","address":"AV BEIRA RIO 590","geo_precision":"street","state":"PE"},"type":"Feature","geometry":{"type":"Point","coordinates":[-89.23656,43.449389]}},{"properties":{"city":"RECIFE","geo_score":0.33,"id":"ac2hf04g0pi9","address":"AV BEIRA RIO 1219","geo_precision":"street","state":"PE"},"type":"Feature","geometry":{"type":"Point","coordinates":[-89.23656,43.449389]}},{"properties":{"city":"RECIFE","geo_score":0.339,"id":"ac2hf01s3yq2","address":"AV BEIRA RIO 825","geo_precision":"street","state":"PE"},"type":"Feature","geometry":{"type":"Point","coordinates":[-89.23656,43.449389]}},{"properties":{"city":"RECIFE","geo_score":0.33,"id":"ac2hf0gdbw0q","address":"AV BEIRA RIO 1059","geo_precision":"street","state":"PE"},"type":"Feature","geometry":{"type":"Point","coordinates":[-89.23656,43.449389]}},{"properties":{"city":"RECIFE","geo_score":0.339,"id":"ac2hf0av93r0","address":"AV BEIRA RIO 879","geo_precision":"street","state":"PE"},"type":"Feature","geometry":{"type":"Point","coordinates":[-89.23656,43.449389]}},{"properties":{"city":"RECIFE","geo_score":0.339,"id":"ac2hf0gng6c5","address":"AV BEIRA RIO 360","geo_precision":"street","state":"PE"},"type":"Feature","geometry":{"type":"Point","coordinates":[-89.23656,43.449389]}},{"properties":{"city":"RECIFE","geo_score":0.33,"id":"ac2hf0du7hyo","address":"AV BEIRA RIO 1219","geo_precision":"street","state":"PE"},"type":"Feature","geometry":{"type":"Point","coordinates":[-89.23656,43.449389]}},{"properties":{"city":"RECIFE","geo_score":0.339,"id":"ac2hf07hro7b","address":"AV BEIRA RIO 360","geo_precision":"street","state":"PE"},"type":"Feature","geometry":{"type":"Point","coordinates":[-89.23656,43.449389]}},{"properties":{"city":"RECIFE","geo_score":0.33,"id":"ac2hf0ey0i5g","address":"AV BEIRA RIO 1041","geo_precision":"street","state":"PE"},"type":"Feature","geometry":{"type":"Point","coordinates":[-89.23656,43.449389]}},{"properties":{"city":"RECIFE","geo_score":0.339,"id":"ac2hf0ay7xwa","address":"AV BEIRA RIO 825","geo_precision":"street","state":"PE"},"type":"Feature","geometry":{"type":"Point","coordinates":[-89.23656,43.449389]}},{"properties":{"city":"RECIFE","geo_score":0.339,"id":"ac2hf03a8rhl","address":"AV BEIRA RIO 591","geo_precision":"street","state":"PE"},"type":"Feature","geometry":{"type":"Point","coordinates":[-89.23656,43.449389]}},{"properties":{"city":"RECIFE","geo_score":0.33,"id":"ac2hf010ei7p","address":"AV BEIRA RIO 1041","geo_precision":"street","state":"PE"},"type":"Feature","geometry":{"type":"Point","coordinates":[-89.23656,43.449389]}},{"properties":{"city":"RECIFE","geo_score":0.339,"id":"ac2hf08gq4ot","address":"AV BEIRA RIO 771","geo_precision":"street","state":"PE"},"type":"Feature","geometry":{"type":"Point","coordinates":[-89.23656,43.449389]}},{"properties":{"city":"RECIFE","geo_score":0.339,"id":"ac2hf01ewzux","address":"AV BEIRA RIO 360","geo_precision":"street","state":"PE"},"type":"Feature","geometry":{"type":"Point","coordinates":[-89.23656,43.449389]}},{"properties":{"city":"RECIFE","geo_score":0.339,"id":"ac2hf09p5je3","address":"AV BEIRA RIO 590","geo_precision":"street","state":"PE"},"type":"Feature","geometry":{"type":"Point","coordinates":[-89.23656,43.449389]}},{"properties":{"city":"RECIFE","geo_score":0.33,"id":"ac2hf03wzdqt","address":"AV BEIRA RIO 1041","geo_precision":"street","state":"PE"},"type":"Feature","geometry":{"type":"Point","coordinates":[-89.23656,43.449389]}},{"properties":{"city":"RECIFE","geo_score":0.339,"id":"ac2hf08xg02o","address":"AV BEIRA RIO 701","geo_precision":"street","state":"PE"},"type":"Feature","geometry":{"type":"Point","coordinates":[-89.23656,43.449389]}},{"properties":{"city":"RECIFE","geo_score":0.339,"id":"ac2hf0bppzhu","address":"AV BEIRA RIO 360","geo_precision":"street","state":"PE"},"type":"Feature","geometry":{"type":"Point","coordinates":[-89.23656,43.449389]}},{"properties":{"city":"RECIFE","geo_score":0.339,"id":"ac2hf088ybu3","address":"AV BEIRA RIO 591","geo_precision":"street","state":"PE"},"type":"Feature","geometry":{"type":"Point","coordinates":[-89.23656,43.449389]}},{"properties":{"city":"RECIFE","geo_score":0.339,"id":"ac2hf0f7f8ls","address":"AV BEIRA RIO 294","geo_precision":"street","state":"PE"},"type":"Feature","geometry":{"type":"Point","coordinates":[-89.23656,43.449389]}},{"properties":{"city":"RECIFE","geo_score":0.339,"id":"ac2hf06r0huo","address":"AV BEIRA RIO 360","geo_precision":"street","state":"PE"},"type":"Feature","geometry":{"type":"Point","coordinates":[-89.23656,43.449389]}},{"properties":{"city":"RECIFE","geo_score":0.339,"id":"ac2hf0boqp5m","address":"AV BEIRA RIO 590","geo_precision":"street","state":"PE"},"type":"Feature","geometry":{"type":"Point","coordinates":[-89.23656,43.449389]}},{"properties":{"city":"RECIFE","geo_score":0.33,"id":"ac2hf00vzqpl","address":"AV BEIRA RIO 1059","geo_precision":"street","state":"PE"},"type":"Feature","geometry":{"type":"Point","coordinates":[-89.23656,43.449389]}},{"properties":{"city":"RECIFE","geo_score":0.35,"id":"ac2hf0gtyvwx","address":"AV BEIRA RIO 55","geo_precision":"street","state":"PE"},"type":"Feature","geometry":{"type":"Point","coordinates":[-89.23656,43.449389]}},{"properties":{"city":"RECIFE","geo_score":0.339,"id":"ac2hf05dr3eh","address":"AV BEIRA RIO 360","geo_precision":"street","state":"PE"},"type":"Feature","geometry":{"type":"Point","coordinates":[-89.23656,43.449389]}},{"properties":{"city":"RECIFE","geo_score":0.351,"id":"ac2hf09l6sm6","address":"AV BEIRA RIO 330","geo_precision":"street","state":"PE"},"type":"Feature","geometry":{"type":"Point","coordinates":[-84.486333,38.547053]}},{"properties":{"city":"RECIFE","geo_score":0.271,"id":"ac2hf01ln5p0","address":"AV BOA VIAGEM 6396","geo_precision":"street","state":"PE"},"type":"Feature","geometry":{"type":"Point","coordinates":[-79.200066,34.80449]}},{"properties":{"city":"RECIFE","geo_score":0.277,"id":"ac2hf0co2au8","address":"AV BOA VIAGEM 420","geo_precision":"street","state":"PE"},"type":"Feature","geometry":{"type":"Point","coordinates":[-79.200066,34.80449]}},{"properties":{"city":"RECIFE","geo_score":0.271,"id":"ac2hf0dpn6wl","address":"AV BOA VIAGEM 5110","geo_precision":"street","state":"PE"},"type":"Feature","geometry":{"type":"Point","coordinates":[-79.200066,34.80449]}},{"properties":{"city":"RECIFE","geo_score":0.277,"id":"ac2hf06l1usw","address":"AV BOA VIAGEM 420","geo_precision":"street","state":"PE"},"type":"Feature","geometry":{"type":"Point","coordinates":[-79.200066,34.80449]}},{"properties":{"city":"RECIFE","geo_score":0.271,"id":"ac2hf092o1fk","address":"AV BOA VIAGEM 6396","geo_precision":"street","state":"PE"},"type":"Feature","geometry":{"type":"Point","coordinates":[-79.200066,34.80449]}},{"properties":{"city":"RECIFE","geo_score":0.277,"id":"ac2hf0dpt2e5","address":"AV BOA VIAGEM 420","geo_precision":"street","state":"PE"},"type":"Feature","geometry":{"type":"Point","coordinates":[-79.200066,34.80449]}},{"properties":{"city":"RECIFE","geo_score":0.271,"id":"ac2hf07xkejd","address":"AV BOA VIAGEM 2804","geo_precision":"street","state":"PE"},"type":"Feature","geometry":{"type":"Point","coordinates":[-79.200066,34.80449]}},{"properties":{"city":"RECIFE","geo_score":0.277,"id":"ac2hf01vid8b","address":"AV BOA VIAGEM 110","geo_precision":"street","state":"PE"},"type":"Feature","geometry":{"type":"Point","coordinates":[-79.200066,34.80449]}},{"properties":{"city":"RECIFE","geo_score":0.271,"id":"ac2hf0ek85jb","address":"AV BOA VIAGEM 6396","geo_precision":"street","state":"PE"},"type":"Feature","geometry":{"type":"Point","coordinates":[-79.200066,34.80449]}},{"properties":{"city":"RECIFE","geo_score":0.277,"id":"ac2hf08w3gjc","address":"AV BOA VIAGEM 420","geo_precision":"street","state":"PE"},"type":"Feature","geometry":{"type":"Point","coordinates":[-79.200066,34.80449]}},{"properties":{"city":"RECIFE","geo_score":0.277,"id":"ac2hf09e9qwk","address":"AV BOA VIAGEM 420","geo_precision":"street","state":"PE"},"type":"Feature","geometry":{"type":"Point","coordinates":[-79.200066,34.80449]}},{"properties":{"city":"RECIFE","geo_score":0.271,"id":"ac2hf0gk97ut","address":"AV BOA VIAGEM 5526","geo_precision":"street","state":"PE"},"type":"Feature","geometry":{"type":"Point","coordinates":[-79.200066,34.80449]}},{"properties":{"city":"RECIFE","geo_score":0.271,"id":"ac2hf01yl3qp","address":"AV BOA VIAGEM 3040","geo_precision":"street","state":"PE"},"type":"Feature","geometry":{"type":"Point","coordinates":[-79.200066,34.80449]}},{"properties":{"city":"RECIFE","geo_score":0.277,"id":"ac2hf02quv92","address":"AV BOA VIAGEM 420","geo_precision":"street","state":"PE"},"type":"Feature","geometry":{"type":"Point","coordinates":[-79.200066,34.80449]}},{"properties":{"city":"RECIFE","geo_score":0.277,"id":"ac2hf087ddej","address":"AV BOA VIAGEM 420","geo_precision":"street","state":"PE"},"type":"Feature","geometry":{"type":"Point","coordinates":[-79.200066,34.80449]}},{"properties":{"city":"RECIFE","geo_score":0.277,"id":"ac2hf0dfwq7n","address":"AV BOA VIAGEM 420","geo_precision":"street","state":"PE"},"type":"Feature","geometry":{"type":"Point","coordinates":[-79.200066,34.80449]}},{"properties":{"city":"RECIFE","geo_score":0.271,"id":"ac2hf01kvjcm","address":"AV BOA VIAGEM 1824","geo_precision":"street","state":"PE"},"type":"Feature","geometry":{"type":"Point","coordinates":[-79.200066,34.80449]}},{"properties":{"city":"RECIFE","geo_score":0.277,"id":"ac2hf0a3wh73","address":"AV BOA VIAGEM 420","geo_precision":"street","state":"PE"},"type":"Feature","geometry":{"type":"Point","coordinates":[-79.200066,34.80449]}},{"properties":{"city":"RECIFE","geo_score":0.271,"id":"ac2hf01c3jv3","address":"AV BOA VIAGEM 1020","geo_precision":"street","state":"PE"},"type":"Feature","geometry":{"type":"Point","coordinates":[-79.200066,34.80449]}},{"properties":{"city":"RECIFE","geo_score":0.277,"id":"ac2hf0fb6zbd","address":"AV BOA VIAGEM 420","geo_precision":"street","state":"PE"},"type":"Feature","geometry":{"type":"Point","coordinates":[-79.200066,34.80449]}},{"properties":{"city":"RECIFE","geo_score":0.271,"id":"ac2hf01zd5wb","address":"AV BOA VIAGEM 4520","geo_precision":"street","state":"PE"},"type":"Feature","geometry":{"type":"Point","coordinates":[-79.200066,34.80449]}},{"properties":{"city":"RECIFE","geo_score":0.271,"id":"ac2hf0bcvt3z","address":"AV BOA VIAGEM 3984","geo_precision":"street","state":"PE"},"type":"Feature","geometry":{"type":"Point","coordinates":[-79.200066,34.80449]}},{"properties":{"city":"RECIFE","geo_score":0.271,"id":"ac2hf0gsx7pr","address":"AV BOA VIAGEM 2820","geo_precision":"street","state":"PE"},"type":"Feature","geometry":{"type":"Point","coordinates":[-79.200066,34.80449]}},{"properties":{"city":"RECIFE","geo_score":0.271,"id":"ac2hf03freqz","address":"AV BOA VIAGEM 6274","geo_precision":"street","state":"PE"},"type":"Feature","geometry":{"type":"Point","coordinates":[-79.200066,34.80449]}},{"properties":{"city":"RECIFE","geo_score":0.271,"id":"ac2hf0cnfjfc","address":"AV BOA VIAGEM 4520","geo_precision":"street","state":"PE"},"type":"Feature","geometry":{"type":"Point","coordinates":[-79.200066,34.80449]}},{"properties":{"city":"RECIFE","geo_score":0.277,"id":"ac2hf08oxs6n","address":"AV BOA VIAGEM 420","geo_precision":"street","state":"PE"},"type":"Feature","geometry":{"type":"Point","coordinates":[-79.200066,34.80449]}},{"properties":{"city":"RECIFE","geo_score":0.277,"id":"ac2hf04jqa7b","address":"AV BOA VIAGEM 420","geo_precision":"street","state":"PE"},"type":"Feature","geometry":{"type":"Point","coordinates":[-79.200066,34.80449]}},{"properties":{"city":"RECIFE","geo_score":0.277,"id":"ac2hf04ekkta","address":"AV BOA VIAGEM 420","geo_precision":"street","state":"PE"},"type":"Feature","geometry":{"type":"Point","coordinates":[-79.200066,34.80449]}},{"properties":{"city":"RECIFE","geo_score":0.271,"id":"ac2hf087j9wn","address":"AV BOA VIAGEM 6274","geo_precision":"street","state":"PE"},"type":"Feature","geometry":{"type":"Point","coordinates":[-79.200066,34.80449]}},{"properties":{"city":"RECIFE","geo_score":0.271,"id":"ac2hf01c90sv","address":"AV BOA VIAGEM 6166","geo_precision":"street","state":"PE"},"type":"Feature","geometry":{"type":"Point","coordinates":[-79.200066,34.80449]}},{"properties":{"city":"RECIFE","geo_score":0.271,"id":"ac2hf09fng3n","address":"AV BOA VIAGEM 2876","geo_precision":"street","state":"PE"},"type":"Feature","geometry":{"type":"Point","coordinates":[-79.200066,34.80449]}},{"properties":{"city":"RECIFE","geo_score":0.271,"id":"ac2hf040diii","address":"AV BOA VIAGEM 4470","geo_precision":"street","state":"PE"},"type":"Feature","geometry":{"type":"Point","coordinates":[-79.200066,34.80449]}},{"properties":{"city":"RECIFE","geo_score":0.271,"id":"ac2hf0c1u4m7","address":"AV BOA VIAGEM 1642","geo_precision":"street","state":"PE"},"type":"Feature","geometry":{"type":"Point","coordinates":[-79.200066,34.80449]}},{"properties":{"city":"RECIFE","geo_score":0.271,"id":"ac2hf06djgju","address":"AV BOA VIAGEM 6500","geo_precision":"street","state":"PE"},"type":"Feature","geometry":{"type":"Point","coordinates":[-79.200066,34.80449]}},{"properties":{"city":"RECIFE","geo_score":0.271,"id":"ac2hf04mf3ct","address":"AV BOA VIAGEM 5366","geo_precision":"street","state":"PE"},"type":"Feature","geometry":{"type":"Point","coordinates":[-79.200066,34.80449]}},{"properties":{"city":"RECIFE","geo_score":0.277,"id":"ac2hf0feuo5q","address":"AV BOA VIAGEM 420","geo_precision":"street","state":"PE"},"type":"Feature","geometry":{"type":"Point","coordinates":[-79.200066,34.80449]}},{"properties":{"city":"RECIFE","geo_score":0.277,"id":"ac2hf0dejypz","address":"AV BOA VIAGEM 420","geo_precision":"street","state":"PE"},"type":"Feature","geometry":{"type":"Point","coordinates":[-79.200066,34.80449]}},{"properties":{"city":"RECIFE","geo_score":0.271,"id":"ac2hf0g94f8b","address":"AV BOA VIAGEM 3376","geo_precision":"street","state":"PE"},"type":"Feature","geometry":{"type":"Point","coordinates":[-79.200066,34.80449]}},{"properties":{"city":"RECIFE","geo_score":0.271,"id":"ac2hf0dufodq","address":"AV BOA VIAGEM 1734","geo_precision":"street","state":"PE"},"type":"Feature","geometry":{"type":"Point","coordinates":[-79.200066,34.80449]}},{"properties":{"city":"RECIFE","geo_score":0.277,"id":"ac2hf061jcq6","address":"AV BOA VIAGEM 998","geo_precision":"street","state":"PE"},"type":"Feature","geometry":{"type":"Point","coordinates":[-79.200066,34.80449]}},{"properties":{"city":"RECIFE","geo_score":0.277,"id":"ac2hf0fge33w","address":"AV BOA VIAGEM 420","geo_precision":"street","state":"PE"},"type":"Feature","geometry":{"type":"Point","coordinates":[-79.200066,34.80449]}},{"properties":{"city":"RECIFE","geo_score":0.277,"id":"ac2hf0f9do5e","address":"AV BOA VIAGEM 420","geo_precision":"street","state":"PE"},"type":"Feature","geometry":{"type":"Point","coordinates":[-79.200066,34.80449]}},{"properties":{"city":"RECIFE","geo_score":0.277,"id":"ac2hf0ep9arw","address":"AV BOA VIAGEM 420","geo_precision":"street","state":"PE"},"type":"Feature","geometry":{"type":"Point","coordinates":[-79.200066,34.80449]}},{"properties":{"city":"RECIFE","geo_score":0.277,"id":"ac2hf04gbszj","address":"AV BOA VIAGEM 420","geo_precision":"street","state":"PE"},"type":"Feature","geometry":{"type":"Point","coordinates":[-79.200066,34.80449]}},{"properties":{"city":"RECIFE","geo_score":0.277,"id":"ac2hf05n1hdx","address":"AV BOA VIAGEM 888","geo_precision":"street","state":"PE"},"type":"Feature","geometry":{"type":"Point","coordinates":[-79.200066,34.80449]}},{"properties":{"city":"RECIFE","geo_score":0.271,"id":"ac2hf0d65s1e","address":"AV BOA VIAGEM 2876","geo_precision":"street","state":"PE"},"type":"Feature","geometry":{"type":"Point","coordinates":[-79.200066,34.80449]}},{"properties":{"city":"RECIFE","geo_score":0.271,"id":"ac2hf05dqmyi","address":"AV BOA VIAGEM 5366","geo_precision":"street","state":"PE"},"type":"Feature","geometry":{"type":"Point","coordinates":[-79.200066,34.80449]}},{"properties":{"city":"RECIFE","geo_score":0.341,"id":"ac2hf0fann3h","address":"AV BOA VIAGEM 236","geo_precision":"street","state":"PE"},"type":"Feature","geometry":{"type":"Point","coordinates":[-91.535187,38.507885]}},{"properties":{"city":"RECIFE","geo_score":0.277,"id":"ac2hf07jf55l","address":"AV BOA VIAGEM 420","geo_precision":"street","state":"PE"},"type":"Feature","geometry":{"type":"Point","coordinates":[-79.200066,34.80449]}},{"properties":{"city":"RECIFE","geo_score":0.271,"id":"ac2hf0guia20","address":"AV BOA VIAGEM 6396","geo_precision":"street","state":"PE"},"type":"Feature","geometry":{"type":"Point","coordinates":[-79.200066,34.80449]}},{"properties":{"city":"RECIFE","geo_score":0.277,"id":"ac2hf089d8fw","address":"AV BOA VIAGEM 130","geo_precision":"street","state":"PE"},"type":"Feature","geometry":{"type":"Point","coordinates":[-79.200066,34.80449]}},{"properties":{"city":"RECIFE","geo_score":0.271,"id":"ac2hf0c4wmux","address":"AV BOA VIAGEM 3984","geo_precision":"street","state":"PE"},"type":"Feature","geometry":{"type":"Point","coordinates":[-79.200066,34.80449]}},{"properties":{"city":"RECIFE","geo_score":0.277,"id":"ac2hf0cftumg","address":"AV BOA VIAGEM 420","geo_precision":"street","state":"PE"},"type":"Feature","geometry":{"type":"Point","coordinates":[-79.200066,34.80449]}},{"properties":{"city":"RECIFE","geo_score":0.291,"id":"ac2hf0df4fnm","address":"AV BOA VIAGEM 100","geo_precision":"street","state":"PE"},"type":"Feature","geometry":{"type":"Point","coordinates":[-91.437722,38.705211]}},{"properties":{"city":"RECIFE","geo_score":0.271,"id":"ac2hf07rtpqi","address":"AV BOA VIAGEM 4574","geo_precision":"street","state":"PE"},"type":"Feature","geometry":{"type":"Point","coordinates":[-79.200066,34.80449]}},{"properties":{"city":"RECIFE","geo_score":0.271,"id":"ac2hf091z23u","address":"AV BOA VIAGEM 3984","geo_precision":"street","state":"PE"},"type":"Feature","geometry":{"type":"Point","coordinates":[-79.200066,34.80449]}},{"properties":{"city":"RECIFE","geo_score":0.277,"id":"ac2hf06khg9r","address":"AV BOA VIAGEM 178","geo_precision":"street","state":"PE"},"type":"Feature","geometry":{"type":"Point","coordinates":[-79.200066,34.80449]}},{"properties":{"city":"RECIFE","geo_score":0.271,"id":"ac2hf0h1vaau","address":"AV BOA VIAGEM 6396","geo_precision":"street","state":"PE"},"type":"Feature","geometry":{"type":"Point","coordinates":[-79.200066,34.80449]}},{"properties":{"city":"RECIFE","geo_score":0.277,"id":"ac2hf02mr60t","address":"AV BOA VIAGEM 420","geo_precision":"street","state":"PE"},"type":"Feature","geometry":{"type":"Point","coordinates":[-79.200066,34.80449]}},{"properties":{"city":"RECIFE","geo_score":0.277,"id":"ac2hf09c18sc","address":"AV BOA VIAGEM 110","geo_precision":"street","state":"PE"},"type":"Feature","geometry":{"type":"Point","coordinates":[-79.200066,34.80449]}},{"properties":{"city":"RECIFE","geo_score":0.271,"id":"ac2hf08x3itj","address":"AV BOA VIAGEM 2272","geo_precision":"street","state":"PE"},"type":"Feature","geometry":{"type":"Point","coordinates":[-79.200066,34.80449]}},{"properties":{"city":"RECIFE","geo_score":0.271,"id":"ac2hf0dzxae5","address":"AV BOA VIAGEM 1140","geo_precision":"street","state":"PE"},"type":"Feature","geometry":{"type":"Point","coordinates":[-79.200066,34.80449]}},{"properties":{"city":"RECIFE","geo_score":0.277,"id":"ac2hf04vqtc8","address":"AV BOA VIAGEM 420","geo_precision":"street","state":"PE"},"type":"Feature","geometry":{"type":"Point","coordinates":[-79.200066,34.80449]}},{"properties":{"city":"RECIFE","geo_score":0.277,"id":"ac2hf04zkwvq","address":"AV BOA VIAGEM 420","geo_precision":"street","state":"PE"},"type":"Feature","geometry":{"type":"Point","coordinates":[-79.200066,34.80449]}},{"properties":{"city":"RECIFE","geo_score":0.271,"id":"ac2hf0b2u7nc","address":"AV BOA VIAGEM 3650","geo_precision":"street","state":"PE"},"type":"Feature","geometry":{"type":"Point","coordinates":[-79.200066,34.80449]}},{"properties":{"city":"RECIFE","geo_score":0.277,"id":"ac2hf06xc8dh","address":"AV BOA VIAGEM 420","geo_precision":"street","state":"PE"},"type":"Feature","geometry":{"type":"Point","coordinates":[-79.200066,34.80449]}},{"properties":{"city":"RECIFE","geo_score":0.271,"id":"ac2hf06r92si","address":"AV BOA VIAGEM 6234","geo_precision":"street","state":"PE"},"type":"Feature","geometry":{"type":"Point","coordinates":[-79.200066,34.80449]}},{"properties":{"city":"RECIFE","geo_score":0.271,"id":"ac2hf0etcqfj","address":"AV BOA VIAGEM 4558","geo_precision":"street","state":"PE"},"type":"Feature","geometry":{"type":"Point","coordinates":[-79.200066,34.80449]}},{"properties":{"city":"RECIFE","geo_score":0.277,"id":"ac2hf09aqt95","address":"AV BOA VIAGEM 110","geo_precision":"street","state":"PE"},"type":"Feature","geometry":{"type":"Point","coordinates":[-79.200066,34.80449]}},{"properties":{"city":"RECIFE","geo_score":0.271,"id":"ac2hf0a73un1","address":"AV BOA VIAGEM 2080","geo_precision":"street","state":"PE"},"type":"Feature","geometry":{"type":"Point","coordinates":[-79.200066,34.80449]}},{"properties":{"city":"RECIFE","geo_score":0.277,"id":"ac2hf07jepc2","address":"AV BOA VIAGEM 420","geo_precision":"street","state":"PE"},"type":"Feature","geometry":{"type":"Point","coordinates":[-79.200066,34.80449]}},{"properties":{"city":"RECIFE","geo_score":0.277,"id":"ac2hf065y37m","address":"AV BOA VIAGEM 420","geo_precision":"street","state":"PE"},"type":"Feature","geometry":{"type":"Point","coordinates":[-79.200066,34.80449]}},{"properties":{"city":"RECIFE","geo_score":0.271,"id":"ac2hf07fpvaj","address":"AV BOA VIAGEM 5212","geo_precision":"street","state":"PE"},"type":"Feature","geometry":{"type":"Point","coordinates":[-79.200066,34.80449]}},{"properties":{"city":"RECIFE","geo_score":0.277,"id":"ac2hf0eyzrns","address":"AV BOA VIAGEM 420","geo_precision":"street","state":"PE"},"type":"Feature","geometry":{"type":"Point","coordinates":[-79.200066,34.80449]}},{"properties":{"city":"RECIFE","geo_score":0.271,"id":"ac2hf0f1t5kz","address":"AV BOA VIAGEM 3650","geo_precision":"street","state":"PE"},"type":"Feature","geometry":{"type":"Point","coordinates":[-79.200066,34.80449]}},{"properties":{"city":"RECIFE","geo_score":0.277,"id":"ac2hf066klys","address":"AV BOA VIAGEM 888","geo_precision":"street","state":"PE"},"type":"Feature","geometry":{"type":"Point","coordinates":[-79.200066,34.80449]}},{"properties":{"city":"RECIFE","geo_score":0.271,"id":"ac2hf0a740ib","address":"AV BOA VIAGEM 5030","geo_precision":"street","state":"PE"},"type":"Feature","geometry":{"type":"Point","coordinates":[-79.200066,34.80449]}},{"properties":{"city":"RECIFE","geo_score":0.277,"id":"ac2hf0189ta7","address":"AV BOA VIAGEM 420","geo_precision":"street","state":"PE"},"type":"Feature","geometry":{"type":"Point","coordinates":[-79.200066,34.80449]}},{"properties":{"city":"RECIFE","geo_score":0.271,"id":"ac2hf0eap20k","address":"AV BOA VIAGEM 6234","geo_precision":"street","state":"PE"},"type":"Feature","geometry":{"type":"Point","coordinates":[-79.200066,34.80449]}},{"properties":{"city":"RECIFE","geo_score":0.271,"id":"ac2hf0c6n84z","address":"AV BOA VIAGEM 5030","geo_precision":"street","state":"PE"},"type":"Feature","geometry":{"type":"Point","coordinates":[-79.200066,34.80449]}},{"properties":{"city":"RECIFE","geo_score":0.277,"id":"ac2hf0bhxbcd","address":"AV BOA VIAGEM 998","geo_precision":"street","state":"PE"},"type":"Feature","geometry":{"type":"Point","coordinates":[-79.200066,34.80449]}},{"properties":{"city":"RECIFE","geo_score":0.277,"id":"ac2hf07glvfa","address":"AV BOA VIAGEM 462","geo_precision":"street","state":"PE"},"type":"Feature","geometry":{"type":"Point","coordinates":[-79.200066,34.80449]}},{"properties":{"city":"RECIFE","geo_score":0.271,"id":"ac2hf0evxgwi","address":"AV BOA VIAGEM 2272","geo_precision":"street","state":"PE"},"type":"Feature","geometry":{"type":"Point","coordinates":[-79.200066,34.80449]}},{"properties":{"city":"RECIFE","geo_score":0.271,"id":"ac2hf036p2ik","address":"AV BOA VIAGEM 5354","geo_precision":"street","state":"PE"},"type":"Feature","geometry":{"type":"Point","coordinates":[-79.200066,34.80449]}},{"properties":{"city":"RECIFE","geo_score":0.271,"id":"ac2hf00zhft5","address":"AV BOA VIAGEM 1906","geo_precision":"street","state":"PE"},"type":"Feature","geometry":{"type":"Point","coordinates":[-79.200066,34.80449]}},{"properties":{"city":"RECIFE","geo_score":0.319,"id":"ac2hf02dkyjs","address":"AV BOA VIAGEM 1500","geo_precision":"street","state":"PE"},"type":"Feature","geometry":{"type":"Point","coordinates":[-79.176701,34.811746]}},{"properties":{"city":"RECIFE","geo_score":0.277,"id":"ac2hf02eu8uz","address":"AV BOA VIAGEM 420","geo_precision":"street","state":"PE"},"type":"Feature","geometry":{"type":"Point","coordinates":[-79.200066,34.80449]}},{"properties":{"city":"RECIFE","geo_score":0.271,"id":"ac2hf03ct0uu","address":"AV BOA VIAGEM 4470","geo_precision":"street","state":"PE"},"type":"Feature","geometry":{"type":"Point","coordinates":[-79.200066,34.80449]}},{"properties":{"city":"RECIFE","geo_score":0.271,"id":"ac2hf0824ou0","address":"AV BOA VIAGEM 4752","geo_precision":"street","state":"PE"},"type":"Feature","geometry":{"type":"Point","coordinates":[-79.200066,34.80449]}},{"properties":{"city":"RECIFE","geo_score":0.277,"id":"ac2hf0g30xbe","address":"AV BOA VIAGEM 420","geo_precision":"street","state":"PE"},"type":"Feature","geometry":{"type":"Point","coordinates":[-79.200066,34.80449]}},{"properties":{"city":"RECIFE","geo_score":0.271,"id":"ac2hf0f5z71e","address":"AV BOA VIAGEM 5212","geo_precision":"street","state":"PE"},"type":"Feature","geometry":{"type":"Point","coordinates":[-79.200066,34.80449]}},{"properties":{"city":"RECIFE","geo_score":0.271,"id":"ac2hf0fm4jg3","address":"AV BOA VIAGEM 6234","geo_precision":"street","state":"PE"},"type":"Feature","geometry":{"type":"Point","coordinates":[-79.200066,34.80449]}},{"properties":{"city":"RECIFE","geo_score":0.277,"id":"ac2hf0dmw6je","address":"AV BOA VIAGEM 420","geo_precision":"street","state":"PE"},"type":"Feature","geometry":{"type":"Point","coordinates":[-79.200066,34.80449]}},{"properties":{"city":"RECIFE","geo_score":0.277,"id":"ac2hf0a11wgy","address":"AV BOA VIAGEM 110","geo_precision":"street","state":"PE"},"type":"Feature","geometry":{"type":"Point","coordinates":[-79.200066,34.80449]}},{"properties":{"city":"RECIFE","geo_score":0.271,"id":"ac2hf0c55cxv","address":"AV BOA VIAGEM 3520","geo_precision":"street","state":"PE"},"type":"Feature","geometry":{"type":"Point","coordinates":[-79.200066,34.80449]}},{"properties":{"city":"RECIFE","geo_score":0.271,"id":"ac2hf0h3bmvz","address":"AV BOA VIAGEM 5030","geo_precision":"street","state":"PE"},"type":"Feature","geometry":{"type":"Point","coordinates":[-79.200066,34.80449]}},{"properties":{"city":"RECIFE","geo_score":0.271,"id":"ac2hf0ecn3l0","address":"AV BOA VIAGEM 5030","geo_precision":"street","state":"PE"},"type":"Feature","geometry":{"type":"Point","coordinates":[-79.200066,34.80449]}},{"properties":{"city":"RECIFE","geo_score":0.271,"id":"ac2hf0884lq6","address":"AV BOA VIAGEM 5030","geo_precision":"street","state":"PE"},"type":"Feature","geometry":{"type":"Point","coordinates":[-79.200066,34.80449]}},{"properties":{"city":"RECIFE","geo_score":0.271,"id":"ac2hf0fuqpci","address":"AV BOA VIAGEM 4988","geo_precision":"street","state":"PE"},"type":"Feature","geometry":{"type":"Point","coordinates":[-79.200066,34.80449]}},{"properties":{"city":"RECIFE","geo_score":0.271,"id":"ac2hf09xdng6","address":"AV BOA VIAGEM 5030","geo_precision":"street","state":"PE"},"type":"Feature","geometry":{"type":"Point","coordinates":[-79.200066,34.80449]}},{"properties":{"city":"RECIFE","geo_score":0.277,"id":"ac2hf07tnj1m","address":"AV BOA VIAGEM 420","geo_precision":"street","state":"PE"},"type":"Feature","geometry":{"type":"Point","coordinates":[-79.200066,34.80449]}},{"properties":{"city":"RECIFE","geo_score":0.271,"id":"ac2hf0bwppnz","address":"AV BOA VIAGEM 5030","geo_precision":"street","state":"PE"},"type":"Feature","geometry":{"type":"Point","coordinates":[-79.200066,34.80449]}},{"properties":{"city":"RECIFE","geo_score":0.277,"id":"ac2hf08fqku3","address":"AV BOA VIAGEM 420","geo_precision":"street","state":"PE"},"type":"Feature","geometry":{"type":"Point","coordinates":[-79.200066,34.80449]}},{"properties":{"city":"RECIFE","geo_score":0.277,"id":"ac2hf00vr7nj","address":"AV BOA VIAGEM 420","geo_precision":"street","state":"PE"},"type":"Feature","geometry":{"type":"Point","coordinates":[-79.200066,34.80449]}},{"properties":{"city":"RECIFE","geo_score":0.271,"id":"ac2hf02yeur4","address":"AV BOA VIAGEM 5212","geo_precision":"street","state":"PE"},"type":"Feature","geometry":{"type":"Point","coordinates":[-79.200066,34.80449]}},{"properties":{"city":"RECIFE","geo_score":0.277,"id":"ac2hf03km7ug","address":"AV BOA VIAGEM 420","geo_precision":"street","state":"PE"},"type":"Feature","geometry":{"type":"Point","coordinates":[-79.200066,34.80449]}},{"properties":{"city":"RECIFE","geo_score":0.277,"id":"ac2hf0h93n8t","address":"AV BOA VIAGEM 420","geo_precision":"street","state":"PE"},"type":"Feature","geometry":{"type":"Point","coordinates":[-79.200066,34.80449]}},{"properties":{"city":"RECIFE","geo_score":0.277,"id":"ac2hf01eb23h","address":"AV BOA VIAGEM 420","geo_precision":"street","state":"PE"},"type":"Feature","geometry":{"type":"Point","coordinates":[-79.200066,34.80449]}},{"properties":{"city":"RECIFE","geo_score":0.277,"id":"ac2hf0ckdcuz","address":"AV BOA VIAGEM 344","geo_precision":"street","state":"PE"},"type":"Feature","geometry":{"type":"Point","coordinates":[-79.200066,34.80449]}},{"properties":{"city":"RECIFE","geo_score":0.277,"id":"ac2hf0fj7ugl","address":"AV BOA VIAGEM 344","geo_precision":"street","state":"PE"},"type":"Feature","geometry":{"type":"Point","coordinates":[-79.200066,34.80449]}},{"properties":{"city":"RECIFE","geo_score":0.271,"id":"ac2hf05tejn5","address":"AV BOA VIAGEM 1642","geo_precision":"street","state":"PE"},"type":"Feature","geometry":{"type":"Point","coordinates":[-79.200066,34.80449]}},{"properties":{"city":"RECIFE","geo_score":0.271,"id":"ac2hf08ajcma","address":"AV BOA VIAGEM 5354","geo_precision":"street","state":"PE"},"type":"Feature","geometry":{"type":"Point","coordinates":[-79.200066,34.80449]}},{"properties":{"city":"RECIFE","geo_score":0.271,"id":"ac2hf0esr52b","address":"AV BOA VIAGEM 5354","geo_precision":"street","state":"PE"},"type":"Feature","geometry":{"type":"Point","coordinates":[-79.200066,34.80449]}},{"properties":{"city":"RECIFE","geo_score":0.271,"id":"ac2hf03i9y2n","address":"AV BOA VIAGEM 3962","geo_precision":"street","state":"PE"},"type":"Feature","geometry":{"type":"Point","coordinates":[-79.200066,34.80449]}},{"properties":{"city":"RECIFE","geo_score":0.277,"id":"ac2hf0adc81v","address":"AV BOA VIAGEM 130","geo_precision":"street","state":"PE"},"type":"Feature","geometry":{"type":"Point","coordinates":[-79.200066,34.80449]}},{"properties":{"city":"RECIFE","geo_score":0.277,"id":"ac2hf06mqig3","address":"AV BOA VIAGEM 420","geo_precision":"street","state":"PE"},"type":"Feature","geometry":{"type":"Point","coordinates":[-79.200066,34.80449]}},{"properties":{"city":"RECIFE","geo_score":0.277,"id":"ac2hf0g3sjrv","address":"AV BOA VIAGEM 420","geo_precision":"street","state":"PE"},"type":"Feature","geometry":{"type":"Point","coordinates":[-79.200066,34.80449]}},{"properties":{"city":"RECIFE","geo_score":0.271,"id":"ac2hf02ge6f2","address":"AV BOA VIAGEM 1958","geo_precision":"street","state":"PE"},"type":"Feature","geometry":{"type":"Point","coordinates":[-79.200066,34.80449]}},{"properties":{"city":"RECIFE","geo_score":0.271,"id":"ac2hf0f4gvsi","address":"AV BOA VIAGEM 5366","geo_precision":"street","state":"PE"},"type":"Feature","geometry":{"type":"Point","coordinates":[-79.200066,34.80449]}},{"properties":{"city":"RECIFE","geo_score":0.271,"id":"ac2hf04f1kk6","address":"AV BOA VIAGEM 5450","geo_precision":"street","state":"PE"},"type":"Feature","geometry":{"type":"Point","coordinates":[-79.200066,34.80449]}},{"properties":{"city":"RECIFE","geo_score":0.277,"id":"ac2hf0dar96w","address":"AV BOA VIAGEM 420","geo_precision":"street","state":"PE"},"type":"Feature","geometry":{"type":"Point","coordinates":[-79.200066,34.80449]}},{"properties":{"city":"RECIFE","geo_score":0.271,"id":"ac2hf0798g7k","address":"AV BOA VIAGEM 1906","geo_precision":"street","state":"PE"},"type":"Feature","geometry":{"type":"Point","coordinates":[-79.200066,34.80449]}},{"properties":{"city":"RECIFE","geo_score":0.271,"id":"ac2hf043pts4","address":"AV BOA VIAGEM 5740","geo_precision":"street","state":"PE"},"type":"Feature","geometry":{"type":"Point","coordinates":[-79.200066,34.80449]}},{"properties":{"city":"RECIFE","geo_score":0.271,"id":"ac2hf075yni0","address":"AV BOA VIAGEM 5802","geo_precision":"street","state":"PE"},"type":"Feature","geometry":{"type":"Point","coordinates":[-79.200066,34.80449]}},{"properties":{"city":"RECIFE","geo_score":0.277,"id":"ac2hf0eqvq9r","address":"AV BOA VIAGEM 130","geo_precision":"street","state":"PE"},"type":"Feature","geometry":{"type":"Point","coordinates":[-79.200066,34.80449]}},{"properties":{"city":"RECIFE","geo_score":0.271,"id":"ac2hf0fc29gk","address":"AV BOA VIAGEM 1906","geo_precision":"street","state":"PE"},"type":"Feature","geometry":{"type":"Point","coordinates":[-79.200066,34.80449]}},{"properties":{"city":"RECIFE","geo_score":0.277,"id":"ac2hf05vpo8f","address":"AV BOA VIAGEM 848","geo_precision":"street","state":"PE"},"type":"Feature","geometry":{"type":"Point","coordinates":[-79.200066,34.80449]}},{"properties":{"city":"RECIFE","geo_score":0.271,"id":"ac2hf0btfdzi","address":"AV BOA VIAGEM 6166","geo_precision":"street","state":"PE"},"type":"Feature","geometry":{"type":"Point","coordinates":[-79.200066,34.80449]}},{"properties":{"city":"RECIFE","geo_score":0.277,"id":"ac2hf0d7m9ak","address":"AV BOA VIAGEM 420","geo_precision":"street","state":"PE"},"type":"Feature","geometry":{"type":"Point","coordinates":[-79.200066,34.80449]}},{"properties":{"city":"RECIFE","geo_score":0.277,"id":"ac2hf01ntrib","address":"AV BOA VIAGEM 420","geo_precision":"street","state":"PE"},"type":"Feature","geometry":{"type":"Point","coordinates":[-79.200066,34.80449]}},{"properties":{"city":"RECIFE","geo_score":0.271,"id":"ac2hf0cd6d1r","address":"AV BOA VIAGEM 3984","geo_precision":"street","state":"PE"},"type":"Feature","geometry":{"type":"Point","coordinates":[-79.200066,34.80449]}},{"properties":{"city":"RECIFE","geo_score":0.271,"id":"ac2hf03r8s8p","address":"AV BOA VIAGEM 2594","geo_precision":"street","state":"PE"},"type":"Feature","geometry":{"type":"Point","coordinates":[-79.200066,34.80449]}},{"properties":{"city":"RECIFE","geo_score":0.319,"id":"ac2hf0f8cdcy","address":"AV BOA VIAGEM 1338","geo_precision":"street","state":"PE"},"type":"Feature","geometry":{"type":"Point","coordinates":[-79.23252,34.788778]}},{"properties":{"city":"RECIFE","geo_score":0.271,"id":"ac2hf02zz6u8","address":"AV BOA VIAGEM 3778","geo_precision":"street","state":"PE"},"type":"Feature","geometry":{"type":"Point","coordinates":[-79.200066,34.80449]}},{"properties":{"city":"RECIFE","geo_score":0.277,"id":"ac2hf04tsv9w","address":"AV BOA VIAGEM 420","geo_precision":"street","state":"PE"},"type":"Feature","geometry":{"type":"Point","coordinates":[-79.200066,34.80449]}},{"properties":{"city":"RECIFE","geo_score":0.271,"id":"ac2hf05c489z","address":"AV BOA VIAGEM 5030","geo_precision":"street","state":"PE"},"type":"Feature","geometry":{"type":"Point","coordinates":[-79.200066,34.80449]}},{"properties":{"city":"RECIFE","geo_score":0.277,"id":"ac2hf01i1nng","address":"AV BOA VIAGEM 420","geo_precision":"street","state":"PE"},"type":"Feature","geometry":{"type":"Point","coordinates":[-79.200066,34.80449]}},{"properties":{"city":"RECIFE","geo_score":0.277,"id":"ac2hf012v3kq","address":"AV BOA VIAGEM 130","geo_precision":"street","state":"PE"},"type":"Feature","geometry":{"type":"Point","coordinates":[-79.200066,34.80449]}},{"properties":{"city":"RECIFE","geo_score":0.277,"id":"ac2hf04qs18q","address":"AV BOA VIAGEM 848","geo_precision":"street","state":"PE"},"type":"Feature","geometry":{"type":"Point","coordinates":[-79.200066,34.80449]}},{"properties":{"city":"RECIFE","geo_score":0.277,"id":"ac2hf0f0vsqo","address":"AV BOA VIAGEM 420","geo_precision":"street","state":"PE"},"type":"Feature","geometry":{"type":"Point","coordinates":[-79.200066,34.80449]}},{"properties":{"city":"RECIFE","geo_score":0.277,"id":"ac2hf08yn1x4","address":"AV BOA VIAGEM 420","geo_precision":"street","state":"PE"},"type":"Feature","geometry":{"type":"Point","coordinates":[-79.200066,34.80449]}},{"properties":{"city":"RECIFE","geo_score":0.277,"id":"ac2hf03xiwcc","address":"AV BOA VIAGEM 940","geo_precision":"street","state":"PE"},"type":"Feature","geometry":{"type":"Point","coordinates":[-79.200066,34.80449]}},{"properties":{"city":"RECIFE","geo_score":0.271,"id":"ac2hf04etab4","address":"AV BOA VIAGEM 2594","geo_precision":"street","state":"PE"},"type":"Feature","geometry":{"type":"Point","coordinates":[-79.200066,34.80449]}},{"properties":{"city":"RECIFE","geo_score":0.283,"id":"ac2hf0fqmw98","address":"AV BOA VIAGEM 30","geo_precision":"street","state":"PE"},"type":"Feature","geometry":{"type":"Point","coordinates":[-79.200066,34.80449]}},{"properties":{"city":"RECIFE","geo_score":0.277,"id":"ac2hf0d94php","address":"AV BOA VIAGEM 420","geo_precision":"street","state":"PE"},"type":"Feature","geometry":{"type":"Point","coordinates":[-79.200066,34.80449]}},{"properties":{"city":"RECIFE","geo_score":0.277,"id":"ac2hf037ia86","address":"AV BOA VIAGEM 420","geo_precision":"street","state":"PE"},"type":"Feature","geometry":{"type":"Point","coordinates":[-79.200066,34.80449]}},{"properties":{"city":"RECIFE","geo_score":0.271,"id":"ac2hf0a1ojjx","address":"AV BOA VIAGEM 6576","geo_precision":"street","state":"PE"},"type":"Feature","geometry":{"type":"Point","coordinates":[-79.200066,34.80449]}},{"properties":{"city":"RECIFE","geo_score":0.271,"id":"ac2hf05gznh2","address":"AV BOA VIAGEM 5030","geo_precision":"street","state":"PE"},"type":"Feature","geometry":{"type":"Point","coordinates":[-79.200066,34.80449]}},{"properties":{"city":"RECIFE","geo_score":0.271,"id":"ac2hf0b7y5eg","address":"AV BOA VIAGEM 1020","geo_precision":"street","state":"PE"},"type":"Feature","geometry":{"type":"Point","coordinates":[-79.200066,34.80449]}},{"properties":{"city":"RECIFE","geo_score":0.277,"id":"ac2hf09ob5ag","address":"AV BOA VIAGEM 848","geo_precision":"street","state":"PE"},"type":"Feature","geometry":{"type":"Point","coordinates":[-79.200066,34.80449]}},{"properties":{"city":"RECIFE","geo_score":0.271,"id":"ac2hf097i6o2","address":"AV BOA VIAGEM 5164","geo_precision":"street","state":"PE"},"type":"Feature","geometry":{"type":"Point","coordinates":[-79.200066,34.80449]}},{"properties":{"city":"RECIFE","geo_score":0.277,"id":"ac2hf02baiam","address":"AV BOA VIAGEM 344","geo_precision":"street","state":"PE"},"type":"Feature","geometry":{"type":"Point","coordinates":[-79.200066,34.80449]}},{"properties":{"city":"RECIFE","geo_score":0.271,"id":"ac2hf04lqzz4","address":"AV BOA VIAGEM 1688","geo_precision":"street","state":"PE"},"type":"Feature","geometry":{"type":"Point","coordinates":[-79.200066,34.80449]}},{"properties":{"city":"RECIFE","geo_score":0.277,"id":"ac2hf09enf8v","address":"AV BOA VIAGEM 848","geo_precision":"street","state":"PE"},"type":"Feature","geometry":{"type":"Point","coordinates":[-79.200066,34.80449]}},{"properties":{"city":"RECIFE","geo_score":0.271,"id":"ac2hf04nwi07","address":"AV BOA VIAGEM 5366","geo_precision":"street","state":"PE"},"type":"Feature","geometry":{"type":"Point","coordinates":[-79.200066,34.80449]}},{"properties":{"city":"RECIFE","geo_score":0.271,"id":"ac2hf079ahmz","address":"AV BOA VIAGEM 2978","geo_precision":"street","state":"PE"},"type":"Feature","geometry":{"type":"Point","coordinates":[-79.200066,34.80449]}},{"properties":{"city":"RECIFE","geo_score":0.277,"id":"ac2hf0912sa4","address":"AV BOA VIAGEM 420","geo_precision":"street","state":"PE"},"type":"Feature","geometry":{"type":"Point","coordinates":[-79.200066,34.80449]}},{"properties":{"city":"RECIFE","geo_score":0.271,"id":"ac2hf08jrspa","address":"AV BOA VIAGEM 3672","geo_precision":"street","state":"PE"},"type":"Feature","geometry":{"type":"Point","coordinates":[-79.200066,34.80449]}},{"properties":{"city":"RECIFE","geo_score":0.271,"id":"ac2hf0ef0njy","address":"AV BOA VIAGEM 3778","geo_precision":"street","state":"PE"},"type":"Feature","geometry":{"type":"Point","coordinates":[-79.200066,34.80449]}},{"properties":{"city":"RECIFE","geo_score":0.271,"id":"ac2hf05uq719","address":"AV BOA VIAGEM 5802","geo_precision":"street","state":"PE"},"type":"Feature","geometry":{"type":"Point","coordinates":[-79.200066,34.80449]}},{"properties":{"city":"RECIFE","geo_score":0.277,"id":"ac2hf0ewmtpp","address":"AV BOA VIAGEM 220","geo_precision":"street","state":"PE"},"type":"Feature","geometry":{"type":"Point","coordinates":[-79.200066,34.80449]}},{"properties":{"city":"RECIFE","geo_score":0.271,"id":"ac2hf03hekwu","address":"AV BOA VIAGEM 2764","geo_precision":"street","state":"PE"},"type":"Feature","geometry":{"type":"Point","coordinates":[-79.200066,34.80449]}},{"properties":{"city":"RECIFE","geo_score":0.277,"id":"ac2hf0g4ptn6","address":"AV BOA VIAGEM 420","geo_precision":"street","state":"PE"},"type":"Feature","geometry":{"type":"Point","coordinates":[-79.200066,34.80449]}},{"properties":{"city":"RECIFE","geo_score":0.271,"id":"ac2hf0cikwyc","address":"AV BOA VIAGEM 4000","geo_precision":"street","state":"PE"},"type":"Feature","geometry":{"type":"Point","coordinates":[-79.200066,34.80449]}},{"properties":{"city":"RECIFE","geo_score":0.271,"id":"ac2hf0c4cmj7","address":"AV BOA VIAGEM 3650","geo_precision":"street","state":"PE"},"type":"Feature","geometry":{"type":"Point","coordinates":[-79.200066,34.80449]}},{"properties":{"city":"RECIFE","geo_score":0.271,"id":"ac2hf0gvjq0j","address":"AV BOA VIAGEM 1958","geo_precision":"street","state":"PE"},"type":"Feature","geometry":{"type":"Point","coordinates":[-79.200066,34.80449]}},{"properties":{"city":"RECIFE","geo_score":0.271,"id":"ac2hf09233rg","address":"AV BOA VIAGEM 6274","geo_precision":"street","state":"PE"},"type":"Feature","geometry":{"type":"Point","coordinates":[-79.200066,34.80449]}},{"properties":{"city":"RECIFE","geo_score":0.271,"id":"ac2hf0djk4fq","address":"AV BOA VIAGEM 3984","geo_precision":"street","state":"PE"},"type":"Feature","geometry":{"type":"Point","coordinates":[-79.200066,34.80449]}},{"properties":{"city":"RECIFE","geo_score":0.277,"id":"ac2hf0fiodze","address":"AV BOA VIAGEM 420","geo_precision":"street","state":"PE"},"type":"Feature","geometry":{"type":"Point","coordinates":[-79.200066,34.80449]}},{"properties":{"city":"RECIFE","geo_score":0.277,"id":"ac2hf0dba4tu","address":"AV BOA VIAGEM 296","geo_precision":"street","state":"PE"},"type":"Feature","geometry":{"type":"Point","coordinates":[-79.200066,34.80449]}},{"properties":{"city":"RECIFE","geo_score":0.271,"id":"ac2hf01z1iye","address":"AV BOA VIAGEM 6166","geo_precision":"street","state":"PE"},"type":"Feature","geometry":{"type":"Point","coordinates":[-79.200066,34.80449]}},{"properties":{"city":"RECIFE","geo_score":0.271,"id":"ac2hf02076lm","address":"AV BOA VIAGEM 6396","geo_precision":"street","state":"PE"},"type":"Feature","geometry":{"type":"Point","coordinates":[-79.200066,34.80449]}},{"properties":{"city":"RECIFE","geo_score":0.271,"id":"ac2hf037lnn1","address":"AV BOA VIAGEM 2170","geo_precision":"street","state":"PE"},"type":"Feature","geometry":{"type":"Point","coordinates":[-79.200066,34.80449]}},{"properties":{"city":"RECIFE","geo_score":0.277,"id":"ac2hf0dsp8lc","address":"AV BOA VIAGEM 420","geo_precision":"street","state":"PE"},"type":"Feature","geometry":{"type":"Point","coordinates":[-79.200066,34.80449]}},{"properties":{"city":"RECIFE","geo_score":0.271,"id":"ac2hf0dag50m","address":"AV BOA VIAGEM 6396","geo_precision":"street","state":"PE"},"type":"Feature","geometry":{"type":"Point","coordinates":[-79.200066,34.80449]}},{"properties":{"city":"RECIFE","geo_score":0.277,"id":"ac2hf02io8s6","address":"AV BOA VIAGEM 420","geo_precision":"street","state":"PE"},"type":"Feature","geometry":{"type":"Point","coordinates":[-79.200066,34.80449]}},{"properties":{"city":"RECIFE","geo_score":0.291,"id":"ac2hf05cyh9r","address":"AV BOA VIAGEM 158","geo_precision":"street","state":"PE"},"type":"Feature","geometry":{"type":"Point","coordinates":[-90.561134,35.74184]}},{"properties":{"city":"RECIFE","geo_score":0.271,"id":"ac2hf0cgr4nx","address":"AV BOA VIAGEM 5526","geo_precision":"street","state":"PE"},"type":"Feature","geometry":{"type":"Point","coordinates":[-79.200066,34.80449]}},{"properties":{"city":"RECIFE","geo_score":0.271,"id":"ac2hf097sv6w","address":"AV BOA VIAGEM 6500","geo_precision":"street","state":"PE"},"type":"Feature","geometry":{"type":"Point","coordinates":[-79.200066,34.80449]}},{"properties":{"city":"RECIFE","geo_score":0.271,"id":"ac2hf01q6eye","address":"AV BOA VIAGEM 4558","geo_precision":"street","state":"PE"},"type":"Feature","geometry":{"type":"Point","coordinates":[-79.200066,34.80449]}},{"properties":{"city":"RECIFE","geo_score":0.277,"id":"ac2hf08he4h4","address":"AV BOA VIAGEM 420","geo_precision":"street","state":"PE"},"type":"Feature","geometry":{"type":"Point","coordinates":[-79.200066,34.80449]}},{"properties":{"city":"RECIFE","geo_score":0.277,"id":"ac2hf0c3chlj","address":"AV BOA VIAGEM 420","geo_precision":"street","state":"PE"},"type":"Feature","geometry":{"type":"Point","coordinates":[-79.200066,34.80449]}},{"properties":{"city":"RECIFE","geo_score":0.277,"id":"ac2hf09h1trq","address":"AV BOA VIAGEM 420","geo_precision":"street","state":"PE"},"type":"Feature","geometry":{"type":"Point","coordinates":[-79.200066,34.80449]}},{"properties":{"city":"RECIFE","geo_score":0.271,"id":"ac2hf04nnv4a","address":"AV BOA VIAGEM 6274","geo_precision":"street","state":"PE"},"type":"Feature","geometry":{"type":"Point","coordinates":[-79.200066,34.80449]}},{"properties":{"city":"RECIFE","geo_score":0.271,"id":"ac2hf03hhqxl","address":"AV BOA VIAGEM 5212","geo_precision":"street","state":"PE"},"type":"Feature","geometry":{"type":"Point","coordinates":[-79.200066,34.80449]}},{"properties":{"city":"RECIFE","geo_score":0.277,"id":"ac2hf01wgsw7","address":"AV BOA VIAGEM 420","geo_precision":"street","state":"PE"},"type":"Feature","geometry":{"type":"Point","coordinates":[-79.200066,34.80449]}},{"properties":{"city":"RECIFE","geo_score":0.277,"id":"ac2hf048i7ft","address":"AV BOA VIAGEM 420","geo_precision":"street","state":"PE"},"type":"Feature","geometry":{"type":"Point","coordinates":[-79.200066,34.80449]}},{"properties":{"city":"RECIFE","geo_score":0.277,"id":"ac2hf042ysp0","address":"AV BOA VIAGEM 110","geo_precision":"street","state":"PE"},"type":"Feature","geometry":{"type":"Point","coordinates":[-79.200066,34.80449]}},{"properties":{"city":"RECIFE","geo_score":0.271,"id":"ac2hf065roye","address":"AV BOA VIAGEM 3778","geo_precision":"street","state":"PE"},"type":"Feature","geometry":{"type":"Point","coordinates":[-79.200066,34.80449]}},{"properties":{"city":"RECIFE","geo_score":0.277,"id":"ac2hf06k9j43","address":"AV BOA VIAGEM 344","geo_precision":"street","state":"PE"},"type":"Feature","geometry":{"type":"Point","coordinates":[-79.200066,34.80449]}},{"properties":{"city":"RECIFE","geo_score":0.277,"id":"ac2hf09g5sfr","address":"AV BOA VIAGEM 420","geo_precision":"street","state":"PE"},"type":"Feature","geometry":{"type":"Point","coordinates":[-79.200066,34.80449]}},{"properties":{"city":"RECIFE","geo_score":0.271,"id":"ac2hf02ovdqi","address":"AV BOA VIAGEM 6292","geo_precision":"street","state":"PE"},"type":"Feature","geometry":{"type":"Point","coordinates":[-79.200066,34.80449]}},{"properties":{"city":"RECIFE","geo_score":0.271,"id":"ac2hf0290o6y","address":"AV BOA VIAGEM 4574","geo_precision":"street","state":"PE"},"type":"Feature","geometry":{"type":"Point","coordinates":[-79.200066,34.80449]}},{"properties":{"city":"RECIFE","geo_score":0.277,"id":"ac2hf0dd8xl7","address":"AV BOA VIAGEM 420","geo_precision":"street","state":"PE"},"type":"Feature","geometry":{"type":"Point","coordinates":[-79.200066,34.80449]}},{"properties":{"city":"RECIFE","geo_score":0.277,"id":"ac2hf07rjli7","address":"AV BOA VIAGEM 420","geo_precision":"street","state":"PE"},"type":"Feature","geometry":{"type":"Point","coordinates":[-79.200066,34.80449]}},{"properties":{"city":"RECIFE","geo_score":0.291,"id":"ac2hf05hbjno","address":"AV BOA VIAGEM 100","geo_precision":"street","state":"PE"},"type":"Feature","geometry":{"type":"Point","coordinates":[-91.437722,38.705211]}},{"properties":{"city":"RECIFE","geo_score":0.277,"id":"ac2hf0fjh70w","address":"AV BOA VIAGEM 420","geo_precision":"street","state":"PE"},"type":"Feature","geometry":{"type":"Point","coordinates":[-79.200066,34.80449]}},{"properties":{"city":"RECIFE","geo_score":0.277,"id":"ac2hf0di1ejj","address":"AV BOA VIAGEM 420","geo_precision":"street","state":"PE"},"type":"Feature","geometry":{"type":"Point","coordinates":[-79.200066,34.80449]}},{"properties":{"city":"RECIFE","geo_score":0.271,"id":"ac2hf0d21q0n","address":"AV BOA VIAGEM 1688","geo_precision":"street","state":"PE"},"type":"Feature","geometry":{"type":"Point","coordinates":[-79.200066,34.80449]}},{"properties":{"city":"RECIFE","geo_score":0.271,"id":"ac2hf02xc4cx","address":"AV BOA VIAGEM 1906","geo_precision":"street","state":"PE"},"type":"Feature","geometry":{"type":"Point","coordinates":[-79.200066,34.80449]}},{"properties":{"city":"RECIFE","geo_score":0.271,"id":"ac2hf0fkamlm","address":"AV BOA VIAGEM 4700","geo_precision":"street","state":"PE"},"type":"Feature","geometry":{"type":"Point","coordinates":[-79.200066,34.80449]}},{"properties":{"city":"RECIFE","geo_score":0.277,"id":"ac2hf06715sy","address":"AV BOA VIAGEM 420","geo_precision":"street","state":"PE"},"type":"Feature","geometry":{"type":"Point","coordinates":[-79.200066,34.80449]}},{"properties":{"city":"RECIFE","geo_score":0.277,"id":"ac2hf011jv3c","address":"AV BOA VIAGEM 420","geo_precision":"street","state":"PE"},"type":"Feature","geometry":{"type":"Point","coordinates":[-79.200066,34.80449]}},{"properties":{"city":"RECIFE","geo_score":0.271,"id":"ac2hf04lc5ev","address":"AV BOA VIAGEM 2454","geo_precision":"street","state":"PE"},"type":"Feature","geometry":{"type":"Point","coordinates":[-79.200066,34.80449]}},{"properties":{"city":"RECIFE","geo_score":0.277,"id":"ac2hf0eyijn4","address":"AV BOA VIAGEM 420","geo_precision":"street","state":"PE"},"type":"Feature","geometry":{"type":"Point","coordinates":[-79.200066,34.80449]}},{"properties":{"city":"RECIFE","geo_score":0.271,"id":"ac2hf01dj7gq","address":"AV BOA VIAGEM 2258","geo_precision":"street","state":"PE"},"type":"Feature","geometry":{"type":"Point","coordinates":[-79.200066,34.80449]}},{"properties":{"city":"RECIFE","geo_score":0.277,"id":"ac2hf098fe7q","address":"AV BOA VIAGEM 420","geo_precision":"street","state":"PE"},"type":"Feature","geometry":{"type":"Point","coordinates":[-79.200066,34.80449]}},{"properties":{"city":"RECIFE","geo_score":0.271,"id":"ac2hf0e0008p","address":"AV BOA VIAGEM 3650","geo_precision":"street","state":"PE"},"type":"Feature","geometry":{"type":"Point","coordinates":[-79.200066,34.80449]}},{"properties":{"city":"RECIFE","geo_score":0.271,"id":"ac2hf01orecc","address":"AV BOA VIAGEM 5030","geo_precision":"street","state":"PE"},"type":"Feature","geometry":{"type":"Point","coordinates":[-79.200066,34.80449]}},{"properties":{"city":"RECIFE","geo_score":0.271,"id":"ac2hf02wa65n","address":"AV BOA VIAGEM 1906","geo_precision":"street","state":"PE"},"type":"Feature","geometry":{"type":"Point","coordinates":[-79.200066,34.80449]}},{"properties":{"city":"RECIFE","geo_score":0.271,"id":"ac2hf0gp7zsq","address":"AV BOA VIAGEM 3984","geo_precision":"street","state":"PE"},"type":"Feature","geometry":{"type":"Point","coordinates":[-79.200066,34.80449]}},{"properties":{"city":"RECIFE","geo_score":0.277,"id":"ac2hf03u7jcf","address":"AV BOA VIAGEM 888","geo_precision":"street","state":"PE"},"type":"Feature","geometry":{"type":"Point","coordinates":[-79.200066,34.80449]}},{"properties":{"city":"RECIFE","geo_score":0.277,"id":"ac2hf06gdy6t","address":"AV BOA VIAGEM 420","geo_precision":"street","state":"PE"},"type":"Feature","geometry":{"type":"Point","coordinates":[-79.200066,34.80449]}},{"properties":{"city":"RECIFE","geo_score":0.277,"id":"ac2hf0202kdo","address":"AV BOA VIAGEM 420","geo_precision":"street","state":"PE"},"type":"Feature","geometry":{"type":"Point","coordinates":[-79.200066,34.80449]}},{"properties":{"city":"RECIFE","geo_score":0.271,"id":"ac2hf0372ox3","address":"AV BOA VIAGEM 5354","geo_precision":"street","state":"PE"},"type":"Feature","geometry":{"type":"Point","coordinates":[-79.200066,34.80449]}},{"properties":{"city":"RECIFE","geo_score":0.277,"id":"ac2hf0f7z574","address":"AV BOA VIAGEM 980","geo_precision":"street","state":"PE"},"type":"Feature","geometry":{"type":"Point","coordinates":[-79.200066,34.80449]}},{"properties":{"city":"RECIFE","geo_score":0.291,"id":"ac2hf09xlpjo","address":"AV BOA VIAGEM 100","geo_precision":"street","state":"PE"},"type":"Feature","geometry":{"type":"Point","coordinates":[-91.437722,38.705211]}},{"properties":{"city":"RECIFE","geo_score":0.271,"id":"ac2hf0eufnuz","address":"AV BOA VIAGEM 2876","geo_precision":"street","state":"PE"},"type":"Feature","geometry":{"type":"Point","coordinates":[-79.200066,34.80449]}},{"properties":{"city":"RECIFE","geo_score":0.277,"id":"ac2hf0b8cwc5","address":"AV BOA VIAGEM 130","geo_precision":"street","state":"PE"},"type":"Feature","geometry":{"type":"Point","coordinates":[-79.200066,34.80449]}},{"properties":{"city":"RECIFE","geo_score":0.271,"id":"ac2hf01e91t6","address":"AV BOA VIAGEM 5030","geo_precision":"street","state":"PE"},"type":"Feature","geometry":{"type":"Point","coordinates":[-79.200066,34.80449]}},{"properties":{"city":"RECIFE","geo_score":0.277,"id":"ac2hf01yk8qu","address":"AV BOA VIAGEM 420","geo_precision":"street","state":"PE"},"type":"Feature","geometry":{"type":"Point","coordinates":[-79.200066,34.80449]}},{"properties":{"city":"RECIFE","geo_score":0.271,"id":"ac2hf02aus3w","address":"AV BOA VIAGEM 3984","geo_precision":"street","state":"PE"},"type":"Feature","geometry":{"type":"Point","coordinates":[-79.200066,34.80449]}},{"properties":{"city":"RECIFE","geo_score":0.271,"id":"ac2hf08h0u7k","address":"AV BOA VIAGEM 1906","geo_precision":"street","state":"PE"},"type":"Feature","geometry":{"type":"Point","coordinates":[-79.200066,34.80449]}},{"properties":{"city":"RECIFE","geo_score":0.271,"id":"ac2hf041k88u","address":"AV BOA VIAGEM 4160","geo_precision":"street","state":"PE"},"type":"Feature","geometry":{"type":"Point","coordinates":[-79.200066,34.80449]}},{"properties":{"city":"RECIFE","geo_score":0.271,"id":"ac2hf0eixj5t","address":"AV BOA VIAGEM 1272","geo_precision":"street","state":"PE"},"type":"Feature","geometry":{"type":"Point","coordinates":[-79.200066,34.80449]}},{"properties":{"city":"RECIFE","geo_score":0.277,"id":"ac2hf0b7i3db","address":"AV BOA VIAGEM 462","geo_precision":"street","state":"PE"},"type":"Feature","geometry":{"type":"Point","coordinates":[-79.200066,34.80449]}},{"properties":{"city":"RECIFE","geo_score":0.277,"id":"ac2hf08ddi1x","address":"AV BOA VIAGEM 998","geo_precision":"street","state":"PE"},"type":"Feature","geometry":{"type":"Point","coordinates":[-79.200066,34.80449]}},{"properties":{"city":"RECIFE","geo_score":0.277,"id":"ac2hf0908dy5","address":"AV BOA VIAGEM 110","geo_precision":"street","state":"PE"},"type":"Feature","geometry":{"type":"Point","coordinates":[-79.200066,34.80449]}},{"properties":{"city":"RECIFE","geo_score":0.271,"id":"ac2hf0e1xv5b","address":"AV BOA VIAGEM 5212","geo_precision":"street","state":"PE"},"type":"Feature","geometry":{"type":"Point","coordinates":[-79.200066,34.80449]}},{"properties":{"city":"RECIFE","geo_score":0.277,"id":"ac2hf09p9edr","address":"AV BOA VIAGEM 130","geo_precision":"street","state":"PE"},"type":"Feature","geometry":{"type":"Point","coordinates":[-79.200066,34.80449]}},{"properties":{"city":"RECIFE","geo_score":0.291,"id":"ac2hf0cgrxss","address":"AV BOA VIAGEM 100","geo_precision":"street","state":"PE"},"type":"Feature","geometry":{"type":"Point","coordinates":[-91.437722,38.705211]}},{"properties":{"city":"RECIFE","geo_score":0.271,"id":"ac2hf00vpz2z","address":"AV BOA VIAGEM 3984","geo_precision":"street","state":"PE"},"type":"Feature","geometry":{"type":"Point","coordinates":[-79.200066,34.80449]}},{"properties":{"city":"RECIFE","geo_score":0.277,"id":"ac2hf077davj","address":"AV BOA VIAGEM 420","geo_precision":"street","state":"PE"},"type":"Feature","geometry":{"type":"Point","coordinates":[-79.200066,34.80449]}},{"properties":{"city":"RECIFE","geo_score":0.277,"id":"ac2hf0gycr6j","address":"AV BOA VIAGEM 500","geo_precision":"street","state":"PE"},"type":"Feature","geometry":{"type":"Point","coordinates":[-79.200066,34.80449]}},{"properties":{"city":"RECIFE","geo_score":0.271,"id":"ac2hf02t3vlv","address":"AV BOA VIAGEM 3650","geo_precision":"street","state":"PE"},"type":"Feature","geometry":{"type":"Point","coordinates":[-79.200066,34.80449]}},{"properties":{"city":"RECIFE","geo_score":0.271,"id":"ac2hf09nw3bk","address":"AV BOA VIAGEM 4864","geo_precision":"street","state":"PE"},"type":"Feature","geometry":{"type":"Point","coordinates":[-79.200066,34.80449]}},{"properties":{"city":"RECIFE","geo_score":0.277,"id":"ac2hf0bpze3c","address":"AV BOA VIAGEM 420","geo_precision":"street","state":"PE"},"type":"Feature","geometry":{"type":"Point","coordinates":[-79.200066,34.80449]}},{"properties":{"city":"RECIFE","geo_score":0.271,"id":"ac2hf04lrvvb","address":"AV BOA VIAGEM 5354","geo_precision":"street","state":"PE"},"type":"Feature","geometry":{"type":"Point","coordinates":[-79.200066,34.80449]}},{"properties":{"city":"RECIFE","geo_score":0.271,"id":"ac2hf09feokr","address":"AV BOA VIAGEM 4632","geo_precision":"street","state":"PE"},"type":"Feature","geometry":{"type":"Point","coordinates":[-79.200066,34.80449]}},{"properties":{"city":"RECIFE","geo_score":0.271,"id":"ac2hf02bp63g","address":"AV BOA VIAGEM 2080","geo_precision":"street","state":"PE"},"type":"Feature","geometry":{"type":"Point","coordinates":[-79.200066,34.80449]}},{"properties":{"city":"RECIFE","geo_score":0.271,"id":"ac2hf06m8c2j","address":"AV BOA VIAGEM 6636","geo_precision":"street","state":"PE"},"type":"Feature","geometry":{"type":"Point","coordinates":[-79.200066,34.80449]}},{"properties":{"city":"RECIFE","geo_score":0.277,"id":"ac2hf02i2xlx","address":"AV BOA VIAGEM 110","geo_precision":"street","state":"PE"},"type":"Feature","geometry":{"type":"Point","coordinates":[-79.200066,34.80449]}},{"properties":{"city":"RECIFE","geo_score":0.271,"id":"ac2hf09ufmb4","address":"AV BOA VIAGEM 6166","geo_precision":"street","state":"PE"},"type":"Feature","geometry":{"type":"Point","coordinates":[-79.200066,34.80449]}},{"properties":{"city":"RECIFE","geo_score":0.271,"id":"ac2hf0bigufc","address":"AV BOA VIAGEM 5090","geo_precision":"street","state":"PE"},"type":"Feature","geometry":{"type":"Point","coordinates":[-79.200066,34.80449]}},{"properties":{"city":"RECIFE","geo_score":0.271,"id":"ac2hf082r33a","address":"AV BOA VIAGEM 3402","geo_precision":"street","state":"PE"},"type":"Feature","geometry":{"type":"Point","coordinates":[-79.200066,34.80449]}},{"properties":{"city":"RECIFE","geo_score":0.319,"id":"ac2hf066yo8t","address":"AV BOA VIAGEM 1338","geo_precision":"street","state":"PE"},"type":"Feature","geometry":{"type":"Point","coordinates":[-79.23252,34.788778]}},{"properties":{"city":"RECIFE","geo_score":0.271,"id":"ac2hf09slkps","address":"AV BOA VIAGEM 1870","geo_precision":"street","state":"PE"},"type":"Feature","geometry":{"type":"Point","coordinates":[-79.200066,34.80449]}},{"properties":{"city":"RECIFE","geo_score":0.277,"id":"ac2hf07m356o","address":"AV BOA VIAGEM 420","geo_precision":"street","state":"PE"},"type":"Feature","geometry":{"type":"Point","coordinates":[-79.200066,34.80449]}},{"properties":{"city":"RECIFE","geo_score":0.271,"id":"ac2hf07ghlde","address":"AV BOA VIAGEM 1478","geo_precision":"street","state":"PE"},"type":"Feature","geometry":{"type":"Point","coordinates":[-79.200066,34.80449]}},{"properties":{"city":"RECIFE","geo_score":0.271,"id":"ac2hf07koluk","address":"AV BOA VIAGEM 6274","geo_precision":"street","state":"PE"},"type":"Feature","geometry":{"type":"Point","coordinates":[-79.200066,34.80449]}},{"properties":{"city":"RECIFE","geo_score":0.277,"id":"ac2hf04upk2l","address":"AV BOA VIAGEM 420","geo_precision":"street","state":"PE"},"type":"Feature","geometry":{"type":"Point","coordinates":[-79.200066,34.80449]}},{"properties":{"city":"RECIFE","geo_score":0.277,"id":"ac2hf01n2o8o","address":"AV BOA VIAGEM 420","geo_precision":"street","state":"PE"},"type":"Feature","geometry":{"type":"Point","coordinates":[-79.200066,34.80449]}},{"properties":{"city":"RECIFE","geo_score":0.277,"id":"ac2hf089q0tn","address":"AV BOA VIAGEM 420","geo_precision":"street","state":"PE"},"type":"Feature","geometry":{"type":"Point","coordinates":[-79.200066,34.80449]}},{"properties":{"city":"RECIFE","geo_score":0.277,"id":"ac2hf09w5twj","address":"AV BOA VIAGEM 420","geo_precision":"street","state":"PE"},"type":"Feature","geometry":{"type":"Point","coordinates":[-79.200066,34.80449]}},{"properties":{"city":"RECIFE","geo_score":0.277,"id":"ac2hf078zsns","address":"AV BOA VIAGEM 420","geo_precision":"street","state":"PE"},"type":"Feature","geometry":{"type":"Point","coordinates":[-79.200066,34.80449]}},{"properties":{"city":"RECIFE","geo_score":0.271,"id":"ac2hf07fk7qp","address":"AV BOA VIAGEM 3650","geo_precision":"street","state":"PE"},"type":"Feature","geometry":{"type":"Point","coordinates":[-79.200066,34.80449]}},{"properties":{"city":"RECIFE","geo_score":0.271,"id":"ac2hf0g4izhs","address":"AV BOA VIAGEM 1642","geo_precision":"street","state":"PE"},"type":"Feature","geometry":{"type":"Point","coordinates":[-79.200066,34.80449]}},{"properties":{"city":"RECIFE","geo_score":0.277,"id":"ac2hf0h3qt6b","address":"AV BOA VIAGEM 130","geo_precision":"street","state":"PE"},"type":"Feature","geometry":{"type":"Point","coordinates":[-79.200066,34.80449]}},{"properties":{"city":"RECIFE","geo_score":0.283,"id":"ac2hf01nv0oc","address":"AV BOA VIAGEM 30","geo_precision":"street","state":"PE"},"type":"Feature","geometry":{"type":"Point","coordinates":[-79.200066,34.80449]}},{"properties":{"city":"RECIFE","geo_score":0.277,"id":"ac2hf0429zfd","address":"AV BOA VIAGEM 420","geo_precision":"street","state":"PE"},"type":"Feature","geometry":{"type":"Point","coordinates":[-79.200066,34.80449]}},{"properties":{"city":"RECIFE","geo_score":0.277,"id":"ac2hf0b64as8","address":"AV BOA VIAGEM 178","geo_precision":"street","state":"PE"},"type":"Feature","geometry":{"type":"Point","coordinates":[-79.200066,34.80449]}},{"properties":{"city":"RECIFE","geo_score":0.277,"id":"ac2hf0ap2zuj","address":"AV BOA VIAGEM 420","geo_precision":"street","state":"PE"},"type":"Feature","geometry":{"type":"Point","coordinates":[-79.200066,34.80449]}},{"properties":{"city":"RECIFE","geo_score":0.277,"id":"ac2hf0474xnp","address":"AV BOA VIAGEM 178","geo_precision":"street","state":"PE"},"type":"Feature","geometry":{"type":"Point","coordinates":[-79.200066,34.80449]}},{"properties":{"city":"RECIFE","geo_score":0.271,"id":"ac2hf0fav2p9","address":"AV BOA VIAGEM 4798","geo_precision":"street","state":"PE"},"type":"Feature","geometry":{"type":"Point","coordinates":[-79.200066,34.80449]}},{"properties":{"city":"RECIFE","geo_score":0.277,"id":"ac2hf0889cid","address":"AV BOA VIAGEM 178","geo_precision":"street","state":"PE"},"type":"Feature","geometry":{"type":"Point","coordinates":[-79.200066,34.80449]}},{"properties":{"city":"RECIFE","geo_score":0.277,"id":"ac2hf047an2b","address":"AV BOA VIAGEM 420","geo_precision":"street","state":"PE"},"type":"Feature","geometry":{"type":"Point","coordinates":[-79.200066,34.80449]}},{"properties":{"city":"RECIFE","geo_score":0.277,"id":"ac2hf0e2alo5","address":"AV BOA VIAGEM 420","geo_precision":"street","state":"PE"},"type":"Feature","geometry":{"type":"Point","coordinates":[-79.200066,34.80449]}},{"properties":{"city":"RECIFE","geo_score":0.277,"id":"ac2hf0fl9fbu","address":"AV BOA VIAGEM 178","geo_precision":"street","state":"PE"},"type":"Feature","geometry":{"type":"Point","coordinates":[-79.200066,34.80449]}},{"properties":{"city":"RECIFE","geo_score":0.271,"id":"ac2hf0aarkvh","address":"AV BOA VIAGEM 1906","geo_precision":"street","state":"PE"},"type":"Feature","geometry":{"type":"Point","coordinates":[-79.200066,34.80449]}},{"properties":{"city":"RECIFE","geo_score":0.277,"id":"ac2hf08e213p","address":"AV BOA VIAGEM 178","geo_precision":"street","state":"PE"},"type":"Feature","geometry":{"type":"Point","coordinates":[-79.200066,34.80449]}},{"properties":{"city":"RECIFE","geo_score":0.271,"id":"ac2hf02i2v7x","address":"AV BOA VIAGEM 6396","geo_precision":"street","state":"PE"},"type":"Feature","geometry":{"type":"Point","coordinates":[-79.200066,34.80449]}},{"properties":{"city":"RECIFE","geo_score":0.271,"id":"ac2hf06bvwtt","address":"AV BOA VIAGEM 3984","geo_precision":"street","state":"PE"},"type":"Feature","geometry":{"type":"Point","coordinates":[-79.200066,34.80449]}},{"properties":{"city":"RECIFE","geo_score":0.271,"id":"ac2hf0hclg3q","address":"AV BOA VIAGEM 3296","geo_precision":"street","state":"PE"},"type":"Feature","geometry":{"type":"Point","coordinates":[-79.200066,34.80449]}},{"properties":{"city":"RECIFE","geo_score":0.277,"id":"ac2hf0d7n9w1","address":"AV BOA VIAGEM 130","geo_precision":"street","state":"PE"},"type":"Feature","geometry":{"type":"Point","coordinates":[-79.200066,34.80449]}},{"properties":{"city":"RECIFE","geo_score":0.271,"id":"ac2hf02jabmi","address":"AV BOA VIAGEM 2876","geo_precision":"street","state":"PE"},"type":"Feature","geometry":{"type":"Point","coordinates":[-79.200066,34.80449]}},{"properties":{"city":"RECIFE","geo_score":0.291,"id":"ac2hf0dxiu4r","address":"AV BOA VIAGEM 100","geo_precision":"street","state":"PE"},"type":"Feature","geometry":{"type":"Point","coordinates":[-91.437722,38.705211]}},{"properties":{"city":"RECIFE","geo_score":0.277,"id":"ac2hf0938cyq","address":"AV BOA VIAGEM 344","geo_precision":"street","state":"PE"},"type":"Feature","geometry":{"type":"Point","coordinates":[-79.200066,34.80449]}},{"properties":{"city":"RECIFE","geo_score":0.271,"id":"ac2hf0hd7b8k","address":"AV BOA VIAGEM 3574","geo_precision":"street","state":"PE"},"type":"Feature","geometry":{"type":"Point","coordinates":[-79.200066,34.80449]}},{"properties":{"city":"RECIFE","geo_score":0.277,"id":"ac2hf07h80mf","address":"AV BOA VIAGEM 420","geo_precision":"street","state":"PE"},"type":"Feature","geometry":{"type":"Point","coordinates":[-79.200066,34.80449]}},{"properties":{"city":"RECIFE","geo_score":0.271,"id":"ac2hf09nsvtk","address":"AV BOA VIAGEM 1906","geo_precision":"street","state":"PE"},"type":"Feature","geometry":{"type":"Point","coordinates":[-79.200066,34.80449]}},{"properties":{"city":"RECIFE","geo_score":0.283,"id":"ac2hf0dtwf62","address":"AV BOA VIAGEM 30","geo_precision":"street","state":"PE"},"type":"Feature","geometry":{"type":"Point","coordinates":[-79.200066,34.80449]}},{"properties":{"city":"RECIFE","geo_score":0.277,"id":"ac2hf0db54a1","address":"AV BOA VIAGEM 848","geo_precision":"street","state":"PE"},"type":"Feature","geometry":{"type":"Point","coordinates":[-79.200066,34.80449]}},{"properties":{"city":"RECIFE","geo_score":0.277,"id":"ac2hf02kj0rk","address":"AV BOA VIAGEM 420","geo_precision":"street","state":"PE"},"type":"Feature","geometry":{"type":"Point","coordinates":[-79.200066,34.80449]}},{"properties":{"city":"RECIFE","geo_score":0.277,"id":"ac2hf0ft7d25","address":"AV BOA VIAGEM 360","geo_precision":"street","state":"PE"},"type":"Feature","geometry":{"type":"Point","coordinates":[-79.200066,34.80449]}},{"properties":{"city":"RECIFE","geo_score":0.271,"id":"ac2hf0b6shnb","address":"AV BOA VIAGEM 1906","geo_precision":"street","state":"PE"},"type":"Feature","geometry":{"type":"Point","coordinates":[-79.200066,34.80449]}},{"properties":{"city":"RECIFE","geo_score":0.271,"id":"ac2hf0533szi","address":"AV BOA VIAGEM 1800","geo_precision":"street","state":"PE"},"type":"Feature","geometry":{"type":"Point","coordinates":[-79.200066,34.80449]}},{"properties":{"city":"RECIFE","geo_score":0.271,"id":"ac2hf0ehh7q6","address":"AV BOA VIAGEM 5526","geo_precision":"street","state":"PE"},"type":"Feature","geometry":{"type":"Point","coordinates":[-79.200066,34.80449]}},{"properties":{"city":"RECIFE","geo_score":0.271,"id":"ac2hf02gqrq2","address":"AV BOA VIAGEM 5868","geo_precision":"street","state":"PE"},"type":"Feature","geometry":{"type":"Point","coordinates":[-79.200066,34.80449]}},{"properties":{"city":"RECIFE","geo_score":0.277,"id":"ac2hf0dxkctr","address":"AV BOA VIAGEM 420","geo_precision":"street","state":"PE"},"type":"Feature","geometry":{"type":"Point","coordinates":[-79.200066,34.80449]}},{"properties":{"city":"RECIFE","geo_score":0.271,"id":"ac2hf074uvhs","address":"AV BOA VIAGEM 4988","geo_precision":"street","state":"PE"},"type":"Feature","geometry":{"type":"Point","coordinates":[-79.200066,34.80449]}},{"properties":{"city":"RECIFE","geo_score":0.271,"id":"ac2hf02kvajj","address":"AV BOA VIAGEM 2080","geo_precision":"street","state":"PE"},"type":"Feature","geometry":{"type":"Point","coordinates":[-79.200066,34.80449]}},{"properties":{"city":"RECIFE","geo_score":0.271,"id":"ac2hf02wo905","address":"AV BOA VIAGEM 2080","geo_precision":"street","state":"PE"},"type":"Feature","geometry":{"type":"Point","coordinates":[-79.200066,34.80449]}},{"properties":{"city":"RECIFE","geo_score":0.277,"id":"ac2hf0f51077","address":"AV BOA VIAGEM 420","geo_precision":"street","state":"PE"},"type":"Feature","geometry":{"type":"Point","coordinates":[-79.200066,34.80449]}},{"properties":{"city":"RECIFE","geo_score":0.271,"id":"ac2hf06l1vji","address":"AV BOA VIAGEM 4574","geo_precision":"street","state":"PE"},"type":"Feature","geometry":{"type":"Point","coordinates":[-79.200066,34.80449]}},{"properties":{"city":"RECIFE","geo_score":0.277,"id":"ac2hf0apzqa7","address":"AV BOA VIAGEM 420","geo_precision":"street","state":"PE"},"type":"Feature","geometry":{"type":"Point","coordinates":[-79.200066,34.80449]}},{"properties":{"city":"RECIFE","geo_score":0.271,"id":"ac2hf01gk80u","address":"AV BOA VIAGEM 6396","geo_precision":"street","state":"PE"},"type":"Feature","geometry":{"type":"Point","coordinates":[-79.200066,34.80449]}},{"properties":{"city":"RECIFE","geo_score":0.271,"id":"ac2hf0frx8io","address":"AV BOA VIAGEM 3574","geo_precision":"street","state":"PE"},"type":"Feature","geometry":{"type":"Point","coordinates":[-79.200066,34.80449]}},{"properties":{"city":"RECIFE","geo_score":0.271,"id":"ac2hf0foegsi","address":"AV BOA VIAGEM 4988","geo_precision":"street","state":"PE"},"type":"Feature","geometry":{"type":"Point","coordinates":[-79.200066,34.80449]}},{"properties":{"city":"RECIFE","geo_score":0.277,"id":"ac2hf0eziaml","address":"AV BOA VIAGEM 178","geo_precision":"street","state":"PE"},"type":"Feature","geometry":{"type":"Point","coordinates":[-79.200066,34.80449]}},{"properties":{"city":"RECIFE","geo_score":0.277,"id":"ac2hf0g30sw9","address":"AV BOA VIAGEM 420","geo_precision":"street","state":"PE"},"type":"Feature","geometry":{"type":"Point","coordinates":[-79.200066,34.80449]}},{"properties":{"city":"RECIFE","geo_score":0.277,"id":"ac2hf0g5pb39","address":"AV BOA VIAGEM 420","geo_precision":"street","state":"PE"},"type":"Feature","geometry":{"type":"Point","coordinates":[-79.200066,34.80449]}},{"properties":{"city":"RECIFE","geo_score":0.271,"id":"ac2hf0ddymt1","address":"AV BOA VIAGEM 2294","geo_precision":"street","state":"PE"},"type":"Feature","geometry":{"type":"Point","coordinates":[-79.200066,34.80449]}},{"properties":{"city":"RECIFE","geo_score":0.277,"id":"ac2hf08jy8zv","address":"AV BOA VIAGEM 420","geo_precision":"street","state":"PE"},"type":"Feature","geometry":{"type":"Point","coordinates":[-79.200066,34.80449]}},{"properties":{"city":"RECIFE","geo_score":0.277,"id":"ac2hf0cfrfm8","address":"AV BOA VIAGEM 130","geo_precision":"street","state":"PE"},"type":"Feature","geometry":{"type":"Point","coordinates":[-79.200066,34.80449]}},{"properties":{"city":"RECIFE","geo_score":0.271,"id":"ac2hf0c5mfly","address":"AV BOA VIAGEM 4660","geo_precision":"street","state":"PE"},"type":"Feature","geometry":{"type":"Point","coordinates":[-79.200066,34.80449]}},{"properties":{"city":"RECIFE","geo_score":0.271,"id":"ac2hf054vwfq","address":"AV BOA VIAGEM 6274","geo_precision":"street","state":"PE"},"type":"Feature","geometry":{"type":"Point","coordinates":[-79.200066,34.80449]}},{"properties":{"city":"RECIFE","geo_score":0.271,"id":"ac2hf0bj0zu6","address":"AV BOA VIAGEM 4424","geo_precision":"street","state":"PE"},"type":"Feature","geometry":{"type":"Point","coordinates":[-79.200066,34.80449]}},{"properties":{"city":"RECIFE","geo_score":0.271,"id":"ac2hf0glsoke","address":"AV BOA VIAGEM 1688","geo_precision":"street","state":"PE"},"type":"Feature","geometry":{"type":"Point","coordinates":[-79.200066,34.80449]}},{"properties":{"city":"RECIFE","geo_score":0.277,"id":"ac2hf0gauv4p","address":"AV BOA VIAGEM 420","geo_precision":"street","state":"PE"},"type":"Feature","geometry":{"type":"Point","coordinates":[-79.200066,34.80449]}},{"properties":{"city":"RECIFE","geo_score":0.271,"id":"ac2hf06zxvig","address":"AV BOA VIAGEM 2876","geo_precision":"street","state":"PE"},"type":"Feature","geometry":{"type":"Point","coordinates":[-79.200066,34.80449]}}],"is_temporal":false,"author":{"url":"","metadata":"","contact_name":"","contact_address":"","source":"","contact_phone":""},"source":"","pagination":{"sort":null,"start":0,"total":399,"limit":1000000},"state":"complete","tags":"","published":"2014-08-17T01:12:49-04:00","id":318958}