{"type":"FeatureCollection","data_type":"Dataset","url_type":null,"permissions":[{"permissions":{"download":true,"view":true},"group_id":"everyone"}],"classification":null,"title":"Quick team","count":9,"stream_id":31937,"contributor":{"url":"http://geocommons.com/users/11605","name":"sullivkd"},"data_attributes":null,"calculation_params":null,"icon_link":null,"link":"http://geocommons.com/overlays/31937.json","extent":[-97.8572,29.834,-95.261,33.1571],"geometry_types":["point"],"unique_name":null,"name":"Quick team","feature_count":9,"description":"","next_feature":null,"is_raster":false,"short_classification":"Y","stats":{"geo_score":{"max":1.0,"mean":0.935111111111111,"variance":0.00709961111111111,"stdev":0.0842591900691616,"min":0.771,"median":1.0}},"features":[{"properties":{"city":"Dallas","zip":"75244","geo_score":1.0,"id":"a6wc1j2lhfbk","geo_precision":"zip","state":"Tx"},"type":"Feature","geometry":{"type":"Point","coordinates":[-96.777626,32.767268]}},{"properties":{"city":"Dripping Springs","zip":null,"geo_score":0.771,"id":"a6wc1iyu38sc","geo_precision":"city","state":"TX"},"type":"Feature","geometry":{"type":"Point","coordinates":[-95.41716,30.079941]}},{"properties":{"city":"Houston","zip":"77225","geo_score":1.0,"id":"a6wc1iqldi8r","geo_precision":"zip","state":"Tx"},"type":"Feature","geometry":{"type":"Point","coordinates":[-95.434241,29.83399]}},{"properties":{"city":"Kingwood","zip":"77325","geo_score":1.0,"id":"a6wc1ipkfgqn","geo_precision":"zip","state":"Tx"},"type":"Feature","geometry":{"type":"Point","coordinates":[-95.261044,30.033553]}},{"properties":{"city":"cedar park","zip":"78613","geo_score":1.0,"id":"a6wc1ipkp7zg","geo_precision":"zip","state":"tx"},"type":"Feature","geometry":{"type":"Point","coordinates":[-97.628724,30.494032]}},{"properties":{"city":"frisco","zip":"75035","geo_score":1.0,"id":"a6wc1j3u5j1u","geo_precision":"zip","state":"tx"},"type":"Feature","geometry":{"type":"Point","coordinates":[-96.772929,33.157083]}},{"properties":{"city":"round rock","zip":"78664","geo_score":0.871,"id":"a6wc1ixdkzju","geo_precision":"zip","state":"tx"},"type":"Feature","geometry":{"type":"Point","coordinates":[-97.662228,30.451591]}},{"properties":{"city":"town n country","zip":"78749","geo_score":0.881,"id":"a6wc1j42rax6","geo_precision":"zip","state":"tx"},"type":"Feature","geometry":{"type":"Point","coordinates":[-97.857187,30.207969]}},{"properties":{"city":"westlake","zip":"78701","geo_score":0.893,"id":"a6wc1ipg6psn","geo_precision":"zip","state":"tx"},"type":"Feature","geometry":{"type":"Point","coordinates":[-97.741382,30.268335]}}],"is_temporal":false,"author":{"url":"","metadata":"","contact_name":"","contact_address":"","source":"","contact_phone":""},"source":"","pagination":{"sort":null,"start":0,"total":9,"limit":1000000},"state":"complete","tags":"","published":"2014-08-10T13:03:18-04:00","id":31937}