{"type":"FeatureCollection","data_type":"Dataset","url_type":null,"permissions":[{"permissions":{"download":true,"view":true},"group_id":"everyone"}],"classification":null,"title":"Northeast Blizzard - Feb 8, 2013","count":186,"stream_id":319590,"contributor":{"url":"http://geocommons.com/users/28467","name":"bheberto"},"data_attributes":null,"calculation_params":null,"icon_link":null,"link":"http://geocommons.com/overlays/319590.json","extent":[-123.274,25.9662,-67.1369,48.6472],"geometry_types":["point"],"unique_name":null,"name":"Northeast Blizzard - Feb 8, 2013","feature_count":186,"description":"","next_feature":null,"is_raster":false,"short_classification":"Y","stats":{"inches":{"max":33.5,"variance":97.8751435629177,"mean":12.5543010752688,"stdev":9.89318672435317,"min":0.1,"median":11.5},"time":{"max":"2013/02/10 13:30:00 -0500","variance":657150888.230166,"mean":"2013/02/09 23:41:59 -0500","stdev":25634.954422237,"min":"2013/02/09 14:49:00 -0500","median":"2013/02/09 21:00:00 -0500"}},"features":[{"properties":{"city":"WINSTED","time":{"end_time":"2013/02/09 17:16:00 -0500","original":"5:15 PM on 02/9/2013","granularity":"min","time":"2013/02/09 17:15:00 -0500"},"inches":19.5,"geo_score":0.571,"id":"ac4ay5adp02r","geo_precision":"city","state":"CT"},"type":"Feature","geometry":{"type":"Point","coordinates":[-79.928113,39.758967]}},{"properties":{"city":"BECKET","time":{"end_time":"2013/02/09 16:11:00 -0500","original":"4:10 PM on 02/9/2013","granularity":"min","time":"2013/02/09 16:10:00 -0500"},"inches":15.0,"geo_score":0.571,"id":"ac4ay599s2it","geo_precision":"city","state":"MA"},"type":"Feature","geometry":{"type":"Point","coordinates":[-89.437684,36.158668]}},{"properties":{"city":"LANESBOROUGH","time":{"end_time":"2013/02/09 16:31:00 -0500","original":"4:30 PM on 02/9/2013","granularity":"min","time":"2013/02/09 16:30:00 -0500"},"inches":12.0,"geo_score":0.571,"id":"ac4ay534dnxq","geo_precision":"city","state":"MA"},"type":"Feature","geometry":{"type":"Point","coordinates":[-86.800007,40.000321]}},{"properties":{"city":"FONDA","time":{"end_time":"2013/02/09 17:31:00 -0500","original":"5:30 PM on 02/9/2013","granularity":"min","time":"2013/02/09 17:30:00 -0500"},"inches":9.6,"geo_score":0.571,"id":"ac4ay582gbor","geo_precision":"city","state":"NY"},"type":"Feature","geometry":{"type":"Point","coordinates":[-73.097634,44.871433]}},{"properties":{"city":"SPEIGLETOWN","time":{"end_time":"2013/02/09 15:17:00 -0500","original":"3:16 PM on 02/9/2013","granularity":"min","time":"2013/02/09 15:16:00 -0500"},"inches":6.0,"geo_score":0.571,"id":"ac4ay5cvnz6l","geo_precision":"city","state":"NY"},"type":"Feature","geometry":{"type":"Point","coordinates":[-73.634284,42.804522]}},{"properties":{"city":"BUSKIRK","time":{"end_time":"2013/02/09 16:26:00 -0500","original":"4:25 PM on 02/9/2013","granularity":"min","time":"2013/02/09 16:25:00 -0500"},"inches":5.0,"geo_score":0.571,"id":"ac4ay5exc6yt","geo_precision":"city","state":"NY"},"type":"Feature","geometry":{"type":"Point","coordinates":[-82.168745,37.619549]}},{"properties":{"city":"MIDDLEBURGH","time":{"end_time":"2013/02/09 17:19:00 -0500","original":"5:18 PM on 02/9/2013","granularity":"min","time":"2013/02/09 17:18:00 -0500"},"inches":13.8,"geo_score":0.571,"id":"ac4ay5hkgf3j","geo_precision":"city","state":"NY"},"type":"Feature","geometry":{"type":"Point","coordinates":[-78.327491,36.413473]}},{"properties":{"city":"CHARLOTTEVILLE","time":{"end_time":"2013/02/09 17:23:00 -0500","original":"5:22 PM on 02/9/2013","granularity":"min","time":"2013/02/09 17:22:00 -0500"},"inches":9.2,"geo_score":0.571,"id":"ac4ay5hkn4rx","geo_precision":"city","state":"NY"},"type":"Feature","geometry":{"type":"Point","coordinates":[-82.522354,32.011298]}},{"properties":{"city":"JEFFERSON","time":{"end_time":"2013/02/09 15:30:00 -0500","original":"3:29 PM on 02/9/2013","granularity":"min","time":"2013/02/09 15:29:00 -0500"},"inches":9.0,"geo_score":0.571,"id":"ac4ay5dsjqty","geo_precision":"city","state":"NY"},"type":"Feature","geometry":{"type":"Point","coordinates":[-75.211849,39.753725]}},{"properties":{"city":"HIGHMOUNT","time":{"end_time":"2013/02/09 15:48:00 -0500","original":"3:47 PM on 02/9/2013","granularity":"min","time":"2013/02/09 15:47:00 -0500"},"inches":8.0,"geo_score":0.571,"id":"ac4ay5egkf57","geo_precision":"city","state":"NY"},"type":"Feature","geometry":{"type":"Point","coordinates":[-77.560523,34.954329]}},{"properties":{"city":"AUBURN","time":{"end_time":"2013/02/10 08:00:00 -0500","original":"7:00 AM on 02/10/2013","granularity":"hour","time":"2013/02/10 07:00:00 -0500"},"inches":1.6,"geo_score":0.571,"id":"ac4ay52lymok","geo_precision":"city","state":"NY"},"type":"Feature","geometry":{"type":"Point","coordinates":[-90.607878,31.359341]}},{"properties":{"city":"COOPERSTOWN","time":{"end_time":"2013/02/11 00:00:00 -0500","original":"12:00 AM on 02/10/2013","granularity":"day","time":"2013/02/10 00:00:00 -0500"},"inches":2.0,"geo_score":0.571,"id":"ac4ay5hocq86","geo_precision":"city","state":"NY"},"type":"Feature","geometry":{"type":"Point","coordinates":[-74.890929,42.714065]}},{"properties":{"city":"3 NE CANDOR","time":{"end_time":"2013/02/10 08:00:00 -0500","original":"7:00 AM on 02/10/2013","granularity":"hour","time":"2013/02/10 07:00:00 -0500"},"inches":2.0,"geo_score":0.571,"id":"ac4ay5hknls0","geo_precision":"city","state":"NY"},"type":"Feature","geometry":{"type":"Point","coordinates":[-100.238001,39.063613]}},{"properties":{"city":"2 N BERKSHIRE","time":{"end_time":"2013/02/10 09:00:00 -0500","original":"8:00 AM on 02/10/2013","granularity":"hour","time":"2013/02/10 08:00:00 -0500"},"inches":1.0,"geo_score":0.571,"id":"ac4ay5ahoytu","geo_precision":"city","state":"NY"},"type":"Feature","geometry":{"type":"Point","coordinates":[-74.319024,43.04924]}},{"properties":{"city":"CAROLINE CENTER","time":{"end_time":"2013/02/10 08:00:00 -0500","original":"7:00 AM on 02/10/2013","granularity":"hour","time":"2013/02/10 07:00:00 -0500"},"inches":2.3,"geo_score":0.571,"id":"ac4ay528i8tp","geo_precision":"city","state":"NY"},"type":"Feature","geometry":{"type":"Point","coordinates":[-76.39966,42.371184]}},{"properties":{"city":"2 NE FREEVILLE","time":{"end_time":"2013/02/10 08:00:00 -0500","original":"7:00 AM on 02/10/2013","granularity":"hour","time":"2013/02/10 07:00:00 -0500"},"inches":1.1,"geo_score":0.571,"id":"ac4ay5bnzip1","geo_precision":"city","state":"NY"},"type":"Feature","geometry":{"type":"Point","coordinates":[-123.274269,44.928174]}},{"properties":{"city":"GLASTONBURY","time":{"end_time":"2013/02/09 15:27:00 -0500","original":"3:26 PM on 02/9/2013","granularity":"min","time":"2013/02/09 15:26:00 -0500"},"inches":33.5,"geo_score":0.571,"id":"ac4ay534srsj","geo_precision":"city","state":"CT"},"type":"Feature","geometry":{"type":"Point","coordinates":[-80.555355,39.847857]}},{"properties":{"city":"MANCHESTER","time":{"end_time":"2013/02/09 15:38:00 -0500","original":"3:37 PM on 02/9/2013","granularity":"min","time":"2013/02/09 15:37:00 -0500"},"inches":30.0,"geo_score":0.571,"id":"ac4ay5aa1v4e","geo_precision":"city","state":"CT"},"type":"Feature","geometry":{"type":"Point","coordinates":[-73.865968,41.684538]}},{"properties":{"city":"NEWINGTON","time":{"end_time":"2013/02/09 19:25:00 -0500","original":"7:24 PM on 02/9/2013","granularity":"min","time":"2013/02/09 19:24:00 -0500"},"inches":30.0,"geo_score":0.571,"id":"ac4ay5asnj9e","geo_precision":"city","state":"CT"},"type":"Feature","geometry":{"type":"Point","coordinates":[-77.288755,38.831813]}},{"properties":{"city":"POMFRET CENTER","time":{"end_time":"2013/02/09 18:50:00 -0500","original":"6:49 PM on 02/9/2013","granularity":"min","time":"2013/02/09 18:49:00 -0500"},"inches":21.0,"geo_score":0.571,"id":"ac4ay5i2824x","geo_precision":"city","state":"CT"},"type":"Feature","geometry":{"type":"Point","coordinates":[-71.935906,41.849543]}},{"properties":{"city":"EAST SANDWICH","time":{"end_time":"2013/02/09 16:48:00 -0500","original":"4:47 PM on 02/9/2013","granularity":"min","time":"2013/02/09 16:47:00 -0500"},"inches":17.0,"geo_score":0.571,"id":"ac4ay58lrlz9","geo_precision":"city","state":"MA"},"type":"Feature","geometry":{"type":"Point","coordinates":[-71.930077,44.468494]}},{"properties":{"city":"SOUTH ATTLEBORO","time":{"end_time":"2013/02/09 15:15:00 -0500","original":"3:14 PM on 02/9/2013","granularity":"min","time":"2013/02/09 15:14:00 -0500"},"inches":22.0,"geo_score":0.571,"id":"ac4ay5764mys","geo_precision":"city","state":"MA"},"type":"Feature","geometry":{"type":"Point","coordinates":[-71.362,41.908433]}},{"properties":{"city":"ACUSHNET","time":{"end_time":"2013/02/09 15:00:00 -0500","original":"2:59 PM on 02/9/2013","granularity":"min","time":"2013/02/09 14:59:00 -0500"},"inches":21.5,"geo_score":0.571,"id":"ac4ay5gnid8j","geo_precision":"city","state":"MA"},"type":"Feature","geometry":{"type":"Point","coordinates":[-70.908286,41.711894]}},{"properties":{"city":"NORTH EASTON","time":{"end_time":"2013/02/09 15:11:00 -0500","original":"3:10 PM on 02/9/2013","granularity":"min","time":"2013/02/09 15:10:00 -0500"},"inches":21.0,"geo_score":0.571,"id":"ac4ay5gv61m6","geo_precision":"city","state":"MA"},"type":"Feature","geometry":{"type":"Point","coordinates":[-89.063497,37.991722]}},{"properties":{"city":"DIGHTON","time":{"end_time":"2013/02/09 18:20:00 -0500","original":"6:19 PM on 02/9/2013","granularity":"min","time":"2013/02/09 18:19:00 -0500"},"inches":20.0,"geo_score":0.571,"id":"ac4ay57azq6u","geo_precision":"city","state":"MA"},"type":"Feature","geometry":{"type":"Point","coordinates":[-75.186881,41.396988]}},{"properties":{"city":"NEW BEDFORD","time":{"end_time":"2013/02/09 19:45:00 -0500","original":"7:44 PM on 02/9/2013","granularity":"min","time":"2013/02/09 19:44:00 -0500"},"inches":16.5,"geo_score":0.571,"id":"ac4ay5hjck4t","geo_precision":"city","state":"MA"},"type":"Feature","geometry":{"type":"Point","coordinates":[-85.329441,38.603011]}},{"properties":{"city":"MIDDLETON","time":{"end_time":"2013/02/09 14:59:00 -0500","original":"2:58 PM on 02/9/2013","granularity":"min","time":"2013/02/09 14:58:00 -0500"},"inches":25.0,"geo_score":0.571,"id":"ac4ay51r0dt3","geo_precision":"city","state":"MA"},"type":"Feature","geometry":{"type":"Point","coordinates":[-85.424694,40.162266]}},{"properties":{"city":"SALEM","time":{"end_time":"2013/02/09 16:06:00 -0500","original":"4:05 PM on 02/9/2013","granularity":"min","time":"2013/02/09 16:05:00 -0500"},"inches":25.0,"geo_score":0.571,"id":"ac4ay58z7eq7","geo_precision":"city","state":"MA"},"type":"Feature","geometry":{"type":"Point","coordinates":[-70.278122,44.900612]}},{"properties":{"city":"MARBLEHEAD","time":{"end_time":"2013/02/09 15:07:00 -0500","original":"3:06 PM on 02/9/2013","granularity":"min","time":"2013/02/09 15:06:00 -0500"},"inches":23.0,"geo_score":0.571,"id":"ac4ay5coppj8","geo_precision":"city","state":"MA"},"type":"Feature","geometry":{"type":"Point","coordinates":[-70.770768,42.56142]}},{"properties":{"city":"ASHFIELD","time":{"end_time":"2013/02/09 16:25:00 -0500","original":"4:24 PM on 02/9/2013","granularity":"min","time":"2013/02/09 16:24:00 -0500"},"inches":22.0,"geo_score":0.571,"id":"ac4ay59e8dyf","geo_precision":"city","state":"MA"},"type":"Feature","geometry":{"type":"Point","coordinates":[-72.738152,42.562391]}},{"properties":{"city":"COLRAIN","time":{"end_time":"2013/02/09 14:50:00 -0500","original":"2:49 PM on 02/9/2013","granularity":"min","time":"2013/02/09 14:49:00 -0500"},"inches":16.0,"geo_score":0.571,"id":"ac4ay5h6zh28","geo_precision":"city","state":"MA"},"type":"Feature","geometry":{"type":"Point","coordinates":[-84.941315,31.137404]}},{"properties":{"city":"FRAMINGHAM","time":{"end_time":"2013/02/09 16:31:00 -0500","original":"4:30 PM on 02/9/2013","granularity":"min","time":"2013/02/09 16:30:00 -0500"},"inches":32.2,"geo_score":0.571,"id":"ac4ay54qprfo","geo_precision":"city","state":"MA"},"type":"Feature","geometry":{"type":"Point","coordinates":[-71.437006,42.297318]}},{"properties":{"city":"WINCHESTER","time":{"end_time":"2013/02/09 15:20:00 -0500","original":"3:19 PM on 02/9/2013","granularity":"min","time":"2013/02/09 15:19:00 -0500"},"inches":30.2,"geo_score":0.571,"id":"ac4ay5awy9i3","geo_precision":"city","state":"MA"},"type":"Feature","geometry":{"type":"Point","coordinates":[-78.786699,42.864781]}},{"properties":{"city":"WILMINGTON","time":{"end_time":"2013/02/09 15:24:00 -0500","original":"3:23 PM on 02/9/2013","granularity":"min","time":"2013/02/09 15:23:00 -0500"},"inches":29.0,"geo_score":0.571,"id":"ac4ay5dx5p31","geo_precision":"city","state":"MA"},"type":"Feature","geometry":{"type":"Point","coordinates":[-80.973723,32.003548]}},{"properties":{"city":"NORTH WOBURN","time":{"end_time":"2013/02/09 15:53:00 -0500","original":"3:52 PM on 02/9/2013","granularity":"min","time":"2013/02/09 15:52:00 -0500"},"inches":25.5,"geo_score":0.571,"id":"ac4ay5ao4x2s","geo_precision":"city","state":"MA"},"type":"Feature","geometry":{"type":"Point","coordinates":[-71.157271,42.488595]}},{"properties":{"city":"TOWNSEND","time":{"end_time":"2013/02/09 16:29:00 -0500","original":"4:28 PM on 02/9/2013","granularity":"min","time":"2013/02/09 16:28:00 -0500"},"inches":23.1,"geo_score":0.571,"id":"ac4ay52cjh9e","geo_precision":"city","state":"MA"},"type":"Feature","geometry":{"type":"Point","coordinates":[-88.605896,45.309457]}},{"properties":{"city":"HOLLISTON","time":{"end_time":"2013/02/09 15:00:00 -0500","original":"2:59 PM on 02/9/2013","granularity":"min","time":"2013/02/09 14:59:00 -0500"},"inches":20.5,"geo_score":0.571,"id":"ac4ay5dbzsr2","geo_precision":"city","state":"MA"},"type":"Feature","geometry":{"type":"Point","coordinates":[-91.171262,38.655327]}},{"properties":{"city":"CONCORD","time":{"end_time":"2013/02/09 15:16:00 -0500","original":"3:15 PM on 02/9/2013","granularity":"min","time":"2013/02/09 15:15:00 -0500"},"inches":20.5,"geo_score":0.571,"id":"ac4ay5hi9p8s","geo_precision":"city","state":"MA"},"type":"Feature","geometry":{"type":"Point","coordinates":[-83.491024,38.686185]}},{"properties":{"city":"FOXBORO","time":{"end_time":"2013/02/09 16:07:00 -0500","original":"4:06 PM on 02/9/2013","granularity":"min","time":"2013/02/09 16:06:00 -0500"},"inches":29.0,"geo_score":0.0,"id":"ac4ay52w5k51","geo_precision":"unmatched","state":"MA"},"type":"Feature","geometry":null},{"properties":{"city":"BROOKLINE","time":{"end_time":"2013/02/09 19:04:00 -0500","original":"7:03 PM on 02/9/2013","granularity":"min","time":"2013/02/09 19:03:00 -0500"},"inches":26.0,"geo_score":0.571,"id":"ac4ay54jjgdk","geo_precision":"city","state":"MA"},"type":"Feature","geometry":{"type":"Point","coordinates":[-94.040786,40.398333]}},{"properties":{"city":"NORTH WEYMOUTH","time":{"end_time":"2013/02/09 17:00:00 -0500","original":"4:00 PM on 02/9/2013","granularity":"hour","time":"2013/02/09 16:00:00 -0500"},"inches":25.8,"geo_score":0.571,"id":"ac4ay55c8enj","geo_precision":"city","state":"MA"},"type":"Feature","geometry":{"type":"Point","coordinates":[-81.794299,41.18561]}},{"properties":{"city":"FRANKLIN","time":{"end_time":"2013/02/09 15:31:00 -0500","original":"3:30 PM on 02/9/2013","granularity":"min","time":"2013/02/09 15:30:00 -0500"},"inches":23.9,"geo_score":0.571,"id":"ac4ay5db3qfs","geo_precision":"city","state":"MA"},"type":"Feature","geometry":{"type":"Point","coordinates":[-83.147024,34.274306]}},{"properties":{"city":"HANOVER","time":{"end_time":"2013/02/09 16:08:00 -0500","original":"4:07 PM on 02/9/2013","granularity":"min","time":"2013/02/09 16:07:00 -0500"},"inches":20.0,"geo_score":0.571,"id":"ac4ay536x47o","geo_precision":"city","state":"MA"},"type":"Feature","geometry":{"type":"Point","coordinates":[-101.42654,47.111388]}},{"properties":{"city":"SOUTH BOSTON","time":{"end_time":"2013/02/09 15:29:00 -0500","original":"3:28 PM on 02/9/2013","granularity":"min","time":"2013/02/09 15:28:00 -0500"},"inches":28.0,"geo_score":0.571,"id":"ac4ay52gt8tk","geo_precision":"city","state":"MA"},"type":"Feature","geometry":{"type":"Point","coordinates":[-81.559563,41.263389]}},{"properties":{"city":"WEST ROXBURY","time":{"end_time":"2013/02/09 15:30:00 -0500","original":"3:29 PM on 02/9/2013","granularity":"min","time":"2013/02/09 15:29:00 -0500"},"inches":25.0,"geo_score":0.571,"id":"ac4ay5buog6q","geo_precision":"city","state":"MA"},"type":"Feature","geometry":{"type":"Point","coordinates":[-79.787001,34.943209]}},{"properties":{"city":"FITCHBURG","time":{"end_time":"2013/02/09 15:05:00 -0500","original":"3:04 PM on 02/9/2013","granularity":"min","time":"2013/02/09 15:04:00 -0500"},"inches":30.2,"geo_score":0.571,"id":"ac4ay55bmopy","geo_precision":"city","state":"MA"},"type":"Feature","geometry":{"type":"Point","coordinates":[-84.277741,42.439203]}},{"properties":{"city":"CLINTON","time":{"end_time":"2013/02/09 18:36:00 -0500","original":"6:35 PM on 02/9/2013","granularity":"min","time":"2013/02/09 18:35:00 -0500"},"inches":29.2,"geo_score":0.571,"id":"ac4ay5a0v7l8","geo_precision":"city","state":"MA"},"type":"Feature","geometry":{"type":"Point","coordinates":[-84.268264,38.085078]}},{"properties":{"city":"TEMPLETON","time":{"end_time":"2013/02/09 17:33:00 -0500","original":"5:32 PM on 02/9/2013","granularity":"min","time":"2013/02/09 17:32:00 -0500"},"inches":28.0,"geo_score":0.571,"id":"ac4ay5eolvii","geo_precision":"city","state":"MA"},"type":"Feature","geometry":{"type":"Point","coordinates":[-72.072285,42.555059]}},{"properties":{"city":"LEICESTER","time":{"end_time":"2013/02/09 15:09:00 -0500","original":"3:08 PM on 02/9/2013","granularity":"min","time":"2013/02/09 15:08:00 -0500"},"inches":24.0,"geo_score":0.571,"id":"ac4ay553c9h1","geo_precision":"city","state":"MA"},"type":"Feature","geometry":{"type":"Point","coordinates":[-73.107891,43.866729]}},{"properties":{"city":"ASHBURNHAM","time":{"end_time":"2013/02/09 15:06:00 -0500","original":"3:05 PM on 02/9/2013","granularity":"min","time":"2013/02/09 15:05:00 -0500"},"inches":23.5,"geo_score":0.571,"id":"ac4ay555dn90","geo_precision":"city","state":"MA"},"type":"Feature","geometry":{"type":"Point","coordinates":[-77.645224,39.085309]}},{"properties":{"city":"HUDSON","time":{"end_time":"2013/02/09 15:24:00 -0500","original":"3:23 PM on 02/9/2013","granularity":"min","time":"2013/02/09 15:23:00 -0500"},"inches":21.7,"geo_score":0.571,"id":"ac4ay5erxiey","geo_precision":"city","state":"NH"},"type":"Feature","geometry":{"type":"Point","coordinates":[-85.113166,41.577125]}},{"properties":{"city":"2 NNW WARWICK","time":{"end_time":"2013/02/09 20:00:00 -0500","original":"7:00 PM on 02/9/2013","granularity":"hour","time":"2013/02/09 19:00:00 -0500"},"inches":17.0,"geo_score":0.571,"id":"ac4ay58oos4a","geo_precision":"city","state":"RI"},"type":"Feature","geometry":{"type":"Point","coordinates":[-90.798946,35.274844]}},{"properties":{"city":"WARWICK","time":{"end_time":"2013/02/09 14:57:00 -0500","original":"2:56 PM on 02/9/2013","granularity":"min","time":"2013/02/09 14:56:00 -0500"},"inches":15.0,"geo_score":0.0,"id":"ac4ay5a760jg","geo_precision":"unmatched","state":"RI"},"type":"Feature","geometry":null},{"properties":{"city":"MIDDLETOWN","time":{"end_time":"2013/02/09 21:48:00 -0500","original":"9:47 PM on 02/9/2013","granularity":"min","time":"2013/02/09 21:47:00 -0500"},"inches":16.0,"geo_score":0.571,"id":"ac4ay5a71ing","geo_precision":"city","state":"RI"},"type":"Feature","geometry":{"type":"Point","coordinates":[-85.424694,40.162266]}},{"properties":{"city":"WOONSOCKET","time":{"end_time":"2013/02/10 02:00:00 -0500","original":"1:00 AM on 02/10/2013","granularity":"hour","time":"2013/02/10 01:00:00 -0500"},"inches":26.4,"geo_score":0.571,"id":"ac4ay58jjzep","geo_precision":"city","state":"RI"},"type":"Feature","geometry":{"type":"Point","coordinates":[-72.637078,40.922326]}},{"properties":{"city":"EAST PROVIDENCE","time":{"end_time":"2013/02/09 15:58:00 -0500","original":"3:57 PM on 02/9/2013","granularity":"min","time":"2013/02/09 15:57:00 -0500"},"inches":17.3,"geo_score":0.571,"id":"ac4ay5b35r3a","geo_precision":"city","state":"RI"},"type":"Feature","geometry":{"type":"Point","coordinates":[-86.812223,34.272597]}},{"properties":{"city":"1 S WELLSVILLE","time":{"end_time":"2013/02/10 07:00:00 -0500","original":"6:00 AM on 02/10/2013","granularity":"hour","time":"2013/02/10 06:00:00 -0500"},"inches":0.2,"geo_score":0.571,"id":"ac4ay5d5rqj2","geo_precision":"city","state":"NY"},"type":"Feature","geometry":{"type":"Point","coordinates":[-95.149986,38.642244]}},{"properties":{"city":"ALFRED","time":{"end_time":"2013/02/10 08:00:00 -0500","original":"7:00 AM on 02/10/2013","granularity":"hour","time":"2013/02/10 07:00:00 -0500"},"inches":0.1,"geo_score":0.571,"id":"ac4ay52pyjor","geo_precision":"city","state":"NY"},"type":"Feature","geometry":{"type":"Point","coordinates":[-83.92379,31.462401]}},{"properties":{"city":"4 SW WEST ALMOND","time":{"end_time":"2013/02/10 07:31:00 -0500","original":"7:30 AM on 02/10/2013","granularity":"min","time":"2013/02/10 07:30:00 -0500"},"inches":0.1,"geo_score":0.571,"id":"ac4ay57fz88d","geo_precision":"city","state":"NY"},"type":"Feature","geometry":{"type":"Point","coordinates":[-85.621623,33.146508]}},{"properties":{"city":"5 N ALLEGANY","time":{"end_time":"2013/02/10 08:00:00 -0500","original":"7:00 AM on 02/10/2013","granularity":"hour","time":"2013/02/10 07:00:00 -0500"},"inches":0.3,"geo_score":0.571,"id":"ac4ay52ozusk","geo_precision":"city","state":"NY"},"type":"Feature","geometry":{"type":"Point","coordinates":[-84.057993,40.011447]}},{"properties":{"city":"8 SSE AUBURN","time":{"end_time":"2013/02/10 07:00:00 -0500","original":"6:00 AM on 02/10/2013","granularity":"hour","time":"2013/02/10 06:00:00 -0500"},"inches":0.8,"geo_score":0.571,"id":"ac4ay5dk02ze","geo_precision":"city","state":"NY"},"type":"Feature","geometry":{"type":"Point","coordinates":[-90.607878,31.359341]}},{"properties":{"city":"2 NE BOSTON","time":{"end_time":"2013/02/10 08:00:00 -0500","original":"7:00 AM on 02/10/2013","granularity":"hour","time":"2013/02/10 07:00:00 -0500"},"inches":2.0,"geo_score":0.571,"id":"ac4ay5gikwv0","geo_precision":"city","state":"NY"},"type":"Feature","geometry":{"type":"Point","coordinates":[-81.559563,41.263389]}},{"properties":{"city":"2 SSW BLASDELL","time":{"end_time":"2013/02/10 08:00:00 -0500","original":"7:00 AM on 02/10/2013","granularity":"hour","time":"2013/02/10 07:00:00 -0500"},"inches":0.3,"geo_score":0.571,"id":"ac4ay54v8yoc","geo_precision":"city","state":"NY"},"type":"Feature","geometry":{"type":"Point","coordinates":[-94.628282,34.767881]}},{"properties":{"city":"2 W WEST SENECA","time":{"end_time":"2013/02/10 08:00:00 -0500","original":"7:00 AM on 02/10/2013","granularity":"hour","time":"2013/02/10 07:00:00 -0500"},"inches":0.3,"geo_score":0.571,"id":"ac4ay5asqpkr","geo_precision":"city","state":"NY"},"type":"Feature","geometry":{"type":"Point","coordinates":[-84.93687,31.593502]}},{"properties":{"city":"2 SE GLENWOOD","time":{"end_time":"2013/02/10 09:00:00 -0500","original":"8:00 AM on 02/10/2013","granularity":"hour","time":"2013/02/10 08:00:00 -0500"},"inches":0.2,"geo_score":0.571,"id":"ac4ay5b7u0lt","geo_precision":"city","state":"NY"},"type":"Feature","geometry":{"type":"Point","coordinates":[-81.56929,41.558384]}},{"properties":{"city":"1 ENE DANSVILLE","time":{"end_time":"2013/02/10 08:31:00 -0500","original":"8:30 AM on 02/10/2013","granularity":"min","time":"2013/02/10 08:30:00 -0500"},"inches":1.0,"geo_score":0.571,"id":"ac4ay5h6glpo","geo_precision":"city","state":"NY"},"type":"Feature","geometry":{"type":"Point","coordinates":[-74.816619,39.056521]}},{"properties":{"city":"6 E NIAGARA FALLS","time":{"end_time":"2013/02/10 08:00:00 -0500","original":"7:00 AM on 02/10/2013","granularity":"hour","time":"2013/02/10 07:00:00 -0500"},"inches":0.5,"geo_score":0.571,"id":"ac4ay5db7xm2","geo_precision":"city","state":"NY"},"type":"Feature","geometry":{"type":"Point","coordinates":[-84.885746,30.219088]}},{"properties":{"city":"1 NE LOCKPORT","time":{"end_time":"2013/02/10 08:00:00 -0500","original":"7:00 AM on 02/10/2013","granularity":"hour","time":"2013/02/10 07:00:00 -0500"},"inches":0.2,"geo_score":0.571,"id":"ac4ay5bd3sao","geo_precision":"city","state":"NY"},"type":"Feature","geometry":{"type":"Point","coordinates":[-75.871858,43.145346]}},{"properties":{"city":"2 NW PALMYRA","time":{"end_time":"2013/02/10 08:00:00 -0500","original":"7:00 AM on 02/10/2013","granularity":"hour","time":"2013/02/10 07:00:00 -0500"},"inches":3.0,"geo_score":0.571,"id":"ac4ay5b4z1tg","geo_precision":"city","state":"NY"},"type":"Feature","geometry":{"type":"Point","coordinates":[-80.191713,26.206194]}},{"properties":{"city":"2 SW WALWORTH","time":{"end_time":"2013/02/10 08:00:00 -0500","original":"7:00 AM on 02/10/2013","granularity":"hour","time":"2013/02/10 07:00:00 -0500"},"inches":2.1,"geo_score":0.571,"id":"ac4ay5bilim6","geo_precision":"city","state":"NY"},"type":"Feature","geometry":{"type":"Point","coordinates":[-87.719743,36.218668]}},{"properties":{"city":"ORIENT","time":{"end_time":"2013/02/09 18:07:00 -0500","original":"6:06 PM on 02/9/2013","granularity":"min","time":"2013/02/09 18:06:00 -0500"},"inches":18.0,"geo_score":0.571,"id":"ac4ay5a12e1n","geo_precision":"city","state":"ME"},"type":"Feature","geometry":{"type":"Point","coordinates":[-79.853936,39.951187]}},{"properties":{"city":"2 NNE NEW LIMERICK","time":{"end_time":"2013/02/09 18:17:00 -0500","original":"6:16 PM on 02/9/2013","granularity":"min","time":"2013/02/09 18:16:00 -0500"},"inches":8.5,"geo_score":0.571,"id":"ac4ay5dhqa4i","geo_precision":"city","state":"ME"},"type":"Feature","geometry":{"type":"Point","coordinates":[-84.466325,37.66397]}},{"properties":{"city":"1 WNW LINNEUS","time":{"end_time":"2013/02/09 15:34:00 -0500","original":"3:33 PM on 02/9/2013","granularity":"min","time":"2013/02/09 15:33:00 -0500"},"inches":8.0,"geo_score":0.571,"id":"ac4ay57zsnjd","geo_precision":"city","state":"ME"},"type":"Feature","geometry":{"type":"Point","coordinates":[-90.798946,35.274844]}},{"properties":{"city":"1 S HOULTON","time":{"end_time":"2013/02/09 16:38:00 -0500","original":"4:37 PM on 02/9/2013","granularity":"min","time":"2013/02/09 16:37:00 -0500"},"inches":8.0,"geo_score":0.571,"id":"ac4ay5bb07hg","geo_precision":"city","state":"ME"},"type":"Feature","geometry":{"type":"Point","coordinates":[-81.468718,36.548178]}},{"properties":{"city":"ISLAND FALLS","time":{"end_time":"2013/02/10 07:21:00 -0500","original":"7:20 AM on 02/10/2013","granularity":"min","time":"2013/02/10 07:20:00 -0500"},"inches":8.0,"geo_score":0.571,"id":"ac4ay5bfntuy","geo_precision":"city","state":"ME"},"type":"Feature","geometry":{"type":"Point","coordinates":[-84.885746,30.219088]}},{"properties":{"city":"HOULTON","time":{"end_time":"2013/02/09 16:41:00 -0500","original":"4:40 PM on 02/9/2013","granularity":"min","time":"2013/02/09 16:40:00 -0500"},"inches":7.0,"geo_score":0.571,"id":"ac4ay55sq0cc","geo_precision":"city","state":"ME"},"type":"Feature","geometry":{"type":"Point","coordinates":[-81.468718,36.548178]}},{"properties":{"city":"CARIBOU - WFO","time":{"end_time":"2013/02/10 00:12:00 -0500","original":"12:11 AM on 02/10/2013","granularity":"min","time":"2013/02/10 00:11:00 -0500"},"inches":5.5,"geo_score":0.571,"id":"ac4ay5dh1tmi","geo_precision":"city","state":"ME"},"type":"Feature","geometry":{"type":"Point","coordinates":[-84.069133,42.999473]}},{"properties":{"city":"CONNOR","time":{"end_time":"2013/02/09 22:53:00 -0500","original":"10:52 PM on 02/9/2013","granularity":"min","time":"2013/02/09 22:52:00 -0500"},"inches":4.2,"geo_score":0.571,"id":"ac4ay5f0g6x3","geo_precision":"city","state":"ME"},"type":"Feature","geometry":{"type":"Point","coordinates":[-85.951082,34.156206]}},{"properties":{"city":"LIMESTONE","time":{"end_time":"2013/02/09 16:44:00 -0500","original":"4:43 PM on 02/9/2013","granularity":"min","time":"2013/02/09 16:43:00 -0500"},"inches":3.0,"geo_score":0.571,"id":"ac4ay5bq54hx","geo_precision":"city","state":"ME"},"type":"Feature","geometry":{"type":"Point","coordinates":[-87.968352,41.132143]}},{"properties":{"city":"VAN BUREN - COOP","time":{"end_time":"2013/02/10 08:41:00 -0500","original":"8:40 AM on 02/10/2013","granularity":"min","time":"2013/02/10 08:40:00 -0500"},"inches":3.0,"geo_score":0.571,"id":"ac4ay56kndwm","geo_precision":"city","state":"ME"},"type":"Feature","geometry":{"type":"Point","coordinates":[-95.652782,42.0811]}},{"properties":{"city":"BAR HARBOR","time":{"end_time":"2013/02/09 20:36:00 -0500","original":"8:35 PM on 02/9/2013","granularity":"min","time":"2013/02/09 20:35:00 -0500"},"inches":24.0,"geo_score":0.571,"id":"ac4ay5fczhwg","geo_precision":"city","state":"ME"},"type":"Feature","geometry":{"type":"Point","coordinates":[-76.956918,38.648729]}},{"properties":{"city":"2 E SURRY","time":{"end_time":"2013/02/10 09:46:00 -0500","original":"9:45 AM on 02/10/2013","granularity":"min","time":"2013/02/10 09:45:00 -0500"},"inches":20.3,"geo_score":0.571,"id":"ac4ay5ef3c93","geo_precision":"city","state":"ME"},"type":"Feature","geometry":{"type":"Point","coordinates":[-82.058753,39.684513]}},{"properties":{"city":"2 SE SOUTHWEST HARBOR","time":{"end_time":"2013/02/10 08:00:00 -0500","original":"7:59 AM on 02/10/2013","granularity":"min","time":"2013/02/10 07:59:00 -0500"},"inches":19.0,"geo_score":0.571,"id":"ac4ay5f2swod","geo_precision":"city","state":"ME"},"type":"Feature","geometry":{"type":"Point","coordinates":[-80.409233,41.035338]}},{"properties":{"city":"1 E MARIAVILLE","time":{"end_time":"2013/02/09 15:02:00 -0500","original":"3:01 PM on 02/9/2013","granularity":"min","time":"2013/02/09 15:01:00 -0500"},"inches":16.0,"geo_score":0.571,"id":"ac4ay5e17xoh","geo_precision":"city","state":"ME"},"type":"Feature","geometry":{"type":"Point","coordinates":[-71.433947,41.868433]}},{"properties":{"city":"4 SW WINTER HARBOR","time":{"end_time":"2013/02/10 07:58:00 -0500","original":"7:57 AM on 02/10/2013","granularity":"min","time":"2013/02/10 07:57:00 -0500"},"inches":15.0,"geo_score":0.571,"id":"ac4ay51sfxsi","geo_precision":"city","state":"ME"},"type":"Feature","geometry":{"type":"Point","coordinates":[-97.866951,42.597304]}},{"properties":{"city":"BLUE HILL","time":{"end_time":"2013/02/09 16:19:00 -0500","original":"4:18 PM on 02/9/2013","granularity":"min","time":"2013/02/09 16:18:00 -0500"},"inches":13.0,"geo_score":0.571,"id":"ac4ay52zyo62","geo_precision":"city","state":"ME"},"type":"Feature","geometry":{"type":"Point","coordinates":[-75.24019,41.482733]}},{"properties":{"city":"BROOKLIN","time":{"end_time":"2013/02/09 18:23:00 -0500","original":"6:22 PM on 02/9/2013","granularity":"min","time":"2013/02/09 18:22:00 -0500"},"inches":9.1,"geo_score":0.571,"id":"ac4ay55z5ph3","geo_precision":"city","state":"ME"},"type":"Feature","geometry":{"type":"Point","coordinates":[-94.040786,40.398333]}},{"properties":{"city":"2 W BANGOR","time":{"end_time":"2013/02/10 07:36:00 -0500","original":"7:35 AM on 02/10/2013","granularity":"min","time":"2013/02/10 07:35:00 -0500"},"inches":19.4,"geo_score":0.571,"id":"ac4ay55yzkss","geo_precision":"city","state":"ME"},"type":"Feature","geometry":{"type":"Point","coordinates":[-83.438795,38.043417]}},{"properties":{"city":"7 SSE SPRINGFIELD","time":{"end_time":"2013/02/09 20:10:00 -0500","original":"8:09 PM on 02/9/2013","granularity":"min","time":"2013/02/09 20:09:00 -0500"},"inches":16.5,"geo_score":0.571,"id":"ac4ay5221ek1","geo_precision":"city","state":"ME"},"type":"Feature","geometry":{"type":"Point","coordinates":[-122.329813,45.519009]}},{"properties":{"city":"1 ENE GLENBURN","time":{"end_time":"2013/02/09 21:03:00 -0500","original":"9:02 PM on 02/9/2013","granularity":"min","time":"2013/02/09 21:02:00 -0500"},"inches":15.2,"geo_score":0.571,"id":"ac4ay5c2qd17","geo_precision":"city","state":"ME"},"type":"Feature","geometry":{"type":"Point","coordinates":[-101.540749,48.647206]}},{"properties":{"city":"BRADFORD","time":{"end_time":"2013/02/09 20:47:00 -0500","original":"8:46 PM on 02/9/2013","granularity":"min","time":"2013/02/09 20:46:00 -0500"},"inches":12.0,"geo_score":0.571,"id":"ac4ay5aies6g","geo_precision":"city","state":"ME"},"type":"Feature","geometry":{"type":"Point","coordinates":[-93.223204,42.600335]}},{"properties":{"city":"WELLINGTON","time":{"end_time":"2013/02/09 20:47:00 -0500","original":"8:46 PM on 02/9/2013","granularity":"min","time":"2013/02/09 20:46:00 -0500"},"inches":14.0,"geo_score":0.571,"id":"ac4ay53mrdfv","geo_precision":"city","state":"ME"},"type":"Feature","geometry":{"type":"Point","coordinates":[-85.669128,38.216459]}},{"properties":{"city":"BROWNVILLE","time":{"end_time":"2013/02/09 20:46:00 -0500","original":"8:45 PM on 02/9/2013","granularity":"min","time":"2013/02/09 20:45:00 -0500"},"inches":12.0,"geo_score":0.571,"id":"ac4ay52fk32u","geo_precision":"city","state":"ME"},"type":"Feature","geometry":{"type":"Point","coordinates":[-94.189098,35.188705]}},{"properties":{"city":"ABBOT VILLAGE","time":{"end_time":"2013/02/09 20:47:00 -0500","original":"8:46 PM on 02/9/2013","granularity":"min","time":"2013/02/09 20:46:00 -0500"},"inches":11.0,"geo_score":0.571,"id":"ac4ay5i63oct","geo_precision":"city","state":"ME"},"type":"Feature","geometry":{"type":"Point","coordinates":[-122.264316,38.107945]}},{"properties":{"city":"BROWNVILLE JUNCTION","time":{"end_time":"2013/02/09 20:46:00 -0500","original":"8:45 PM on 02/9/2013","granularity":"min","time":"2013/02/09 20:45:00 -0500"},"inches":10.0,"geo_score":0.571,"id":"ac4ay5cqhghu","geo_precision":"city","state":"ME"},"type":"Feature","geometry":{"type":"Point","coordinates":[-92.768091,33.16579]}},{"properties":{"city":"SEBEC","time":{"end_time":"2013/02/09 20:47:00 -0500","original":"8:46 PM on 02/9/2013","granularity":"min","time":"2013/02/09 20:46:00 -0500"},"inches":10.0,"geo_score":0.571,"id":"ac4ay58alc6w","geo_precision":"city","state":"ME"},"type":"Feature","geometry":{"type":"Point","coordinates":[-93.599117,35.315285]}},{"properties":{"city":"1 SW ABBOT","time":{"end_time":"2013/02/09 18:05:00 -0500","original":"6:04 PM on 02/9/2013","granularity":"min","time":"2013/02/09 18:04:00 -0500"},"inches":7.5,"geo_score":0.571,"id":"ac4ay5c9khrt","geo_precision":"city","state":"ME"},"type":"Feature","geometry":{"type":"Point","coordinates":[-94.193821,35.073429]}},{"properties":{"city":"4 SW DOVER-FOXCROFT","time":{"end_time":"2013/02/10 09:11:00 -0500","original":"9:10 AM on 02/10/2013","granularity":"min","time":"2013/02/10 09:10:00 -0500"},"inches":6.0,"geo_score":0.571,"id":"ac4ay5376cr0","geo_precision":"city","state":"ME"},"type":"Feature","geometry":{"type":"Point","coordinates":[-93.398239,36.031188]}},{"properties":{"city":"4 E EAST MACHIAS","time":{"end_time":"2013/02/09 16:28:00 -0500","original":"4:27 PM on 02/9/2013","granularity":"min","time":"2013/02/09 16:27:00 -0500"},"inches":24.0,"geo_score":0.571,"id":"ac4ay5b7u2ga","geo_precision":"city","state":"ME"},"type":"Feature","geometry":{"type":"Point","coordinates":[-84.205551,43.870023]}},{"properties":{"city":"2 ENE MARSHFIELD","time":{"end_time":"2013/02/09 15:15:00 -0500","original":"3:14 PM on 02/9/2013","granularity":"min","time":"2013/02/09 15:14:00 -0500"},"inches":20.0,"geo_score":0.571,"id":"ac4ay5cqrjud","geo_precision":"city","state":"ME"},"type":"Feature","geometry":{"type":"Point","coordinates":[-67.784444,44.616188]}},{"properties":{"city":"GRAND LAKE STREAM","time":{"end_time":"2013/02/09 14:54:00 -0500","original":"2:53 PM on 02/9/2013","granularity":"min","time":"2013/02/09 14:53:00 -0500"},"inches":18.0,"geo_score":0.571,"id":"ac4ay54lvo2g","geo_precision":"city","state":"ME"},"type":"Feature","geometry":{"type":"Point","coordinates":[-84.522163,37.126191]}},{"properties":{"city":"1 SSW CALAIS","time":{"end_time":"2013/02/09 18:41:00 -0500","original":"6:40 PM on 02/9/2013","granularity":"min","time":"2013/02/09 18:40:00 -0500"},"inches":18.0,"geo_score":0.571,"id":"ac4ay5fzmqps","geo_precision":"city","state":"ME"},"type":"Feature","geometry":{"type":"Point","coordinates":[-91.270672,33.797606]}},{"properties":{"city":"EASTPORT","time":{"end_time":"2013/02/09 23:04:00 -0500","original":"11:03 PM on 02/9/2013","granularity":"min","time":"2013/02/09 23:03:00 -0500"},"inches":18.0,"geo_score":0.571,"id":"ac4ay5gxetd1","geo_precision":"city","state":"ME"},"type":"Feature","geometry":{"type":"Point","coordinates":[-67.136853,45.036287]}},{"properties":{"city":"1 NNE COLUMBIA FALLS","time":{"end_time":"2013/02/10 12:29:00 -0500","original":"12:28 PM on 02/10/2013","granularity":"min","time":"2013/02/10 12:28:00 -0500"},"inches":15.0,"geo_score":0.571,"id":"ac4ay59cv2eb","geo_precision":"city","state":"ME"},"type":"Feature","geometry":{"type":"Point","coordinates":[-84.885746,30.219088]}},{"properties":{"city":"2 ESE HARRINGTON","time":{"end_time":"2013/02/09 16:25:00 -0500","original":"4:24 PM on 02/9/2013","granularity":"min","time":"2013/02/09 16:24:00 -0500"},"inches":14.0,"geo_score":0.571,"id":"ac4ay5djaq38","geo_precision":"city","state":"ME"},"type":"Feature","geometry":{"type":"Point","coordinates":[-96.993297,38.792473]}},{"properties":{"city":"2 SE PRINCETON","time":{"end_time":"2013/02/09 18:19:00 -0500","original":"6:18 PM on 02/9/2013","granularity":"min","time":"2013/02/09 18:18:00 -0500"},"inches":14.0,"geo_score":0.571,"id":"ac4ay5hvkzjc","geo_precision":"city","state":"ME"},"type":"Feature","geometry":{"type":"Point","coordinates":[-96.704743,40.573613]}},{"properties":{"city":"TOPSFIELD","time":{"end_time":"2013/02/10 12:07:00 -0500","original":"12:06 PM on 02/10/2013","granularity":"min","time":"2013/02/10 12:06:00 -0500"},"inches":13.5,"geo_score":0.571,"id":"ac4ay5cjknfs","geo_precision":"city","state":"ME"},"type":"Feature","geometry":{"type":"Point","coordinates":[-70.954487,42.661793]}},{"properties":{"city":"DURHAM","time":{"end_time":"2013/02/09 17:00:00 -0500","original":"4:59 PM on 02/9/2013","granularity":"min","time":"2013/02/09 16:59:00 -0500"},"inches":20.6,"geo_score":0.571,"id":"ac4ay53vlnpm","geo_precision":"city","state":"ME"},"type":"Feature","geometry":{"type":"Point","coordinates":[-99.682177,35.717616]}},{"properties":{"city":"1 NW AUBURN","time":{"end_time":"2013/02/09 19:00:00 -0500","original":"6:59 PM on 02/9/2013","granularity":"min","time":"2013/02/09 18:59:00 -0500"},"inches":18.0,"geo_score":0.571,"id":"ac4ay527vbx6","geo_precision":"city","state":"ME"},"type":"Feature","geometry":{"type":"Point","coordinates":[-90.607878,31.359341]}},{"properties":{"city":"TURNER","time":{"end_time":"2013/02/10 08:00:00 -0500","original":"7:00 AM on 02/10/2013","granularity":"hour","time":"2013/02/10 07:00:00 -0500"},"inches":1.5,"geo_score":0.571,"id":"ac4ay5f08fzw","geo_precision":"city","state":"ME"},"type":"Feature","geometry":{"type":"Point","coordinates":[-122.94221,44.7952]}},{"properties":{"city":"5 NNW GREENE","time":{"end_time":"2013/02/10 08:00:00 -0500","original":"7:00 AM on 02/10/2013","granularity":"hour","time":"2013/02/10 07:00:00 -0500"},"inches":1.0,"geo_score":0.571,"id":"ac4ay52gto3q","geo_precision":"city","state":"ME"},"type":"Feature","geometry":{"type":"Point","coordinates":[-87.939683,42.375121]}},{"properties":{"city":"PORTLAND JETPORT","time":{"end_time":"2013/02/09 19:10:00 -0500","original":"7:09 PM on 02/9/2013","granularity":"min","time":"2013/02/09 19:09:00 -0500"},"inches":31.9,"geo_score":0.571,"id":"ac4ay5f0k8lj","geo_precision":"city","state":"ME"},"type":"Feature","geometry":{"type":"Point","coordinates":[-85.036335,34.057321]}},{"properties":{"city":"1 WSW GORHAM","time":{"end_time":"2013/02/10 08:00:00 -0500","original":"7:00 AM on 02/10/2013","granularity":"hour","time":"2013/02/10 07:00:00 -0500"},"inches":30.0,"geo_score":0.571,"id":"ac4ay5bwkuzl","geo_precision":"city","state":"ME"},"type":"Feature","geometry":{"type":"Point","coordinates":[-82.122553,29.968926]}},{"properties":{"city":"SOUTH WINDHAM","time":{"end_time":"2013/02/10 07:06:00 -0500","original":"7:05 AM on 02/10/2013","granularity":"min","time":"2013/02/10 07:05:00 -0500"},"inches":29.5,"geo_score":0.571,"id":"ac4ay591elun","geo_precision":"city","state":"ME"},"type":"Feature","geometry":{"type":"Point","coordinates":[-86.899191,41.405874]}},{"properties":{"city":"GORHAM","time":{"end_time":"2013/02/09 19:05:00 -0500","original":"7:04 PM on 02/9/2013","granularity":"min","time":"2013/02/09 19:04:00 -0500"},"inches":28.6,"geo_score":0.571,"id":"ac4ay54r6ie3","geo_precision":"city","state":"ME"},"type":"Feature","geometry":{"type":"Point","coordinates":[-82.122553,29.968926]}},{"properties":{"city":"NORTH SEBAGO","time":{"end_time":"2013/02/09 16:28:00 -0500","original":"4:27 PM on 02/9/2013","granularity":"min","time":"2013/02/09 16:27:00 -0500"},"inches":20.0,"geo_score":0.571,"id":"ac4ay5ed0egf","geo_precision":"city","state":"ME"},"type":"Feature","geometry":{"type":"Point","coordinates":[-93.599117,35.315285]}},{"properties":{"city":"2 SSW FREEPORT","time":{"end_time":"2013/02/10 06:11:00 -0500","original":"6:10 AM on 02/10/2013","granularity":"min","time":"2013/02/10 06:10:00 -0500"},"inches":4.0,"geo_score":0.571,"id":"ac4ay58ku17z","geo_precision":"city","state":"ME"},"type":"Feature","geometry":{"type":"Point","coordinates":[-97.857243,37.175377]}},{"properties":{"city":"2 ENE GRAY","time":{"end_time":"2013/02/10 08:00:00 -0500","original":"7:00 AM on 02/10/2013","granularity":"hour","time":"2013/02/10 07:00:00 -0500"},"inches":2.2,"geo_score":0.571,"id":"ac4ay5a65o53","geo_precision":"city","state":"ME"},"type":"Feature","geometry":{"type":"Point","coordinates":[-98.568185,40.908706]}},{"properties":{"city":"3 NE NAPLES","time":{"end_time":"2013/02/10 09:00:00 -0500","original":"8:00 AM on 02/10/2013","granularity":"hour","time":"2013/02/10 08:00:00 -0500"},"inches":2.0,"geo_score":0.571,"id":"ac4ay584y9vd","geo_precision":"city","state":"ME"},"type":"Feature","geometry":{"type":"Point","coordinates":[-83.870598,41.491952]}},{"properties":{"city":"6 WNW PORTLAND","time":{"end_time":"2013/02/10 08:00:00 -0500","original":"7:00 AM on 02/10/2013","granularity":"hour","time":"2013/02/10 07:00:00 -0500"},"inches":1.4,"geo_score":0.571,"id":"ac4ay56moy86","geo_precision":"city","state":"ME"},"type":"Feature","geometry":{"type":"Point","coordinates":[-85.036335,34.057321]}},{"properties":{"city":"3 SE NEW GLOUCESTER","time":{"end_time":"2013/02/10 08:00:00 -0500","original":"7:00 AM on 02/10/2013","granularity":"hour","time":"2013/02/10 07:00:00 -0500"},"inches":1.0,"geo_score":0.571,"id":"ac4ay5dvwpkl","geo_precision":"city","state":"ME"},"type":"Feature","geometry":{"type":"Point","coordinates":[-94.853566,36.496191]}},{"properties":{"city":"2 S WILTON","time":{"end_time":"2013/02/09 20:43:00 -0500","original":"8:42 PM on 02/9/2013","granularity":"min","time":"2013/02/09 20:42:00 -0500"},"inches":15.0,"geo_score":0.571,"id":"ac4ay5dqjbmf","geo_precision":"city","state":"ME"},"type":"Feature","geometry":{"type":"Point","coordinates":[-89.438431,41.715034]}},{"properties":{"city":"EUSTIS","time":{"end_time":"2013/02/09 16:13:00 -0500","original":"4:12 PM on 02/9/2013","granularity":"min","time":"2013/02/09 16:12:00 -0500"},"inches":4.5,"geo_score":0.571,"id":"ac4ay5ahp13c","geo_precision":"city","state":"ME"},"type":"Feature","geometry":{"type":"Point","coordinates":[-92.118756,34.608427]}},{"properties":{"city":"1 SSW CAMDEN","time":{"end_time":"2013/02/09 17:36:00 -0500","original":"5:35 PM on 02/9/2013","granularity":"min","time":"2013/02/09 17:35:00 -0500"},"inches":22.0,"geo_score":0.571,"id":"ac4ay578wxoz","geo_precision":"city","state":"ME"},"type":"Feature","geometry":{"type":"Point","coordinates":[-69.029238,44.12613]}},{"properties":{"city":"3 NW UNION","time":{"end_time":"2013/02/10 09:00:00 -0500","original":"8:00 AM on 02/10/2013","granularity":"hour","time":"2013/02/10 08:00:00 -0500"},"inches":8.0,"geo_score":0.571,"id":"ac4ay53kxw7u","geo_precision":"city","state":"ME"},"type":"Feature","geometry":{"type":"Point","coordinates":[-87.434741,38.465325]}},{"properties":{"city":"WESTPORT ISLAND","time":{"end_time":"2013/02/10 09:00:00 -0500","original":"8:00 AM on 02/10/2013","granularity":"hour","time":"2013/02/10 08:00:00 -0500"},"inches":5.0,"geo_score":0.571,"id":"ac4ay5ajql9e","geo_precision":"city","state":"ME"},"type":"Feature","geometry":{"type":"Point","coordinates":[-76.560512,38.449012]}},{"properties":{"city":"ANDOVER","time":{"end_time":"2013/02/10 08:00:00 -0500","original":"7:00 AM on 02/10/2013","granularity":"hour","time":"2013/02/10 07:00:00 -0500"},"inches":13.0,"geo_score":0.571,"id":"ac4ay5elwaqh","geo_precision":"city","state":"ME"},"type":"Feature","geometry":{"type":"Point","coordinates":[-80.201992,25.966203]}},{"properties":{"city":"BETHEL","time":{"end_time":"2013/02/10 08:00:00 -0500","original":"7:00 AM on 02/10/2013","granularity":"hour","time":"2013/02/10 07:00:00 -0500"},"inches":12.0,"geo_score":0.571,"id":"ac4ay55p7q5w","geo_precision":"city","state":"ME"},"type":"Feature","geometry":{"type":"Point","coordinates":[-90.529274,35.987849]}},{"properties":{"city":"2 NE OXFORD","time":{"end_time":"2013/02/10 08:00:00 -0500","original":"7:00 AM on 02/10/2013","granularity":"hour","time":"2013/02/10 07:00:00 -0500"},"inches":4.5,"geo_score":0.571,"id":"ac4ay5gwvrmr","geo_precision":"city","state":"ME"},"type":"Feature","geometry":{"type":"Point","coordinates":[-89.966028,40.100737]}},{"properties":{"city":"1 WSW BATH","time":{"end_time":"2013/02/10 08:00:00 -0500","original":"7:00 AM on 02/10/2013","granularity":"hour","time":"2013/02/10 07:00:00 -0500"},"inches":10.0,"geo_score":0.571,"id":"ac4ay5e7u5yw","geo_precision":"city","state":"ME"},"type":"Feature","geometry":{"type":"Point","coordinates":[-82.911272,37.2426]}},{"properties":{"city":"4 ESE SOLON","time":{"end_time":"2013/02/10 08:00:00 -0500","original":"7:00 AM on 02/10/2013","granularity":"hour","time":"2013/02/10 07:00:00 -0500"},"inches":6.0,"geo_score":0.571,"id":"ac4ay5cikqsy","geo_precision":"city","state":"ME"},"type":"Feature","geometry":{"type":"Point","coordinates":[-79.980612,39.862021]}},{"properties":{"city":"2 ESE HARTLAND","time":{"end_time":"2013/02/10 08:00:00 -0500","original":"7:00 AM on 02/10/2013","granularity":"hour","time":"2013/02/10 07:00:00 -0500"},"inches":3.3,"geo_score":0.571,"id":"ac4ay5ckh4dh","geo_precision":"city","state":"ME"},"type":"Feature","geometry":{"type":"Point","coordinates":[-83.456094,37.054676]}},{"properties":{"city":"LONG FALLS DAM","time":{"end_time":"2013/02/10 08:00:00 -0500","original":"7:00 AM on 02/10/2013","granularity":"hour","time":"2013/02/10 07:00:00 -0500"},"inches":3.2,"geo_score":0.571,"id":"ac4ay5cwzt7e","geo_precision":"city","state":"ME"},"type":"Feature","geometry":{"type":"Point","coordinates":[-106.732774,34.742622]}},{"properties":{"city":"MOOSEHEAD","time":{"end_time":"2013/02/10 08:00:00 -0500","original":"7:00 AM on 02/10/2013","granularity":"hour","time":"2013/02/10 07:00:00 -0500"},"inches":2.6,"geo_score":0.571,"id":"ac4ay5ajypy5","geo_precision":"city","state":"ME"},"type":"Feature","geometry":{"type":"Point","coordinates":[-69.713669,45.583378]}},{"properties":{"city":"NORTH NEW PORTLAND","time":{"end_time":"2013/02/10 08:00:00 -0500","original":"7:00 AM on 02/10/2013","granularity":"hour","time":"2013/02/10 07:00:00 -0500"},"inches":0.5,"geo_score":0.571,"id":"ac4ay599xy26","geo_precision":"city","state":"ME"},"type":"Feature","geometry":{"type":"Point","coordinates":[-85.036335,34.057321]}},{"properties":{"city":"3 SSE BELMONT","time":{"end_time":"2013/02/10 06:31:00 -0500","original":"6:30 AM on 02/10/2013","granularity":"min","time":"2013/02/10 06:30:00 -0500"},"inches":24.0,"geo_score":0.571,"id":"ac4ay5clhak7","geo_precision":"city","state":"ME"},"type":"Feature","geometry":{"type":"Point","coordinates":[-116.63964,47.926015]}},{"properties":{"city":"3 N WINTERPORT","time":{"end_time":"2013/02/10 08:00:00 -0500","original":"7:00 AM on 02/10/2013","granularity":"hour","time":"2013/02/10 07:00:00 -0500"},"inches":6.2,"geo_score":0.571,"id":"ac4ay5gwlkji","geo_precision":"city","state":"ME"},"type":"Feature","geometry":{"type":"Point","coordinates":[-77.886652,34.210448]}},{"properties":{"city":"2 NE KENNEBUNK","time":{"end_time":"2013/02/09 14:51:00 -0500","original":"2:50 PM on 02/9/2013","granularity":"min","time":"2013/02/09 14:50:00 -0500"},"inches":29.0,"geo_score":0.571,"id":"ac4ay5hy8rq7","geo_precision":"city","state":"ME"},"type":"Feature","geometry":{"type":"Point","coordinates":[-70.508663,43.377863]}},{"properties":{"city":"SACO","time":{"end_time":"2013/02/09 15:55:00 -0500","original":"3:54 PM on 02/9/2013","granularity":"min","time":"2013/02/09 15:54:00 -0500"},"inches":25.0,"geo_score":0.571,"id":"ac4ay52jj89w","geo_precision":"city","state":"ME"},"type":"Feature","geometry":{"type":"Point","coordinates":[-99.087047,38.057793]}},{"properties":{"city":"1 SSW CORNISH","time":{"end_time":"2013/02/09 17:48:00 -0500","original":"5:47 PM on 02/9/2013","granularity":"min","time":"2013/02/09 17:47:00 -0500"},"inches":23.0,"geo_score":0.571,"id":"ac4ay538801u","geo_precision":"city","state":"ME"},"type":"Feature","geometry":{"type":"Point","coordinates":[-72.337149,43.462156]}},{"properties":{"city":"4 NE PARSONSFIELD","time":{"end_time":"2013/02/10 09:00:00 -0500","original":"8:00 AM on 02/10/2013","granularity":"hour","time":"2013/02/10 08:00:00 -0500"},"inches":18.5,"geo_score":0.571,"id":"ac4ay52022j5","geo_precision":"city","state":"ME"},"type":"Feature","geometry":{"type":"Point","coordinates":[-97.318392,43.169436]}},{"properties":{"city":"HOLLIS","time":{"end_time":"2013/02/10 09:00:00 -0500","original":"8:00 AM on 02/10/2013","granularity":"hour","time":"2013/02/10 08:00:00 -0500"},"inches":1.4,"geo_score":0.571,"id":"ac4ay5a929da","geo_precision":"city","state":"ME"},"type":"Feature","geometry":{"type":"Point","coordinates":[-83.739056,30.922691]}},{"properties":{"city":"CAPE NEDDICK","time":{"end_time":"2013/02/10 08:00:00 -0500","original":"7:00 AM on 02/10/2013","granularity":"hour","time":"2013/02/10 07:00:00 -0500"},"inches":1.0,"geo_score":0.571,"id":"ac4ay5hj3h8c","geo_precision":"city","state":"ME"},"type":"Feature","geometry":{"type":"Point","coordinates":[-122.140491,38.785596]}},{"properties":{"city":"5 N YORK","time":{"end_time":"2013/02/10 08:00:00 -0500","original":"7:00 AM on 02/10/2013","granularity":"hour","time":"2013/02/10 07:00:00 -0500"},"inches":1.0,"geo_score":0.571,"id":"ac4ay58vcu04","geo_precision":"city","state":"ME"},"type":"Feature","geometry":{"type":"Point","coordinates":[-93.259932,40.85167]}},{"properties":{"city":"LACONIA","time":{"end_time":"2013/02/09 17:39:00 -0500","original":"5:38 PM on 02/9/2013","granularity":"min","time":"2013/02/09 17:38:00 -0500"},"inches":23.9,"geo_score":0.571,"id":"ac4ay542dpyl","geo_precision":"city","state":"NH"},"type":"Feature","geometry":{"type":"Point","coordinates":[-86.084135,37.492279]}},{"properties":{"city":"2 SW BELMONT","time":{"end_time":"2013/02/10 08:00:00 -0500","original":"7:00 AM on 02/10/2013","granularity":"hour","time":"2013/02/10 07:00:00 -0500"},"inches":3.2,"geo_score":0.571,"id":"ac4ay570w942","geo_precision":"city","state":"NH"},"type":"Feature","geometry":{"type":"Point","coordinates":[-116.63964,47.926015]}},{"properties":{"city":"3 SSW MEREDITH","time":{"end_time":"2013/02/10 06:31:00 -0500","original":"6:30 AM on 02/10/2013","granularity":"min","time":"2013/02/10 06:30:00 -0500"},"inches":2.6,"geo_score":0.571,"id":"ac4ay5gjda0f","geo_precision":"city","state":"NH"},"type":"Feature","geometry":{"type":"Point","coordinates":[-106.715287,39.294737]}},{"properties":{"city":"3 NE TILTON NORTHFIELD","time":{"end_time":"2013/02/10 08:00:00 -0500","original":"7:00 AM on 02/10/2013","granularity":"hour","time":"2013/02/10 07:00:00 -0500"},"inches":2.0,"geo_score":0.571,"id":"ac4ay5hmsxby","geo_precision":"city","state":"NH"},"type":"Feature","geometry":{"type":"Point","coordinates":[-91.121814,41.058923]}},{"properties":{"city":"1 SE WAKEFIELD","time":{"end_time":"2013/02/09 17:20:00 -0500","original":"5:19 PM on 02/9/2013","granularity":"min","time":"2013/02/09 17:19:00 -0500"},"inches":23.5,"geo_score":0.571,"id":"ac4ay54bx6hp","geo_precision":"city","state":"NH"},"type":"Feature","geometry":{"type":"Point","coordinates":[-71.030066,43.568135]}},{"properties":{"city":"WOLFEBORO","time":{"end_time":"2013/02/09 18:32:00 -0500","original":"6:31 PM on 02/9/2013","granularity":"min","time":"2013/02/09 18:31:00 -0500"},"inches":22.7,"geo_score":0.571,"id":"ac4ay5g3dxqu","geo_precision":"city","state":"NH"},"type":"Feature","geometry":{"type":"Point","coordinates":[-71.183597,43.667102]}},{"properties":{"city":"5 E CENTER SANDWICH","time":{"end_time":"2013/02/10 08:00:00 -0500","original":"7:00 AM on 02/10/2013","granularity":"hour","time":"2013/02/10 07:00:00 -0500"},"inches":1.3,"geo_score":0.571,"id":"ac4ay536eak8","geo_precision":"city","state":"NH"},"type":"Feature","geometry":{"type":"Point","coordinates":[-84.740492,34.199819]}},{"properties":{"city":"2 SE MADISON","time":{"end_time":"2013/02/10 08:00:00 -0500","original":"7:00 AM on 02/10/2013","granularity":"hour","time":"2013/02/10 07:00:00 -0500"},"inches":0.5,"geo_score":0.571,"id":"ac4ay5469wp2","geo_precision":"city","state":"NH"},"type":"Feature","geometry":{"type":"Point","coordinates":[-86.754233,34.651409]}},{"properties":{"city":"NORTH CONWAY","time":{"end_time":"2013/02/10 08:00:00 -0500","original":"7:00 AM on 02/10/2013","granularity":"hour","time":"2013/02/10 07:00:00 -0500"},"inches":0.4,"geo_score":0.571,"id":"ac4ay56gfz8l","geo_precision":"city","state":"NH"},"type":"Feature","geometry":{"type":"Point","coordinates":[-97.786435,38.369453]}},{"properties":{"city":"1 SSW NORTH CONWAY","time":{"end_time":"2013/02/10 08:00:00 -0500","original":"7:00 AM on 02/10/2013","granularity":"hour","time":"2013/02/10 07:00:00 -0500"},"inches":0.4,"geo_score":0.571,"id":"ac4ay51ugv88","geo_precision":"city","state":"NH"},"type":"Feature","geometry":{"type":"Point","coordinates":[-97.786435,38.369453]}},{"properties":{"city":"RANDOLPH","time":{"end_time":"2013/02/10 08:44:00 -0500","original":"8:43 AM on 02/10/2013","granularity":"min","time":"2013/02/10 08:43:00 -0500"},"inches":24.2,"geo_score":0.571,"id":"ac4ay5d65so3","geo_precision":"city","state":"NH"},"type":"Feature","geometry":{"type":"Point","coordinates":[-120.370763,39.579626]}},{"properties":{"city":"1 NE RANDOLPH","time":{"end_time":"2013/02/10 08:00:00 -0500","original":"7:00 AM on 02/10/2013","granularity":"hour","time":"2013/02/10 07:00:00 -0500"},"inches":8.8,"geo_score":0.571,"id":"ac4ay5g5b3j1","geo_precision":"city","state":"NH"},"type":"Feature","geometry":{"type":"Point","coordinates":[-120.370763,39.579626]}},{"properties":{"city":"WHITEFIELD","time":{"end_time":"2013/02/09 15:55:00 -0500","original":"3:54 PM on 02/9/2013","granularity":"min","time":"2013/02/09 15:54:00 -0500"},"inches":4.0,"geo_score":0.571,"id":"ac4ay5f1ob9f","geo_precision":"city","state":"NH"},"type":"Feature","geometry":{"type":"Point","coordinates":[-74.224314,41.81426]}},{"properties":{"city":"BERLIN","time":{"end_time":"2013/02/10 06:46:00 -0500","original":"6:45 AM on 02/10/2013","granularity":"min","time":"2013/02/10 06:45:00 -0500"},"inches":4.0,"geo_score":0.571,"id":"ac4ay569uu0c","geo_precision":"city","state":"NH"},"type":"Feature","geometry":{"type":"Point","coordinates":[-91.763182,33.08068]}},{"properties":{"city":"1 N LANCASTER","time":{"end_time":"2013/02/10 07:00:00 -0500","original":"6:00 AM on 02/10/2013","granularity":"hour","time":"2013/02/10 06:00:00 -0500"},"inches":1.5,"geo_score":0.571,"id":"ac4ay5fw3snm","geo_precision":"city","state":"NH"},"type":"Feature","geometry":{"type":"Point","coordinates":[-85.243914,43.31392]}},{"properties":{"city":"BRISTOL","time":{"end_time":"2013/02/10 08:00:00 -0500","original":"7:00 AM on 02/10/2013","granularity":"hour","time":"2013/02/10 07:00:00 -0500"},"inches":0.6,"geo_score":0.571,"id":"ac4ay56tgmqa","geo_precision":"city","state":"NH"},"type":"Feature","geometry":{"type":"Point","coordinates":[-76.66802,38.792337]}},{"properties":{"city":"HENNIKER","time":{"end_time":"2013/02/09 18:34:00 -0500","original":"6:33 PM on 02/9/2013","granularity":"min","time":"2013/02/09 18:33:00 -0500"},"inches":21.0,"geo_score":0.571,"id":"ac4ay594frkn","geo_precision":"city","state":"NH"},"type":"Feature","geometry":{"type":"Point","coordinates":[-79.624473,40.328617]}},{"properties":{"city":"3 SSW CHICHESTER","time":{"end_time":"2013/02/10 05:00:00 -0500","original":"4:00 AM on 02/10/2013","granularity":"hour","time":"2013/02/10 04:00:00 -0500"},"inches":10.0,"geo_score":0.571,"id":"ac4ay5f593ok","geo_precision":"city","state":"NH"},"type":"Feature","geometry":{"type":"Point","coordinates":[-74.271661,42.095023]}},{"properties":{"city":"3 SSE SOUTH SUTTON","time":{"end_time":"2013/02/10 08:00:00 -0500","original":"7:00 AM on 02/10/2013","granularity":"hour","time":"2013/02/10 07:00:00 -0500"},"inches":4.0,"geo_score":0.571,"id":"ac4ay5gz6b99","geo_precision":"city","state":"NH"},"type":"Feature","geometry":{"type":"Point","coordinates":[-83.839388,42.325592]}},{"properties":{"city":"PITTSFIELD","time":{"end_time":"2013/02/10 09:00:00 -0500","original":"8:00 AM on 02/10/2013","granularity":"hour","time":"2013/02/10 08:00:00 -0500"},"inches":3.0,"geo_score":0.571,"id":"ac4ay54wn4gu","geo_precision":"city","state":"NH"},"type":"Feature","geometry":{"type":"Point","coordinates":[-86.718876,37.781999]}},{"properties":{"city":"2 ESE DANBURY","time":{"end_time":"2013/02/10 09:00:00 -0500","original":"8:00 AM on 02/10/2013","granularity":"hour","time":"2013/02/10 08:00:00 -0500"},"inches":1.8,"geo_score":0.571,"id":"ac4ay55qsb1w","geo_precision":"city","state":"NH"},"type":"Feature","geometry":{"type":"Point","coordinates":[-92.796586,41.940823]}},{"properties":{"city":"2 NW BOW","time":{"end_time":"2013/02/10 08:00:00 -0500","original":"7:00 AM on 02/10/2013","granularity":"hour","time":"2013/02/10 07:00:00 -0500"},"inches":1.7,"geo_score":0.571,"id":"ac4ay5a5vuzq","geo_precision":"city","state":"NH"},"type":"Feature","geometry":{"type":"Point","coordinates":[-83.926565,31.191851]}},{"properties":{"city":"3 SSW WEBSTER","time":{"end_time":"2013/02/10 07:00:00 -0500","original":"6:00 AM on 02/10/2013","granularity":"hour","time":"2013/02/10 06:00:00 -0500"},"inches":1.5,"geo_score":0.571,"id":"ac4ay53cuvo4","geo_precision":"city","state":"NH"},"type":"Feature","geometry":{"type":"Point","coordinates":[-91.000694,40.466432]}},{"properties":{"city":"2 NW NEWBURY","time":{"end_time":"2013/02/10 08:00:00 -0500","original":"7:00 AM on 02/10/2013","granularity":"hour","time":"2013/02/10 07:00:00 -0500"},"inches":1.0,"geo_score":0.571,"id":"ac4ay5e1y2m9","geo_precision":"city","state":"NH"},"type":"Feature","geometry":{"type":"Point","coordinates":[-82.564624,29.687249]}},{"properties":{"city":"2 SE BOSCAWEN","time":{"end_time":"2013/02/10 08:00:00 -0500","original":"7:00 AM on 02/10/2013","granularity":"hour","time":"2013/02/10 07:00:00 -0500"},"inches":0.8,"geo_score":0.571,"id":"ac4ay5a248e1","geo_precision":"city","state":"NH"},"type":"Feature","geometry":{"type":"Point","coordinates":[-71.620908,43.315079]}},{"properties":{"city":"ATKINSON","time":{"end_time":"2013/02/09 19:00:00 -0500","original":"6:00 PM on 02/9/2013","granularity":"hour","time":"2013/02/09 18:00:00 -0500"},"inches":25.0,"geo_score":0.571,"id":"ac4ay5dnvbo6","geo_precision":"city","state":"NH"},"type":"Feature","geometry":{"type":"Point","coordinates":[-71.159035,42.878366]}},{"properties":{"city":"1 W FREMONT","time":{"end_time":"2013/02/10 13:31:00 -0500","original":"1:30 PM on 02/10/2013","granularity":"min","time":"2013/02/10 13:30:00 -0500"},"inches":23.1,"geo_score":0.571,"id":"ac4ay56gimwe","geo_precision":"city","state":"NH"},"type":"Feature","geometry":{"type":"Point","coordinates":[-86.876948,34.803145]}},{"properties":{"city":"2 ENE STRATHAM","time":{"end_time":"2013/02/09 15:52:00 -0500","original":"3:51 PM on 02/9/2013","granularity":"min","time":"2013/02/09 15:51:00 -0500"},"inches":23.0,"geo_score":0.571,"id":"ac4ay5hvn3gc","geo_precision":"city","state":"NH"},"type":"Feature","geometry":{"type":"Point","coordinates":[-87.453347,36.059783]}},{"properties":{"city":"HAMPSTEAD","time":{"end_time":"2013/02/09 15:25:00 -0500","original":"3:24 PM on 02/9/2013","granularity":"min","time":"2013/02/09 15:24:00 -0500"},"inches":20.4,"geo_score":0.571,"id":"ac4ay5e89g0w","geo_precision":"city","state":"NH"},"type":"Feature","geometry":{"type":"Point","coordinates":[-76.864427,39.614552]}},{"properties":{"city":"3 WSW DEERFIELD","time":{"end_time":"2013/02/10 08:00:00 -0500","original":"7:00 AM on 02/10/2013","granularity":"hour","time":"2013/02/10 07:00:00 -0500"},"inches":5.2,"geo_score":0.571,"id":"ac4ay5a0a7fa","geo_precision":"city","state":"NH"},"type":"Feature","geometry":{"type":"Point","coordinates":[-83.839388,42.325592]}},{"properties":{"city":"2 E EXETER","time":{"end_time":"2013/02/10 08:00:00 -0500","original":"7:00 AM on 02/10/2013","granularity":"hour","time":"2013/02/10 07:00:00 -0500"},"inches":3.1,"geo_score":0.0,"id":"ac4ay5gzccwi","geo_precision":"unmatched","state":"NH"},"type":"Feature","geometry":null},{"properties":{"city":"2 WSW NORTHWOOD","time":{"end_time":"2013/02/10 08:00:00 -0500","original":"7:00 AM on 02/10/2013","granularity":"hour","time":"2013/02/10 07:00:00 -0500"},"inches":2.0,"geo_score":0.571,"id":"ac4ay580pdl2","geo_precision":"city","state":"NH"},"type":"Feature","geometry":{"type":"Point","coordinates":[-71.206731,43.217304]}},{"properties":{"city":"WEST HAMPSTEAD","time":{"end_time":"2013/02/10 07:31:00 -0500","original":"7:30 AM on 02/10/2013","granularity":"min","time":"2013/02/10 07:30:00 -0500"},"inches":1.3,"geo_score":0.571,"id":"ac4ay5bsahu5","geo_precision":"city","state":"NH"},"type":"Feature","geometry":{"type":"Point","coordinates":[-72.637078,40.922326]}},{"properties":{"city":"EPPING","time":{"end_time":"2013/02/10 08:00:00 -0500","original":"7:00 AM on 02/10/2013","granularity":"hour","time":"2013/02/10 07:00:00 -0500"},"inches":1.0,"geo_score":0.571,"id":"ac4ay53l590z","geo_precision":"city","state":"NH"},"type":"Feature","geometry":{"type":"Point","coordinates":[-71.084411,43.047595]}},{"properties":{"city":"1 E DOVER","time":{"end_time":"2013/02/10 08:00:00 -0500","original":"7:00 AM on 02/10/2013","granularity":"hour","time":"2013/02/10 07:00:00 -0500"},"inches":4.0,"geo_score":0.571,"id":"ac4ay5gjxso1","geo_precision":"city","state":"NH"},"type":"Feature","geometry":{"type":"Point","coordinates":[-84.947733,39.241443]}},{"properties":{"city":"1 ESE WASHINGTON","time":{"end_time":"2013/02/10 06:49:00 -0500","original":"6:48 AM on 02/10/2013","granularity":"min","time":"2013/02/10 06:48:00 -0500"},"inches":26.0,"geo_score":0.571,"id":"ac4ay59zub3d","geo_precision":"city","state":"NH"},"type":"Feature","geometry":{"type":"Point","coordinates":[-81.831511,38.035657]}},{"properties":{"city":"KINGWOOD TWP","time":{"end_time":"2013/02/09 21:00:00 -0500","original":"8:59 PM on 02/9/2013","granularity":"min","time":"2013/02/09 20:59:00 -0500"},"inches":7.0,"geo_score":0.571,"id":"ac4ay5bykhly","geo_precision":"city","state":"NJ"},"type":"Feature","geometry":{"type":"Point","coordinates":[-78.707872,42.898958]}},{"properties":{"city":"ALLENHURST","time":{"end_time":"2013/02/09 22:00:00 -0500","original":"9:00 PM on 02/9/2013","granularity":"hour","time":"2013/02/09 21:00:00 -0500"},"inches":11.5,"geo_score":0.571,"id":"ac4ay5aptu3y","geo_precision":"city","state":"NJ"},"type":"Feature","geometry":{"type":"Point","coordinates":[-74.24928,40.302718]}},{"properties":{"city":"WALL TWP","time":{"end_time":"2013/02/09 21:00:00 -0500","original":"8:59 PM on 02/9/2013","granularity":"min","time":"2013/02/09 20:59:00 -0500"},"inches":11.0,"geo_score":0.571,"id":"ac4ay5fwtjz4","geo_precision":"city","state":"NJ"},"type":"Feature","geometry":{"type":"Point","coordinates":[-88.425016,31.184623]}},{"properties":{"city":"BLANDON","time":{"end_time":"2013/02/09 21:03:00 -0500","original":"9:02 PM on 02/9/2013","granularity":"min","time":"2013/02/09 21:02:00 -0500"},"inches":3.0,"geo_score":0.571,"id":"ac4ay5618qb2","geo_precision":"city","state":"PA"},"type":"Feature","geometry":{"type":"Point","coordinates":[-90.096481,34.394275]}},{"properties":{"city":"TOBYHANNA","time":{"end_time":"2013/02/09 22:00:00 -0500","original":"9:00 PM on 02/9/2013","granularity":"hour","time":"2013/02/09 21:00:00 -0500"},"inches":6.5,"geo_score":0.571,"id":"ac4ay53668bb","geo_precision":"city","state":"PA"},"type":"Feature","geometry":{"type":"Point","coordinates":[-75.461757,41.17551]}},{"properties":{"city":"WILLIAMS TWP","time":{"end_time":"2013/02/09 22:00:00 -0500","original":"9:00 PM on 02/9/2013","granularity":"hour","time":"2013/02/09 21:00:00 -0500"},"inches":6.8,"geo_score":0.571,"id":"ac4ay55cmadb","geo_precision":"city","state":"PA"},"type":"Feature","geometry":{"type":"Point","coordinates":[-94.548554,35.164819]}}],"is_temporal":true,"author":{"url":"","metadata":"","contact_name":"","contact_address":"","source":"","contact_phone":""},"source":"","pagination":{"sort":null,"start":0,"total":186,"limit":1000000},"state":"complete","tags":"","published":"2014-08-17T01:42:41-04:00","id":319590}