{"type":"FeatureCollection","data_type":"Dataset","url_type":null,"permissions":[{"permissions":{"download":true,"view":true},"group_id":"everyone"}],"classification":null,"title":"Top 100 Locations- % With Doctoral Degrees","count":101,"stream_id":320643,"contributor":{"url":"http://geocommons.com/users/45691","name":"CalebChase"},"data_attributes":null,"calculation_params":null,"icon_link":null,"link":"http://geocommons.com/overlays/320643.json","extent":[-147.978,29.7908,-70.6731,64.8558],"geometry_types":["point"],"unique_name":null,"name":"Top 100 Locations- % With Doctoral Degrees","feature_count":101,"description":"This is a list of the top 100 locations in terms of the percentage of residents with doctoral degrees.","next_feature":null,"is_raster":false,"short_classification":"Y","stats":{"latitude":{"max":64.8557761,"variance":15.135551185618,"mean":39.7584407821782,"stdev":3.89044357183316,"min":29.7907833,"median":40.1105875},"housing units":{"max":114240,"variance":479216289.085347,"mean":13632.4158415842,"stdev":21891.0093208455,"min":243,"median":4389},"rank":{"max":101,"variance":858.5,"mean":51.0,"stdev":29.3001706479672,"min":1,"median":51},"longitude":{"max":-70.6730857,"variance":343.215628293302,"mean":-86.9808690346534,"stdev":18.5260796795572,"min":-147.9783109,"median":-77.1752588}},"features":[{"properties":{"city":"Cayuga Heights","housing units":3273,"latitude":42.4595171,"rank":1,"% w/doctorate degree":"18.20%","longitude":-76.4866067,"id":"ac66bp4d1cy2","state":"NY"},"type":"Feature","geometry":{"type":"Point","coordinates":[-76.4866067,42.4595171]}},{"properties":{"city":"Shorewood Hills","housing units":1732,"latitude":43.0774958,"rank":2,"% w/doctorate degree":"14.30%","longitude":-89.4456756,"id":"ac66bosz9zfm","state":"WI"},"type":"Feature","geometry":{"type":"Point","coordinates":[-89.4456756,43.0774958]}},{"properties":{"city":"Northeast Ithaca","housing units":2655,"latitude":42.47,"rank":3,"% w/doctorate degree":"13.10%","longitude":-76.4641667,"id":"ac66bovz2spi","state":"NY"},"type":"Feature","geometry":{"type":"Point","coordinates":[-76.4641667,42.47]}},{"properties":{"city":"Lansing","housing units":3417,"latitude":42.4842392,"rank":4,"% w/doctorate degree":"12.60%","longitude":-76.4799397,"id":"ac66bp5bsgk7","state":"NY"},"type":"Feature","geometry":{"type":"Point","coordinates":[-76.4799397,42.4842392]}},{"properties":{"city":"East Ithaca","housing units":2192,"latitude":42.4395172,"rank":5,"% w/doctorate degree":"12.50%","longitude":-76.478551,"id":"ac66bp4fwrog","state":"NY"},"type":"Feature","geometry":{"type":"Point","coordinates":[-76.478551,42.4395172]}},{"properties":{"city":"Woods Hole","housing units":925,"latitude":41.5264977,"rank":6,"% w/doctorate degree":"12%","longitude":-70.6730857,"id":"ac66bp2guvyp","state":"MA"},"type":"Feature","geometry":{"type":"Point","coordinates":[-70.6730857,41.5264977]}},{"properties":{"city":"Los Alamos","housing units":11909,"latitude":35.8880796,"rank":7,"% w/doctorate degree":"11.70%","longitude":-106.3069722,"id":"ac66bozvja28","state":"NM"},"type":"Feature","geometry":{"type":"Point","coordinates":[-106.3069722,35.8880796]}},{"properties":{"city":"Leverett","housing units":1663,"latitude":42.4519444,"rank":8,"% w/doctorate degree":"11.00%","longitude":-72.5019444,"id":"ac66boup6syg","state":"MA"},"type":"Feature","geometry":{"type":"Point","coordinates":[-72.5019444,42.4519444]}},{"properties":{"city":"White Rock","housing units":645,"latitude":35.8275257,"rank":9,"% w/doctorate degree":"10.80%","longitude":-106.2039145,"id":"ac66bovigmui","state":"NM"},"type":"Feature","geometry":{"type":"Point","coordinates":[-106.2039145,35.8275257]}},{"properties":{"city":"Princeton North","housing units":4528,"latitude":40.36135,"rank":10,"% w/doctorate degree":"10.30%","longitude":-74.648122,"id":"ac66bp3cp1xd","state":"NJ"},"type":"Feature","geometry":{"type":"Point","coordinates":[-74.648122,40.36135]}},{"properties":{"city":"University Heights","housing units":987,"latitude":41.6550163,"rank":11,"% w/doctorate degree":"10.10%","longitude":-91.5568354,"id":"ac66bp0amhbd","state":"IA"},"type":"Feature","geometry":{"type":"Point","coordinates":[-91.5568354,41.6550163]}},{"properties":{"city":"Friendship Village","housing units":4512,"latitude":38.9628883,"rank":12,"% w/doctorate degree":"9.80%","longitude":-77.0888669,"id":"ac66bovyx6ib","state":"MD"},"type":"Feature","geometry":{"type":"Point","coordinates":[-77.0888669,38.9628883]}},{"properties":{"city":"Lemont","housing units":2116,"latitude":40.8106175,"rank":13,"% w/doctorate degree":"9.70%","longitude":-77.8183338,"id":"ac66bozvozvr","state":"PA"},"type":"Feature","geometry":{"type":"Point","coordinates":[-77.8183338,40.8106175]}},{"properties":{"city":"Pelham","housing units":1403,"latitude":42.39146,"rank":14,"% w/doctorate degree":"9.10%","longitude":-72.411667,"id":"ac66botudery","state":"MA"},"type":"Feature","geometry":{"type":"Point","coordinates":[-72.411667,42.39146]}},{"properties":{"city":"Park Forest Village","housing units":8830,"latitude":40.8067275,"rank":15,"% w/doctorate degree":"8.80%","longitude":-77.9169473,"id":"ac66bp1gff6f","state":"PA"},"type":"Feature","geometry":{"type":"Point","coordinates":[-77.9169473,40.8067275]}},{"properties":{"city":"University Park","housing units":2318,"latitude":38.9703884,"rank":16,"% w/doctorate degree":"8.60%","longitude":-76.941919,"id":"ac66bp218lop","state":"MD"},"type":"Feature","geometry":{"type":"Point","coordinates":[-76.941919,38.9703884]}},{"properties":{"city":"Kensington","housing units":4936,"latitude":37.9104805,"rank":17,"% w/doctorate degree":"8.50%","longitude":-122.2802471,"id":"ac66bp7q8x71","state":"CA"},"type":"Feature","geometry":{"type":"Point","coordinates":[-122.2802471,37.9104805]}},{"properties":{"city":"Palo Alto","housing units":58598,"latitude":37.4418834,"rank":18,"% w/doctorate degree":"8.30%","longitude":-122.1430195,"id":"ac66boztus3m","state":"CA"},"type":"Feature","geometry":{"type":"Point","coordinates":[-122.1430195,37.4418834]}},{"properties":{"city":"Highland Park","housing units":13999,"latitude":40.4959379,"rank":19,"% w/doctorate degree":"8.00%","longitude":-74.4243178,"id":"ac66bot7et57","state":"NJ"},"type":"Feature","geometry":{"type":"Point","coordinates":[-74.4243178,40.4959379]}},{"properties":{"city":"Lexington","housing units":30355,"latitude":42.4430372,"rank":20,"% w/doctorate degree":"7.80%","longitude":-71.2289641,"id":"ac66bosq0p1s","state":"MA"},"type":"Feature","geometry":{"type":"Point","coordinates":[-71.2289641,42.4430372]}},{"properties":{"city":"Bethesda","housing units":55277,"latitude":38.984652,"rank":21,"% w/doctorate degree":"7.70%","longitude":-77.0947092,"id":"ac66bp7m0a1d","state":"MD"},"type":"Feature","geometry":{"type":"Point","coordinates":[-77.0947092,38.984652]}},{"properties":{"city":"Old Field","housing units":947,"latitude":40.9598205,"rank":22,"% w/doctorate degree":"7.50%","longitude":-73.129553,"id":"ac66bosvbx2p","state":"NY"},"type":"Feature","geometry":{"type":"Point","coordinates":[-73.129553,40.9598205]}},{"properties":{"city":"Bodega Bay","housing units":1423,"latitude":38.33325,"rank":23,"% w/doctorate degree":"7.40%","longitude":-123.0480571,"id":"ac66bou1aqgn","state":"CA"},"type":"Feature","geometry":{"type":"Point","coordinates":[-123.0480571,38.33325]}},{"properties":{"city":"Chevy Chase","housing units":2726,"latitude":38.9949153,"rank":24,"% w/doctorate degree":"7.40%","longitude":-77.0772052,"id":"ac66bozssoym","state":"MD"},"type":"Feature","geometry":{"type":"Point","coordinates":[-77.0772052,38.9949153]}},{"properties":{"city":"Del Mar","housing units":4389,"latitude":32.9594891,"rank":25,"% w/doctorate degree":"7.30%","longitude":-117.2653146,"id":"ac66bosm0sh9","state":"CA"},"type":"Feature","geometry":{"type":"Point","coordinates":[-117.2653146,32.9594891]}},{"properties":{"city":"Sewanee","housing units":2361,"latitude":35.2031373,"rank":26,"% w/doctorate degree":"7.20%","longitude":-85.9210899,"id":"ac66bp488l7e","state":"TN"},"type":"Feature","geometry":{"type":"Point","coordinates":[-85.9210899,35.2031373]}},{"properties":{"city":"Garrett Park","housing units":917,"latitude":39.0381647,"rank":27,"% w/doctorate degree":"7.10%","longitude":-77.0930339,"id":"ac66bp0cpmdi","state":"MD"},"type":"Feature","geometry":{"type":"Point","coordinates":[-77.0930339,39.0381647]}},{"properties":{"city":"Marion Center","housing units":1202,"latitude":41.7013889,"rank":28,"% w/doctorate degree":"7.10%","longitude":-70.7641667,"id":"ac66botz8hzn","state":"MA"},"type":"Feature","geometry":{"type":"Point","coordinates":[-70.7641667,41.7013889]}},{"properties":{"city":"Brookline","housing units":57107,"latitude":42.3317642,"rank":29,"% w/doctorate degree":"7.10%","longitude":-71.1211635,"id":"ac66bp4yghk2","state":"MA"},"type":"Feature","geometry":{"type":"Point","coordinates":[-71.1211635,42.3317642]}},{"properties":{"city":"Princeton","housing units":14203,"latitude":40.3572976,"rank":30,"% w/doctorate degree":"7.00%","longitude":-74.6672226,"id":"ac66bp2uxt8w","state":"NJ"},"type":"Feature","geometry":{"type":"Point","coordinates":[-74.6672226,40.3572976]}},{"properties":{"city":"Princeton Junction","housing units":2382,"latitude":40.3173301,"rank":31,"% w/doctorate degree":"6.80%","longitude":-74.6198791,"id":"ac66bozhh1az","state":"NJ"},"type":"Feature","geometry":{"type":"Point","coordinates":[-74.6198791,40.3173301]}},{"properties":{"city":"Belle Terre","housing units":832,"latitude":40.9598208,"rank":32,"% w/doctorate degree":"6.70%","longitude":-73.067884,"id":"ac66bot4u5yn","state":"NY"},"type":"Feature","geometry":{"type":"Point","coordinates":[-73.067884,40.9598208]}},{"properties":{"city":"West Santa Clara","housing units":8135,"latitude":37.3541079,"rank":33,"% w/doctorate degree":"6.70%","longitude":-121.9552356,"id":"ac66bp0mv28s","state":"CA"},"type":"Feature","geometry":{"type":"Point","coordinates":[-121.9552356,37.3541079]}},{"properties":{"city":"Rocky Hill","housing units":662,"latitude":40.3998283,"rank":34,"% w/doctorate degree":"6.70%","longitude":-74.6343244,"id":"ac66bp4t2vi0","state":"NJ"},"type":"Feature","geometry":{"type":"Point","coordinates":[-74.6343244,40.3998283]}},{"properties":{"city":"Lawrenceville","housing units":481,"latitude":40.3014,"rank":35,"% w/doctorate degree":"6.70%","longitude":-74.730154,"id":"ac66bozjegqq","state":"NJ"},"type":"Feature","geometry":{"type":"Point","coordinates":[-74.730154,40.3014]}},{"properties":{"city":"North Bethesda","housing units":38610,"latitude":39.0445535,"rank":36,"% w/doctorate degree":"6.60%","longitude":-77.1188678,"id":"ac66bp6sxibf","state":"MD"},"type":"Feature","geometry":{"type":"Point","coordinates":[-77.1188678,39.0445535]}},{"properties":{"city":"Morgan","housing units":1464,"latitude":31.5376731,"rank":37,"% w/doctorate degree":"6.60%","longitude":-84.5993601,"id":"ac66bp18z6jl","state":"GA"},"type":"Feature","geometry":{"type":"Point","coordinates":[-84.5993601,31.5376731]}},{"properties":{"city":"Northwest Ithaca","housing units":1115,"latitude":42.470765,"rank":38,"% w/doctorate degree":"6.50%","longitude":-76.543187,"id":"ac66bp39ahig","state":"NY"},"type":"Feature","geometry":{"type":"Point","coordinates":[-76.543187,42.470765]}},{"properties":{"city":"West Menlo Park","housing units":3629,"latitude":37.4335499,"rank":39,"% w/doctorate degree":"6.40%","longitude":-122.2030209,"id":"ac66borujegh","state":"CA"},"type":"Feature","geometry":{"type":"Point","coordinates":[-122.2030209,37.4335499]}},{"properties":{"city":"Albany","housing units":16444,"latitude":37.88687,"rank":40,"% w/doctorate degree":"6.40%","longitude":-122.2977475,"id":"ac66bp5m4hjf","state":"CA"},"type":"Feature","geometry":{"type":"Point","coordinates":[-122.2977475,37.88687]}},{"properties":{"city":"Chevy Chase Section Three","housing units":773,"latitude":38.9797735,"rank":41,"% w/doctorate degree":"6.30%","longitude":-77.0741433,"id":"ac66bovnueny","state":"MD"},"type":"Feature","geometry":{"type":"Point","coordinates":[-77.0741433,38.9797735]}},{"properties":{"city":"Shutesbury","housing units":1810,"latitude":42.45639,"rank":42,"% w/doctorate degree":"6.30%","longitude":-72.41028,"id":"ac66bp28jlvv","state":"MA"},"type":"Feature","geometry":{"type":"Point","coordinates":[-72.41028,42.45639]}},{"properties":{"city":"Los Altos Hills","housing units":7902,"latitude":37.3796627,"rank":43,"% w/doctorate degree":"6.30%","longitude":-122.1374637,"id":"ac66borvxhr2","state":"CA"},"type":"Feature","geometry":{"type":"Point","coordinates":[-122.1374637,37.3796627]}},{"properties":{"city":"Cambridge","housing units":101355,"latitude":42.3736158,"rank":44,"% w/doctorate degree":"6.30%","longitude":-71.1097335,"id":"ac66bp1of9qw","state":"MA"},"type":"Feature","geometry":{"type":"Point","coordinates":[-71.1097335,42.3736158]}},{"properties":{"city":"Portola Valley","housing units":4462,"latitude":37.3841066,"rank":45,"% w/doctorate degree":"6.30%","longitude":-122.2352443,"id":"ac66boyxynyp","state":"CA"},"type":"Feature","geometry":{"type":"Point","coordinates":[-122.2352443,37.3841066]}},{"properties":{"city":"Stanford","housing units":13315,"latitude":37.424106,"rank":46,"% w/doctorate degree":"6.20%","longitude":-122.1660756,"id":"ac66bp5vn7ac","state":"CA"},"type":"Feature","geometry":{"type":"Point","coordinates":[-122.1660756,37.424106]}},{"properties":{"city":"Emigration","housing units":8653,"latitude":40.7407247,"rank":47,"% w/doctorate degree":"6.20%","longitude":-111.8411223,"id":"ac66bov1gch2","state":"UT"},"type":"Feature","geometry":{"type":"Point","coordinates":[-111.8411223,40.7407247]}},{"properties":{"city":"Linntown","housing units":1542,"latitude":40.9589736,"rank":48,"% w/doctorate degree":"6.10%","longitude":-76.899133,"id":"ac66box7t9yn","state":"PA"},"type":"Feature","geometry":{"type":"Point","coordinates":[-76.899133,40.9589736]}},{"properties":{"city":"Yellow Springs","housing units":3761,"latitude":39.8064486,"rank":49,"% w/doctorate degree":"6.10%","longitude":-83.886874,"id":"ac66box2upx6","state":"OH"},"type":"Feature","geometry":{"type":"Point","coordinates":[-83.886874,39.8064486]}},{"properties":{"city":"Granville","housing units":3167,"latitude":40.0681192,"rank":50,"% w/doctorate degree":"6.10%","longitude":-82.5196037,"id":"ac66bp36hwkw","state":"OH"},"type":"Feature","geometry":{"type":"Point","coordinates":[-82.5196037,40.0681192]}},{"properties":{"city":"West Lake Hills","housing units":3116,"latitude":30.2979843,"rank":51,"% w/doctorate degree":"6.10%","longitude":-97.8019515,"id":"ac66boxokghd","state":"TX"},"type":"Feature","geometry":{"type":"Point","coordinates":[-97.8019515,30.2979843]}},{"properties":{"city":"Travilah","housing units":7442,"latitude":39.0558068,"rank":52,"% w/doctorate degree":"6.10%","longitude":-77.2479603,"id":"ac66boumsthj","state":"MD"},"type":"Feature","geometry":{"type":"Point","coordinates":[-77.2479603,39.0558068]}},{"properties":{"city":"Clemson","housing units":11939,"latitude":34.6834382,"rank":53,"% w/doctorate degree":"6.00%","longitude":-82.8373654,"id":"ac66bp72tj7h","state":"SC"},"type":"Feature","geometry":{"type":"Point","coordinates":[-82.8373654,34.6834382]}},{"properties":{"city":"Norwich","housing units":3544,"latitude":43.7302778,"rank":54,"% w/doctorate degree":"6.00%","longitude":-72.3030556,"id":"ac66boziiu1g","state":"VT"},"type":"Feature","geometry":{"type":"Point","coordinates":[-72.3030556,43.7302778]}},{"properties":{"city":"Swarthmore","housing units":6170,"latitude":39.9020565,"rank":55,"% w/doctorate degree":"6.00%","longitude":-75.3499123,"id":"ac66boyuywxy","state":"PA"},"type":"Feature","geometry":{"type":"Point","coordinates":[-75.3499123,39.9020565]}},{"properties":{"city":"Aurora","housing units":720,"latitude":42.7539591,"rank":56,"% w/doctorate degree":"6.00%","longitude":-76.7024485,"id":"ac66bowgprew","state":"NY"},"type":"Feature","geometry":{"type":"Point","coordinates":[-76.7024485,42.7539591]}},{"properties":{"city":"Falcon Heights","housing units":5572,"latitude":44.9916323,"rank":57,"% w/doctorate degree":"6.00%","longitude":-93.166333,"id":"ac66bp3adteo","state":"MN"},"type":"Feature","geometry":{"type":"Point","coordinates":[-93.166333,44.9916323]}},{"properties":{"city":"Hanover","housing units":8162,"latitude":43.7022451,"rank":58,"% w/doctorate degree":"5.90%","longitude":-72.2895526,"id":"ac66boxhwuww","state":"NH"},"type":"Feature","geometry":{"type":"Point","coordinates":[-72.2895526,43.7022451]}},{"properties":{"city":"Savoy","housing units":4476,"latitude":40.054753,"rank":59,"% w/doctorate degree":"5.90%","longitude":-88.2517165,"id":"ac66bou2m7vg","state":"IL"},"type":"Feature","geometry":{"type":"Point","coordinates":[-88.2517165,40.054753]}},{"properties":{"city":"Davis","housing units":60308,"latitude":38.5449065,"rank":60,"% w/doctorate degree":"5.80%","longitude":-121.7405167,"id":"ac66bp4qncr1","state":"CA"},"type":"Feature","geometry":{"type":"Point","coordinates":[-121.7405167,38.5449065]}},{"properties":{"city":"Okemos","housing units":22805,"latitude":42.722257,"rank":61,"% w/doctorate degree":"5.80%","longitude":-84.4274744,"id":"ac66bos516q3","state":"MI"},"type":"Feature","geometry":{"type":"Point","coordinates":[-84.4274744,42.722257]}},{"properties":{"city":"Petersham","housing units":1180,"latitude":42.4837752,"rank":62,"% w/doctorate degree":"5.80%","longitude":-72.186669,"id":"ac66bovg3qf6","state":"MA"},"type":"Feature","geometry":{"type":"Point","coordinates":[-72.186669,42.4837752]}},{"properties":{"city":"Mount Olympus","housing units":7103,"latitude":40.6809665,"rank":63,"% w/doctorate degree":"5.80%","longitude":-111.7912764,"id":"ac66bp51g542","state":"UT"},"type":"Feature","geometry":{"type":"Point","coordinates":[-111.7912764,40.6809665]}},{"properties":{"city":"Chapel Hill","housing units":48715,"latitude":35.9131996,"rank":64,"% w/doctorate degree":"5.70%","longitude":-79.0558445,"id":"ac66bp3xm2s7","state":"NC"},"type":"Feature","geometry":{"type":"Point","coordinates":[-79.0558445,35.9131996]}},{"properties":{"city":"Ester","housing units":1680,"latitude":64.8557761,"rank":65,"% w/doctorate degree":"5.70%","longitude":-147.9783109,"id":"ac66boz726ex","state":"AK"},"type":"Feature","geometry":{"type":"Point","coordinates":[-147.9783109,64.8557761]}},{"properties":{"city":"Belmont","housing units":24194,"latitude":42.3956405,"rank":66,"% w/doctorate degree":"5.70%","longitude":-71.1776114,"id":"ac66bp2wiqnj","state":"MA"},"type":"Feature","geometry":{"type":"Point","coordinates":[-71.1776114,42.3956405]}},{"properties":{"city":"Brookmont","housing units":3202,"latitude":38.9420553,"rank":67,"% w/doctorate degree":"5.60%","longitude":-77.1202566,"id":"ac66bosfd1xr","state":"MD"},"type":"Feature","geometry":{"type":"Point","coordinates":[-77.1202566,38.9420553]}},{"properties":{"city":"North Amherst","housing units":619,"latitude":42.410367,"rank":68,"% w/doctorate degree":"5.60%","longitude":-72.530921,"id":"ac66bp2vmyzd","state":"MA"},"type":"Feature","geometry":{"type":"Point","coordinates":[-72.530921,42.410367]}},{"properties":{"city":"Washington Grove","housing units":515,"latitude":39.1398296,"rank":69,"% w/doctorate degree":"5.60%","longitude":-77.1752588,"id":"ac66bp2kl9mp","state":"MD"},"type":"Feature","geometry":{"type":"Point","coordinates":[-77.1752588,39.1398296]}},{"properties":{"city":"South Amherst","housing units":539,"latitude":42.3403684,"rank":70,"% w/doctorate degree":"5.60%","longitude":-72.5050871,"id":"ac66bp6xwvcw","state":"MA"},"type":"Feature","geometry":{"type":"Point","coordinates":[-72.5050871,42.3403684]}},{"properties":{"city":"Amherst","housing units":34874,"latitude":42.366667,"rank":71,"% w/doctorate degree":"5.50%","longitude":-72.516667,"id":"ac66boudly4s","state":"MA"},"type":"Feature","geometry":{"type":"Point","coordinates":[-72.516667,42.366667]}},{"properties":{"city":"South Kensington","housing units":7887,"latitude":39.0177778,"rank":72,"% w/doctorate degree":"5.40%","longitude":-77.0766667,"id":"ac66boy2izju","state":"MD"},"type":"Feature","geometry":{"type":"Point","coordinates":[-77.0766667,39.0177778]}},{"properties":{"city":"West Lafayette","housing units":28778,"latitude":40.4258686,"rank":73,"% w/doctorate degree":"5.40%","longitude":-86.9080655,"id":"ac66bp4e2dbm","state":"IN"},"type":"Feature","geometry":{"type":"Point","coordinates":[-86.9080655,40.4258686]}},{"properties":{"city":"Greenville","housing units":2332,"latitude":39.7790012,"rank":74,"% w/doctorate degree":"5.30%","longitude":-75.5982599,"id":"ac66borkupjw","state":"DE"},"type":"Feature","geometry":{"type":"Point","coordinates":[-75.5982599,39.7790012]}},{"properties":{"city":"Ann Arbor","housing units":114240,"latitude":42.2808256,"rank":75,"% w/doctorate degree":"5.30%","longitude":-83.7430378,"id":"ac66bp79ha3x","state":"MI"},"type":"Feature","geometry":{"type":"Point","coordinates":[-83.7430378,42.2808256]}},{"properties":{"city":"Mission Canyon","housing units":2610,"latitude":34.4508303,"rank":76,"% w/doctorate degree":"5.30%","longitude":-119.7129141,"id":"ac66bp48344h","state":"CA"},"type":"Feature","geometry":{"type":"Point","coordinates":[-119.7129141,34.4508303]}},{"properties":{"city":"North Potomac","housing units":23440,"latitude":39.0972222,"rank":77,"% w/doctorate degree":"5.30%","longitude":-77.2341667,"id":"ac66bp58wemh","state":"MD"},"type":"Feature","geometry":{"type":"Point","coordinates":[-77.2341667,39.0972222]}},{"properties":{"city":"Boalsburg","housing units":3578,"latitude":40.7756184,"rank":78,"% w/doctorate degree":"5.20%","longitude":-77.7924992,"id":"ac66bp5fqbyd","state":"PA"},"type":"Feature","geometry":{"type":"Point","coordinates":[-77.7924992,40.7756184]}},{"properties":{"city":"Plainsboro Center","housing units":2209,"latitude":40.3317744,"rank":79,"% w/doctorate degree":"5.20%","longitude":-74.5946006,"id":"ac66bp13jggf","state":"NJ"},"type":"Feature","geometry":{"type":"Point","coordinates":[-74.5946006,40.3317744]}},{"properties":{"city":"Edgewood","housing units":3311,"latitude":40.4320133,"rank":80,"% w/doctorate degree":"5.20%","longitude":-79.8814386,"id":"ac66bp2vbl03","state":"PA"},"type":"Feature","geometry":{"type":"Point","coordinates":[-79.8814386,40.4320133]}},{"properties":{"city":"Berkeley","housing units":102743,"latitude":37.8715926,"rank":81,"% w/doctorate degree":"5.20%","longitude":-122.272747,"id":"ac66boyevcuc","state":"CA"},"type":"Feature","geometry":{"type":"Point","coordinates":[-122.272747,37.8715926]}},{"properties":{"city":"El Cerrito","housing units":23171,"latitude":37.9161326,"rank":82,"% w/doctorate degree":"5.20%","longitude":-122.310765,"id":"ac66bosd0wo9","state":"CA"},"type":"Feature","geometry":{"type":"Point","coordinates":[-122.310765,37.9161326]}},{"properties":{"city":"Chevy Chase Section Five","housing units":641,"latitude":38.9838472,"rank":83,"% w/doctorate degree":"5.20%","longitude":-77.075428,"id":"ac66bp4qjdt8","state":"MD"},"type":"Feature","geometry":{"type":"Point","coordinates":[-77.075428,38.9838472]}},{"properties":{"city":"Druid Hills","housing units":12741,"latitude":33.7803832,"rank":84,"% w/doctorate degree":"5.20%","longitude":-84.3360359,"id":"ac66bp1dc1be","state":"GA"},"type":"Feature","geometry":{"type":"Point","coordinates":[-84.3360359,33.7803832]}},{"properties":{"city":"Potomac","housing units":44822,"latitude":39.0181651,"rank":85,"% w/doctorate degree":"5.20%","longitude":-77.2085914,"id":"ac66bp0e2jgb","state":"MD"},"type":"Feature","geometry":{"type":"Point","coordinates":[-77.2085914,39.0181651]}},{"properties":{"city":"Stony Brook","housing units":13727,"latitude":40.9256538,"rank":86,"% w/doctorate degree":"5.20%","longitude":-73.1409429,"id":"ac66bovpcv28","state":"NY"},"type":"Feature","geometry":{"type":"Point","coordinates":[-73.1409429,40.9256538]}},{"properties":{"city":"Groton Long Point","housing units":667,"latitude":41.3145432,"rank":87,"% w/doctorate degree":"5.20%","longitude":-72.0078517,"id":"ac66bp2ip23c","state":"CT"},"type":"Feature","geometry":{"type":"Point","coordinates":[-72.0078517,41.3145432]}},{"properties":{"city":"Fearrington","housing units":903,"latitude":35.8065355,"rank":88,"% w/doctorate degree":"5.10%","longitude":-79.0733449,"id":"ac66boys6onp","state":"NC"},"type":"Feature","geometry":{"type":"Point","coordinates":[-79.0733449,35.8065355]}},{"properties":{"city":"Chevy Chase Village","housing units":243,"latitude":38.9692771,"rank":89,"% w/doctorate degree":"5.10%","longitude":-77.0788667,"id":"ac66bp6houji","state":"MD"},"type":"Feature","geometry":{"type":"Point","coordinates":[-77.0788667,38.9692771]}},{"properties":{"city":"Blacksburg","housing units":39573,"latitude":37.2295733,"rank":90,"% w/doctorate degree":"5.10%","longitude":-80.4139393,"id":"ac66bp16ubu7","state":"VA"},"type":"Feature","geometry":{"type":"Point","coordinates":[-80.4139393,37.2295733]}},{"properties":{"city":"Claremont","housing units":33998,"latitude":34.0966764,"rank":91,"% w/doctorate degree":"5.10%","longitude":-117.7197785,"id":"ac66bp5ucdf5","state":"CA"},"type":"Feature","geometry":{"type":"Point","coordinates":[-117.7197785,34.0966764]}},{"properties":{"city":"Port Jefferson","housing units":7837,"latitude":40.9464875,"rank":92,"% w/doctorate degree":"5.10%","longitude":-73.0692732,"id":"ac66botakq8b","state":"NY"},"type":"Feature","geometry":{"type":"Point","coordinates":[-73.0692732,40.9464875]}},{"properties":{"city":"Carlisle","housing units":4717,"latitude":42.529167,"rank":93,"% w/doctorate degree":"5.10%","longitude":-71.35,"id":"ac66botqoq2d","state":"MA"},"type":"Feature","geometry":{"type":"Point","coordinates":[-71.35,42.529167]}},{"properties":{"city":"Urbana","housing units":36395,"latitude":40.1105875,"rank":94,"% w/doctorate degree":"5.00%","longitude":-88.2072697,"id":"ac66botwuq3h","state":"IL"},"type":"Feature","geometry":{"type":"Point","coordinates":[-88.2072697,40.1105875]}},{"properties":{"city":"Hilshire Village","housing units":720,"latitude":29.7907833,"rank":95,"% w/doctorate degree":"5.00%","longitude":-95.4891081,"id":"ac66bos4g5d3","state":"TX"},"type":"Feature","geometry":{"type":"Point","coordinates":[-95.4891081,29.7907833]}},{"properties":{"city":"Hockessin","housing units":12902,"latitude":39.7876112,"rank":96,"% w/doctorate degree":"5.00%","longitude":-75.6966001,"id":"ac66bp3qxmg7","state":"DE"},"type":"Feature","geometry":{"type":"Point","coordinates":[-75.6966001,39.7876112]}},{"properties":{"city":"South Brazos","housing units":23476,"latitude":32.661389,"rank":97,"% w/doctorate degree":"5.00%","longitude":-98.121667,"id":"ac66boymjrrp","state":"TX"},"type":"Feature","geometry":{"type":"Point","coordinates":[-98.121667,32.661389]}},{"properties":{"city":"Menlo Park","housing units":30785,"latitude":37.4538274,"rank":98,"% w/doctorate degree":"4.90%","longitude":-122.1821871,"id":"ac66bosg1kfr","state":"CA"},"type":"Feature","geometry":{"type":"Point","coordinates":[-122.1821871,37.4538274]}},{"properties":{"city":"Harvard","housing units":5981,"latitude":42.5,"rank":99,"% w/doctorate degree":"4.90%","longitude":-71.5833333,"id":"ac66bp2n57zq","state":"MA"},"type":"Feature","geometry":{"type":"Point","coordinates":[-71.5833333,42.5]}},{"properties":{"city":"Beverly Shores","housing units":708,"latitude":41.6925381,"rank":100,"% w/doctorate degree":"4.90%","longitude":-86.9775319,"id":"ac66bp3fulas","state":"IN"},"type":"Feature","geometry":{"type":"Point","coordinates":[-86.9775319,41.6925381]}},{"properties":{"city":"Clayton","housing units":12825,"latitude":38.6425518,"rank":101,"% w/doctorate degree":"4.90%","longitude":-90.3237263,"id":"ac66bowqkpst","state":"MO"},"type":"Feature","geometry":{"type":"Point","coordinates":[-90.3237263,38.6425518]}}],"is_temporal":false,"author":{"url":"http://www.city-data.com/top2/h185.html","metadata":"","contact_name":"","contact_address":"","source":"city-data.com","contact_phone":""},"source":"http://www.city-data.com/top2/h185.html","pagination":{"sort":null,"start":0,"total":101,"limit":1000000},"state":"complete","tags":"doctoral degrees","published":"2014-08-16T13:55:43-04:00","id":320643}