{"type":"FeatureCollection","data_type":"Dataset","url_type":null,"permissions":[{"permissions":{"download":true,"edit":true,"view":true},"group_id":"everyone"},{"permissions":{"download":true,"edit":true,"view":true},"group_id":56815}],"classification":null,"title":"mss exp","count":57,"stream_id":320845,"contributor":{"url":"http://geocommons.com/users/37170","name":"lfuentes"},"data_attributes":null,"calculation_params":null,"icon_link":null,"link":"http://geocommons.com/overlays/320845.json","extent":[-91.97,31.11,-88.48,33.13],"geometry_types":["point"],"unique_name":null,"name":"mss exp","feature_count":57,"description":"","next_feature":null,"is_raster":false,"short_classification":"Y","stats":{"lat":{"max":33.13,"variance":0.421482142857143,"mean":31.89,"stdev":0.649216560830932,"min":31.11,"median":31.6},"long":{"max":-88.48,"variance":0.396568107769423,"mean":-89.9354385964912,"stdev":0.629736538378887,"min":-91.97,"median":-89.87}},"features":[{"properties":{"discription":"trees and power lines down around flora...also scattered trees down across much of sw madison county.","county":"Madison","town":null,"id":"ac6pjvz85rwy","address":null,"lat":32.55,"state":"MS","long":-90.31},"type":"Feature","geometry":{"type":"Point","coordinates":[-90.31,32.55]}},{"properties":{"discription":"few older trees blown down.","county":"Madison","town":null,"id":"ac6pjvtyddye","address":null,"lat":32.78,"state":"MS","long":-89.84},"type":"Feature","geometry":{"type":"Point","coordinates":[-89.84,32.78]}},{"properties":{"discription":"some trees had tops broken off. an additional report of numerous trees down.","county":"Warren","town":null,"id":"ac6pjvo2k63g","address":null,"lat":32.52,"state":"MS","long":-90.97},"type":"Feature","geometry":{"type":"Point","coordinates":[-90.97,32.52]}},{"properties":{"discription":"trees down across hwy 14w","county":"Attala","town":null,"id":"ac6pjvz0ikr4","address":null,"lat":32.99,"state":"MS","long":-89.69},"type":"Feature","geometry":{"type":"Point","coordinates":[-89.69,32.99]}},{"properties":{"discription":"tree down across carson rd","county":"Yazoo","town":null,"id":"ac6pjvrm96dk","address":null,"lat":32.9,"state":"MS","long":-90.36},"type":"Feature","geometry":{"type":"Point","coordinates":[-90.36,32.9]}},{"properties":{"discription":"several power lines down on floweery rd.","county":"Warren","town":null,"id":"ac6pjvyj2kee","address":null,"lat":32.51,"state":"MS","long":-90.77},"type":"Feature","geometry":{"type":"Point","coordinates":[-90.77,32.51]}},{"properties":{"discription":"extensive street and road flooding. fire department has had to rescue a few motorists from flooded cars. 2.6 inches of rain since 11 am at cocorahs site on east side of city.","county":"Warren","town":null,"id":"ac6pjvx0rjv7","address":null,"lat":32.33,"state":"MS","long":-90.87},"type":"Feature","geometry":{"type":"Point","coordinates":[-90.87,32.33]}},{"properties":{"discription":"tree down in crossett","county":"Ashley","town":null,"id":"ac6pjw0fv852","address":null,"lat":33.13,"state":"MS","long":-91.97},"type":"Feature","geometry":{"type":"Point","coordinates":[-91.97,33.13]}},{"properties":{"discription":"some trees had tops broken off.","county":"Warren","town":null,"id":"ac6pjvytwijw","address":null,"lat":32.52,"state":"MS","long":-90.97},"type":"Feature","geometry":{"type":"Point","coordinates":[-90.97,32.52]}},{"properties":{"discription":"power lines down.","county":"Holmes","town":null,"id":"ac6pjvupe9ib","address":null,"lat":33.08,"state":"MS","long":-89.86},"type":"Feature","geometry":{"type":"Point","coordinates":[-89.86,33.08]}},{"properties":{"discription":"some trees had tops broken off. an additional report of down trees in the area.","county":"Warren","town":null,"id":"ac6pjvujut0b","address":null,"lat":32.52,"state":"MS","long":-90.97},"type":"Feature","geometry":{"type":"Point","coordinates":[-90.97,32.52]}},{"properties":{"discription":"numerous reports of flooded streets and roads in vicksburg area. pemberton road reported impassable. 2.19 inches of rain between 11 am and 1225 pm east side of vicksburg at cocorahs site.","county":"Warren","town":null,"id":"ac6pjvr3t9sz","address":null,"lat":32.33,"state":"MS","long":-90.87},"type":"Feature","geometry":{"type":"Point","coordinates":[-90.87,32.33]}},{"properties":{"discription":"power lines down","county":"Attala","town":null,"id":"ac6pjvriwy7o","address":null,"lat":33.06,"state":"MS","long":-89.55},"type":"Feature","geometry":{"type":"Point","coordinates":[-89.55,33.06]}},{"properties":{"discription":"several power lines down on floweree rd.","county":"Warren","town":null,"id":"ac6pjvto7h93","address":null,"lat":32.51,"state":"MS","long":-90.77},"type":"Feature","geometry":{"type":"Point","coordinates":[-90.77,32.51]}},{"properties":{"discription":"water reported across madison ave near the train tracks","county":"Madison","town":null,"id":"ac6pjvvp73ue","address":null,"lat":32.45,"state":"MS","long":-90.11},"type":"Feature","geometry":{"type":"Point","coordinates":[-90.11,32.45]}},{"properties":{"discription":"several roads flooded in the city of vicksburg and across warren county","county":"Warren","town":null,"id":"ac6pjvrgl7ky","address":null,"lat":32.31,"state":"MS","long":-90.82},"type":"Feature","geometry":{"type":"Point","coordinates":[-90.82,32.31]}},{"properties":{"discription":"barn destroyed along hwy 149","county":"Humphreys","town":null,"id":"ac6pjw2c6pnm","address":null,"lat":33.1,"state":"MS","long":-90.5},"type":"Feature","geometry":{"type":"Point","coordinates":[-90.5,33.1]}},{"properties":{"discription":"flooding reported on byram to raymond rd...siwell rd at mccluer rd...and raymond rd.","county":"Hinds","town":null,"id":"ac6pjvvljf1j","address":null,"lat":32.24,"state":"MS","long":-90.3},"type":"Feature","geometry":{"type":"Point","coordinates":[-90.3,32.24]}},{"properties":{"discription":"power line down","county":"Kemper","town":null,"id":"ac6pjvw3m4xj","address":null,"lat":32.83,"state":"MS","long":-88.48},"type":"Feature","geometry":{"type":"Point","coordinates":[-88.48,32.83]}},{"properties":{"discription":"flooding reported on longwood drive in jackson","county":"Hinds","town":null,"id":"ac6pjvyd4yf5","address":null,"lat":32.26,"state":"MS","long":-90.26},"type":"Feature","geometry":{"type":"Point","coordinates":[-90.26,32.26]}},{"properties":{"discription":"damage across the western portion of usm campus...power lines down and debris thrown about and blocking rds.","county":"Forrest","town":null,"id":"ac6pjvy0yaic","address":null,"lat":31.32,"state":"MS","long":-89.32},"type":"Feature","geometry":{"type":"Point","coordinates":[-89.32,31.32]}},{"properties":{"discription":"baseball to possibly softball sized hail in and around goss.","county":"Marion","town":null,"id":"ac6pjvq5zqrt","address":null,"lat":31.36,"state":"MS","long":-89.89},"type":"Feature","geometry":{"type":"Point","coordinates":[-89.89,31.36]}},{"properties":{"discription":"flooding at autry st and skylane dr in pearl","county":"Rankin","town":null,"id":"ac6pjvu909f3","address":null,"lat":32.29,"state":"MS","long":-90.08},"type":"Feature","geometry":{"type":"Point","coordinates":[-90.08,32.29]}},{"properties":{"discription":"three homes damaged along with several barns damaged. numerous trees and powerlines were downed along gw smith rd.","county":"Lawrence","town":null,"id":"ac6pjvpv6xn4","address":null,"lat":31.48,"state":"MS","long":-89.98},"type":"Feature","geometry":{"type":"Point","coordinates":[-89.98,31.48]}},{"properties":{"discription":"*** 5 inj *** homes damaged along mt carmel church rd and regan rd. 5 injuries reported along the path so far.","county":"Marion","town":null,"id":"ac6pjvucygab","address":null,"lat":31.13,"state":"MS","long":-89.86},"type":"Feature","geometry":{"type":"Point","coordinates":[-89.86,31.13]}},{"properties":{"discription":"five homes were damaged along prospres ridge road near the marion/lamar county border.","county":"Lamar","town":null,"id":"ac6pjvt2q7qc","address":null,"lat":31.23,"state":"MS","long":-89.65},"type":"Feature","geometry":{"type":"Point","coordinates":[-89.65,31.23]}},{"properties":{"discription":"oak grove high school and baseball fields majorly damaged.","county":"Forrest","town":null,"id":"ac6pjvzxj9ey","address":null,"lat":31.31,"state":"MS","long":-89.31},"type":"Feature","geometry":{"type":"Point","coordinates":[-89.31,31.31]}},{"properties":{"discription":"flooding on ovett moselle road in front of the post office","county":"Jones","town":null,"id":"ac6pjvxz3jtx","address":null,"lat":31.48,"state":"MS","long":-89.05},"type":"Feature","geometry":{"type":"Point","coordinates":[-89.05,31.48]}},{"properties":{"discription":"flooding on pemberton drive in pearl","county":"Rankin","town":null,"id":"ac6pjw3rnahj","address":null,"lat":32.28,"state":"MS","long":-90.11},"type":"Feature","geometry":{"type":"Point","coordinates":[-90.11,32.28]}},{"properties":{"discription":"power lines down","county":"Hinds","town":null,"id":"ac6pjvpkb7z3","address":null,"lat":32.22,"state":"MS","long":-90.42},"type":"Feature","geometry":{"type":"Point","coordinates":[-90.42,32.22]}},{"properties":{"discription":null,"county":"Lawrence","town":null,"id":"ac6pjw3hh5tl","address":null,"lat":31.5,"state":"MS","long":-90.02},"type":"Feature","geometry":{"type":"Point","coordinates":[-90.02,31.5]}},{"properties":{"discription":"large tornado on the ground...multiple confirming reports as well as live video stream. multiple dmg reports across lamar county.","county":"Lamar","town":null,"id":"ac6pjvqw74gb","address":null,"lat":31.32,"state":"MS","long":-89.43},"type":"Feature","geometry":{"type":"Point","coordinates":[-89.43,31.32]}},{"properties":{"discription":"hail likely larger based off nearby reports.","county":"Jefferson Davis","town":null,"id":"ac6pjvoi2yv0","address":null,"lat":31.42,"state":"MS","long":-89.84},"type":"Feature","geometry":{"type":"Point","coordinates":[-89.84,31.42]}},{"properties":{"discription":"damage to a hardware store and multiple homes in the petal area. possible injuries.","county":"Forrest","town":null,"id":"ac6pjvv1mbit","address":null,"lat":31.35,"state":"MS","long":-89.26},"type":"Feature","geometry":{"type":"Point","coordinates":[-89.26,31.35]}},{"properties":{"discription":"flooding reported on forest ave and woodland ave in jackson","county":"Hinds","town":null,"id":"ac6pjw22hyxk","address":null,"lat":32.37,"state":"MS","long":-90.17},"type":"Feature","geometry":{"type":"Point","coordinates":[-90.17,32.37]}},{"properties":{"discription":"a home was damaged and trees and powerlines were downed along gw smith rd. possible tornado.","county":"Lawrence","town":null,"id":"ac6pjw0vvff4","address":null,"lat":31.48,"state":"MS","long":-89.98},"type":"Feature","geometry":{"type":"Point","coordinates":[-89.98,31.48]}},{"properties":{"discription":"*** 3 inj *** homes damaged along mt carmel church rd and regan rd. three injuries reported along regan rd.","county":"Marion","town":null,"id":"ac6pjvwvd3uq","address":null,"lat":31.13,"state":"MS","long":-89.86},"type":"Feature","geometry":{"type":"Point","coordinates":[-89.86,31.13]}},{"properties":{"discription":null,"county":"Jones","town":null,"id":"ac6pjvqsv6yb","address":null,"lat":31.6,"state":"MS","long":-89.21},"type":"Feature","geometry":{"type":"Point","coordinates":[-89.21,31.6]}},{"properties":{"discription":"home destroyed on whiley lott rd...near the marion...lamar co line.","county":"Lamar","town":null,"id":"ac6pjvv578o9","address":null,"lat":31.23,"state":"MS","long":-89.63},"type":"Feature","geometry":{"type":"Point","coordinates":[-89.63,31.23]}},{"properties":{"discription":"considerable damage to a hardware store in petal. multiple homes damaged in the area. possible injuries.","county":"Forrest","town":null,"id":"ac6pjvqogfhr","address":null,"lat":31.35,"state":"MS","long":-89.26},"type":"Feature","geometry":{"type":"Point","coordinates":[-89.26,31.35]}},{"properties":{"discription":"flash flooding reported on pittman rd near phillips rd.","county":"Jones","town":null,"id":"ac6pjvtpm437","address":null,"lat":31.53,"state":"MS","long":-89.29},"type":"Feature","geometry":{"type":"Point","coordinates":[-89.29,31.53]}},{"properties":{"discription":"*** 53 inj *** damage across the western portion of usm campus...power lines down and debris thrown about and blocking rds. approximately 53 injuries treated at forrest general hospital.","county":"Forrest","town":null,"id":"ac6pjvw09mto","address":null,"lat":31.32,"state":"MS","long":-89.32},"type":"Feature","geometry":{"type":"Point","coordinates":[-89.32,31.32]}},{"properties":{"discription":"water covered a portion of john st in prentiss...street was closed for a bit of time.","county":"Jefferson Davis","town":null,"id":"ac6pjw1ogt23","address":null,"lat":31.6,"state":"MS","long":-89.87},"type":"Feature","geometry":{"type":"Point","coordinates":[-89.87,31.6]}},{"properties":{"discription":"*** 8 inj *** large tornado on the ground...multiple confirming reports as well as live video stream. multiple dmg reports and 2 critical injuries reported in lamar county.","county":"Lamar","town":null,"id":"ac6pjvx2b0s4","address":null,"lat":31.32,"state":"MS","long":-89.43},"type":"Feature","geometry":{"type":"Point","coordinates":[-89.43,31.32]}},{"properties":{"discription":"*** 63 inj *** substantial damage across the city of hattiesburg. roughly 300 homes and buildings damaged with debris blocking nearly 100 roadways. approximately 63 injuries treated at forrest general hospital.","county":"Forrest","town":null,"id":"ac6pjvvn5zwj","address":null,"lat":31.32,"state":"MS","long":-89.32},"type":"Feature","geometry":{"type":"Point","coordinates":[-89.32,31.32]}},{"properties":{"discription":"flooding around ellsiville with water in a home.","county":"Jones","town":null,"id":"ac6pjvvgl0uq","address":null,"lat":31.6,"state":"MS","long":-89.21},"type":"Feature","geometry":{"type":"Point","coordinates":[-89.21,31.6]}},{"properties":{"discription":"*** 19 inj *** tornadic damage reported across the county with 19 injured and were sent to area hospitals...2 critical.","county":"Lamar","town":null,"id":"ac6pjvscgzqh","address":null,"lat":31.32,"state":"MS","long":-89.43},"type":"Feature","geometry":{"type":"Point","coordinates":[-89.43,31.32]}},{"properties":{"discription":"on hwy 589","county":"Lamar","town":null,"id":"ac6pjvq44s10","address":null,"lat":31.39,"state":"MS","long":-89.51},"type":"Feature","geometry":{"type":"Point","coordinates":[-89.51,31.39]}},{"properties":{"discription":"dime to quarter size hail fell.","county":"Lamar","town":null,"id":"ac6pjvqost46","address":null,"lat":31.12,"state":"MS","long":-89.49},"type":"Feature","geometry":{"type":"Point","coordinates":[-89.49,31.12]}},{"properties":{"discription":"tree down along hwy 27","county":"Copiah","town":null,"id":"ac6pjvqwwy3t","address":null,"lat":31.99,"state":"MS","long":-90.36},"type":"Feature","geometry":{"type":"Point","coordinates":[-90.36,31.99]}},{"properties":{"discription":"*** 63 inj *** substantial damage across the city of hattiesburg. roughly 300 homes and buildings damaged with debris blocking nearly 100 roadways. approximately 63 injuries treated at forrest general hospital. 82 total inj across lamar and forrest counties...total path length roughly 21 mi.","county":"Forrest","town":null,"id":"ac6pjvxywgc0","address":null,"lat":31.32,"state":"MS","long":-89.32},"type":"Feature","geometry":{"type":"Point","coordinates":[-89.32,31.32]}},{"properties":{"discription":"two rds closed due to flooding...earl knight rd and conn rd.","county":"Copiah","town":null,"id":"ac6pjvzql792","address":null,"lat":31.86,"state":"MS","long":-90.44},"type":"Feature","geometry":{"type":"Point","coordinates":[-90.44,31.86]}},{"properties":{"discription":"*** 3 inj *** tornado started along new hope rd...the most substantial damage was along mt carmel church rd and regan rd. the tornado continued across marion co and ended just inside lamar co along whiley lott rd. rated ef2...max winds 115 mph...width 75 yds...total path length 13.3 mi","county":"Marion","town":null,"id":"ac6pjvp9uavh","address":null,"lat":31.11,"state":"MS","long":-89.92},"type":"Feature","geometry":{"type":"Point","coordinates":[-89.92,31.11]}},{"properties":{"discription":"*** 3 inj *** tornado started along new hope rd...the most substantial damage was along mt carmel church rd and regan rd. the tornado continued across marion co and ended just inside lamar co along whiley lott rd. rated ef2...max winds 115 mph...width 400 yds...total path length 13.3 mi","county":"Marion","town":null,"id":"ac6pjw19a0cf","address":null,"lat":31.11,"state":"MS","long":-89.92},"type":"Feature","geometry":{"type":"Point","coordinates":[-89.92,31.11]}},{"properties":{"discription":"*** 19 inj *** this tornado started on the west side of oak grove...low end ef4 damage occurred near the high school and to a housing area just to the sw of that location where a well build brick home was levled. vehilces were also thrown a considerable distance. ef3 damage was noted along much of the path through west hattiesburg and in the city of hattiesburg. the tornado dissipated just inside nw perry county. estimated path length was 21 mi.","county":"Lamar","town":null,"id":"ac6pjvpu16g1","address":null,"lat":31.29,"state":"MS","long":-89.45},"type":"Feature","geometry":{"type":"Point","coordinates":[-89.45,31.29]}},{"properties":{"discription":"*** 19 inj *** this tornado started on the west side of oak grove...low end ef4 damage occurred near the high school and to a housing area just to the sw of that location where a well build brick home was levled. vehilces were also thrown a considerable distance. ef3 damage was noted along much of the path through west hattiesburg and in the city of hattiesburg. the tornado dissipated just inside nw perry county. 82 total inj across lamar and forrest counties...estimated path length was 21 mi.","county":"Lamar","town":null,"id":"ac6pjvzavnga","address":null,"lat":31.29,"state":"MS","long":-89.45},"type":"Feature","geometry":{"type":"Point","coordinates":[-89.45,31.29]}},{"properties":{"discription":null,"county":"Lawrence","town":null,"id":"ac6pjvtj1mf6","address":null,"lat":31.47,"state":"MS","long":-90.02},"type":"Feature","geometry":{"type":"Point","coordinates":[-90.02,31.47]}}],"is_temporal":false,"author":{"url":"","metadata":"","contact_name":"","contact_address":"","source":"","contact_phone":""},"source":"","pagination":{"sort":null,"start":0,"total":57,"limit":1000000},"state":"complete","tags":"tornado","published":"2014-08-16T14:10:11-04:00","id":320845}