{"type":"FeatureCollection","data_type":"Dataset","url_type":null,"permissions":[{"permissions":{"download":true,"view":true},"group_id":"everyone"}],"classification":null,"title":"Accomack Fires Feb. 13","count":49,"stream_id":321227,"contributor":{"url":"http://geocommons.com/users/57635","name":"penserga25"},"data_attributes":null,"calculation_params":null,"icon_link":null,"link":"http://geocommons.com/overlays/321227.json","extent":[-76.4168,36.8123,-75.4621,37.9956],"geometry_types":["point"],"unique_name":null,"name":"Accomack Fires Feb. 13","feature_count":49,"description":"Accomack County Arson fires Nov.12, 2012 to Feb. 11, 2013.","next_feature":null,"is_raster":false,"short_classification":"Y","stats":{"date":{"max":"2013/02/11 00:00:00 -0500","variance":6740547840000.0,"mean":"2012/12/13 10:17:08 -0500","stdev":2596256.50504722,"min":"2012/11/12 00:00:00 -0500","median":"2012/12/03 00:00:00 -0500"}},"features":[{"properties":{"zip":"23421","date":{"end_time":"2012/11/13 00:00:00 -0500","original":"Nov. 12, 2012","granularity":"day","time":"2012/11/12 00:00:00 -0500"},"type":"Residential","geo_score":0.708,"town":"Parksley","id":"ac6w5tqkyp17","address":"26000 Dennis Drive","geo_precision":"street"},"type":"Feature","geometry":{"type":"Point","coordinates":[-75.624595,37.796886]}},{"properties":{"zip":"23488","date":{"end_time":"2012/11/14 00:00:00 -0500","original":"Nov. 13, 2012","granularity":"day","time":"2012/11/13 00:00:00 -0500"},"type":"Residential","geo_score":0.708,"town":"Withams","id":"ac6w5tu8s5bj","address":"7300 Neal Parker Rd.","geo_precision":"street"},"type":"Feature","geometry":{"type":"Point","coordinates":[-75.592494,37.960774]}},{"properties":{"zip":"23357","date":{"end_time":"2012/11/14 00:00:00 -0500","original":"Nov. 13, 2012","granularity":"day","time":"2012/11/13 00:00:00 -0500"},"type":"Residential","geo_score":0.708,"town":"Greenbush","id":"ac6w5trnc2jq","address":"23000 Drummonds Mill Rd.","geo_precision":"street"},"type":"Feature","geometry":{"type":"Point","coordinates":[-75.679198,37.759892]}},{"properties":{"zip":"23421","date":{"end_time":"2012/11/14 00:00:00 -0500","original":"Nov. 13, 2012","granularity":"day","time":"2012/11/13 00:00:00 -0500"},"type":"Residential","geo_score":0.708,"town":"Parksley","id":"ac6w5tq9gt9u","address":"25000 Johnson Rd.","geo_precision":"street"},"type":"Feature","geometry":{"type":"Point","coordinates":[-75.625838,37.74799]}},{"properties":{"zip":"23359","date":{"end_time":"2012/11/14 00:00:00 -0500","original":"Nov. 13, 2012","granularity":"day","time":"2012/11/13 00:00:00 -0500"},"type":"Residential","geo_score":0.902,"town":"Hallwood","id":"ac6w5tic60qe","address":"27000 Savannah Rd.","geo_precision":"range"},"type":"Feature","geometry":{"type":"Point","coordinates":[-75.599272,37.877507]}},{"properties":{"zip":"23308","date":{"end_time":"2012/11/16 00:00:00 -0500","original":"Nov. 15, 2012","granularity":"day","time":"2012/11/15 00:00:00 -0500"},"type":"Residential","geo_score":0.78,"town":"Bloxom","id":"ac6w5tkhud9k","address":"26000 Mason Rd.","geo_precision":"street"},"type":"Feature","geometry":{"type":"Point","coordinates":[-75.625008,37.822319]}},{"properties":{"zip":"23421","date":{"end_time":"2012/11/16 00:00:00 -0500","original":"Nov. 15, 2012","granularity":"day","time":"2012/11/15 00:00:00 -0500"},"type":"Residential","geo_score":0.463,"town":"Parksley","id":"ac6w5tt1gbmb","address":"20000 Fox Grove Rd.","geo_precision":"street"},"type":"Feature","geometry":{"type":"Point","coordinates":[-76.121777,36.812272]}},{"properties":{"zip":"23410","date":{"end_time":"2012/11/16 00:00:00 -0500","original":"Nov. 15, 2012","granularity":"day","time":"2012/11/15 00:00:00 -0500"},"type":"Residential","geo_score":0.708,"town":"Melfa","id":"ac6w5tyaau4y","address":"16000 Hollies Church Rd.","geo_precision":"street"},"type":"Feature","geometry":{"type":"Point","coordinates":[-75.793264,37.650935]}},{"properties":{"zip":"23488","date":{"end_time":"2012/11/18 00:00:00 -0500","original":"Nov. 17, 2012","granularity":"day","time":"2012/11/17 00:00:00 -0500"},"type":"Residential","geo_score":0.902,"town":"Withams","id":"ac6w5tn68reb","address":"27000 Withams Rd.","geo_precision":"range"},"type":"Feature","geometry":{"type":"Point","coordinates":[-75.602787,37.93649]}},{"properties":{"zip":"23421","date":{"end_time":"2012/11/18 00:00:00 -0500","original":"Nov. 17, 2012","granularity":"day","time":"2012/11/17 00:00:00 -0500"},"type":"Residential","geo_score":0.768,"town":"Gargtha","id":"ac6w5tizfezj","address":"18000 Metompkin Rd.","geo_precision":"range"},"type":"Feature","geometry":{"type":"Point","coordinates":[-75.582646,37.792748]}},{"properties":{"zip":"23410","date":{"end_time":"2012/11/18 00:00:00 -0500","original":"Nov. 17, 2012","granularity":"day","time":"2012/11/17 00:00:00 -0500"},"type":"Residential","geo_score":0.708,"town":"Melfa","id":"ac6w5tslpjsw","address":"29000 Seaside Rd.","geo_precision":"street"},"type":"Feature","geometry":{"type":"Point","coordinates":[-75.699475,37.643219]}},{"properties":{"zip":"23415","date":{"end_time":"2012/11/18 00:00:00 -0500","original":"Nov. 17, 2012","granularity":"day","time":"2012/11/17 00:00:00 -0500"},"type":"Residential","geo_score":0.902,"town":"New Church","id":"ac6w5tk9swaf","address":"3500 Davis Rd.","geo_precision":"range"},"type":"Feature","geometry":{"type":"Point","coordinates":[-75.527042,37.995629]}},{"properties":{"zip":"23395","date":{"end_time":"2012/11/19 00:00:00 -0500","original":"Nov. 18, 2012","granularity":"day","time":"2012/11/18 00:00:00 -0500"},"type":"Residential","geo_score":0.902,"town":"Horntown","id":"ac6w5tmlayq5","address":"4600 Fleming Rd.","geo_precision":"range"},"type":"Feature","geometry":{"type":"Point","coordinates":[-75.462113,37.970609]}},{"properties":{"zip":"23421","date":{"end_time":"2012/11/20 00:00:00 -0500","original":"Nov. 19, 2012","granularity":"day","time":"2012/11/19 00:00:00 -0500"},"type":"Residential","geo_score":0.687,"town":"Parksley","id":"ac6w5tmizpm0","address":"17000 Hopetown Rd.","geo_precision":"street"},"type":"Feature","geometry":{"type":"Point","coordinates":[-75.636759,37.809072]}},{"properties":{"zip":"23301","date":{"end_time":"2012/11/20 00:00:00 -0500","original":"Nov. 19, 2012","granularity":"day","time":"2012/11/19 00:00:00 -0500"},"type":"Residential","geo_score":0.591,"town":"Accomac","id":"ac6w5tmhtf9i","address":"23000 Drummond Ln.","geo_precision":"street"},"type":"Feature","geometry":{"type":"Point","coordinates":[-75.671694,37.714444]}},{"properties":{"zip":"23421","date":{"end_time":"2012/11/22 00:00:00 -0500","original":"Nov. 21, 2012","granularity":"day","time":"2012/11/21 00:00:00 -0500"},"type":"Residential","geo_score":0.45,"town":"Parksley","id":"ac6w5tiow3du","address":"24000 Matthews Rd.","geo_precision":"street"},"type":"Feature","geometry":{"type":"Point","coordinates":[-76.140222,36.820872]}},{"properties":{"zip":"23417","date":{"end_time":"2012/11/22 00:00:00 -0500","original":"Nov. 21, 2012","granularity":"day","time":"2012/11/21 00:00:00 -0500"},"type":"Residential","geo_score":0.429,"town":"Onancock","id":"ac6w5tv35fqu","address":"27000 Mt. Nebo Rd.","geo_precision":"street"},"type":"Feature","geometry":{"type":"Point","coordinates":[-75.810503,37.669411]}},{"properties":{"zip":"23410","date":{"end_time":"2012/11/23 00:00:00 -0500","original":"Nov. 22 2012","granularity":"day","time":"2012/11/22 00:00:00 -0500"},"type":"Residential","geo_score":0.902,"town":"Melfa","id":"ac6w5ty2xnir","address":"29000 Beacon Rd.","geo_precision":"range"},"type":"Feature","geometry":{"type":"Point","coordinates":[-75.770251,37.641258]}},{"properties":{"zip":"23415","date":{"end_time":"2012/11/25 00:00:00 -0500","original":"Nov. 24, 2012","granularity":"day","time":"2012/11/24 00:00:00 -0500"},"type":"Commercial","geo_score":0.902,"town":"New Church","id":"ac6w5tnyo9o0","address":"5300 Holland Rd.","geo_precision":"range"},"type":"Feature","geometry":{"type":"Point","coordinates":[-75.564421,37.957989]}},{"properties":{"zip":"23410","date":{"end_time":"2012/11/29 00:00:00 -0500","original":"Nov. 28, 2012","granularity":"day","time":"2012/11/28 00:00:00 -0500"},"type":"Residential","geo_score":0.708,"town":"Melfa","id":"ac6w5tygdw63","address":"29000 Race Track Rd.","geo_precision":"street"},"type":"Feature","geometry":{"type":"Point","coordinates":[-75.738374,37.642578]}},{"properties":{"zip":"23301","date":{"end_time":"2012/12/01 00:00:00 -0500","original":"Nov. 30, 2012","granularity":"day","time":"2012/11/30 00:00:00 -0500"},"type":"Residential","geo_score":0.717,"town":"Accomac","id":"ac6w5tk8nhvn","address":"24000 Church Rd.","geo_precision":"street"},"type":"Feature","geometry":{"type":"Point","coordinates":[-75.678134,37.714487]}},{"properties":{"zip":"23426","date":{"end_time":"2012/12/01 00:00:00 -0500","original":"Nov. 30, 2012","granularity":"day","time":"2012/11/30 00:00:00 -0500"},"type":"Residential","geo_score":0.709,"town":"Sanford","id":"ac6w5tr72lhn","address":"23000 Belinda Rd.","geo_precision":"street"},"type":"Feature","geometry":{"type":"Point","coordinates":[-75.670395,37.91746]}},{"properties":{"zip":"23420","date":{"end_time":"2012/12/03 00:00:00 -0500","original":"Dec. 2, 2012","granularity":"day","time":"2012/12/02 00:00:00 -0500"},"type":"Commercial","geo_score":0.902,"town":"Painter","id":"ac6w5tu5vuqz","address":"31000 Boston Rd.","geo_precision":"range"},"type":"Feature","geometry":{"type":"Point","coordinates":[-75.82727,37.621154]}},{"properties":{"zip":"23359","date":{"end_time":"2012/12/03 00:00:00 -0500","original":"Dec. 2, 2012","granularity":"day","time":"2012/12/02 00:00:00 -0500"},"type":"Residential","geo_score":0.443,"town":"Hallwood","id":"ac6w5tp4daqb","address":"26000 Whites Crossing Rd.","geo_precision":"street"},"type":"Feature","geometry":{"type":"Point","coordinates":[-76.416772,36.8452]}},{"properties":{"zip":"23308","date":{"end_time":"2012/12/04 00:00:00 -0500","original":"Dec. 3, 2012","granularity":"day","time":"2012/12/03 00:00:00 -0500"},"type":"Residential","geo_score":0.902,"town":"Bloxom","id":"ac6w5ttwzan5","address":"25000 Guilford Rd.","geo_precision":"range"},"type":"Feature","geometry":{"type":"Point","coordinates":[-75.637286,37.827932]}},{"properties":{"zip":"23410","date":{"end_time":"2012/12/04 00:00:00 -0500","original":"Dec. 3, 2012","granularity":"day","time":"2012/12/03 00:00:00 -0500"},"type":"Commercial","geo_score":0.78,"town":"Melfa","id":"ac6w5trhvuj3","address":"29000 Bobtown Rd.","geo_precision":"range"},"type":"Feature","geometry":{"type":"Point","coordinates":[-75.798543,37.64542]}},{"properties":{"zip":"23418","date":{"end_time":"2012/12/08 00:00:00 -0500","original":"Dec. 7, 2012","granularity":"day","time":"2012/12/07 00:00:00 -0500"},"type":"Residential","geo_score":0.683,"town":"Onley","id":"ac6w5tnhe8nx","address":"26000 Redwood Rd.","geo_precision":"range"},"type":"Feature","geometry":{"type":"Point","coordinates":[-75.727891,37.681665]}},{"properties":{"zip":"23301","date":{"end_time":"2012/12/13 00:00:00 -0500","original":"Dec. 12, 2012","granularity":"day","time":"2012/12/12 00:00:00 -0500"},"type":"Residential","geo_score":0.61,"town":"Accomac","id":"ac6w5tia297j","address":"22000 Tick Town Rd.","geo_precision":"street"},"type":"Feature","geometry":{"type":"Point","coordinates":[-75.659162,37.721905]}},{"properties":{"zip":"23421","date":{"end_time":"2012/12/16 00:00:00 -0500","original":"Dec. 15, 2012","granularity":"day","time":"2012/12/15 00:00:00 -0500"},"type":"Residential","geo_score":0.876,"town":"Parksley","id":"ac6w5tv6zhne","address":"25000 Mathews Rd.","geo_precision":"range"},"type":"Feature","geometry":{"type":"Point","coordinates":[-75.64166,37.807137]}},{"properties":{"zip":"23488","date":{"end_time":"2012/12/17 00:00:00 -0500","original":"Dec. 16, 2012","granularity":"day","time":"2012/12/16 00:00:00 -0500"},"type":"Residential","geo_score":0.612,"town":"Withams","id":"ac6w5tki1xde","address":"7000 Holland Road","geo_precision":"street"},"type":"Feature","geometry":{"type":"Point","coordinates":[-75.551346,37.943669]}},{"properties":{"zip":"23421","date":{"end_time":"2012/12/18 00:00:00 -0500","original":"Dec. 17, 2012","granularity":"day","time":"2012/12/17 00:00:00 -0500"},"type":"Residential","geo_score":0.687,"town":"Parksley","id":"ac6w5tnp5e7t","address":"17000 Hopetown Rd.","geo_precision":"street"},"type":"Feature","geometry":{"type":"Point","coordinates":[-75.636759,37.809072]}},{"properties":{"zip":"23401","date":{"end_time":"2012/12/19 00:00:00 -0500","original":"Dec. 18, 2012","granularity":"day","time":"2012/12/18 00:00:00 -0500"},"type":"Residential","geo_score":0.708,"town":"Keller","id":"ac6w5tnwv2l1","address":"31000 Lankford Highway","geo_precision":"street"},"type":"Feature","geometry":{"type":"Point","coordinates":[-75.758566,37.625848]}},{"properties":{"zip":"23301","date":{"end_time":"2012/12/22 00:00:00 -0500","original":"Dec. 21, 2012","granularity":"day","time":"2012/12/21 00:00:00 -0500"},"type":"Residential","geo_score":0.902,"town":"Accomac","id":"ac6w5tszv4v2","address":"23000 Front St.","geo_precision":"range"},"type":"Feature","geometry":{"type":"Point","coordinates":[-75.679958,37.716377]}},{"properties":{"zip":"23421","date":{"end_time":"2012/12/23 00:00:00 -0500","original":"Dec. 22,2012","granularity":"day","time":"2012/12/22 00:00:00 -0500"},"type":"Residential","geo_score":0.902,"town":"Parksley","id":"ac6w5tj8jgvk","address":"25000 Parksley Rd.","geo_precision":"range"},"type":"Feature","geometry":{"type":"Point","coordinates":[-75.645052,37.778076]}},{"properties":{"zip":"23420","date":{"end_time":"2012/12/24 00:00:00 -0500","original":"Dec. 23, 2012","granularity":"day","time":"2012/12/23 00:00:00 -0500"},"type":"Residential","geo_score":0.587,"town":"Painter","id":"ac6w5tlvxem9","address":"18000 Mappsburg Rd.","geo_precision":"street"},"type":"Feature","geometry":{"type":"Point","coordinates":[-75.776086,37.581995]}},{"properties":{"zip":"23414","date":{"end_time":"2012/12/25 00:00:00 -0500","original":"Dec.24,2012","granularity":"day","time":"2012/12/24 00:00:00 -0500"},"type":"Commercial","geo_score":0.707,"town":"Nelsonia","id":"ac6w5trphgbk","address":"26000 Nelsonia Rd.","geo_precision":"street"},"type":"Feature","geometry":{"type":"Point","coordinates":[-75.584142,37.818038]}},{"properties":{"zip":"23401","date":{"end_time":"2012/12/09 00:00:00 -0500","original":"Dec. 8, 2012","granularity":"day","time":"2012/12/08 00:00:00 -0500"},"type":"Commercial","geo_score":0.611,"town":"Keller","id":"ac6w5tjzvy4y","address":"31000 Seaside Road","geo_precision":"street"},"type":"Feature","geometry":{"type":"Point","coordinates":[-75.737744,37.613859]}},{"properties":{"zip":"23420","date":{"end_time":"2012/12/19 00:00:00 -0500","original":"Dec. 18, 2012","granularity":"day","time":"2012/12/18 00:00:00 -0500"},"type":"Commercial","geo_score":0.571,"town":"Painter","id":"ac6w5tidf2ky","address":"Route 13","geo_precision":"street"},"type":"Feature","geometry":{"type":"Point","coordinates":[-75.78353,37.587921]}},{"properties":{"zip":"23414","date":{"end_time":"2013/01/21 00:00:00 -0500","original":"Jan. 20, 2013","granularity":"day","time":"2013/01/20 00:00:00 -0500"},"type":"Residential","geo_score":0.709,"town":"Nelsonia","id":"ac6w5txdwas3","address":"28000 Nelsonia Rd.","geo_precision":"street"},"type":"Feature","geometry":{"type":"Point","coordinates":[-75.584142,37.818038]}},{"properties":{"zip":"23418","date":{"end_time":"2013/01/21 00:00:00 -0500","original":"Jan. 20, 2013","granularity":"day","time":"2013/01/20 00:00:00 -0500"},"type":"Brush","geo_score":0.902,"town":"Onley","id":"ac6w5ttsz5na","address":"25000 Coastal Blvd.","geo_precision":"range"},"type":"Feature","geometry":{"type":"Point","coordinates":[-75.70765,37.702402]}},{"properties":{"zip":"23421","date":{"end_time":"2013/01/27 00:00:00 -0500","original":"Jan. 26, 2013","granularity":"day","time":"2013/01/26 00:00:00 -0500"},"type":"Residential","geo_score":0.708,"town":"Parksley","id":"ac6w5txf75ys","address":"18000 Cassatt Ave.","geo_precision":"street"},"type":"Feature","geometry":{"type":"Point","coordinates":[-75.649728,37.789594]}},{"properties":{"zip":"23480","date":{"end_time":"2013/01/31 00:00:00 -0500","original":"Jan. 30, 2013","granularity":"day","time":"2013/01/30 00:00:00 -0500"},"type":"Residential","geo_score":0.629,"town":"Wachapreague","id":"ac6w5tte9jxm","address":"Drummondtown Rd. Chancetown Road","geo_precision":"street"},"type":"Feature","geometry":{"type":"Point","coordinates":[-75.706595,37.619915]}},{"properties":{"zip":"23422","date":{"end_time":"2013/02/01 00:00:00 -0500","original":"Jan. 31, 2013","granularity":"day","time":"2013/01/31 00:00:00 -0500"},"type":"Residential","geo_score":0.615,"town":"Pungoteague","id":"ac6w5tshcci0","address":"33000 Boston Rd.","geo_precision":"street"},"type":"Feature","geometry":{"type":"Point","coordinates":[-75.854911,37.594323]}},{"properties":{"zip":"23418","date":{"end_time":"2013/02/02 00:00:00 -0500","original":"Feb. 1, 2013","granularity":"day","time":"2013/02/01 00:00:00 -0500"},"type":"Residential","geo_score":0.708,"town":"Onley","id":"ac6w5tiyomid","address":"26000 Locustville Rd.","geo_precision":"street"},"type":"Feature","geometry":{"type":"Point","coordinates":[-75.708559,37.682773]}},{"properties":{"zip":"23421","date":{"end_time":"2013/02/03 00:00:00 -0500","original":"Feb. 2, 2013","granularity":"day","time":"2013/02/02 00:00:00 -0500"},"type":"Residential","geo_score":0.488,"town":"Parksley","id":"ac6w5ts79dk2","address":"2500 Foxgrove Rd.","geo_precision":"zip"},"type":"Feature","geometry":{"type":"Point","coordinates":[-75.686041,37.795961]}},{"properties":{"zip":"23442","date":{"end_time":"2013/02/10 00:00:00 -0500","original":"Feb. 9, 2013","granularity":"day","time":"2013/02/09 00:00:00 -0500"},"type":"Residential","geo_score":0.902,"town":"Temperanceville","id":"ac6w5tl97ire","address":"11100 Sand St.","geo_precision":"range"},"type":"Feature","geometry":{"type":"Point","coordinates":[-75.545315,37.887411]}},{"properties":{"zip":"23414","date":{"end_time":"2013/02/11 00:00:00 -0500","original":"Feb. 10, 2013","granularity":"day","time":"2013/02/10 00:00:00 -0500"},"type":"Commercial","geo_score":0.571,"town":"Nelsonia","id":"ac6w5ty4iv7v","address":"Route 13","geo_precision":"street"},"type":"Feature","geometry":{"type":"Point","coordinates":[-75.591842,37.813142]}},{"properties":{"zip":"23423","date":{"end_time":"2013/02/12 00:00:00 -0500","original":"Feb. 11, 2013","granularity":"day","time":"2013/02/11 00:00:00 -0500"},"type":"Residential","geo_score":0.653,"town":"Quinby","id":"ac6w5tkhe7j9","address":"19000 Quinby Bridge Rd.","geo_precision":"street"},"type":"Feature","geometry":{"type":"Point","coordinates":[-75.73646,37.559326]}},{"properties":{"zip":"23410","date":{"end_time":"2013/02/12 00:00:00 -0500","original":"Feb. 11, 2013","granularity":"day","time":"2013/02/11 00:00:00 -0500"},"type":"Residential","geo_score":0.708,"town":"Melfa","id":"ac6w5tldsolm","address":"21000 Fair Oaks Road","geo_precision":"street"},"type":"Feature","geometry":{"type":"Point","coordinates":[-75.713158,37.649432]}}],"is_temporal":true,"author":{"url":"","metadata":"","contact_name":"","contact_address":"","source":"","contact_phone":""},"source":"","pagination":{"sort":null,"start":0,"total":49,"limit":1000000},"state":"complete","tags":"","published":"2014-08-16T14:40:29-04:00","id":321227}