{"type":"FeatureCollection","data_type":"Dataset","url_type":null,"permissions":[{"permissions":{"download":true,"view":true},"group_id":"everyone"}],"classification":null,"title":"2013dr","count":7,"stream_id":321477,"contributor":{"url":"http://geocommons.com/users/61684","name":"jraybin@watkins.edu"},"data_attributes":null,"calculation_params":null,"icon_link":null,"link":"http://geocommons.com/overlays/321477.json","extent":[-86.9639,25.9873,-79.8695,40.1681],"geometry_types":["point"],"unique_name":null,"name":"2013dr","feature_count":7,"description":"","next_feature":null,"is_raster":false,"short_classification":"Y","stats":{},"features":[{"properties":{"city":"Miramar","zip":"33023","geo_score":0.857,"id":"ac7mv3y4m32e","geo_precision":"zip","state":"FL"},"type":"Feature","geometry":{"type":"Point","coordinates":[-80.232271,25.987314]}},{"properties":{"city":"Nashville","zip":"37221","geo_score":0.857,"id":"ac7mv3u104k5","geo_precision":"zip","state":"TN"},"type":"Feature","geometry":{"type":"Point","coordinates":[-86.963852,36.06616]}},{"properties":{"city":"Nolensville","zip":"37135","geo_score":0.857,"id":"ac7mv3nusj0x","geo_precision":"zip","state":"TN"},"type":"Feature","geometry":{"type":"Point","coordinates":[-86.675349,35.925201]}},{"properties":{"city":"Nairobi","zip":null,"geo_score":0.0,"id":"ac7mv3rqdxy0","geo_precision":"unmatched","state":"Lavington, KE"},"type":"Feature","geometry":null},{"properties":{"city":"Spring Hill","zip":"37174","geo_score":0.714,"id":"ac7mv3qmk4rl","geo_precision":"zip","state":"TN"},"type":"Feature","geometry":{"type":"Point","coordinates":[-86.898335,35.702291]}},{"properties":{"city":"Mount Juliet","zip":"37122","geo_score":0.857,"id":"ac7mv3nam269","geo_precision":"zip","state":"TN"},"type":"Feature","geometry":{"type":"Point","coordinates":[-86.468695,36.184603]}},{"properties":{"city":"Garnet Valley","zip":"19060","geo_score":0.714,"id":"ac7mv3nca9ry","geo_precision":"city","state":"PA"},"type":"Feature","geometry":{"type":"Point","coordinates":[-79.869492,40.168127]}}],"is_temporal":false,"author":{"url":"","metadata":null,"contact_name":null,"contact_address":null,"source":null,"contact_phone":null},"source":"","pagination":{"sort":null,"start":0,"total":7,"limit":1000000},"state":"complete","tags":"","published":"2014-08-16T14:57:38-04:00","id":321477}