{"type":"FeatureCollection","data_type":"Dataset","url_type":null,"permissions":[{"permissions":{"download":true,"view":true},"group_id":"everyone"}],"classification":null,"title":"2011dr","count":118,"stream_id":321474,"contributor":{"url":"http://geocommons.com/users/61684","name":"jraybin@watkins.edu"},"data_attributes":null,"calculation_params":null,"icon_link":null,"link":"http://geocommons.com/overlays/321474.json","extent":[-118.299,25.5584,-73.4365,42.7605],"geometry_types":["point"],"unique_name":null,"name":"2011dr","feature_count":118,"description":"","next_feature":null,"is_raster":false,"short_classification":"Y","stats":{},"features":[{"properties":{"city":"Nolensville","zip":"37135","geo_score":0.857,"id":"ac7mqeey38h2","geo_precision":"zip","state":"TN"},"type":"Feature","geometry":{"type":"Point","coordinates":[-86.675349,35.925201]}},{"properties":{"city":"Franklin","zip":"37069","geo_score":0.857,"id":"ac7mqebksq3g","geo_precision":"zip","state":"TN"},"type":"Feature","geometry":{"type":"Point","coordinates":[-86.910623,35.979553]}},{"properties":{"city":"Knoxville","zip":"37931","geo_score":0.857,"id":"ac7mqe98nn9g","geo_precision":"zip","state":"TN"},"type":"Feature","geometry":{"type":"Point","coordinates":[-84.125653,35.976167]}},{"properties":{"city":"Brentwood","zip":"37027","geo_score":0.714,"id":"ac7mqe51zse8","geo_precision":"zip","state":"TN"},"type":"Feature","geometry":{"type":"Point","coordinates":[-86.816058,35.982981]}},{"properties":{"city":"Nashville","zip":"37206","geo_score":0.857,"id":"ac7mqegxh82d","geo_precision":"zip","state":"TN"},"type":"Feature","geometry":{"type":"Point","coordinates":[-86.73575,36.180143]}},{"properties":{"city":"Lebanon","zip":"37087","geo_score":0.857,"id":"ac7mqejnbrvd","geo_precision":"zip","state":"TN"},"type":"Feature","geometry":{"type":"Point","coordinates":[-86.199712,36.275608]}},{"properties":{"city":"Kansas CIty","zip":"66112","geo_score":0.714,"id":"ac7mqe60yvam","geo_precision":"zip","state":"KS"},"type":"Feature","geometry":{"type":"Point","coordinates":[-94.765822,39.116953]}},{"properties":{"city":"Decatur","zip":"62526","geo_score":0.714,"id":"ac7mqe9griua","geo_precision":"zip","state":"IL"},"type":"Feature","geometry":{"type":"Point","coordinates":[-88.938244,39.858284]}},{"properties":{"city":"San Antonio","zip":"78227","geo_score":0.714,"id":"ac7mqeih6uqx","geo_precision":"zip","state":"TX"},"type":"Feature","geometry":{"type":"Point","coordinates":[-98.625548,29.401583]}},{"properties":{"city":"Madison","zip":"27025","geo_score":0.714,"id":"ac7mqecjfudx","geo_precision":"zip","state":"NC"},"type":"Feature","geometry":{"type":"Point","coordinates":[-79.977818,36.332637]}},{"properties":{"city":"Springfield","zip":"37172","geo_score":0.714,"id":"ac7mqeex28vr","geo_precision":"zip","state":"TN"},"type":"Feature","geometry":{"type":"Point","coordinates":[-86.888887,36.5431]}},{"properties":{"city":"Franklin","zip":"37064","geo_score":0.714,"id":"ac7mqeb6ltis","geo_precision":"zip","state":"TN"},"type":"Feature","geometry":{"type":"Point","coordinates":[-87.079172,35.954508]}},{"properties":{"city":"Eight Mile","zip":"36613","geo_score":0.857,"id":"ac7mqecbfdcr","geo_precision":"zip","state":"AL"},"type":"Feature","geometry":{"type":"Point","coordinates":[-88.181948,30.85713]}},{"properties":{"city":"Smyrna","zip":"37167","geo_score":0.714,"id":"ac7mqeh74y1p","geo_precision":"zip","state":"TN"},"type":"Feature","geometry":{"type":"Point","coordinates":[-86.494993,36.006452]}},{"properties":{"city":"Fayetteville","zip":"37334","geo_score":0.714,"id":"ac7mqe9h48qr","geo_precision":"zip","state":"TN"},"type":"Feature","geometry":{"type":"Point","coordinates":[-86.588607,35.09064]}},{"properties":{"city":"Nashville","zip":"37216","geo_score":0.714,"id":"ac7mqedfibdi","geo_precision":"zip","state":"TN"},"type":"Feature","geometry":{"type":"Point","coordinates":[-86.723997,36.204255]}},{"properties":{"city":"Nashville","zip":"37211","geo_score":0.714,"id":"ac7mqe50wzg2","geo_precision":"zip","state":"TN"},"type":"Feature","geometry":{"type":"Point","coordinates":[-82.758763,36.175103]}},{"properties":{"city":"Hendersonville","zip":"37075","geo_score":0.857,"id":"ac7mqe58l0th","geo_precision":"zip","state":"TN"},"type":"Feature","geometry":{"type":"Point","coordinates":[-86.101377,36.36894]}},{"properties":{"city":"Athens","zip":"37303","geo_score":0.714,"id":"ac7mqe7lw1nr","geo_precision":"zip","state":"TN"},"type":"Feature","geometry":{"type":"Point","coordinates":[-84.559377,35.362851]}},{"properties":{"city":"Antioch","zip":"37013","geo_score":0.714,"id":"ac7mqe8kvy67","geo_precision":"zip","state":"TN"},"type":"Feature","geometry":{"type":"Point","coordinates":[-86.645598,36.036032]}},{"properties":{"city":"Lewisburg","zip":"37091","geo_score":0.714,"id":"ac7mqehn0vj7","geo_precision":"zip","state":"TN"},"type":"Feature","geometry":{"type":"Point","coordinates":[-86.779444,35.460907]}},{"properties":{"city":"Franklin","zip":"37067","geo_score":0.714,"id":"ac7mqe4zj975","geo_precision":"zip","state":"TN"},"type":"Feature","geometry":{"type":"Point","coordinates":[-86.765537,35.912072]}},{"properties":{"city":"Hendersonville","zip":"37075","geo_score":0.714,"id":"ac7mqe7kv38l","geo_precision":"zip","state":"TN"},"type":"Feature","geometry":{"type":"Point","coordinates":[-86.101377,36.36894]}},{"properties":{"city":"Louisville","zip":"40245","geo_score":0.714,"id":"ac7mqek0a63z","geo_precision":"zip","state":"KY"},"type":"Feature","geometry":{"type":"Point","coordinates":[-85.475021,38.258384]}},{"properties":{"city":"Corpus Christi","zip":"78413","geo_score":0.857,"id":"ac7mqe73pzgw","geo_precision":"zip","state":"TX"},"type":"Feature","geometry":{"type":"Point","coordinates":[-97.40242,27.675937]}},{"properties":{"city":"Indian Land","zip":"29707","geo_score":0.714,"id":"ac7mqeb0e36e","geo_precision":"city","state":"SC"},"type":"Feature","geometry":{"type":"Point","coordinates":[-81.022816,34.775302]}},{"properties":{"city":"Normal","zip":"61761","geo_score":0.714,"id":"ac7mqejjsycf","geo_precision":"zip","state":"IL"},"type":"Feature","geometry":{"type":"Point","coordinates":[-88.7989,40.530375]}},{"properties":{"city":"Knoxville","zip":"37923","geo_score":0.714,"id":"ac7mqejxrbud","geo_precision":"zip","state":"TN"},"type":"Feature","geometry":{"type":"Point","coordinates":[-84.082405,35.924795]}},{"properties":{"city":"Brentwood","zip":"37027","geo_score":0.714,"id":"ac7mqejz4acg","geo_precision":"zip","state":"TN"},"type":"Feature","geometry":{"type":"Point","coordinates":[-86.816058,35.982981]}},{"properties":{"city":"St. Louis","zip":"63116","geo_score":0.857,"id":"ac7mqeadamgf","geo_precision":"zip","state":"MO"},"type":"Feature","geometry":{"type":"Point","coordinates":[-90.268563,38.581401]}},{"properties":{"city":"Clintondale","zip":"12515","geo_score":0.714,"id":"ac7mqe6gdej9","geo_precision":"zip","state":"NY"},"type":"Feature","geometry":{"type":"Point","coordinates":[-74.072643,41.675927]}},{"properties":{"city":"Belleville","zip":"62220","geo_score":0.714,"id":"ac7mqe5b2fv8","geo_precision":"zip","state":"IL"},"type":"Feature","geometry":{"type":"Point","coordinates":[-89.973877,38.46435]}},{"properties":{"city":"Jonesboro","zip":"62952","geo_score":0.714,"id":"ac7mqeim9u7o","geo_precision":"zip","state":"IL"},"type":"Feature","geometry":{"type":"Point","coordinates":[-89.266574,37.422793]}},{"properties":{"city":"Ripley","zip":"38063","geo_score":0.714,"id":"ac7mqe56p2vy","geo_precision":"zip","state":"TN"},"type":"Feature","geometry":{"type":"Point","coordinates":[-89.415628,35.73841]}},{"properties":{"city":"Decatur","zip":"30034","geo_score":0.714,"id":"ac7mqe63jth7","geo_precision":"zip","state":"GA"},"type":"Feature","geometry":{"type":"Point","coordinates":[-84.251171,33.690757]}},{"properties":{"city":"Hampton","zip":"23669","geo_score":0.857,"id":"ac7mqe5bojw0","geo_precision":"zip","state":"VA"},"type":"Feature","geometry":{"type":"Point","coordinates":[-76.353866,37.045715]}},{"properties":{"city":"Gordonsville","zip":"22942","geo_score":0.714,"id":"ac7mqee8tboh","geo_precision":"zip","state":"VA"},"type":"Feature","geometry":{"type":"Point","coordinates":[-78.219726,37.970974]}},{"properties":{"city":"Amarillo","zip":"79108","geo_score":0.714,"id":"ac7mqeiyjmoq","geo_precision":"zip","state":"TX"},"type":"Feature","geometry":{"type":"Point","coordinates":[-101.772258,35.293191]}},{"properties":{"city":"Hendersonville","zip":"37075","geo_score":0.714,"id":"ac7mqekgs29h","geo_precision":"zip","state":"TN"},"type":"Feature","geometry":{"type":"Point","coordinates":[-86.101377,36.36894]}},{"properties":{"city":"Kansas City","zip":"66109","geo_score":0.714,"id":"ac7mqeg11rkw","geo_precision":"zip","state":"KS"},"type":"Feature","geometry":{"type":"Point","coordinates":[-94.817719,39.143692]}},{"properties":{"city":"Knoxville","zip":"37922","geo_score":0.714,"id":"ac7mqehspggw","geo_precision":"zip","state":"TN"},"type":"Feature","geometry":{"type":"Point","coordinates":[-84.165471,35.870079]}},{"properties":{"city":"Maumelle","zip":"72113","geo_score":0.714,"id":"ac7mqe8jtwul","geo_precision":"zip","state":"AR"},"type":"Feature","geometry":{"type":"Point","coordinates":[-92.390298,34.857241]}},{"properties":{"city":"Madison","zip":"37115","geo_score":0.714,"id":"ac7mqe40vd6r","geo_precision":"zip","state":"TN"},"type":"Feature","geometry":{"type":"Point","coordinates":[-86.706296,36.259503]}},{"properties":{"city":"Grove City","zip":"43123","geo_score":0.714,"id":"ac7mqee0z3vc","geo_precision":"zip","state":"OH"},"type":"Feature","geometry":{"type":"Point","coordinates":[-83.086853,39.897563]}},{"properties":{"city":"Antioch","zip":"37013","geo_score":0.714,"id":"ac7mqeim4qa2","geo_precision":"zip","state":"TN"},"type":"Feature","geometry":{"type":"Point","coordinates":[-86.645598,36.036032]}},{"properties":{"city":"Pontotoc","zip":"38863","geo_score":0.714,"id":"ac7mqe42n466","geo_precision":"zip","state":"MS"},"type":"Feature","geometry":{"type":"Point","coordinates":[-89.08451,34.302327]}},{"properties":{"city":"Hermitage","zip":"37076","geo_score":0.714,"id":"ac7mqe523h54","geo_precision":"zip","state":"TN"},"type":"Feature","geometry":{"type":"Point","coordinates":[-86.633052,36.201444]}},{"properties":{"city":"Nashville","zip":"37211","geo_score":0.714,"id":"ac7mqe9d6dan","geo_precision":"zip","state":"TN"},"type":"Feature","geometry":{"type":"Point","coordinates":[-82.758763,36.175103]}},{"properties":{"city":"Ripley","zip":"38063","geo_score":0.714,"id":"ac7mqe4tjm86","geo_precision":"zip","state":"TN"},"type":"Feature","geometry":{"type":"Point","coordinates":[-89.415628,35.73841]}},{"properties":{"city":"Charlotte","zip":"37036","geo_score":0.714,"id":"ac7mqe9kjd28","geo_precision":"zip","state":"TN"},"type":"Feature","geometry":{"type":"Point","coordinates":[-87.188894,36.275888]}},{"properties":{"city":"Arlington","zip":"38002","geo_score":0.714,"id":"ac7mqegfr1do","geo_precision":"zip","state":"TN"},"type":"Feature","geometry":{"type":"Point","coordinates":[-89.760638,35.321197]}},{"properties":{"city":"Millington","zip":"38053","geo_score":0.714,"id":"ac7mqe6n2m9f","geo_precision":"zip","state":"TN"},"type":"Feature","geometry":{"type":"Point","coordinates":[-89.982311,35.273143]}},{"properties":{"city":"Huntsville","zip":"35803","geo_score":0.714,"id":"ac7mqe5fk95f","geo_precision":"zip","state":"AL"},"type":"Feature","geometry":{"type":"Point","coordinates":[-86.534712,34.537036]}},{"properties":{"city":"Clarksville","zip":"37043","geo_score":0.714,"id":"ac7mqejmn8t6","geo_precision":"zip","state":"TN"},"type":"Feature","geometry":{"type":"Point","coordinates":[-87.218617,36.439772]}},{"properties":{"city":"Miami","zip":"33269","geo_score":0.714,"id":"ac7mqee42vbh","geo_precision":"zip","state":"FL"},"type":"Feature","geometry":{"type":"Point","coordinates":[-80.458168,25.558428]}},{"properties":{"city":"Oak Lawn","zip":"60453","geo_score":0.714,"id":"ac7mqec0lil3","geo_precision":"zip","state":"IL"},"type":"Feature","geometry":{"type":"Point","coordinates":[-87.68732,41.811929]}},{"properties":{"city":"Glen Carbon","zip":"62034","geo_score":0.714,"id":"ac7mqe7nbgr4","geo_precision":"zip","state":"IL"},"type":"Feature","geometry":{"type":"Point","coordinates":[-90.023867,38.810731]}},{"properties":{"city":"Hendersonvile","zip":"37075","geo_score":0.714,"id":"ac7mqe9rs7oh","geo_precision":"zip","state":"TN"},"type":"Feature","geometry":{"type":"Point","coordinates":[-86.101377,36.36894]}},{"properties":{"city":"Carrollton","zip":"75006","geo_score":0.714,"id":"ac7mqegezsjn","geo_precision":"zip","state":"TX"},"type":"Feature","geometry":{"type":"Point","coordinates":[-96.777626,32.767268]}},{"properties":{"city":"Louisville","zip":"40216","geo_score":0.714,"id":"ac7mqei9rhxv","geo_precision":"zip","state":"KY"},"type":"Feature","geometry":{"type":"Point","coordinates":[-85.833463,38.186519]}},{"properties":{"city":"Jeffersonville","zip":"47130","geo_score":0.714,"id":"ac7mqe4u9c8d","geo_precision":"zip","state":"IN"},"type":"Feature","geometry":{"type":"Point","coordinates":[-85.746074,38.34979]}},{"properties":{"city":"Nashville","zip":"37206","geo_score":0.714,"id":"ac7mqegwiaw5","geo_precision":"zip","state":"TN"},"type":"Feature","geometry":{"type":"Point","coordinates":[-86.73575,36.180143]}},{"properties":{"city":"Portland","zip":"32712","geo_score":0.714,"id":"ac7mqe6yhwo8","geo_precision":"zip","state":"TN"},"type":"Feature","geometry":{"type":"Point","coordinates":[-81.537602,28.731322]}},{"properties":{"city":"Nashville","zip":"37204","geo_score":0.714,"id":"ac7mqe6e2al6","geo_precision":"zip","state":"TN"},"type":"Feature","geometry":{"type":"Point","coordinates":[-86.850099,36.119294]}},{"properties":{"city":"Nashville","zip":"37013","geo_score":0.714,"id":"ac7mqeewdsvr","geo_precision":"zip","state":"TN"},"type":"Feature","geometry":{"type":"Point","coordinates":[-86.645598,36.036032]}},{"properties":{"city":"Riverton","zip":"82501","geo_score":0.857,"id":"ac7mqeix4884","geo_precision":"zip","state":"WY"},"type":"Feature","geometry":{"type":"Point","coordinates":[-108.181482,42.760518]}},{"properties":{"city":"Panama City","zip":null,"geo_score":0.571,"id":"ac7mqedszb2g","geo_precision":"city","state":"Panama"},"type":"Feature","geometry":{"type":"Point","coordinates":[-84.93687,31.593502]}},{"properties":{"city":"Nashville","zip":"37211","geo_score":0.857,"id":"ac7mqe9adfbd","geo_precision":"zip","state":"TN"},"type":"Feature","geometry":{"type":"Point","coordinates":[-82.758763,36.175103]}},{"properties":{"city":"Nashville","zip":"37205","geo_score":0.714,"id":"ac7mqe7zhyxg","geo_precision":"zip","state":"TN"},"type":"Feature","geometry":{"type":"Point","coordinates":[-86.887223,36.117836]}},{"properties":{"city":"Cookeville","zip":"38506","geo_score":0.857,"id":"ac7mqeih0m08","geo_precision":"zip","state":"TN"},"type":"Feature","geometry":{"type":"Point","coordinates":[-85.469451,36.182723]}},{"properties":{"city":"Smyrna","zip":"37167","geo_score":0.714,"id":"ac7mqe5juol3","geo_precision":"zip","state":"TN"},"type":"Feature","geometry":{"type":"Point","coordinates":[-86.494993,36.006452]}},{"properties":{"city":"Knoxville","zip":"37923","geo_score":0.714,"id":"ac7mqek4di32","geo_precision":"zip","state":"TN"},"type":"Feature","geometry":{"type":"Point","coordinates":[-84.082405,35.924795]}},{"properties":{"city":"Ravenna","zip":"44266","geo_score":0.857,"id":"ac7mqebw12sn","geo_precision":"zip","state":"OH"},"type":"Feature","geometry":{"type":"Point","coordinates":[-81.197323,41.13589]}},{"properties":{"city":"Ethridge","zip":"38456","geo_score":0.714,"id":"ac7mqejpag2e","geo_precision":"zip","state":"TN"},"type":"Feature","geometry":{"type":"Point","coordinates":[-87.350572,35.300635]}},{"properties":{"city":"Hendersonville","zip":"37075","geo_score":0.714,"id":"ac7mqe8cnwx7","geo_precision":"zip","state":"TN"},"type":"Feature","geometry":{"type":"Point","coordinates":[-86.101377,36.36894]}},{"properties":{"city":"Steele","zip":"63877","geo_score":0.714,"id":"ac7mqeeaebxa","geo_precision":"zip","state":"MO"},"type":"Feature","geometry":{"type":"Point","coordinates":[-89.914809,36.016182]}},{"properties":{"city":"Lafayette","zip":"47905","geo_score":0.714,"id":"ac7mqeelrw9a","geo_precision":"zip","state":"IN"},"type":"Feature","geometry":{"type":"Point","coordinates":[-86.756396,40.419758]}},{"properties":{"city":"Nashville","zip":"37201","geo_score":0.714,"id":"ac7mqe61sbrx","geo_precision":"zip","state":"TN"},"type":"Feature","geometry":{"type":"Point","coordinates":[-86.784474,36.171152]}},{"properties":{"city":"Springfield","zip":"37172","geo_score":0.714,"id":"ac7mqeik3p5s","geo_precision":"zip","state":"TN"},"type":"Feature","geometry":{"type":"Point","coordinates":[-86.888887,36.5431]}},{"properties":{"city":"Lincoln","zip":"68516","geo_score":0.714,"id":"ac7mqe88yhmv","geo_precision":"zip","state":"NE"},"type":"Feature","geometry":{"type":"Point","coordinates":[-96.661769,40.777556]}},{"properties":{"city":"Charlotte","zip":"37036","geo_score":0.714,"id":"ac7mqegeh8y5","geo_precision":"zip","state":"TN"},"type":"Feature","geometry":{"type":"Point","coordinates":[-87.188894,36.275888]}},{"properties":{"city":"Dyersburg","zip":"38024","geo_score":0.714,"id":"ac7mqefxs387","geo_precision":"zip","state":"TN"},"type":"Feature","geometry":{"type":"Point","coordinates":[-89.255626,36.032293]}},{"properties":{"city":"Erint","zip":"37061","geo_score":0.714,"id":"ac7mqebrzjms","geo_precision":"zip","state":"TN"},"type":"Feature","geometry":{"type":"Point","coordinates":[-87.719743,36.218668]}},{"properties":{"city":"Goodlettsville","zip":"37072","geo_score":0.857,"id":"ac7mqe6qrqw2","geo_precision":"zip","state":"TN"},"type":"Feature","geometry":{"type":"Point","coordinates":[-86.709997,36.371161]}},{"properties":{"city":"Clarksville","zip":"37042","geo_score":0.714,"id":"ac7mqe7mu9io","geo_precision":"zip","state":"TN"},"type":"Feature","geometry":{"type":"Point","coordinates":[-87.220839,36.506437]}},{"properties":{"city":"Herrin","zip":"62948","geo_score":0.714,"id":"ac7mqe7bp3c4","geo_precision":"zip","state":"IL"},"type":"Feature","geometry":{"type":"Point","coordinates":[-89.027852,37.829494]}},{"properties":{"city":"Herrin","zip":"62948","geo_score":0.714,"id":"ac7mqegp869l","geo_precision":"zip","state":"IL"},"type":"Feature","geometry":{"type":"Point","coordinates":[-89.027852,37.829494]}},{"properties":{"city":"Detroit","zip":"48205","geo_score":0.714,"id":"ac7mqeh93czq","geo_precision":"zip","state":"MI"},"type":"Feature","geometry":{"type":"Point","coordinates":[-83.150823,42.239933]}},{"properties":{"city":"Franklin","zip":"37064","geo_score":0.857,"id":"ac7mqe7puvj8","geo_precision":"zip","state":"TN"},"type":"Feature","geometry":{"type":"Point","coordinates":[-87.079172,35.954508]}},{"properties":{"city":"Brentwood","zip":"37027","geo_score":0.714,"id":"ac7mqegbbgjv","geo_precision":"zip","state":"TN"},"type":"Feature","geometry":{"type":"Point","coordinates":[-86.816058,35.982981]}},{"properties":{"city":"Norwalk","zip":"06853","geo_score":0.857,"id":"ac7mqecsv8mq","geo_precision":"zip","state":"CT"},"type":"Feature","geometry":{"type":"Point","coordinates":[-73.436508,41.063986]}},{"properties":{"city":"Charlotte","zip":"28211","geo_score":0.714,"id":"ac7mqeau8r97","geo_precision":"zip","state":"NC"},"type":"Feature","geometry":{"type":"Point","coordinates":[-80.79076,35.169586]}},{"properties":{"city":"Madison","zip":"37115","geo_score":0.714,"id":"ac7mqe51hwco","geo_precision":"zip","state":"TN"},"type":"Feature","geometry":{"type":"Point","coordinates":[-86.706296,36.259503]}},{"properties":{"city":"Steele","zip":"63877","geo_score":0.714,"id":"ac7mqe54cixz","geo_precision":"zip","state":"MO"},"type":"Feature","geometry":{"type":"Point","coordinates":[-89.914809,36.016182]}},{"properties":{"city":"Nashville","zip":"37206","geo_score":0.714,"id":"ac7mqe670ebo","geo_precision":"zip","state":"TN"},"type":"Feature","geometry":{"type":"Point","coordinates":[-86.73575,36.180143]}},{"properties":{"city":"Antioch","zip":"37013","geo_score":0.714,"id":"ac7mqeinqzer","geo_precision":"zip","state":"TN"},"type":"Feature","geometry":{"type":"Point","coordinates":[-86.645598,36.036032]}},{"properties":{"city":"Beaver Falls","zip":"15010","geo_score":0.714,"id":"ac7mqee2y20i","geo_precision":"zip","state":"PA"},"type":"Feature","geometry":{"type":"Point","coordinates":[-80.325619,40.760621]}},{"properties":{"city":"Woodland Hills","zip":"91364","geo_score":0.714,"id":"ac7mqeapg6ts","geo_precision":"zip","state":"CA"},"type":"Feature","geometry":{"type":"Point","coordinates":[-118.298662,33.786594]}},{"properties":{"city":"Murfreesboro","zip":"37130","geo_score":0.714,"id":"ac7mqee2tju3","geo_precision":"zip","state":"TN"},"type":"Feature","geometry":{"type":"Point","coordinates":[-86.521382,35.90312]}},{"properties":{"city":"Nashville","zip":"37215","geo_score":0.714,"id":"ac7mqe76hqxg","geo_precision":"zip","state":"TN"},"type":"Feature","geometry":{"type":"Point","coordinates":[-86.885987,36.086531]}},{"properties":{"city":"Nashville","zip":"37203","geo_score":0.714,"id":"ac7mqed6n7f0","geo_precision":"zip","state":"TN"},"type":"Feature","geometry":{"type":"Point","coordinates":[-86.791598,36.150406]}},{"properties":{"city":"Nashville","zip":"37218","geo_score":0.714,"id":"ac7mqe7lcbzs","geo_precision":"zip","state":"TN"},"type":"Feature","geometry":{"type":"Point","coordinates":[-86.89585,36.234304]}},{"properties":{"city":"Franklin","zip":"37067","geo_score":0.714,"id":"ac7mqefbzc9v","geo_precision":"zip","state":"TN"},"type":"Feature","geometry":{"type":"Point","coordinates":[-86.765537,35.912072]}},{"properties":{"city":"Brentwood","zip":"37027","geo_score":0.714,"id":"ac7mqed1i0e8","geo_precision":"zip","state":"TN"},"type":"Feature","geometry":{"type":"Point","coordinates":[-86.816058,35.982981]}},{"properties":{"city":"Nashville","zip":"37211","geo_score":0.714,"id":"ac7mqe628n6n","geo_precision":"zip","state":"TN"},"type":"Feature","geometry":{"type":"Point","coordinates":[-82.758763,36.175103]}},{"properties":{"city":"Thompson Station","zip":"37179","geo_score":0.714,"id":"ac7mqehddljb","geo_precision":"zip","state":"TN"},"type":"Feature","geometry":{"type":"Point","coordinates":[-86.983337,35.812567]}},{"properties":{"city":"Centerville","zip":"37033","geo_score":0.714,"id":"ac7mqeij9cgi","geo_precision":"zip","state":"TN"},"type":"Feature","geometry":{"type":"Point","coordinates":[-87.502405,35.750099]}},{"properties":{"city":"Hendersonville","zip":"37075","geo_score":0.714,"id":"ac7mqei4fo0q","geo_precision":"zip","state":"TN"},"type":"Feature","geometry":{"type":"Point","coordinates":[-86.101377,36.36894]}},{"properties":{"city":"Lawrence","zip":"66044","geo_score":0.714,"id":"ac7mqe91q7tp","geo_precision":"zip","state":"KS"},"type":"Feature","geometry":{"type":"Point","coordinates":[-95.390531,38.91167]}},{"properties":{"city":"Nashville","zip":"37215","geo_score":0.714,"id":"ac7mqe9z0b9u","geo_precision":"zip","state":"TN"},"type":"Feature","geometry":{"type":"Point","coordinates":[-86.885987,36.086531]}},{"properties":{"city":"Hermitage","zip":"37076","geo_score":0.714,"id":"ac7mqejc84l9","geo_precision":"zip","state":"TN"},"type":"Feature","geometry":{"type":"Point","coordinates":[-86.633052,36.201444]}},{"properties":{"city":"Nashville","zip":"37217","geo_score":0.714,"id":"ac7mqegh5pxs","geo_precision":"zip","state":"TN"},"type":"Feature","geometry":{"type":"Point","coordinates":[-86.662914,36.107372]}},{"properties":{"city":"Brentwood","zip":"37027","geo_score":0.714,"id":"ac7mqeffoxse","geo_precision":"zip","state":"TN"},"type":"Feature","geometry":{"type":"Point","coordinates":[-86.816058,35.982981]}},{"properties":{"city":"Nashville","zip":"37210","geo_score":0.714,"id":"ac7mqe8267ok","geo_precision":"zip","state":"TN"},"type":"Feature","geometry":{"type":"Point","coordinates":[-86.729947,36.137475]}},{"properties":{"city":"Gallatin","zip":"37066","geo_score":0.714,"id":"ac7mqebxdqo6","geo_precision":"zip","state":"TN"},"type":"Feature","geometry":{"type":"Point","coordinates":[-86.466104,36.480322]}},{"properties":{"city":"Nashville","zip":"37211","geo_score":0.857,"id":"ac7mqech1vwa","geo_precision":"zip","state":"TN"},"type":"Feature","geometry":{"type":"Point","coordinates":[-82.758763,36.175103]}},{"properties":{"city":"Antioch","zip":"37013","geo_score":0.857,"id":"ac7mqe57u5jg","geo_precision":"zip","state":"TN"},"type":"Feature","geometry":{"type":"Point","coordinates":[-86.645598,36.036032]}},{"properties":{"city":"Brentwood","zip":"37027","geo_score":0.714,"id":"ac7mqeftou4b","geo_precision":"zip","state":"TN"},"type":"Feature","geometry":{"type":"Point","coordinates":[-86.816058,35.982981]}}],"is_temporal":false,"author":{"url":"","metadata":null,"contact_name":null,"contact_address":null,"source":null,"contact_phone":null},"source":"","pagination":{"sort":null,"start":0,"total":118,"limit":1000000},"state":"complete","tags":"","published":"2014-08-16T14:57:34-04:00","id":321474}