{"type":"FeatureCollection","data_type":"Dataset","url_type":null,"permissions":[{"permissions":{"download":true,"view":true},"group_id":"everyone"}],"classification":null,"title":"09 11v2","count":73,"stream_id":321451,"contributor":{"url":"http://geocommons.com/users/61482","name":"christopher.paul.andrews@gmail.com"},"data_attributes":null,"calculation_params":null,"icon_link":null,"link":"http://geocommons.com/overlays/321451.json","extent":[-122.44,37.7086,-122.278,37.806],"geometry_types":["point"],"unique_name":null,"name":"09 11v2","feature_count":73,"description":"","next_feature":null,"is_raster":false,"short_classification":"Y","stats":{"perf_measure":{"max":958,"variance":43679.5801393728,"mean":107.071428571429,"stdev":208.996603176637,"min":1,"median":51},"funding_amount":{"max":5264784,"variance":412460842318.669,"mean":159538.909090909,"stdev":642231.143996201,"min":20000,"median":50000},"type":{"count":4,"counts_by_value":{"Facilities/Rehab":17,"Services":30,"Bus/ED":17,"Education":8},"list":["Education","Facilities/Rehab","Services","Bus/ED"]},"year":{"max":2011,"variance":0.660211267605633,"mean":2009.95833333333,"stdev":0.812533856282699,"min":2009,"median":2010}},"features":[{"properties":{"city":"SF","purpose":"School performance","perf_measure":24,"number":"9","zipcode":"94109","type":"Education","funding_amount":35000,"geo_score":0.549,"agency":"A Home Away from Homeless","funding_agent":"MOCD","year":2009,"street":"Fort Mason St","id":"ac7ka7g64n2q","geo_precision":"street","state":"CA"},"type":"Feature","geometry":{"type":"Point","coordinates":[-122.409683,37.786203]}},{"properties":{"city":"SF","purpose":"Build kiosk for labor program","perf_measure":null,"number":"515","zipcode":"94110","type":"Facilities/Rehab","funding_amount":22000,"geo_score":0.879,"agency":"Bernal Heights Neighborhood Center","funding_agent":"MOCD/CDBG","year":2011,"street":"Cortland Ave","id":"ac7ka7a5dmnq","geo_precision":"street","state":"CA"},"type":"Feature","geometry":{"type":"Point","coordinates":[-122.422841,37.741026]}},{"properties":{"city":"SF","purpose":"Case management and mentorship","perf_measure":27,"number":"1618","zipcode":"94124","type":"Services","funding_amount":35000,"geo_score":0.879,"agency":"Brothers Against Guns","funding_agent":"MOCD","year":2009,"street":"Revere Ave","id":"ac7ka7bb2npd","geo_precision":"street","state":"CA"},"type":"Feature","geometry":{"type":"Point","coordinates":[-122.380817,37.726364]}},{"properties":{"city":"SF","purpose":"Case management and counseling","perf_measure":null,"number":"1618","zipcode":"94124","type":"Services","funding_amount":50000,"geo_score":0.879,"agency":"Brothers Against Guns","funding_agent":"MOCD/CDBG","year":2011,"street":"Revere Ave","id":"ac7ka7k3c4tf","geo_precision":"street","state":"CA"},"type":"Feature","geometry":{"type":"Point","coordinates":[-122.380817,37.726364]}},{"properties":{"city":"SF","purpose":"Leadership development for youth","perf_measure":20,"number":"1618","zipcode":"94124","type":"Education","funding_amount":40000,"geo_score":0.879,"agency":"Brothers Against Guns","funding_agent":"MOCD/CDBG","year":2010,"street":"Revere Ave","id":"ac7ka7lknl45","geo_precision":"street","state":"CA"},"type":"Feature","geometry":{"type":"Point","coordinates":[-122.380817,37.726364]}},{"properties":{"city":"SF","purpose":"Job training for youth","perf_measure":10,"number":"2415","zipcode":"94107","type":"Education","funding_amount":44225,"geo_score":0.736,"agency":"BVHP Center for Arts &amp; Technology","funding_agent":"MOCD/CDBG","year":2010,"street":"3rd St","id":"ac7ka7igkl4x","geo_precision":"street","state":"CA"},"type":"Feature","geometry":{"type":"Point","coordinates":[-122.39893,37.783785]}},{"properties":{"city":"SF","purpose":"Industry-specific vocational training","perf_measure":15,"number":"2415","zipcode":"94107","type":"Education","funding_amount":60000,"geo_score":0.736,"agency":"BVHP Center for Arts &amp; Technology","funding_agent":"MOCD/CDBG","year":2010,"street":"3rd St","id":"ac7ka7eute5w","geo_precision":"street","state":"CA"},"type":"Feature","geometry":{"type":"Point","coordinates":[-122.39893,37.783785]}},{"properties":{"city":"SF","purpose":"School performance","perf_measure":48,"number":"2415","zipcode":"94107","type":"Education","funding_amount":40000,"geo_score":0.736,"agency":"BVHP Center for Arts &amp; Technology","funding_agent":"MOCD","year":2009,"street":"3rd St","id":"ac7ka7n88nod","geo_precision":"street","state":"CA"},"type":"Feature","geometry":{"type":"Point","coordinates":[-122.39893,37.783785]}},{"properties":{"city":null,"purpose":"Community/bridge building","perf_measure":null,"number":"2 LOCATIONS - NONE IN BVHP","zipcode":null,"type":"Services","funding_amount":50000,"geo_score":0.0,"agency":"Community Youth Center - San Francisco (CYC-SF)","funding_agent":"MOCD/CDBG","year":2011,"street":null,"id":"ac7ka7djz7e6","geo_precision":"","state":null},"type":"Feature","geometry":null},{"properties":{"city":"SF","purpose":"Painting, landscaping, and utility hookup of clinic","perf_measure":null,"number":"2401","zipcode":"94124","type":"Facilities/Rehab","funding_amount":30940,"geo_score":0.879,"agency":"DPH - Southeast Health Center","funding_agent":"MOCD/CDBG","year":2010,"street":"Keith St","id":"ac7ka7n0k832","geo_precision":"street","state":"CA"},"type":"Feature","geometry":{"type":"Point","coordinates":[-122.380943,37.738763]}},{"properties":{"city":"Oakland","purpose":"Financial education","perf_measure":127,"number":"1203","zipcode":"94612","type":"Bus/ED","funding_amount":75000,"geo_score":1.0,"agency":"Family Independence Initiative (FII-National)","funding_agent":"MOCD","year":2009,"street":"Preservation Park Way","id":"ac7ka793qond","geo_precision":"street","state":"CA"},"type":"Feature","geometry":{"type":"Point","coordinates":[-122.27754,37.806045]}},{"properties":{"city":"SF","purpose":"Community building activities for residents","perf_measure":null,"number":"1010","zipcode":"94109","type":"Services","funding_amount":290000,"geo_score":0.857,"agency":"Family Service Agency of San Francisco","funding_agent":"MOCD/CDBG","year":2010,"street":"Gough St","id":"ac7ka7at9kft","geo_precision":"zip","state":"CA"},"type":"Feature","geometry":{"type":"Point","coordinates":[-122.420782,37.795219]}},{"properties":{"city":"SF","purpose":"Housing information and referral","perf_measure":null,"number":"1010","zipcode":"94109","type":"Services","funding_amount":100000,"geo_score":0.857,"agency":"Family Service Agency of San Francisco","funding_agent":"MOCD/CDBG","year":2010,"street":"Gough St","id":"ac7ka7k7ql5k","geo_precision":"zip","state":"CA"},"type":"Feature","geometry":{"type":"Point","coordinates":[-122.420782,37.795219]}},{"properties":{"city":"SF","purpose":"Rehabilitation of Community Facilities","perf_measure":null,"number":"840","zipcode":"94115","type":"Facilities/Rehab","funding_amount":200000,"geo_score":0.879,"agency":"Florence Cittenton Services","funding_agent":"MOCD","year":2009,"street":"Broderick St","id":"ac7ka7jbya4e","geo_precision":"street","state":"CA"},"type":"Feature","geometry":{"type":"Point","coordinates":[-122.440027,37.777587]}},{"properties":{"city":"SF","purpose":"Vocational skills training - green collar","perf_measure":34,"number":"1007","zipcode":"94129","type":"Bus/ED","funding_amount":55000,"geo_score":0.376,"agency":"Friends of the Urban Forest","funding_agent":"MOCD/CDBG","year":2010,"street":"General Kennedy Ave.","id":"ac7ka7lv0xr7","geo_precision":"street","state":"CA"},"type":"Feature","geometry":{"type":"Point","coordinates":[-122.41253,37.800323]}},{"properties":{"city":"SF","purpose":"Vocational skills training","perf_measure":31,"number":"1007","zipcode":"94129","type":"Bus/ED","funding_amount":65000,"geo_score":0.376,"agency":"Friends of the Urban Forest","funding_agent":"MOCD","year":2011,"street":"General Kennedy Ave.","id":"ac7ka7f5yvgn","geo_precision":"street","state":"CA"},"type":"Feature","geometry":{"type":"Point","coordinates":[-122.41253,37.800323]}},{"properties":{"city":"SF","purpose":"Tree planting","perf_measure":null,"number":"1007","zipcode":"94129","type":"Facilities/Rehab","funding_amount":40000,"geo_score":0.376,"agency":"Friends of the Urban Forest","funding_agent":"MOCD","year":2009,"street":"General Kennedy Ave.","id":"ac7ka7kjev6a","geo_precision":"street","state":"CA"},"type":"Feature","geometry":{"type":"Point","coordinates":[-122.41253,37.800323]}},{"properties":{"city":"SF","purpose":"Planting trees","perf_measure":null,"number":"1007","zipcode":"94129","type":"Facilities/Rehab","funding_amount":40000,"geo_score":0.376,"agency":"Friends of the Urban Forest","funding_agent":"MOCD/CDBG","year":2010,"street":"General Kennedy Ave.","id":"ac7ka7ktly87","geo_precision":"street","state":"CA"},"type":"Feature","geometry":{"type":"Point","coordinates":[-122.41253,37.800323]}},{"properties":{"city":"SF","purpose":"Planting trees","perf_measure":null,"number":"1007","zipcode":"94129","type":"Facilities/Rehab","funding_amount":40000,"geo_score":0.376,"agency":"Friends of the Urban Forest","funding_agent":"MOCD/CDBG","year":2011,"street":"General Kennedy Ave.","id":"ac7ka7f4ompi","geo_precision":"street","state":"CA"},"type":"Feature","geometry":{"type":"Point","coordinates":[-122.41253,37.800323]}},{"properties":{"city":"SF","purpose":"Language, technical, and finanical support","perf_measure":52,"number":"1294","zipcode":"94110","type":"Services","funding_amount":35000,"geo_score":0.736,"agency":"Good Samaritan Family Resource Center","funding_agent":"MOCD","year":2009,"street":"Potrero Ave","id":"ac7ka7fksqpz","geo_precision":"street","state":"CA"},"type":"Feature","geometry":{"type":"Point","coordinates":[-122.40784,37.768774]}},{"properties":{"city":"SF","purpose":"Build employment facilities","perf_measure":null,"number":"515","zipcode":"94110","type":"Facilities/Rehab","funding_amount":114793,"geo_score":0.879,"agency":"Housing Services Affiliate of the Bernal Heights Neighborhood Center","funding_agent":"MOCD/CDBG","year":2011,"street":"Cortland Ave","id":"ac7ka7f9tfh5","geo_precision":"street","state":"CA"},"type":"Feature","geometry":{"type":"Point","coordinates":[-122.422841,37.741026]}},{"properties":{"city":"SF","purpose":"Landscaping","perf_measure":null,"number":"1329","zipcode":"94124","type":"Facilities/Rehab","funding_amount":127260,"geo_score":0.736,"agency":"Literary for Environmental Justice","funding_agent":"MOCD","year":2009,"street":"Evans St","id":"ac7ka7cn54e2","geo_precision":"street","state":"CA"},"type":"Feature","geometry":{"type":"Point","coordinates":[-122.377404,37.736712]}},{"properties":{"city":"SF","purpose":"Upgrading community facilities","perf_measure":null,"number":"1337","zipcode":"94124","type":"Facilities/Rehab","funding_amount":180000,"geo_score":0.879,"agency":"Mission Neighborhood Centers","funding_agent":"MOCD","year":2009,"street":"Evans Ave","id":"ac7ka7nubho7","geo_precision":"street","state":"CA"},"type":"Feature","geometry":{"type":"Point","coordinates":[-122.377404,37.736712]}},{"properties":{"city":"SF","purpose":"Construct loft area of a family resource center","perf_measure":null,"number":"1337","zipcode":"94124","type":"Facilities/Rehab","funding_amount":75000,"geo_score":0.879,"agency":"Mission Neighborhood Centers","funding_agent":"MOCD/CDBG","year":2010,"street":"Evans Ave","id":"ac7ka7kv6glk","geo_precision":"street","state":"CA"},"type":"Feature","geometry":{"type":"Point","coordinates":[-122.377404,37.736712]}},{"properties":{"city":"SF","purpose":"School performance","perf_measure":34,"number":"1337","zipcode":"94124","type":"Education","funding_amount":42000,"geo_score":0.879,"agency":"Mission Neighborhood Centers","funding_agent":"MOCD","year":2009,"street":"Evans Ave","id":"ac7ka7bnyi29","geo_precision":"street","state":"CA"},"type":"Feature","geometry":{"type":"Point","coordinates":[-122.377404,37.736712]}},{"properties":{"city":"SF","purpose":"Case management","perf_measure":68,"number":"5600","zipcode":"94124","type":"Services","funding_amount":45000,"geo_score":0.736,"agency":"Network For Elders","funding_agent":"MOCD","year":2009,"street":"3rd St","id":"ac7ka79psjh3","geo_precision":"street","state":"CA"},"type":"Feature","geometry":{"type":"Point","coordinates":[-122.387456,37.749005]}},{"properties":{"city":"SF","purpose":"Case management and in-home care for seniors","perf_measure":37,"number":"5600","zipcode":"94124","type":"Services","funding_amount":30000,"geo_score":0.736,"agency":"Network for Elders","funding_agent":"MOCD/CDBG","year":2010,"street":"3rd St","id":"ac7ka7fob0cf","geo_precision":"street","state":"CA"},"type":"Feature","geometry":{"type":"Point","coordinates":[-122.387456,37.749005]}},{"properties":{"city":"SF","purpose":"Case management, counseling","perf_measure":47,"number":"4601","zipcode":"94124","type":"Services","funding_amount":45000,"geo_score":0.736,"agency":"Providence Foundation","funding_agent":"MOCD","year":2009,"street":"3rd St","id":"ac7ka796jzr8","geo_precision":"street","state":"CA"},"type":"Feature","geometry":{"type":"Point","coordinates":[-122.387456,37.749005]}},{"properties":{"city":"SF","purpose":"Case management, counseling","perf_measure":47,"number":"5600","zipcode":"94124","type":"Services","funding_amount":45000,"geo_score":0.736,"agency":"Providence Foundation","funding_agent":"MOCD","year":2009,"street":"3rd St","id":"ac7ka7ixoeyj","geo_precision":"street","state":"CA"},"type":"Feature","geometry":{"type":"Point","coordinates":[-122.387456,37.749005]}},{"properties":{"city":"SF","purpose":"Case management, counseling","perf_measure":47,"number":"1218","zipcode":"94124","type":"Services","funding_amount":45000,"geo_score":0.879,"agency":"Providence Foundation","funding_agent":"MOCD","year":2009,"street":"Mendell St","id":"ac7ka7iv49e6","geo_precision":"street","state":"CA"},"type":"Feature","geometry":{"type":"Point","coordinates":[-122.38385,37.742379]}},{"properties":{"city":"SF","purpose":"Shelter beds for homeless","perf_measure":52,"number":"4601","zipcode":"94124","type":"Services","funding_amount":45000,"geo_score":0.736,"agency":"Providence Foundation","funding_agent":"MOCD/CDBG","year":2010,"street":"3rd St","id":"ac7ka7hp2oaz","geo_precision":"street","state":"CA"},"type":"Feature","geometry":{"type":"Point","coordinates":[-122.387456,37.749005]}},{"properties":{"city":"SF","purpose":"Shelter beds for homeless","perf_measure":52,"number":"5600","zipcode":"94124","type":"Services","funding_amount":45000,"geo_score":0.736,"agency":"Providence Foundation","funding_agent":"MOCD/CDBG","year":2010,"street":"3rd St","id":"ac7ka7h170qs","geo_precision":"street","state":"CA"},"type":"Feature","geometry":{"type":"Point","coordinates":[-122.387456,37.749005]}},{"properties":{"city":"SF","purpose":"Shelter beds for homeless","perf_measure":52,"number":"1218","zipcode":"94124","type":"Services","funding_amount":45000,"geo_score":0.879,"agency":"Providence Foundation","funding_agent":"MOCD/CDBG","year":2010,"street":"Mendell St","id":"ac7ka7jhb4by","geo_precision":"street","state":"CA"},"type":"Feature","geometry":{"type":"Point","coordinates":[-122.38385,37.742379]}},{"properties":{"city":"SF","purpose":"Transitioning from shelter to house","perf_measure":49,"number":"4601","zipcode":"94124","type":"Services","funding_amount":null,"geo_score":0.736,"agency":"Providence Foundation","funding_agent":"MOCD/CDBG","year":2010,"street":"3rd St","id":"ac7ka7l7yggw","geo_precision":"street","state":"CA"},"type":"Feature","geometry":{"type":"Point","coordinates":[-122.387456,37.749005]}},{"properties":{"city":"SF","purpose":"Transitioning from shelter to house","perf_measure":49,"number":"5600","zipcode":"94124","type":"Services","funding_amount":null,"geo_score":0.736,"agency":"Providence Foundation","funding_agent":"MOCD/CDBG","year":2010,"street":"3rd St","id":"ac7ka7h9txgi","geo_precision":"street","state":"CA"},"type":"Feature","geometry":{"type":"Point","coordinates":[-122.387456,37.749005]}},{"properties":{"city":"SF","purpose":"Transitioning from shelter to house","perf_measure":49,"number":"1218","zipcode":"94124","type":"Services","funding_amount":null,"geo_score":0.879,"agency":"Providence Foundation","funding_agent":"MOCD/CDBG","year":2010,"street":"Mendell St","id":"ac7ka7aepizq","geo_precision":"street","state":"CA"},"type":"Feature","geometry":{"type":"Point","coordinates":[-122.38385,37.742379]}},{"properties":{"city":"SF","purpose":"Shelter beds for homeless","perf_measure":52,"number":"4601","zipcode":"94124","type":"Services","funding_amount":36000,"geo_score":0.736,"agency":"Providence Foundation","funding_agent":"MOCD/CDBG","year":2011,"street":"3rd St","id":"ac7ka79vco92","geo_precision":"street","state":"CA"},"type":"Feature","geometry":{"type":"Point","coordinates":[-122.387456,37.749005]}},{"properties":{"city":"SF","purpose":"Shelter beds for homeless","perf_measure":52,"number":"5600","zipcode":"94124","type":"Services","funding_amount":36000,"geo_score":0.736,"agency":"Providence Foundation","funding_agent":"MOCD/CDBG","year":2011,"street":"3rd St","id":"ac7ka7kktcew","geo_precision":"street","state":"CA"},"type":"Feature","geometry":{"type":"Point","coordinates":[-122.387456,37.749005]}},{"properties":{"city":"SF","purpose":"Shelter beds for homeless","perf_measure":52,"number":"1218","zipcode":"94124","type":"Services","funding_amount":36000,"geo_score":0.879,"agency":"Providence Foundation","funding_agent":"MOCD/CDBG","year":2011,"street":"Mendell St","id":"ac7ka7niwi1v","geo_precision":"street","state":"CA"},"type":"Feature","geometry":{"type":"Point","coordinates":[-122.38385,37.742379]}},{"properties":{"city":"SF","purpose":"Micro-enterprise assistance","perf_measure":null,"number":"3801","zipcode":null,"type":"Bus/ED","funding_amount":180833,"geo_score":0.0,"agency":"Renaissance Entrepreneurship Center","funding_agent":"MOCD/CDBG","year":2009,"street":"3rd St","id":"ac7ka7bez3fy","geo_precision":"unmatched","state":"CA"},"type":"Feature","geometry":null},{"properties":{"city":"SF","purpose":"New start-ups","perf_measure":31,"number":"3801","zipcode":"94124","type":"Bus/ED","funding_amount":170000,"geo_score":0.736,"agency":"Renaissance Entrepreneurship Center","funding_agent":"MOCD","year":2010,"street":"3rd St","id":"ac7ka7j94pn8","geo_precision":"street","state":"CA"},"type":"Feature","geometry":{"type":"Point","coordinates":[-122.387456,37.749005]}},{"properties":{"city":"SF","purpose":"Micro-enterprise assistance","perf_measure":52,"number":"3801","zipcode":"94124","type":"Bus/ED","funding_amount":null,"geo_score":0.736,"agency":"Renaissance Entrepreneurship Center","funding_agent":"MOCD","year":2010,"street":"3rd St","id":"ac7ka7a6qweo","geo_precision":"street","state":"CA"},"type":"Feature","geometry":{"type":"Point","coordinates":[-122.387456,37.749005]}},{"properties":{"city":"SF","purpose":"Approved business loans","perf_measure":1,"number":"3801","zipcode":"94124","type":"Bus/ED","funding_amount":null,"geo_score":0.736,"agency":"Renaissance Entrepreneurship Center","funding_agent":"MOCD","year":2010,"street":"3rd St","id":"ac7ka7nj80ox","geo_precision":"street","state":"CA"},"type":"Feature","geometry":{"type":"Point","coordinates":[-122.387456,37.749005]}},{"properties":{"city":"SF","purpose":"Jobs created/retained","perf_measure":16,"number":"3801","zipcode":"94124","type":"Bus/ED","funding_amount":null,"geo_score":0.736,"agency":"Renaissance Entrepreneurship Center","funding_agent":"MOCD","year":2010,"street":"3rd St","id":"ac7ka79eq02k","geo_precision":"street","state":"CA"},"type":"Feature","geometry":{"type":"Point","coordinates":[-122.387456,37.749005]}},{"properties":{"city":"SF","purpose":"Micro-enterprise assistance","perf_measure":null,"number":"3801","zipcode":"94124","type":"Bus/ED","funding_amount":140000,"geo_score":0.736,"agency":"Renaissance Entrepreneurship Center","funding_agent":"MOCD","year":2011,"street":"3rd St","id":"ac7ka7leweuk","geo_precision":"street","state":"CA"},"type":"Feature","geometry":{"type":"Point","coordinates":[-122.387456,37.749005]}},{"properties":{"city":"SF","purpose":"Micro-enterprise assistance","perf_measure":null,"number":"3801","zipcode":"94124","type":"Bus/ED","funding_amount":100000,"geo_score":0.736,"agency":"Renaissance Entrepreneurship Center","funding_agent":"MOCD","year":2011,"street":"3rd St","id":"ac7ka79mj376","geo_precision":"street","state":"CA"},"type":"Feature","geometry":{"type":"Point","coordinates":[-122.387456,37.749005]}},{"properties":{"city":"SF","purpose":"Family services","perf_measure":9,"number":"3801","zipcode":"94124","type":"Services","funding_amount":22000,"geo_score":0.736,"agency":"Renaissance Entrepreneurship Center","funding_agent":"MOCD/CDBG","year":2011,"street":"3rd St","id":"ac7ka7bp06r4","geo_precision":"street","state":"CA"},"type":"Feature","geometry":{"type":"Point","coordinates":[-122.387456,37.749005]}},{"properties":{"city":"SF","purpose":"Job training and job placement","perf_measure":30,"number":"1800","zipcode":"94124","type":"Bus/ED","funding_amount":50000,"geo_score":0.879,"agency":"Renaissance Parents of Success","funding_agent":"MOCD/CDBG","year":2010,"street":"Oakdale Ave","id":"ac7ka7cvkwb1","geo_precision":"street","state":"CA"},"type":"Feature","geometry":{"type":"Point","coordinates":[-122.379175,37.728232]}},{"properties":{"city":"SF","purpose":"Case management and barrier removal","perf_measure":55,"number":"1800","zipcode":"94124","type":"Bus/ED","funding_amount":55000,"geo_score":0.879,"agency":"Renaissance Parents of Success","funding_agent":"MOCD","year":2011,"street":"Oakdale Ave","id":"ac7ka7beufw3","geo_precision":"street","state":"CA"},"type":"Feature","geometry":{"type":"Point","coordinates":[-122.379175,37.728232]}},{"properties":{"city":"SF","purpose":"Workforce development","perf_measure":null,"number":"1800","zipcode":"94124","type":"Bus/ED","funding_amount":50000,"geo_score":0.879,"agency":"Renaissance Parents of Success","funding_agent":"MOCD/CDBG","year":2011,"street":"Oakdale Ave","id":"ac7ka7l84ozh","geo_precision":"street","state":"CA"},"type":"Feature","geometry":{"type":"Point","coordinates":[-122.379175,37.728232]}},{"properties":{"city":"SF","purpose":"Case management and information","perf_measure":132,"number":"2055","zipcode":"94134","type":"Services","funding_amount":60000,"geo_score":0.879,"agency":"Samoan Community Devlopment Center","funding_agent":"MOCD","year":2009,"street":"Sunnydale Ave","id":"ac7ka7jrdtkz","geo_precision":"street","state":"CA"},"type":"Feature","geometry":{"type":"Point","coordinates":[-122.404038,37.708552]}},{"properties":{"city":"SF","purpose":"Benches, trellis, compost bin","perf_measure":null,"number":"1035","zipcode":"94124","type":"Facilities/Rehab","funding_amount":52724,"geo_score":0.879,"agency":"San Francisco Conservation Corps - Bret Harte Elementary School","funding_agent":"MOCD/CDBG","year":2010,"street":"Gilman Ave","id":"ac7ka7a26cd1","geo_precision":"street","state":"CA"},"type":"Feature","geometry":{"type":"Point","coordinates":[-122.382522,37.715064]}},{"properties":{"city":"SF","purpose":"Planter boxes, benches, sand box","perf_measure":null,"number":"100","zipcode":"94124","type":"Facilities/Rehab","funding_amount":21319,"geo_score":0.487,"agency":"San Francisco Conservation Corps - Whitney Young Child Development Center","funding_agent":"MOCD/CDBG","year":2010,"street":"Whitney Young Circle","id":"ac7ka7km12uj","geo_precision":"street","state":"CA"},"type":"Feature","geometry":{"type":"Point","coordinates":[-122.427878,37.742014]}},{"properties":{"city":"SF","purpose":"Build commercial space for restaurant","perf_measure":null,"number":"1278","zipcode":"94108","type":"Facilities/Rehab","funding_amount":185000,"geo_score":0.879,"agency":"San Francisco Housing Development Corporation","funding_agent":"MOCD/CDBG","year":2011,"street":"Sacramento St","id":"ac7ka7m4kkzx","geo_precision":"street","state":"CA"},"type":"Feature","geometry":{"type":"Point","coordinates":[-122.401315,37.793987]}},{"properties":{"city":"SF","purpose":"Improve commercial space for affordable housing","perf_measure":null,"number":"1278","zipcode":"94108","type":"Facilities/Rehab","funding_amount":137755,"geo_score":0.879,"agency":"San Francisco Housing Development Corporation","funding_agent":"MOCD/CDBG","year":2011,"street":"Sacramento St","id":"ac7ka794q2fm","geo_precision":"street","state":"CA"},"type":"Feature","geometry":{"type":"Point","coordinates":[-122.401315,37.793987]}},{"properties":{"city":"SF","purpose":"Job training","perf_measure":null,"number":"1800","zipcode":"94124","type":"Bus/ED","funding_amount":157061,"geo_score":0.879,"agency":"SF Conservation Corps- Ramp Program","funding_agent":"MOCD/CDBG","year":2009,"street":"Oakdale Ave","id":"ac7ka7fn4am9","geo_precision":"street","state":"CA"},"type":"Feature","geometry":{"type":"Point","coordinates":[-122.379175,37.728232]}},{"properties":{"city":"SF","purpose":"Financial education","perf_measure":null,"number":"1278","zipcode":"94108","type":"Bus/ED","funding_amount":20000,"geo_score":0.879,"agency":"San Francisco Housing Development Corporation","funding_agent":"MOCD/CDBG","year":2009,"street":"Sacramento St","id":"ac7ka79ld7oi","geo_precision":"street","state":"CA"},"type":"Feature","geometry":{"type":"Point","coordinates":[-122.401315,37.793987]}},{"properties":{"city":"SF","purpose":"Rehabilitation of Community Facilities","perf_measure":null,"number":"1278","zipcode":"94108","type":"Facilities/Rehab","funding_amount":137755,"geo_score":0.879,"agency":"San Francisco Housing Development Corporation","funding_agent":"MOCD/CDBG","year":2009,"street":"Sacramento St","id":"ac7ka7ebj8pt","geo_precision":"street","state":"CA"},"type":"Feature","geometry":{"type":"Point","coordinates":[-122.401315,37.793987]}},{"properties":{"city":"SF","purpose":"Rehabilitation of Community Facilities","perf_measure":null,"number":"729","zipcode":"94124","type":"Facilities/Rehab","funding_amount":262156,"geo_score":0.879,"agency":"SF State Head Start- Hunter's Point","funding_agent":"MOCD","year":2009,"street":"Kirkwood Ave","id":"ac7ka7i35lnp","geo_precision":"street","state":"CA"},"type":"Feature","geometry":{"type":"Point","coordinates":[-122.374928,37.729659]}},{"properties":{"city":"SF","purpose":"Multiservices","perf_measure":258,"number":"944","zipcode":"94102","type":"Services","funding_amount":75000,"geo_score":0.879,"agency":"SF Study Center","funding_agent":"MOCD","year":2009,"street":"Market St","id":"ac7ka7iqw251","geo_precision":"street","state":"CA"},"type":"Feature","geometry":{"type":"Point","coordinates":[-122.396504,37.793096]}},{"properties":{"city":"SF","purpose":"Services for youth","perf_measure":60,"number":"1652","zipcode":"94134","type":"Education","funding_amount":60000,"geo_score":0.879,"agency":"Together United Recommitted Forever (T.U.R.F.)","funding_agent":"MOCD","year":2009,"street":"Sunnydale Ave","id":"ac7ka7hzb6ct","geo_precision":"street","state":"CA"},"type":"Feature","geometry":{"type":"Point","coordinates":[-122.404038,37.708552]}},{"properties":{"city":"SF","purpose":"Case management and shelter provision","perf_measure":950,"number":"2111","zipcode":"94124","type":"Services","funding_amount":96000,"geo_score":0.879,"agency":"United Council of Human Services","funding_agent":"MOCD","year":2009,"street":"Jennings St","id":"ac7ka7hoqhqv","geo_precision":"street","state":"CA"},"type":"Feature","geometry":{"type":"Point","coordinates":[-122.37742,37.739557]}},{"properties":{"city":"SF","purpose":"Leadership development","perf_measure":77,"number":"1038","zipcode":"94103","type":"Services","funding_amount":55000,"geo_score":0.879,"agency":"United Playaz","funding_agent":"MOCD","year":2009,"street":"Howard St","id":"ac7ka7f0pif9","geo_precision":"street","state":"CA"},"type":"Feature","geometry":{"type":"Point","coordinates":[-122.402708,37.783259]}},{"properties":{"city":null,"purpose":"Community building","perf_measure":null,"number":"2 BVHP LOCATIONS","zipcode":null,"type":"Services","funding_amount":440000,"geo_score":0.0,"agency":"Urban Strategies, Inc.","funding_agent":"MOCD/CDBG","year":2011,"street":null,"id":"ac7ka798yzmg","geo_precision":"","state":null},"type":"Feature","geometry":null},{"properties":{"city":null,"purpose":"Job training/placement","perf_measure":51,"number":"??","zipcode":null,"type":"Bus/ED","funding_amount":35000,"geo_score":0.0,"agency":"Visitacion Valley Community Development","funding_agent":"MOCD","year":2009,"street":null,"id":"ac7ka7ozjtra","geo_precision":"","state":null},"type":"Feature","geometry":null},{"properties":{"city":"SF","purpose":"Day shelters for homeless","perf_measure":518,"number":"1601","zipcode":"94124","type":"Services","funding_amount":70000,"geo_score":0.757,"agency":"YMCA of San Francisco (Bayview)","funding_agent":"MOCD/CDBG","year":2010,"street":"Lane St","id":"ac7ka7jlv4bw","geo_precision":"street","state":"CA"},"type":"Feature","geometry":{"type":"Point","coordinates":[-122.38341,37.739177]}},{"properties":{"city":"SF","purpose":"Transitioning from shelter to house","perf_measure":121,"number":"1601","zipcode":"94124","type":"Services","funding_amount":null,"geo_score":0.757,"agency":"YMCA of San Francisco (Bayview)","funding_agent":"MOCD/CDBG","year":2010,"street":"Lane St","id":"ac7ka78pqyos","geo_precision":"street","state":"CA"},"type":"Feature","geometry":{"type":"Point","coordinates":[-122.38341,37.739177]}},{"properties":{"city":"SF","purpose":"Shelters and supportive services","perf_measure":958,"number":"1601","zipcode":"94124","type":"Services","funding_amount":40000,"geo_score":0.757,"agency":"YMCA of San Francisco (Bayview)","funding_agent":"MOCD/CDBG","year":2011,"street":"Lane St","id":"ac7ka7mwsi69","geo_precision":"street","state":"CA"},"type":"Feature","geometry":{"type":"Point","coordinates":[-122.38341,37.739177]}},{"properties":{"city":"SF","purpose":"Case management and training","perf_measure":null,"number":"1601","zipcode":"94124","type":"Services","funding_amount":50000,"geo_score":0.757,"agency":"YMCA of San Francisco (Bayview)","funding_agent":"MOCD/CDBG","year":2011,"street":"Lane St","id":"ac7ka7gjqb29","geo_precision":"street","state":"CA"},"type":"Feature","geometry":{"type":"Point","coordinates":[-122.38341,37.739177]}},{"properties":{"city":"SF","purpose":"Youth services","perf_measure":51,"number":"1601","zipcode":"94124","type":"Education","funding_amount":50000,"geo_score":0.757,"agency":"YMCA of San Francisco (Bayview)","funding_agent":"MOCD","year":2011,"street":"Lane St","id":"ac7ka7lhl1i9","geo_precision":"street","state":"CA"},"type":"Feature","geometry":{"type":"Point","coordinates":[-122.38341,37.739177]}},{"properties":{"city":"SF","purpose":"Workforce development","perf_measure":null,"number":"1715","zipcode":"94124","type":"Bus/ED","funding_amount":53000,"geo_score":0.879,"agency":"Young Community Developers, Inc.","funding_agent":"MOCD/CDBG","year":2011,"street":"Yosemite Ave","id":"ac7ka7fk43ef","geo_precision":"street","state":"CA"},"type":"Feature","geometry":{"type":"Point","coordinates":[-122.38521,37.723088]}},{"properties":{"city":"SF","purpose":"Improve job development agency","perf_measure":null,"number":"1715","zipcode":"94124","type":"Facilities/Rehab","funding_amount":99963,"geo_score":0.879,"agency":"Young Community Developers, Inc.","funding_agent":"MOCD/CDBG","year":2011,"street":"Yosemite Ave","id":"ac7ka7nsfkqy","geo_precision":"street","state":"CA"},"type":"Feature","geometry":{"type":"Point","coordinates":[-122.38521,37.723088]}},{"properties":{"city":null,"purpose":null,"perf_measure":null,"number":null,"zipcode":null,"type":null,"funding_amount":5264784,"geo_score":0.0,"agency":null,"funding_agent":null,"year":null,"street":null,"id":"ac7ka7egmdl0","geo_precision":"","state":null},"type":"Feature","geometry":null}],"is_temporal":false,"author":{"url":"","metadata":"","contact_name":"","contact_address":"","source":"","contact_phone":""},"source":"","pagination":{"sort":null,"start":0,"total":73,"limit":1000000},"state":"complete","tags":"","published":"2014-08-16T14:56:09-04:00","id":321451}