{"type":"FeatureCollection","data_type":"Dataset","url_type":null,"permissions":[{"permissions":{"download":true,"view":true},"group_id":"everyone"}],"classification":null,"title":"BackSack Locations 2.15.13","count":222,"stream_id":321683,"contributor":{"url":"http://geocommons.com/users/32393","name":"eoliver88"},"data_attributes":null,"calculation_params":null,"icon_link":null,"link":"http://geocommons.com/overlays/321683.json","extent":[-86.8174,38.6866,-84.8169,40.1531],"geometry_types":["point"],"unique_name":null,"name":"BackSack Locations 2.15.13","feature_count":222,"description":"","next_feature":null,"is_raster":false,"short_classification":"Y","stats":{},"features":[{"properties":{"city":"Columbus","geo_score":0.902,"zip code":"47201","id":"ac8f7ta5ejzm","school":"CSA-Lincoln","address":"750 5th Street","geo_precision":"range","state":"IN"},"type":"Feature","geometry":{"type":"Point","coordinates":[-85.91569,39.203733]}},{"properties":{"city":"Columbus","geo_score":0.865,"zip code":"47201","id":"ac8f7t7d3pzy","school":"Mt. Healthy Elementary","address":"12150 S SR 58","geo_precision":"range","state":"IN"},"type":"Feature","geometry":{"type":"Point","coordinates":[-86.033936,39.090789]}},{"properties":{"city":"Columbus","geo_score":1.0,"zip code":"47201","id":"ac8f7tbjg41v","school":"CSA-Fodrea","address":"2775 Illinois Street","geo_precision":"range","state":"IN"},"type":"Feature","geometry":{"type":"Point","coordinates":[-85.892405,39.195747]}},{"properties":{"city":"Columbus","geo_score":1.0,"zip code":"47201","id":"ac8f7thr80td","school":"Southside Elementary","address":"1320 West 200 South","geo_precision":"range","state":"IN"},"type":"Feature","geometry":{"type":"Point","coordinates":[-85.938207,39.171427]}},{"properties":{"city":"Columbus","geo_score":1.0,"zip code":"47203","id":"ac8f7tlhri97","school":"Parkside Elementary School","address":"1400 Parkside Drive","geo_precision":"range","state":"IN"},"type":"Feature","geometry":{"type":"Point","coordinates":[-85.911893,39.240887]}},{"properties":{"city":"Columbus","geo_score":1.0,"zip code":"47203","id":"ac8f7tj6brgu","school":"W. D. Richards Elementary","address":"3311 Fairlawn Drive","geo_precision":"range","state":"IN"},"type":"Feature","geometry":{"type":"Point","coordinates":[-85.871525,39.232509]}},{"properties":{"city":"Columbus","geo_score":1.0,"zip code":"47203","id":"ac8f7tefb213","school":"L. F. Smith Elementary","address":"4505 Waycross Drive","geo_precision":"range","state":"IN"},"type":"Feature","geometry":{"type":"Point","coordinates":[-85.869875,39.220797]}},{"properties":{"city":"Columbus","geo_score":1.0,"zip code":"47203","id":"ac8f7tg10wri","school":"Clifty Creek Elementary","address":"4625 East 50 North","geo_precision":"range","state":"IN"},"type":"Feature","geometry":{"type":"Point","coordinates":[-85.86738,39.208652]}},{"properties":{"city":"Taylorsville","geo_score":0.878,"zip code":"47280","id":"ac8f7t8zouz4","school":"Taylorsville Elementary","address":"9711 Walnut Street","geo_precision":"range","state":"IN"},"type":"Feature","geometry":{"type":"Point","coordinates":[-85.949003,39.29849]}},{"properties":{"city":"Columbus","geo_score":1.0,"zip code":"47201","id":"ac8f7thpddkl","school":"L. C. Schmitt Elementary","address":"2675 California Street","geo_precision":"range","state":"IN"},"type":"Feature","geometry":{"type":"Point","coordinates":[-85.914334,39.223789]}},{"properties":{"city":"Columbus","geo_score":0.902,"zip code":"47201","id":"ac8f7tk8rxl7","school":"St. Peter's Lutheran","address":"719 5th Street","geo_precision":"range","state":"IN"},"type":"Feature","geometry":{"type":"Point","coordinates":[-85.91491,39.203608]}},{"properties":{"city":"Hope","geo_score":0.806,"zip code":"47246","id":"ac8f7tdh1yly","school":"Hope Elementary","address":"9575 N State Road 9","geo_precision":"street","state":"IN"},"type":"Feature","geometry":{"type":"Point","coordinates":[-85.771422,39.298597]}},{"properties":{"city":"Lebanon","geo_score":1.0,"zip code":"46052","id":"ac8f7t6z6gbl","school":"Perry Worth Elementary","address":"3900 E 300 S","geo_precision":"range","state":"IN"},"type":"Feature","geometry":{"type":"Point","coordinates":[-86.398958,39.996729]}},{"properties":{"city":"Lebanon","geo_score":0.955,"zip code":"46052","id":"ac8f7tb6g6px","school":"Harney Elementary","address":"1500 N Garfield Street","geo_precision":"range","state":"IN"},"type":"Feature","geometry":{"type":"Point","coordinates":[-86.47757,40.05956]}},{"properties":{"city":"Lebanon","geo_score":1.0,"zip code":"46052","id":"ac8f7t937uwu","school":"Central Elementary","address":"515 East Williams Street","geo_precision":"range","state":"IN"},"type":"Feature","geometry":{"type":"Point","coordinates":[-86.463701,40.050144]}},{"properties":{"city":"Lebanon","geo_score":0.878,"zip code":"46052","id":"ac8f7t71cghg","school":"Hattie B. Stokes Elementary","address":"1005 Hendricks Drive","geo_precision":"range","state":"IN"},"type":"Feature","geometry":{"type":"Point","coordinates":[-86.454232,40.034438]}},{"properties":{"city":"Jamestown","geo_score":0.932,"zip code":"46147","id":"ac8f7thbenzs","school":"Granville Wells","address":"5046 S St Road 75","geo_precision":"range","state":"IN"},"type":"Feature","geometry":{"type":"Point","coordinates":[-86.619816,39.966031]}},{"properties":{"city":"Thorntown","geo_score":0.925,"zip code":"46071","id":"ac8f7t87sms1","school":"Thorntown Elementary","address":"200 Mill Street","geo_precision":"range","state":"IN"},"type":"Feature","geometry":{"type":"Point","coordinates":[-86.60794,40.12472]}},{"properties":{"city":"Greensburg","geo_score":1.0,"zip code":"47240","id":"ac8f7tfnqa9u","school":"North Decatur Elementary","address":"3300 N State Road 3","geo_precision":"range","state":"IN"},"type":"Feature","geometry":{"type":"Point","coordinates":[-85.479548,39.390904]}},{"properties":{"city":"Greensburg","geo_score":0.932,"zip code":"47240","id":"ac8f7tjybalc","school":"South Decatur Elementary","address":"9302 S CR 420 W","geo_precision":"range","state":"IN"},"type":"Feature","geometry":{"type":"Point","coordinates":[-85.559875,39.20063]}},{"properties":{"city":"Greensburg","geo_score":0.78,"zip code":"47240","id":"ac8f7t9pahzf","school":"Greensburg Elementary","address":"900 Big Blue Avenue","geo_precision":"range","state":"IN"},"type":"Feature","geometry":{"type":"Point","coordinates":[-85.47554,39.324104]}},{"properties":{"city":"Connersville","geo_score":0.951,"zip code":"47331","id":"ac8f7tj9djzr","school":"Everton Elementary","address":"2440 Everton Road","geo_precision":"range","state":"IN"},"type":"Feature","geometry":{"type":"Point","coordinates":[-85.095228,39.5627]}},{"properties":{"city":"Connersville","geo_score":0.927,"zip code":"47331","id":"ac8f7t7u1sxd","school":"Frazee Elementary","address":"600 West 3rd Street","geo_precision":"range","state":"IN"},"type":"Feature","geometry":{"type":"Point","coordinates":[-85.14962,39.640041]}},{"properties":{"city":"Connersville","geo_score":1.0,"zip code":"47331","id":"ac8f7ta0i5zb","school":"Fayette Central Elementary","address":"2928 North County Road 225 West","geo_precision":"range","state":"IN"},"type":"Feature","geometry":{"type":"Point","coordinates":[-85.17964,39.682349]}},{"properties":{"city":"Connersville","geo_score":1.0,"zip code":"47331","id":"ac8f7t5wpqhq","school":"Grandview Elementary","address":"2620 Iowa Avenue","geo_precision":"range","state":"IN"},"type":"Feature","geometry":{"type":"Point","coordinates":[-85.137237,39.667434]}},{"properties":{"city":"Connersville","geo_score":1.0,"zip code":"47331","id":"ac8f7teqqi0c","school":"Eastview Elementary","address":"401 S Fountain Street","geo_precision":"range","state":"IN"},"type":"Feature","geometry":{"type":"Point","coordinates":[-85.124869,39.636786]}},{"properties":{"city":"Connersville","geo_score":0.955,"zip code":"47331","id":"ac8f7tkk9nc2","school":"Maplewood Elementary","address":"1800 Eastern Avenue","geo_precision":"range","state":"IN"},"type":"Feature","geometry":{"type":"Point","coordinates":[-85.127974,39.653817]}},{"properties":{"city":"Cedar Grove","geo_score":0.73,"zip code":"47012","id":"ac8f7t8ts4hj","school":"Mt. Carmel School","address":"6178 Johnson Fork Road","geo_precision":"street","state":"IN"},"type":"Feature","geometry":{"type":"Point","coordinates":[-84.873677,39.406627]}},{"properties":{"city":"Brookville","geo_score":0.585,"zip code":"47012","id":"ac8f7t65oi41","school":"Brookville Elementary School","address":"10160 Oxford Pike","geo_precision":"zip","state":"IN"},"type":"Feature","geometry":{"type":"Point","coordinates":[-85.031626,39.321719]}},{"properties":{"city":"Laurel","geo_score":0.927,"zip code":"47024","id":"ac8f7thwwm6z","school":"Laurel Elementary","address":"13246 St Road 121","geo_precision":"range","state":"IN"},"type":"Feature","geometry":{"type":"Point","coordinates":[-85.196783,39.482948]}},{"properties":{"city":"Brookville","geo_score":0.585,"zip code":"47012","id":"ac8f7ti507mn","school":"Brookville Middle School","address":"9092 Wildcat Lane","geo_precision":"zip","state":"IN"},"type":"Feature","geometry":{"type":"Point","coordinates":[-85.031626,39.321719]}},{"properties":{"city":"Carmel","geo_score":0.84,"zip code":"46032","id":"ac8f7tijbf9r","school":"Carmel Elementary School","address":"101 4th Avenue","geo_precision":"range","state":"IN"},"type":"Feature","geometry":{"type":"Point","coordinates":[-86.122547,39.979295]}},{"properties":{"city":"Carmel","geo_score":0.986,"zip code":"46033","id":"ac8f7tjzvsht","school":"Forest Dale Elementary","address":"10721 Lakeshore Drive West","geo_precision":"range","state":"IN"},"type":"Feature","geometry":{"type":"Point","coordinates":[-86.111385,39.944017]}},{"properties":{"city":"Indianapolis","geo_score":0.966,"zip code":"46280","id":"ac8f7t5bkozf","school":"Orchard Park","address":"10404 Orchard Park Drive","geo_precision":"range","state":"IN"},"type":"Feature","geometry":{"type":"Point","coordinates":[-86.129922,39.93861]}},{"properties":{"city":"Fishers","geo_score":0.808,"zip code":"46037","id":"ac8f7tdwntlo","school":"Hoosier Road Elementary","address":"11300 East 121st Street","geo_precision":"street","state":"IN"},"type":"Feature","geometry":{"type":"Point","coordinates":[-85.969985,39.964603]}},{"properties":{"city":"Fishers","geo_score":1.0,"zip code":"46038","id":"ac8f7tb4dbfa","school":"New Britton Elementary","address":"8660 East 131st Street","geo_precision":"range","state":"IN"},"type":"Feature","geometry":{"type":"Point","coordinates":[-86.01752,39.97868]}},{"properties":{"city":"Sheridan","geo_score":1.0,"zip code":"46069","id":"ac8f7tbfzd0r","school":"Sheridan Elementary Middle Schools","address":"24795 Hinesley Road","geo_precision":"range","state":"IN"},"type":"Feature","geometry":{"type":"Point","coordinates":[-86.218384,40.153143]}},{"properties":{"city":"Westfield","geo_score":0.868,"zip code":"46074","id":"ac8f7th7xnni","school":"Monon Trail Elementary","address":"19400 Tomlinson Road","geo_precision":"range","state":"IN"},"type":"Feature","geometry":{"type":"Point","coordinates":[-86.137114,40.069397]}},{"properties":{"city":"Westfield","geo_score":0.795,"zip code":"46074","id":"ac8f7tbrau66","school":"Washington Woods Elementary","address":"17950 Grassy Branch Road","geo_precision":"street","state":"IN"},"type":"Feature","geometry":{"type":"Point","coordinates":[-86.109243,40.064941]}},{"properties":{"city":"Westfield","geo_score":0.805,"zip code":"46069","id":"ac8f7tlb75bj","school":"Carey Ridge Elementary","address":"16231 Carey Road","geo_precision":"range","state":"IN"},"type":"Feature","geometry":{"type":"Point","coordinates":[-86.108757,40.017998]}},{"properties":{"city":"Charlottesville","geo_score":1.0,"zip code":"46117","id":"ac8f7tdnon4j","school":"Eastern Hancock Elementary","address":"10450 E 250 N","geo_precision":"range","state":"IN"},"type":"Feature","geometry":{"type":"Point","coordinates":[-85.607872,39.822872]}},{"properties":{"city":"Greenfield","geo_score":0.991,"zip code":"46140","id":"ac8f7thqhuyz","school":"Eden Elementary","address":"8185 N State Road 9","geo_precision":"range","state":"IN"},"type":"Feature","geometry":{"type":"Point","coordinates":[-85.770649,39.903763]}},{"properties":{"city":"Greenfield","geo_score":0.874,"zip code":"46140","id":"ac8f7tgc5tsq","school":"Greenfield Intermediate School","address":"204 W Park","geo_precision":"range","state":"IN"},"type":"Feature","geometry":{"type":"Point","coordinates":[-85.771903,39.792248]}},{"properties":{"city":"Maxwell","geo_score":0.924,"zip code":"46140","id":"ac8f7t75gosq","school":"Maxwell Intermediate","address":"102 N Main Street","geo_precision":"range","state":"IN"},"type":"Feature","geometry":{"type":"Point","coordinates":[-85.770066,39.857838]}},{"properties":{"city":"Greenfield","geo_score":0.866,"zip code":"46140","id":"ac8f7td5ah32","school":"Weston Elementary","address":"140 Polk","geo_precision":"range","state":"IN"},"type":"Feature","geometry":{"type":"Point","coordinates":[-85.786631,39.787328]}},{"properties":{"city":"Greenfield","geo_score":0.601,"zip code":"46140","id":"ac8f7t5y62kk","school":"Harris Elementary","address":"200 W. Park Avenue","geo_precision":"street","state":"IN"},"type":"Feature","geometry":{"type":"Point","coordinates":[-85.774102,39.792127]}},{"properties":{"city":"Greenfield","geo_score":0.991,"zip code":"46140","id":"ac8f7te1tl9b","school":"JB Stephens Elementary","address":"1331 N Blue Road","geo_precision":"range","state":"IN"},"type":"Feature","geometry":{"type":"Point","coordinates":[-85.746283,39.805864]}},{"properties":{"city":"Fortville","geo_score":0.99,"zip code":"46040","id":"ac8f7tk0clql","school":"Fortville Elementary School","address":"8414 North 200 West","geo_precision":"range","state":"In"},"type":"Feature","geometry":{"type":"Point","coordinates":[-85.843335,39.906121]}},{"properties":{"city":"Avon","geo_score":0.61,"zip code":"46112","id":"ac8f7t9tl557","school":"River Birch Elementary","address":"5456 E CR 75 N","geo_precision":"range","state":"IN"},"type":"Feature","geometry":{"type":"Point","coordinates":[-86.428894,39.772306]}},{"properties":{"city":"Avon","geo_score":0.939,"zip code":"46123","id":"ac8f7t6u5uyz","school":"Cedar Elementary","address":"685 South State Road 267","geo_precision":"range","state":"IN"},"type":"Feature","geometry":{"type":"Point","coordinates":[-86.39904,39.718511]}},{"properties":{"city":"Brownsburg","geo_score":0.585,"zip code":"46112","id":"ac8f7tdhtyzp","school":"Reagan Elementary","address":"4845 Bulldog Way","geo_precision":"zip","state":"IN"},"type":"Feature","geometry":{"type":"Point","coordinates":[-86.338328,39.926986]}},{"properties":{"city":"Brownsburg","geo_score":0.625,"zip code":"46112","id":"ac8f7tjjeet0","school":"White Lick Elementary","address":"1400 S. Odell Street","geo_precision":"street","state":"IN"},"type":"Feature","geometry":{"type":"Point","coordinates":[-86.386845,39.844232]}},{"properties":{"city":"Brownsburg","geo_score":1.0,"zip code":"46112","id":"ac8f7tkze1h0","school":"Delaware Trail Elementary","address":"3680 Hornaday Road","geo_precision":"range","state":"IN"},"type":"Feature","geometry":{"type":"Point","coordinates":[-86.382153,39.820547]}},{"properties":{"city":"Brownsburg","geo_score":1.0,"zip code":"46112","id":"ac8f7tawxrcz","school":"Brown Elementary","address":"340 Stadium Drive","geo_precision":"range","state":"IN"},"type":"Feature","geometry":{"type":"Point","coordinates":[-86.389082,39.838262]}},{"properties":{"city":"Brownsburg","geo_score":1.0,"zip code":"46112","id":"ac8f7tcyqnq5","school":"Cardinal Elementary","address":"3590 Hornaday Road","geo_precision":"range","state":"IN"},"type":"Feature","geometry":{"type":"Point","coordinates":[-86.382163,39.82111]}},{"properties":{"city":"Plainfield","geo_score":1.0,"zip code":"46168","id":"ac8f7tkbuatk","school":"Van Buren Elementary","address":"225 Shaw Street","geo_precision":"range","state":"IN"},"type":"Feature","geometry":{"type":"Point","coordinates":[-86.395958,39.70352]}},{"properties":{"city":"Plainfield","geo_score":1.0,"zip code":"46168","id":"ac8f7tj85jtc","school":"Clarks Creek","address":"401 Elm Drive","geo_precision":"range","state":"IN"},"type":"Feature","geometry":{"type":"Point","coordinates":[-86.377215,39.702898]}},{"properties":{"city":"Plainfield","geo_score":0.951,"zip code":"46168","id":"ac8f7th0cv69","school":"Brentwood Elementary","address":"1630 Oliver Avenue","geo_precision":"range","state":"IN"},"type":"Feature","geometry":{"type":"Point","coordinates":[-86.380874,39.702899]}},{"properties":{"city":"Plainfield","geo_score":1.0,"zip code":"46168","id":"ac8f7tl6eezh","school":"Central Elementary","address":"110 Wabash Street","geo_precision":"range","state":"IN"},"type":"Feature","geometry":{"type":"Point","coordinates":[-86.397905,39.704214]}},{"properties":{"city":"Brownsburg","geo_score":0.878,"zip code":"46112","id":"ac8f7tbmodoy","school":"Eagle Elementary","address":"555 Sycamore Street","geo_precision":"range","state":"IN"},"type":"Feature","geometry":{"type":"Point","coordinates":[-86.387098,39.828585]}},{"properties":{"city":"Brownstown","geo_score":0.991,"zip code":"47220","id":"ac8f7tj5kdfv","school":"Brownstown Middle School","address":"520 W Walnut Street","geo_precision":"range","state":"IN"},"type":"Feature","geometry":{"type":"Point","coordinates":[-86.047319,38.880975]}},{"properties":{"city":"Brownstown","geo_score":0.991,"zip code":"47220","id":"ac8f7t74avdr","school":"Brownstown Elementary School","address":"612 S Base Road","geo_precision":"range","state":"IN"},"type":"Feature","geometry":{"type":"Point","coordinates":[-86.038256,38.866164]}},{"properties":{"city":"Crothersville","geo_score":1.0,"zip code":"47229","id":"ac8f7t5setbf","school":"Crothersville Elementary","address":"109 S Preston Street","geo_precision":"range","state":"IN"},"type":"Feature","geometry":{"type":"Point","coordinates":[-85.836912,38.797103]}},{"properties":{"city":"Medora","geo_score":1.0,"zip code":"47260","id":"ac8f7tgctvq1","school":"Medora Elementary","address":"82 S George Street","geo_precision":"range","state":"IN"},"type":"Feature","geometry":{"type":"Point","coordinates":[-86.171584,38.823995]}},{"properties":{"city":"Seymour","geo_score":0.988,"zip code":"47274","id":"ac8f7thbz4r3","school":"Redding Elementary","address":"1700 North Ewing Street","geo_precision":"range","state":"IN"},"type":"Feature","geometry":{"type":"Point","coordinates":[-85.890523,38.974986]}},{"properties":{"city":"Seymour","geo_score":1.0,"zip code":"47274","id":"ac8f7td6h59v","school":"Margaret R. Brown Elementary","address":"550 Miller Lane","geo_precision":"range","state":"IN"},"type":"Feature","geometry":{"type":"Point","coordinates":[-85.874399,38.955607]}},{"properties":{"city":"Madison","geo_score":0.619,"zip code":"47250","id":"ac8f7temj5my","school":"Lydia Middleton Elementary","address":"714 W. Main Street","geo_precision":"street","state":"IN"},"type":"Feature","geometry":{"type":"Point","coordinates":[-85.380541,38.736307]}},{"properties":{"city":"Madison","geo_score":0.984,"zip code":"47250","id":"ac8f7t6wv8rr","school":"Rykers Ridge Elementary","address":"2485 North Rykers' Ridge Road","geo_precision":"range","state":"IN"},"type":"Feature","geometry":{"type":"Point","coordinates":[-85.334312,38.772647]}},{"properties":{"city":"Deputy","geo_score":0.955,"zip code":"47230","id":"ac8f7tgv2h9q","school":"Deputy Elementary","address":"14350 West Mulberry Street","geo_precision":"range","state":"IN"},"type":"Feature","geometry":{"type":"Point","coordinates":[-85.651876,38.79584]}},{"properties":{"city":"Madison","geo_score":1.0,"zip code":"47250","id":"ac8f7taelh7d","school":"E. O. Muncie Elementary","address":"800 Lanier Drive","geo_precision":"range","state":"IN"},"type":"Feature","geometry":{"type":"Point","coordinates":[-85.405926,38.76242]}},{"properties":{"city":"Hanover","geo_score":1.0,"zip code":"47243","id":"ac8f7te0jacq","school":"Southwestern Elementary","address":"273 S Main Cross Street","geo_precision":"range","state":"IN"},"type":"Feature","geometry":{"type":"Point","coordinates":[-85.473869,38.711592]}},{"properties":{"city":"Commiskey","geo_score":1.0,"zip code":"47227","id":"ac8f7thdd5uj","school":"Graham Creek Elementary","address":"7910 S Co Road 90 West","geo_precision":"range","state":"IN"},"type":"Feature","geometry":{"type":"Point","coordinates":[-85.627563,38.871353]}},{"properties":{"city":"Scipio","geo_score":0.854,"zip code":"47273","id":"ac8f7te6mpv3","school":"Scipio Elementary","address":"6320 North State Street Highway 7","geo_precision":"range","state":"IN"},"type":"Feature","geometry":{"type":"Point","coordinates":[-85.710737,39.074167]}},{"properties":{"city":"North Vernon","geo_score":0.585,"zip code":"47265","id":"ac8f7th5tskj","school":"Brush Creek Elementary","address":"4275 E U.S. 50","geo_precision":"zip","state":"IN"},"type":"Feature","geometry":{"type":"Point","coordinates":[-85.677194,39.051164]}},{"properties":{"city":"Hayden","geo_score":0.737,"zip code":"47245","id":"ac8f7ti3cljd","school":"Hayden Elementary","address":"55 S CR 685 W","geo_precision":"range","state":"IN"},"type":"Feature","geometry":{"type":"Point","coordinates":[-85.738223,38.982306]}},{"properties":{"city":"North Vernon","geo_score":1.0,"zip code":"47265","id":"ac8f7t7bgd2p","school":"Sand Creek Elementary","address":"1450 W Co Road 500 North","geo_precision":"range","state":"IN"},"type":"Feature","geometry":{"type":"Point","coordinates":[-85.638566,39.058574]}},{"properties":{"city":"North Vernon","geo_score":0.992,"zip code":"47265","id":"ac8f7tkzw804","school":"North Vernon Elementary","address":"810 W Walnut Street","geo_precision":"range","state":"IN"},"type":"Feature","geometry":{"type":"Point","coordinates":[-85.642707,39.000628]}},{"properties":{"city":"New Whiteland","geo_score":0.829,"zip code":"46184","id":"ac8f7ti47cwj","school":"Sawmill Woods Elementary","address":"700 Sawmill Road","geo_precision":"range","state":"IN"},"type":"Feature","geometry":{"type":"Point","coordinates":[-86.10168,39.55667]}},{"properties":{"city":"New Whiteland","geo_score":0.951,"zip code":"46184","id":"ac8f7tewjsb8","school":"Break-O-Day Elementary","address":"900 Sawmill Road","geo_precision":"range","state":"IN"},"type":"Feature","geometry":{"type":"Point","coordinates":[-86.101544,39.536045]}},{"properties":{"city":"Franklin","geo_score":1.0,"zip code":"46131","id":"ac8f7tkozrjc","school":"Northwood Elementary","address":"965  Grizzly Cub Drive","geo_precision":"range","state":"IN"},"type":"Feature","geometry":{"type":"Point","coordinates":[-86.063836,39.489056]}},{"properties":{"city":"Franklin","geo_score":1.0,"zip code":"46131","id":"ac8f7tlrjc1g","school":"Needham Elementary","address":"1399 Upper Shelbyville Road","geo_precision":"range","state":"IN"},"type":"Feature","geometry":{"type":"Point","coordinates":[-86.038973,39.490309]}},{"properties":{"city":"Franklin","geo_score":0.865,"zip code":"46131","id":"ac8f7t8nlnf8","school":"Custer Baker Intermediate Academy","address":"101 W SR 44","geo_precision":"range","state":"IN"},"type":"Feature","geometry":{"type":"Point","coordinates":[-86.103124,39.470815]}},{"properties":{"city":"Bargersville","geo_score":0.604,"zip code":"46106","id":"ac8f7ti4pid0","school":"Union Elementary","address":"3990 W. Division Road","geo_precision":"street","state":"IN"},"type":"Feature","geometry":{"type":"Point","coordinates":[-86.1579,39.47625]}},{"properties":{"city":"Franklin","geo_score":1.0,"zip code":"46131","id":"ac8f7t5gfbe3","school":"Webb Elementary","address":"1400 Webb Court","geo_precision":"range","state":"IN"},"type":"Feature","geometry":{"type":"Point","coordinates":[-86.03419,39.486149]}},{"properties":{"city":"Greenwood","geo_score":0.604,"zip code":"46143","id":"ac8f7t5isgrg","school":"Isom Elementary","address":"50 E. Broadway","geo_precision":"street","state":"IN"},"type":"Feature","geometry":{"type":"Point","coordinates":[-86.10632,39.6156]}},{"properties":{"city":"Greenwood","geo_score":1.0,"zip code":"46143","id":"ac8f7tf8bdld","school":"Northeast Elementary","address":"99 Crestview Drive","geo_precision":"range","state":"IN"},"type":"Feature","geometry":{"type":"Point","coordinates":[-86.098998,39.628999]}},{"properties":{"city":"Indianapolis","geo_score":0.935,"zip code":"46218","id":"ac8f7t936bfy","school":"Andrew Academy","address":"4050 East 38th Street","geo_precision":"range","state":"IN"},"type":"Feature","geometry":{"type":"Point","coordinates":[-86.099518,39.825448]}},{"properties":{"city":"Indianapolis","geo_score":0.932,"zip code":"46202","id":"ac8f7tada96q","school":"Holy Cross Central","address":"125 N Oriental","geo_precision":"range","state":"IN"},"type":"Feature","geometry":{"type":"Point","coordinates":[-86.135245,39.769419]}},{"properties":{"city":"Beech Grove","geo_score":0.864,"zip code":"46131","id":"ac8f7tbdp8zm","school":"Central Elementary","address":"1000 Main Street","geo_precision":"range","state":"IN"},"type":"Feature","geometry":{"type":"Point","coordinates":[-86.05971,39.490359]}},{"properties":{"city":"Beech Grove","geo_score":1.0,"zip code":"46107","id":"ac8f7tg1sbz4","school":"Hornet Park Elementary","address":"5249 Hornet Avenue","geo_precision":"range","state":"IN"},"type":"Feature","geometry":{"type":"Point","coordinates":[-86.077721,39.711163]}},{"properties":{"city":"Beech Grove","geo_score":0.935,"zip code":"46107","id":"ac8f7temo9ht","school":"South Grove Intermediate School","address":"851 S 9th Avenue","geo_precision":"range","state":"IN"},"type":"Feature","geometry":{"type":"Point","coordinates":[-86.091942,39.707685]}},{"properties":{"city":"Indianapolis","geo_score":0.878,"zip code":"46221","id":"ac8f7t8hlm48","school":"DELC Gold Academy","address":"5650 Mann Road","geo_precision":"range","state":"IN"},"type":"Feature","geometry":{"type":"Point","coordinates":[-86.24595,39.682103]}},{"properties":{"city":"Indianapolis","geo_score":0.878,"zip code":"46221","id":"ac8f7tk3p961","school":"DELC Blue Academy","address":"5650 Mann Road","geo_precision":"range","state":"IN"},"type":"Feature","geometry":{"type":"Point","coordinates":[-86.24595,39.682103]}},{"properties":{"city":"West Newton","geo_score":0.992,"zip code":"46183","id":"ac8f7td5rkzn","school":"West Newton Elementary","address":"7529 Mooresville Road","geo_precision":"range","state":"IN"},"type":"Feature","geometry":{"type":"Point","coordinates":[-86.282228,39.652765]}},{"properties":{"city":"Indianapolis","geo_score":1.0,"zip code":"46237","id":"ac8f7te9nwvp","school":"Arlington Elementary","address":"5814 South Arlington Avenue","geo_precision":"range","state":"IN"},"type":"Feature","geometry":{"type":"Point","coordinates":[-86.063605,39.683039]}},{"properties":{"city":"Indianapolis","geo_score":1.0,"zip code":"46239","id":"ac8f7tjk7b1g","school":"Thompson Crossing Elementary","address":"7525 E Thompson Road","geo_precision":"range","state":"IN"},"type":"Feature","geometry":{"type":"Point","coordinates":[-86.032132,39.695621]}},{"properties":{"city":"Indianapolis","geo_score":0.966,"zip code":"46259","id":"ac8f7td9mel6","school":"Kitley Elementary","address":"8735 Indian Creek Road","geo_precision":"range","state":"IN"},"type":"Feature","geometry":{"type":"Point","coordinates":[-86.001844,39.674403]}},{"properties":{"city":"Indianapolis","geo_score":0.585,"zip code":"46235","id":"ac8f7tjncgon","school":"Imagine Indiana Life Sciences Academy East","address":"4352 North Mitthoefer Road","geo_precision":"zip","state":"IN"},"type":"Feature","geometry":{"type":"Point","coordinates":[-85.974081,39.84709]}},{"properties":{"city":"Indianpolis","geo_score":0.992,"zip code":"46240","id":"ac8f7tja43b2","school":"Indiana Math and Science Academy North","address":"7435 North Keystone Avenue","geo_precision":"range","state":"IN"},"type":"Feature","geometry":{"type":"Point","coordinates":[-86.121878,39.890202]}},{"properties":{"city":"Indianapolis","geo_score":1.0,"zip code":"46219","id":"ac8f7t5a7jdi","school":"IPS Roots","address":"1525 North Ritter Avenue","geo_precision":"range","state":"IN"},"type":"Feature","geometry":{"type":"Point","coordinates":[-86.073713,39.786148]}},{"properties":{"city":"Indianapolis","geo_score":1.0,"zip code":"46205","id":"ac8f7tk1r8en","school":"IPS # 48 Louis B. Russell Jr. Elementary","address":"3445 Central Avenue","geo_precision":"range","state":"IN"},"type":"Feature","geometry":{"type":"Point","coordinates":[-86.149634,39.819033]}},{"properties":{"city":"Indianapolis","geo_score":1.0,"zip code":"46222","id":"ac8f7tio26ze","school":"IPS # 63 Wendell Phillips","address":"1163 N Belmont Avenue","geo_precision":"range","state":"IN"},"type":"Feature","geometry":{"type":"Point","coordinates":[-86.196746,39.78591]}},{"properties":{"city":"Indianapolis","geo_score":0.894,"zip code":"46218","id":"ac8f7thnpm3m","school":"IPS # 58 Ralph Waldo Emerson Elementary","address":"2107 N Riley","geo_precision":"range","state":"IN"},"type":"Feature","geometry":{"type":"Point","coordinates":[-86.085669,39.798772]}},{"properties":{"city":"Indianapolis","geo_score":0.947,"zip code":"46227","id":"ac8f7tasgq32","school":"IPS # 65 Raymond Brandes","address":"4065 S Asbury Street","geo_precision":"range","state":"IN"},"type":"Feature","geometry":{"type":"Point","coordinates":[-86.128154,39.705155]}},{"properties":{"city":"Indianapolis","geo_score":0.934,"zip code":"46235","id":"ac8f7t9qfxy9","school":"IPS # 103 Francis Scott Key Elementary","address":"3920 N Baker Drive","geo_precision":"range","state":"IN"},"type":"Feature","geometry":{"type":"Point","coordinates":[-86.000667,39.828545]}},{"properties":{"city":"Indianapolis","geo_score":0.935,"zip code":"46226","id":"ac8f7t73qo6w","school":"IPS # 93 George H. Fisher Elementary","address":"7151 E 35th Street","geo_precision":"range","state":"IN"},"type":"Feature","geometry":{"type":"Point","coordinates":[-86.040187,39.820153]}},{"properties":{"city":"Indianapolis","geo_score":0.585,"zip code":"46226","id":"ac8f7teimlsz","school":"IPS # 106 Robert Lee Frost","address":"53010 Roxburry Road","geo_precision":"zip","state":"IN"},"type":"Feature","geometry":{"type":"Point","coordinates":[-86.063874,39.857818]}},{"properties":{"city":"Indianapolis","geo_score":1.0,"zip code":"46205","id":"ac8f7tl7ohso","school":"IPS # 56 Francis W. Parker","address":"2353 Columbia Avenue","geo_precision":"range","state":"IN"},"type":"Feature","geometry":{"type":"Point","coordinates":[-86.136775,39.800397]}},{"properties":{"city":"Indianapolis","geo_score":0.935,"zip code":"46226","id":"ac8f7tj3ubtg","school":"IPS # 83 Floro Torrence Elementary","address":"5050 East 42nd Street","geo_precision":"range","state":"IN"},"type":"Feature","geometry":{"type":"Point","coordinates":[-86.086203,39.833022]}},{"properties":{"city":"Indinapolis","geo_score":0.927,"zip code":"46218","id":"ac8f7ti1nofe","school":"IPS # 88 Anna Brochhausen Elementary","address":"5801 E 16th Street","geo_precision":"range","state":"IN"},"type":"Feature","geometry":{"type":"Point","coordinates":[-86.067876,39.788944]}},{"properties":{"city":"Indianapolis","geo_score":0.607,"zip code":"46218","id":"ac8f7tax7ba5","school":"IPS # 69 Joyce Kilmer Academy","address":"3421 N. Keystone Avenue","geo_precision":"street","state":"IN"},"type":"Feature","geometry":{"type":"Point","coordinates":[-86.118598,39.800619]}},{"properties":{"city":"Indianapolis","geo_score":0.875,"zip code":"46224","id":"ac8f7t7xbx14","school":"IPS # 96 Meradith Nicholson","address":"3651 N Kiel","geo_precision":"range","state":"IN"},"type":"Feature","geometry":{"type":"Point","coordinates":[-86.262856,39.822282]}},{"properties":{"city":"Indianapolis","geo_score":1.0,"zip code":"46221","id":"ac8f7tfzi56s","school":"IPS # 46 Daniel Webster Elementary","address":"1450 S Reisner Street","geo_precision":"range","state":"IN"},"type":"Feature","geometry":{"type":"Point","coordinates":[-86.189632,39.746642]}},{"properties":{"city":"Indianapolis","geo_score":1.0,"zip code":"46222","id":"ac8f7t7u03q8","school":"IPS # 67 Stephen Collins Foster","address":"653 north Somerset Avenue","geo_precision":"range","state":"IN"},"type":"Feature","geometry":{"type":"Point","coordinates":[-86.221739,39.775953]}},{"properties":{"city":"Indianapolis","geo_score":0.875,"zip code":"46203","id":"ac8f7taabvg1","school":"IPS # 34 Eleanor Skillen Elementary","address":"1410 Wade","geo_precision":"range","state":"IN"},"type":"Feature","geometry":{"type":"Point","coordinates":[-86.13605,39.735184]}},{"properties":{"city":"Indianapolis","geo_score":1.0,"zip code":"46226","id":"ac8f7tcvd6kt","school":"IPS # 105 Charles W. Fairbanks Elementary","address":"8620 Montery Road","geo_precision":"range","state":"IN"},"type":"Feature","geometry":{"type":"Point","coordinates":[-86.015986,39.830465]}},{"properties":{"city":"Indianapolis","geo_score":1.0,"zip code":"46201","id":"ac8f7tdmy8hl","school":"IPS # 82 Christian Park Elementary","address":"4700 English Avenue","geo_precision":"range","state":"IN"},"type":"Feature","geometry":{"type":"Point","coordinates":[-86.088903,39.760242]}},{"properties":{"city":"Indianapolis","geo_score":0.935,"zip code":"46208","id":"ac8f7tf2h6j5","school":"IPS #42 Elder Diggs","address":"1002 W 25th Street","geo_precision":"range","state":"IN"},"type":"Feature","geometry":{"type":"Point","coordinates":[-86.180034,39.802885]}},{"properties":{"city":"Indianapolis","geo_score":1.0,"zip code":"46203","id":"ac8f7thknrgp","school":"IPS# 19 Frederick Douglass","address":"2020 Dawson Street","geo_precision":"range","state":"IN"},"type":"Feature","geometry":{"type":"Point","coordinates":[-86.12829,39.739123]}},{"properties":{"city":"Indianapolis","geo_score":0.935,"zip code":"46201","id":"ac8f7teb5eya","school":"IPS # 54 Brookside Elementary","address":"3150 East 10th Street","geo_precision":"range","state":"IN"},"type":"Feature","geometry":{"type":"Point","coordinates":[-86.111337,39.781438]}},{"properties":{"city":"Indianapolis","geo_score":0.935,"zip code":"46208","id":"ac8f7th9rmyr","school":"IPS # 43 James Whitcomb Riley","address":"150 W 40th Street","geo_precision":"range","state":"IN"},"type":"Feature","geometry":{"type":"Point","coordinates":[-86.161182,39.828393]}},{"properties":{"city":"Indianapolis","geo_score":0.619,"zip code":"46224","id":"ac8f7tk6itq2","school":"IPS # 79 Carl Wilde","address":"5002 W. 34th Street","geo_precision":"street","state":"IN"},"type":"Feature","geometry":{"type":"Point","coordinates":[-86.239964,39.816665]}},{"properties":{"city":"Indianapolis","geo_score":1.0,"zip code":"46218","id":"ac8f7tf3s97z","school":"IPS # 51 James Russell Lowell","address":"3426 Roosevelt Avenue","geo_precision":"range","state":"IN"},"type":"Feature","geometry":{"type":"Point","coordinates":[-86.108353,39.79931]}},{"properties":{"city":"Indianapolis","geo_score":0.619,"zip code":"46218","id":"ac8f7t9i30c6","school":"IPS # 99 Arlington Woods Elementary","address":"5801 E. 30th St","geo_precision":"street","state":"IN"},"type":"Feature","geometry":{"type":"Point","coordinates":[-86.135618,39.810694]}},{"properties":{"city":"Indianapolis","geo_score":1.0,"zip code":"46202","id":"ac8f7tbnepxm","school":"IPS # 14 Washington Irving Elementary School","address":"1250 E Market Street","geo_precision":"range","state":"IN"},"type":"Feature","geometry":{"type":"Point","coordinates":[-86.136567,39.768155]}},{"properties":{"city":"Indianapolis","geo_score":0.806,"zip code":"46203","id":"ac8f7tgve305","school":"IPS # 31 James A. Garfield","address":"307 Lincoln Street","geo_precision":"street","state":"IN"},"type":"Feature","geometry":{"type":"Point","coordinates":[-86.143755,39.745672]}},{"properties":{"city":"Indianapolis","geo_score":0.947,"zip code":"46219","id":"ac8f7t808yd2","school":"IPS# 94 George Buck Elementary","address":"2701 Devon Avenue","geo_precision":"range","state":"IN"},"type":"Feature","geometry":{"type":"Point","coordinates":[-86.022877,39.807863]}},{"properties":{"city":"Indianapolis","geo_score":1.0,"zip code":"46203","id":"ac8f7tf4nfkm","school":"IPS # 39 William McKinley","address":"1733 Spann Avenue","geo_precision":"range","state":"IN"},"type":"Feature","geometry":{"type":"Point","coordinates":[-86.128663,39.758759]}},{"properties":{"city":"Indianapoli","geo_score":0.992,"zip code":"46203","id":"ac8f7tlpwlp9","school":"IPS # 114 Paul I Miller Elementary","address":"2251 Sloan Avenue","geo_precision":"range","state":"IN"},"type":"Feature","geometry":{"type":"Point","coordinates":[-86.087356,39.734895]}},{"properties":{"city":"Indianapolis","geo_score":0.935,"zip code":"46205","id":"ac8f7tiu23yd","school":"Indiana School for the Deaf","address":"1200 East 42nd Street","geo_precision":"range","state":"IN"},"type":"Feature","geometry":{"type":"Point","coordinates":[-86.131767,39.832886]}},{"properties":{"city":"Indianapolis","geo_score":0.935,"zip code":"46256","id":"ac8f7thvpsxt","school":"Mary Castle Elementary","address":"8502 East 82nd Street","geo_precision":"range","state":"IN"},"type":"Feature","geometry":{"type":"Point","coordinates":[-86.017113,39.905483]}},{"properties":{"city":"Indianapolis","geo_score":0.935,"zip code":"46256","id":"ac8f7tdm8mad","school":"Crestview Elementary","address":"7600 East 71st Street","geo_precision":"range","state":"In"},"type":"Feature","geometry":{"type":"Point","coordinates":[-86.037948,39.883522]}},{"properties":{"city":"Indianapolis","geo_score":0.935,"zip code":"46235","id":"ac8f7tk0vfyw","school":"Winding Ridge Elementary","address":"11825 East 46th Street","geo_precision":"range","state":"IN"},"type":"Feature","geometry":{"type":"Point","coordinates":[-85.957471,39.841293]}},{"properties":{"city":"Indianapolis","geo_score":0.935,"zip code":"46226","id":"ac8f7t9l898n","school":"Harrison Hill Elementary","address":"7510 East 53rd St","geo_precision":"range","state":"IN"},"type":"Feature","geometry":{"type":"Point","coordinates":[-86.035419,39.850024]}},{"properties":{"city":"Indianapolis","geo_score":0.805,"zip code":"46226","id":"ac8f7t5ee9yb","school":"Sunnyside Elementary","address":"6345 Sunnyside Road","geo_precision":"range","state":"IN"},"type":"Feature","geometry":{"type":"Point","coordinates":[-85.973199,39.880463]}},{"properties":{"city":"Indianapolis","geo_score":0.941,"zip code":"46226","id":"ac8f7t93s7hp","school":"Brook Park Elementary","address":"5259 North David Street","geo_precision":"range","state":"IN"},"type":"Feature","geometry":{"type":"Point","coordinates":[-86.050273,39.850913]}},{"properties":{"city":"Indianapolis","geo_score":0.675,"zip code":"46227","id":"ac8f7tfu1ruz","school":"Jeremiah Gray-Edison","address":"5225 Gray Road","geo_precision":"street","state":"IN"},"type":"Feature","geometry":{"type":"Point","coordinates":[-86.108093,39.699678]}},{"properties":{"city":"Indianapolis","geo_score":0.878,"zip code":"46237","id":"ac8f7tgv6pyv","school":"Mary Bryan Elementary","address":"4355 E Stop 11 Road","geo_precision":"range","state":"IN"},"type":"Feature","geometry":{"type":"Point","coordinates":[-86.090387,39.650957]}},{"properties":{"city":"Indianapolis","geo_score":1.0,"zip code":"46227","id":"ac8f7tikbtlr","school":"Southport 6th Grade Academy","address":"5715 South Keystone Avenue","geo_precision":"range","state":"IN"},"type":"Feature","geometry":{"type":"Point","coordinates":[-86.120469,39.683156]}},{"properties":{"city":"Indianapolis","geo_score":0.977,"zip code":"46227","id":"ac8f7t8te77c","school":"Clinton Young Elementary","address":"5740 McFarland Road","geo_precision":"range","state":"IN"},"type":"Feature","geometry":{"type":"Point","coordinates":[-86.111108,39.685258]}},{"properties":{"city":"Indianapolis","geo_score":0.955,"zip code":"46227","id":"ac8f7thday0h","school":"Southport Elementary","address":"261 E Anniston Drive","geo_precision":"range","state":"IN"},"type":"Feature","geometry":{"type":"Point","coordinates":[-86.116367,39.659823]}},{"properties":{"city":"Indianapolis","geo_score":1.0,"zip code":"46227","id":"ac8f7tedfnzk","school":"Winchester Village Elementary","address":"1900 E Stop 12 Road","geo_precision":"range","state":"IN"},"type":"Feature","geometry":{"type":"Point","coordinates":[-86.127786,39.642947]}},{"properties":{"city":"Indianapolis","geo_score":1.0,"zip code":"46217","id":"ac8f7t6efqfb","school":"Abraham Lincoln Elementary","address":"5241 Brehob Road","geo_precision":"range","state":"IN"},"type":"Feature","geometry":{"type":"Point","coordinates":[-86.166272,39.692457]}},{"properties":{"city":"Indianapolis","geo_score":1.0,"zip code":"46227","id":"ac8f7tcxgvj3","school":"Homecroft Elementary","address":"1551 Southview Drive","geo_precision":"range","state":"IN"},"type":"Feature","geometry":{"type":"Point","coordinates":[-86.131862,39.668505]}},{"properties":{"city":"Indianapolis","geo_score":0.935,"zip code":"46278","id":"ac8f7taymr1t","school":"Fishback Creek Public Academy","address":"8301 West 86th Street","geo_precision":"range","state":"IN"},"type":"Feature","geometry":{"type":"Point","coordinates":[-86.309566,39.909721]}},{"properties":{"city":"Indianapolis","geo_score":0.585,"zip code":"46268","id":"ac8f7tag49kp","school":"New Augusta South","address":"6250 Rodebaugh Road","geo_precision":"zip","state":"IN"},"type":"Feature","geometry":{"type":"Point","coordinates":[-86.238602,39.883375]}},{"properties":{"city":"Indianapolis","geo_score":0.935,"zip code":"46254","id":"ac8f7t67pn7z","school":"Eagle Creek Elementary","address":"6905 West 46th Street","geo_precision":"range","state":"IN"},"type":"Feature","geometry":{"type":"Point","coordinates":[-86.282928,39.837904]}},{"properties":{"city":"Indianapolis","geo_score":1.0,"zip code":"46268","id":"ac8f7tgs29qf","school":"Central Elementary","address":"7001 Zionsville Road","geo_precision":"range","state":"IN"},"type":"Feature","geometry":{"type":"Point","coordinates":[-86.25977,39.880927]}},{"properties":{"city":"Indianapolis","geo_score":0.935,"zip code":"46254","id":"ac8f7th3ggg0","school":"Guion Creek Elementary","address":"4301 W 52nd Street","geo_precision":"range","state":"IN"},"type":"Feature","geometry":{"type":"Point","coordinates":[-86.232365,39.8459]}},{"properties":{"city":"Indianapolis","geo_score":0.979,"zip code":"46268","id":"ac8f7ta5yzho","school":"College Park Elementary","address":"7839 New Augusta Drive","geo_precision":"range","state":"IN"},"type":"Feature","geometry":{"type":"Point","coordinates":[-86.236391,39.895287]}},{"properties":{"city":"Indianapolis","geo_score":0.813,"zip code":"46254","id":"ac8f7tk68n35","school":"Snacks Crossing Elementary","address":"5455 W 56th Street","geo_precision":"range","state":"IN"},"type":"Feature","geometry":{"type":"Point","coordinates":[-86.261573,39.853064]}},{"properties":{"city":"Indianapolis","geo_score":0.585,"zip code":"46254","id":"ac8f7tgs9if9","school":"Deer Run Elementary","address":"5401 North Highschool Road","geo_precision":"zip","state":"IN"},"type":"Feature","geometry":{"type":"Point","coordinates":[-86.25638,39.845875]}},{"properties":{"city":"Indianapolis","geo_score":1.0,"zip code":"46268","id":"ac8f7tgb9ryy","school":"Eastbrook Elementary","address":"7625 New Augusta Road","geo_precision":"range","state":"IN"},"type":"Feature","geometry":{"type":"Point","coordinates":[-86.236391,39.894551]}},{"properties":{"city":"Indianapolis","geo_score":1.0,"zip code":"46203","id":"ac8f7t5fcudt","school":"Emmaus Lutheran School","address":"1224 Laurel Street","geo_precision":"range","state":"IN"},"type":"Feature","geometry":{"type":"Point","coordinates":[-86.135408,39.751418]}},{"properties":{"city":"Indianapolis","geo_score":0.935,"zip code":"46208","id":"ac8f7t7ddp9d","school":"Holy Angels Catholic","address":"740 W 28th Street","geo_precision":"range","state":"IN"},"type":"Feature","geometry":{"type":"Point","coordinates":[-86.172952,39.806536]}},{"properties":{"city":"Indianapolis","geo_score":0.902,"zip code":"46225","id":"ac8f7t7y21hv","school":"Christel House Academy","address":"2717 South East Street","geo_precision":"range","state":"IN"},"type":"Feature","geometry":{"type":"Point","coordinates":[-86.149105,39.724678]}},{"properties":{"city":"Indianapolis","geo_score":1.0,"zip code":"46222","id":"ac8f7t5k4cy2","school":"Padua Academy","address":"349 N Warman Avenue","geo_precision":"range","state":"IN"},"type":"Feature","geometry":{"type":"Point","coordinates":[-86.206487,39.771448]}},{"properties":{"city":"Indianapolis","geo_score":0.947,"zip code":"46203","id":"ac8f7t8xvfsr","school":"Sense Charter School","address":"1601 S Barth Avenue","geo_precision":"range","state":"IN"},"type":"Feature","geometry":{"type":"Point","coordinates":[-86.141105,39.744395]}},{"properties":{"city":"Indianapolis","geo_score":0.329,"zip code":"46239","id":"ac8f7t7osj0h","school":"Hawthorne Elementary","address":"8301 E. Rawles Avenue","geo_precision":"street","state":"IN"},"type":"Feature","geometry":{"type":"Point","coordinates":[-86.021043,39.762024]}},{"properties":{"city":"Indianapolis","geo_score":1.0,"zip code":"46239","id":"ac8f7tb1230l","school":"Grassy Creek Elementary","address":"10330 E Prospect Street","geo_precision":"range","state":"IN"},"type":"Feature","geometry":{"type":"Point","coordinates":[-85.981002,39.755318]}},{"properties":{"city":"Indianapolis","geo_score":1.0,"zip code":"46239","id":"ac8f7tct93lk","school":"Liberty Park Elementary","address":"8425 East Raymond Street","geo_precision":"range","state":"IN"},"type":"Feature","geometry":{"type":"Point","coordinates":[-86.011715,39.740093]}},{"properties":{"city":"Indianapolis","geo_score":0.805,"zip code":"46223","id":"ac8f7tbtcz5h","school":"Creston Intermediate Academy","address":"10925 East Prospect Street","geo_precision":"range","state":"IN"},"type":"Feature","geometry":{"type":"Point","coordinates":[-85.971646,39.755263]}},{"properties":{"city":"Indianapolis","geo_score":0.935,"zip code":"46229","id":"ac8f7ti9t6ej","school":"Eastridge Elementary","address":"10930 East 10th Street","geo_precision":"range","state":"IN"},"type":"Feature","geometry":{"type":"Point","coordinates":[-85.977566,39.782467]}},{"properties":{"city":"Indianapolis","geo_score":0.61,"zip code":"46126","id":"ac8f7t5w1rx3","school":"Raymond Park Intermediate School","address":"8575 East Raymond Street","geo_precision":"street","state":"IN"},"type":"Feature","geometry":{"type":"Point","coordinates":[-86.391204,39.701007]}},{"properties":{"city":"Indianapolis","geo_score":0.784,"zip code":"46229","id":"ac8f7taeddn1","school":"Sunny Heights Elementary","address":"1149 StonyBrook Drive","geo_precision":"street","state":"IN"},"type":"Feature","geometry":{"type":"Point","coordinates":[-85.968329,39.80777]}},{"properties":{"city":"Indianapolis","geo_score":0.947,"zip code":"46239","id":"ac8f7tgxhpxd","school":"Lowell Elementary","address":"2150 Hunter Road","geo_precision":"range","state":"IN"},"type":"Feature","geometry":{"type":"Point","coordinates":[-86.04965,39.742073]}},{"properties":{"city":"Indianapolis","geo_score":1.0,"zip code":"46219","id":"ac8f7tka8v4y","school":"Pleasant Run Elementary","address":"1800 N Franklin Road","geo_precision":"range","state":"IN"},"type":"Feature","geometry":{"type":"Point","coordinates":[-86.025274,39.793927]}},{"properties":{"city":"Indianapolis","geo_score":0.805,"zip code":"46239","id":"ac8f7t8mi9o5","school":"Brookview Elementary","address":"1550 N Cumberland Road","geo_precision":"range","state":"IN"},"type":"Feature","geometry":{"type":"Point","coordinates":[-85.957322,39.788056]}},{"properties":{"city":"Indianapolis","geo_score":0.935,"zip code":"46229","id":"ac8f7thbjqyu","school":"Lakeside Elementary","address":"9601 East 21st Street","geo_precision":"range","state":"In"},"type":"Feature","geometry":{"type":"Point","coordinates":[-85.995944,39.796853]}},{"properties":{"city":"Indianapolis","geo_score":0.979,"zip code":"46229","id":"ac8f7t7ccfy5","school":"Stonybrook Intermediate Academy","address":"11300 Stonybrook Drive","geo_precision":"range","state":"IN"},"type":"Feature","geometry":{"type":"Point","coordinates":[-85.967075,39.807843]}},{"properties":{"city":"Indianapolis","geo_score":0.607,"zip code":"46228","id":"ac8f7tan4vg0","school":"Crooked Creek Elementary","address":"2150 Kessler Blvd. West Drive","geo_precision":"street","state":"IN"},"type":"Feature","geometry":{"type":"Point","coordinates":[-86.199823,39.853728]}},{"properties":{"city":"Indianapolis","geo_score":1.0,"zip code":"46260","id":"ac8f7tdy42dt","school":"Springmill Elementary","address":"8250 Spring Mill Road","geo_precision":"range","state":"IN"},"type":"Feature","geometry":{"type":"Point","coordinates":[-86.165147,39.905658]}},{"properties":{"city":"Indianapolis","geo_score":0.935,"zip code":"46240","id":"ac8f7tfzzn3e","school":"Nora Elementary","address":"1000 E 91st St","geo_precision":"range","state":"IN"},"type":"Feature","geometry":{"type":"Point","coordinates":[-86.143547,39.919859]}},{"properties":{"city":"Indianapolis","geo_score":1.0,"zip code":"46231","id":"ac8f7tdyiy08","school":"Bridgeport","address":"9035 W Morris Street","geo_precision":"range","state":"IN"},"type":"Feature","geometry":{"type":"Point","coordinates":[-86.322464,39.749063]}},{"properties":{"city":"Indianapolis","geo_score":0.935,"zip code":"46234","id":"ac8f7teq8bd2","school":"Robey Elementary","address":"8700 W 30th Street","geo_precision":"range","state":"IN"},"type":"Feature","geometry":{"type":"Point","coordinates":[-86.31962,39.808122]}},{"properties":{"city":"Indianapolis","geo_score":1.0,"zip code":"46241","id":"ac8f7th7aj09","school":"McClelland","address":"6740 W Morris Street","geo_precision":"range","state":"IN"},"type":"Feature","geometry":{"type":"Point","coordinates":[-86.277379,39.74997]}},{"properties":{"city":"Indianapolis","geo_score":1.0,"zip code":"46214","id":"ac8f7t7z9i5z","school":"Westlake Elementary","address":"271 North Sigsbee Street","geo_precision":"range","state":"IN"},"type":"Feature","geometry":{"type":"Point","coordinates":[-86.277122,39.770147]}},{"properties":{"city":"Indianapolis","geo_score":0.951,"zip code":"46241","id":"ac8f7t75l25v","school":"Maplewood Elementary","address":"1643 S Dunlap Avenue","geo_precision":"range","state":"IN"},"type":"Feature","geometry":{"type":"Point","coordinates":[-86.244692,39.744177]}},{"properties":{"city":"Indianapolis","geo_score":1.0,"zip code":"46234","id":"ac8f7t5g2z7z","school":"Chapel Glen Elementary","address":"701 Lansdowne Road","geo_precision":"range","state":"IN"},"type":"Feature","geometry":{"type":"Point","coordinates":[-86.3166,39.773965]}},{"properties":{"city":"Indianapolis","geo_score":0.92,"zip code":"46241","id":"ac8f7tbqgii6","school":"Rhoades Elementary","address":"502 South Auburn","geo_precision":"range","state":"IN"},"type":"Feature","geometry":{"type":"Point","coordinates":[-86.243984,39.75847]}},{"properties":{"city":"Indianapolis","geo_score":1.0,"zip code":"46214","id":"ac8f7td47cfc","school":"Chapelwood Elementary","address":"1129 N Girls School Road","geo_precision":"range","state":"IN"},"type":"Feature","geometry":{"type":"Point","coordinates":[-86.288434,39.782013]}},{"properties":{"city":"Indianapolis","geo_score":0.585,"zip code":"46224","id":"ac8f7t7ve4om","school":"Garden City Elementary","address":"4901 Rockville Road","geo_precision":"zip","state":"IN"},"type":"Feature","geometry":{"type":"Point","coordinates":[-86.267213,39.802265]}},{"properties":{"city":"Indianapolis","geo_score":0.74,"zip code":"46241","id":"ac8f7t69zyhr","school":"North Wayne Elementary","address":"6950 W 34th Street","geo_precision":"range","state":"IN"},"type":"Feature","geometry":{"type":"Point","coordinates":[-86.282502,39.816074]}},{"properties":{"city":"Indianapolis","geo_score":0.958,"zip code":"46241","id":"ac8f7t6fy9oa","school":"Stout Field Elementary","address":"3820 Bradbury Avenue","geo_precision":"range","state":"IN"},"type":"Feature","geometry":{"type":"Point","coordinates":[-86.225823,39.731657]}},{"properties":{"city":"Martinsville","geo_score":1.0,"zip code":"46151","id":"ac8f7td1xe90","school":"Waverly Elementary","address":"8525 Waverly Road","geo_precision":"range","state":"IN"},"type":"Feature","geometry":{"type":"Point","coordinates":[-86.269345,39.553767]}},{"properties":{"city":"Mooresville","geo_score":1.0,"zip code":"46158","id":"ac8f7tc7mz1t","school":"Newby Memorial Elementary School","address":"240 North Monroe Street","geo_precision":"range","state":"IN"},"type":"Feature","geometry":{"type":"Point","coordinates":[-86.380962,39.615799]}},{"properties":{"city":"Mooresville","geo_score":1.0,"zip code":"46158","id":"ac8f7tgjxg1e","school":"Northwood Elementary","address":"630 N Indiana St","geo_precision":"range","state":"IN"},"type":"Feature","geometry":{"type":"Point","coordinates":[-86.375077,39.621093]}},{"properties":{"city":"Camby","geo_score":0.984,"zip code":"46113","id":"ac8f7ti0dc8m","school":"North Madison Elementary","address":"7456 E Hadley Road","geo_precision":"range","state":"IN"},"type":"Feature","geometry":{"type":"Point","coordinates":[-86.267893,39.611398]}},{"properties":{"city":"Mooresville","geo_score":0.878,"zip code":"46158","id":"ac8f7tia1w7o","school":"Neil Armstrong Elementary","address":"1000 State Road 144","geo_precision":"street","state":"IN"},"type":"Feature","geometry":{"type":"Point","coordinates":[-86.358998,39.603594]}},{"properties":{"city":"Cloverdale","geo_score":1.0,"zip code":"46120","id":"ac8f7tkhe8zn","school":"Cloverdale Middle School","address":"312 E Logan Street","geo_precision":"range","state":"IN"},"type":"Feature","geometry":{"type":"Point","coordinates":[-86.791114,39.510552]}},{"properties":{"city":"Cloverdale","geo_score":1.0,"zip code":"46120","id":"ac8f7teab62x","school":"Cloverdale Elementary","address":"311 E Logan St","geo_precision":"range","state":"IN"},"type":"Feature","geometry":{"type":"Point","coordinates":[-86.787793,39.510654]}},{"properties":{"city":"Roachdale","geo_score":0.976,"zip code":"46172","id":"ac8f7tkpl3b1","school":"Roachdale Elementary","address":"305 S Indiana Street","geo_precision":"range","state":"IN"},"type":"Feature","geometry":{"type":"Point","coordinates":[-86.802198,39.854603]}},{"properties":{"city":"Bainbridge","geo_score":0.807,"zip code":"46105","id":"ac8f7td03irb","school":"Bainbridge Elementary","address":"412 South Washington Street","geo_precision":"street","state":"IN"},"type":"Feature","geometry":{"type":"Point","coordinates":[-86.811916,39.758095]}},{"properties":{"city":"Greencastle","geo_score":1.0,"zip code":"46135","id":"ac8f7tdeq3nw","school":"Central Elementary School","address":"1888 E US Hwy 40","geo_precision":"range","state":"IN"},"type":"Feature","geometry":{"type":"Point","coordinates":[-86.817444,39.585204]}},{"properties":{"city":"Fillmore","geo_score":1.0,"zip code":"46128","id":"ac8f7tiagjds","school":"Fillmore Elementary","address":"161 South Main Street","geo_precision":"range","state":"IN"},"type":"Feature","geometry":{"type":"Point","coordinates":[-86.753098,39.667937]}},{"properties":{"city":"Milan","geo_score":0.984,"zip code":"47031","id":"ac8f7tfo5qio","school":"Milan Elementary School","address":"418 East Carr Street","geo_precision":"range","state":"IN"},"type":"Feature","geometry":{"type":"Point","coordinates":[-85.126828,39.120978]}},{"properties":{"city":"Versailles","geo_score":0.585,"zip code":"47042","id":"ac8f7tc1sowv","school":"South Ripley Elementary","address":"1568 S Behnam Road","geo_precision":"zip","state":"IN"},"type":"Feature","geometry":{"type":"Point","coordinates":[-85.218568,38.990334]}},{"properties":{"city":"Sunman","geo_score":1.0,"zip code":"47041","id":"ac8f7t7f4u7y","school":"Sunman Elementary School","address":"925 N Meridian Street","geo_precision":"range","state":"IN"},"type":"Feature","geometry":{"type":"Point","coordinates":[-85.09458,39.244201]}},{"properties":{"city":"Mays","geo_score":0.513,"zip code":"46155","id":"ac8f7t7csuk4","school":"Mays Elementary","address":"929 E South Street","geo_precision":"street","state":"IN"},"type":"Feature","geometry":{"type":"Point","coordinates":[-85.429808,39.742581]}},{"properties":{"city":"Milroy","geo_score":1.0,"zip code":"46156","id":"ac8f7tbbteos","school":"Milroy Elementary","address":"300 North Walnut Street","geo_precision":"range","state":"IN"},"type":"Feature","geometry":{"type":"Point","coordinates":[-85.464402,39.499396]}},{"properties":{"city":"Arlington","geo_score":0.99,"zip code":"46104","id":"ac8f7tea8y3g","school":"Arlington Elementary","address":"2533 N 700 W","geo_precision":"range","state":"IN"},"type":"Feature","geometry":{"type":"Point","coordinates":[-85.576212,39.647068]}},{"properties":{"city":"Rushville","geo_score":0.935,"zip code":"46173","id":"ac8f7tkj7nbd","school":"Rushville Elementary East","address":"390 West 16th Street","geo_precision":"range","state":"IN"},"type":"Feature","geometry":{"type":"Point","coordinates":[-85.448197,39.625499]}},{"properties":{"city":"Rushville","geo_score":0.935,"zip code":"46173","id":"ac8f7tb0rzpp","school":"Rushville Elementary West","address":"410 West 16th Street","geo_precision":"range","state":"IN"},"type":"Feature","geometry":{"type":"Point","coordinates":[-85.448407,39.625496]}},{"properties":{"city":"Austin","geo_score":0.837,"zip code":"47102","id":"ac8f7ta34wpv","school":"Austin Elementary","address":"141 Highway 31 South","geo_precision":"range","state":"IN"},"type":"Feature","geometry":{"type":"Point","coordinates":[-85.803078,38.739943]}},{"properties":{"city":"Scottsburg","geo_score":1.0,"zip code":"47170","id":"ac8f7t9w6bhf","school":"Scottsburg Elementary","address":"49 North Hyland Street","geo_precision":"range","state":"IN"},"type":"Feature","geometry":{"type":"Point","coordinates":[-85.776133,38.686641]}},{"properties":{"city":"Fairland","geo_score":1.0,"zip code":"46126","id":"ac8f7thm4lrf","school":"Triton Central Elementary","address":"4976 W 600 North","geo_precision":"range","state":"IN"},"type":"Feature","geometry":{"type":"Point","coordinates":[-85.873608,39.610466]}},{"properties":{"city":"Waldron","geo_score":0.707,"zip code":"46182","id":"ac8f7t7i7c68","school":"Waldron Elementary","address":"306 S East Street","geo_precision":"range","state":"IN"},"type":"Feature","geometry":{"type":"Point","coordinates":[-86.399988,39.701436]}},{"properties":{"city":"Morristown","geo_score":0.87,"zip code":"46161","id":"ac8f7tdaxvj6","school":"Morristown Elementary","address":"307 W Main Street","geo_precision":"range","state":"IN"},"type":"Feature","geometry":{"type":"Point","coordinates":[-85.696416,39.672846]}},{"properties":{"city":"Shelbyville","geo_score":0.585,"zip code":"46176","id":"ac8f7tgudbsz","school":"Coulston Elementary","address":"121 N Knightstown Road","geo_precision":"zip","state":"IN"},"type":"Feature","geometry":{"type":"Point","coordinates":[-85.846649,39.460328]}},{"properties":{"city":"Shelbyville","geo_score":1.0,"zip code":"46176","id":"ac8f7t9sz0n1","school":"Loper Elementary","address":"901 Loper Drive","geo_precision":"range","state":"IN"},"type":"Feature","geometry":{"type":"Point","coordinates":[-85.764879,39.511966]}},{"properties":{"city":"Shelbyville","geo_score":0.333,"zip code":"46176","id":"ac8f7tht3oda","school":"T. A. Hendricks Elementary","address":"1111 St. Joseph Street","geo_precision":"street","state":"IN"},"type":"Feature","geometry":{"type":"Point","coordinates":[-86.09998,39.53938]}},{"properties":{"city":"Liberty","geo_score":0.955,"zip code":"47353","id":"ac8f7thx6jra","school":"Union County Middle School","address":"488 State Road 44 East","geo_precision":"range","state":"IN"},"type":"Feature","geometry":{"type":"Point","coordinates":[-84.936096,39.635385]}},{"properties":{"city":"College Corner","geo_score":0.71,"zip code":"45003","id":"ac8f7tgo9wgo","school":"College Corner Union County School","address":"230 Ramsey Street","geo_precision":"street","state":"OH"},"type":"Feature","geometry":{"type":"Point","coordinates":[-84.816886,39.571587]}},{"properties":{"city":"Liberty","geo_score":0.878,"zip code":"47353","id":"ac8f7tkl2ms3","school":"Liberty Elementary","address":"501 Eaton Street","geo_precision":"range","state":"IN"},"type":"Feature","geometry":{"type":"Point","coordinates":[-84.915127,39.633407]}},{"properties":{"city":"Centerville","geo_score":0.805,"zip code":"47330","id":"ac8f7tgewrco","school":"Rose Hamilton Elementary","address":"1281 S Round Barn Road","geo_precision":"range","state":"IN"},"type":"Feature","geometry":{"type":"Point","coordinates":[-84.958072,39.81441]}},{"properties":{"city":"Fountain City","geo_score":1.0,"zip code":"47341","id":"ac8f7tht8wm4","school":"Northeastern Elementary","address":"534 West Wallace Road","geo_precision":"range","state":"IN"},"type":"Feature","geometry":{"type":"Point","coordinates":[-84.909483,39.933368]}},{"properties":{"city":"Richmond","geo_score":0.627,"zip code":"47374","id":"ac8f7tb8p4fr","school":"Westview Elementary School","address":"1707 S. W. A Street","geo_precision":"street","state":"IN"},"type":"Feature","geometry":{"type":"Point","coordinates":[-84.896599,39.827518]}},{"properties":{"city":"Richmond","geo_score":0.965,"zip code":"47374","id":"ac8f7tjirtq0","school":"Crestdale Elementary","address":"701 Crestdale Road","geo_precision":"range","state":"IN"},"type":"Feature","geometry":{"type":"Point","coordinates":[-84.893203,39.856345]}},{"properties":{"city":"Richmond","geo_score":0.989,"zip code":"47374","id":"ac8f7t8dgq9f","school":"Fairview Elementary","address":"60 NW L Street","geo_precision":"range","state":"IN"},"type":"Feature","geometry":{"type":"Point","coordinates":[-84.897838,39.843767]}},{"properties":{"city":"Richmond","geo_score":0.924,"zip code":"47374","id":"ac8f7tf6sdlk","school":"Vaile Elementary","address":"300 S 14th Street","geo_precision":"range","state":"IN"},"type":"Feature","geometry":{"type":"Point","coordinates":[-84.883275,39.824518]}},{"properties":{"city":"Richmond","geo_score":0.924,"zip code":"47374","id":"ac8f7tcll40j","school":"Elizabeth Starr Academy","address":"301 North 19th Street","geo_precision":"range","state":"IN"},"type":"Feature","geometry":{"type":"Point","coordinates":[-84.876424,39.834387]}},{"properties":{"city":"Richmond","geo_score":0.892,"zip code":"47374","id":"ac8f7t9n9w6x","school":"Dennis Intermediate School","address":"222 N W 7th Street","geo_precision":"range","state":"IN"},"type":"Feature","geometry":{"type":"Point","coordinates":[-84.910939,39.832367]}}],"is_temporal":false,"author":{"url":"","metadata":"","contact_name":"","contact_address":"","source":"","contact_phone":""},"source":"","pagination":{"sort":null,"start":0,"total":222,"limit":1000000},"state":"complete","tags":"gfbeo","published":"2014-08-16T15:09:09-04:00","id":321683}