{"type":"FeatureCollection","data_type":"Dataset","url_type":null,"permissions":[{"permissions":{"download":true,"view":true},"group_id":"everyone"}],"classification":null,"title":"Washington State Department of Health, Community and Migrant Health Centers, Washington, 2007 ","count":156,"stream_id":3219,"contributor":{"url":"http://geocommons.com/users/139","name":"Burkey"},"data_attributes":null,"calculation_params":null,"icon_link":null,"link":"http://geocommons.com/overlays/3219.json","extent":[-124.174,45.6245,-117.281,48.9887],"geometry_types":["point"],"unique_name":null,"name":"Washington State Department of Health, Community and Migrant Health Centers, Washington, 2007 ","feature_count":156,"description":"Abstract:\n    The Community &amp; Migrant Health Centers server the low-income, uninsured, and underserved populations of Washington State. These health centers serve low income and other persons with limited access to health care. \nPurpose:\n    This dataset was made as part of a project to map Washington's Health System.","next_feature":null,"is_raster":false,"short_classification":"Y","stats":{"CERTAINTY":{"max":null,"min":null,"median":null},"ZCTA":{"max":null,"min":null,"median":null},"N_HOUSENUM":{"max":null,"min":null,"median":null},"AV_SCORE":{"max":100,"mean":97.6282051282051,"variance":131.435070306037,"stdev":11.4645135224325,"min":0,"median":100},"Z4LINK":{"max":null,"min":null,"median":null},"BLOCK00":{"max":null,"min":null,"median":null},"X_COORD":{"max":-117.28102,"mean":-121.223914871795,"variance":3.06506502319547,"stdev":1.75073271038028,"min":-124.1214,"median":-122.27888},"N_ZIP4":{"max":null,"min":null,"median":null},"N_ZIP":{"max":null,"min":null,"median":null},"AV_ZIP":{"max":null,"min":null,"median":null},"BG00":{"max":null,"min":null,"median":null},"BG90":{"max":null,"min":null,"median":null},"TRACT90D":{"max":null,"min":null,"median":null},"Y_COORD":{"max":48.98873,"mean":47.3524458333333,"variance":0.518105706602527,"stdev":0.719795600571806,"min":45.6245,"median":47.5144},"TRACT00D":{"max":null,"min":null,"median":null}},"features":[{"properties":{"NAME":"CBHA 14th Avenue Medical Center","CITY":"Othello","CERTAINTY":"1","ZCTA":"99344","AV_CO":"001","ZIP":"99344","N_LCODE":"AS1","N_HOUSENUM":"475","GEOLEVEL":"CENSUSTRACT","ZIPNAME":"9934414TH","AV_SCORE":100,"N_STREET":"14TH","Z4LINK":"993441226","AV_ALPHA":"01","TRACT00":"950400","BLOCK00":"1000","PHONE":"509-488-6644","N_ADDRESS":"475 N 14TH AVE","N_UNIT":"","X_COORD":-119.15445,"N_ZIP4":"1226","N_STATE":"WA","TRACT90":"950400","BLOCK90":"03","N_ZIP":"99344","AV_ZIP":"99344","BG00":"1","STATE":"WA","N_CITY":"OTHELLO","N_POSTDIR":"","AV_DATE":"Thu Sep 27 07:59:43 2007","BG90":"1","ACCURACY":"Close","TRACT90D":"9504.001","N_STRSUF":"AVE","Y_COORD":46.83161,"id":"a6303tz9ioyc","ADDRESS":"475 N. 14th Ave","N_MCODE":"S80","N_PREDIR":"N","SOURCE":"GDT 1000","QUALITY":"03","TRACT00D":"9504.001","AV_CITY":"OTHELLO"},"type":"Feature","geometry":{"type":"Point","coordinates":[-119.154448074021,46.8316126365125]}},{"properties":{"NAME":"CBHA Wahluke Medical &amp; Dental Center","CITY":"Mattawa","CERTAINTY":"5","ZCTA":"","AV_CO":"025","ZIP":"99344","N_LCODE":"ZC5X","N_HOUSENUM":"601","GEOLEVEL":"CITY","ZIPNAME":"99344GOVERNMENT","AV_SCORE":0,"N_STREET":"GOVERNMENT","Z4LINK":"","AV_ALPHA":"13","TRACT00":"981400","BLOCK00":"4147","PHONE":"509-932-3535","N_ADDRESS":"601 GOVERNMENT WAY","N_UNIT":"","X_COORD":-119.90167,"N_ZIP4":"","N_STATE":"WA","TRACT90":"981400","BLOCK90":"09A","N_ZIP":"99344","AV_ZIP":"","BG00":"4","STATE":"WA","N_CITY":"MATTAWA","N_POSTDIR":"","AV_DATE":"","BG90":"4","ACCURACY":"Very Approximate","TRACT90D":"9814.004","N_STRSUF":"WAY","Y_COORD":46.73806,"id":"a6303u3rj6j9","ADDRESS":"601 Government Way","N_MCODE":"E024","N_PREDIR":"","SOURCE":"City or Place Centroid","QUALITY":"11","TRACT00D":"9814.004","AV_CITY":""},"type":"Feature","geometry":{"type":"Point","coordinates":[-119.90167,46.7380599990585]}},{"properties":{"NAME":"CH Care Downtown Family Medical &amp; Dental Clinic","CITY":"Tacoma","CERTAINTY":"1","ZCTA":"98405","AV_CO":"053","ZIP":"98405","N_LCODE":"AP0","N_HOUSENUM":"1102","GEOLEVEL":"CENSUSTRACT","ZIPNAME":"98405I","AV_SCORE":100,"N_STREET":"I","Z4LINK":"984054559","AV_ALPHA":"27","TRACT00":"061400","BLOCK00":"2011","PHONE":"253-597-3813  253-272-7648 (Dental)","N_ADDRESS":"1102 S I ST","N_UNIT":"","X_COORD":-122.4492,"N_ZIP4":"4559","N_STATE":"WA","TRACT90":"061400","BLOCK90":"08","N_ZIP":"98405","AV_ZIP":"98405","BG00":"2","STATE":"WA","N_CITY":"TACOMA","N_POSTDIR":"","AV_DATE":"Thu Sep 27 07:59:43 2007","BG90":"2","ACCURACY":"Close","TRACT90D":"0614.002","N_STRSUF":"ST","Y_COORD":47.25195,"id":"a6303u7dkm3v","ADDRESS":"1102 South I St","N_MCODE":"S80","N_PREDIR":"S","SOURCE":"Local Parcels","QUALITY":"02","TRACT00D":"0614.002","AV_CITY":"TACOMA"},"type":"Feature","geometry":{"type":"Point","coordinates":[-122.449197543,47.2519469390422]}},{"properties":{"NAME":"CH Care Eastside Family Medical Clinic","CITY":"Tacoma","CERTAINTY":"1","ZCTA":"98404","AV_CO":"053","ZIP":"98404","N_LCODE":"AS1","N_HOUSENUM":"1720","GEOLEVEL":"CENSUSTRACT","ZIPNAME":"9840444TH","AV_SCORE":100,"N_STREET":"44TH","Z4LINK":"984044611","AV_ALPHA":"27","TRACT00":"062200","BLOCK00":"2010","PHONE":"253-471-4553","N_ADDRESS":"1720 E 44TH ST","N_UNIT":"","X_COORD":-122.40556,"N_ZIP4":"4611","N_STATE":"WA","TRACT90":"062200","BLOCK90":"09","N_ZIP":"98404","AV_ZIP":"98404","BG00":"2","STATE":"WA","N_CITY":"TACOMA","N_POSTDIR":"","AV_DATE":"Thu Sep 27 07:59:43 2007","BG90":"3","ACCURACY":"Close","TRACT90D":"0622.003","N_STRSUF":"ST","Y_COORD":47.21732,"id":"a6303u8fjtov","ADDRESS":"1720 E. 44th St.","N_MCODE":"S80","N_PREDIR":"E","SOURCE":"Local Roads","QUALITY":"03","TRACT00D":"0622.002","AV_CITY":"TACOMA"},"type":"Feature","geometry":{"type":"Point","coordinates":[-122.405560013002,47.2173222034325]}},{"properties":{"NAME":"CH Care Family Dental Clinic","CITY":"Tacoma","CERTAINTY":"1","ZCTA":"98405","AV_CO":"053","ZIP":"98405","N_LCODE":"AP0","N_HOUSENUM":"1215","GEOLEVEL":"CENSUSTRACT","ZIPNAME":"9840511TH","AV_SCORE":100,"N_STREET":"11TH","Z4LINK":"984054020","AV_ALPHA":"27","TRACT00":"061300","BLOCK00":"2010","PHONE":"253-572-7002","N_ADDRESS":"1215 S 11TH ST","N_UNIT":"","X_COORD":-122.45427,"N_ZIP4":"4020","N_STATE":"WA","TRACT90":"061300","BLOCK90":"11","N_ZIP":"98405","AV_ZIP":"98405","BG00":"2","STATE":"WA","N_CITY":"TACOMA","N_POSTDIR":"","AV_DATE":"Thu Sep 27 07:59:43 2007","BG90":"2","ACCURACY":"Close","TRACT90D":"0613.002","N_STRSUF":"ST","Y_COORD":47.25223,"id":"a6303u8vidqe","ADDRESS":"1215 S. 11th St.","N_MCODE":"S80","N_PREDIR":"S","SOURCE":"Local Parcels","QUALITY":"02","TRACT00D":"0613.002","AV_CITY":"TACOMA"},"type":"Feature","geometry":{"type":"Point","coordinates":[-122.45427196,47.2522259340422]}},{"properties":{"NAME":"CH Care Lakewood Family Medical, Dental &amp; Internal Medicine","CITY":"Lakewood","CERTAINTY":"1","ZCTA":"98499","AV_CO":"053","ZIP":"98499","N_LCODE":"AS1","N_HOUSENUM":"10510","GEOLEVEL":"CENSUSTRACT","ZIPNAME":"98499GRAVELLY LAKE","AV_SCORE":100,"N_STREET":"GRAVELLY LAKE","Z4LINK":"984995036","AV_ALPHA":"27","TRACT00":"071902","BLOCK00":"3019","PHONE":"253-589-7030  253-589-7188 (Dental)","N_ADDRESS":"10510 GRAVELLY LAKE DR SW","N_UNIT":"","X_COORD":-122.52068,"N_ZIP4":"5036","N_STATE":"WA","TRACT90":"071902","BLOCK90":"30","N_ZIP":"98499","AV_ZIP":"98499","BG00":"3","STATE":"WA","N_CITY":"LAKEWOOD","N_POSTDIR":"SW","AV_DATE":"Thu Sep 27 07:59:43 2007","BG90":"3","ACCURACY":"Close","TRACT90D":"0719.023","N_STRSUF":"DR","Y_COORD":47.16109,"id":"a6303tygw0yr","ADDRESS":"10510 Gravelly Lake SW","N_MCODE":"S81","N_PREDIR":"","SOURCE":"Local Roads","QUALITY":"03","TRACT00D":"0719.023","AV_CITY":"LAKEWOOD"},"type":"Feature","geometry":{"type":"Point","coordinates":[-122.520675822099,47.1610929912827]}},{"properties":{"NAME":"CH Care Parkland Family Medical Clinic","CITY":"Tacoma","CERTAINTY":"1","ZCTA":"98444","AV_CO":"053","ZIP":"98444","N_LCODE":"AP0","N_HOUSENUM":"11225","GEOLEVEL":"CENSUSTRACT","ZIPNAME":"98444PACIFIC","AV_SCORE":100,"N_STREET":"PACIFIC","Z4LINK":"984445525","AV_ALPHA":"27","TRACT00":"071707","BLOCK00":"1009","PHONE":"253-536-2020","N_ADDRESS":"11225 PACIFIC AVE S","N_UNIT":"","X_COORD":-122.43382,"N_ZIP4":"5525","N_STATE":"WA","TRACT90":"071702","BLOCK90":"06","N_ZIP":"98444","AV_ZIP":"98444","BG00":"1","STATE":"WA","N_CITY":"TACOMA","N_POSTDIR":"S","AV_DATE":"Thu Sep 27 07:59:43 2007","BG90":"1","ACCURACY":"Close","TRACT90D":"0717.021","N_STRSUF":"AVE","Y_COORD":47.15426,"id":"a6303uanvmb6","ADDRESS":"11225 Pacific Ave","N_MCODE":"S84","N_PREDIR":"","SOURCE":"Local Parcels","QUALITY":"02","TRACT00D":"0717.071","AV_CITY":""},"type":"Feature","geometry":{"type":"Point","coordinates":[-122.433821353,47.1542569540595]}},{"properties":{"NAME":"CH Care Soundview Family Medical Clinic","CITY":"Tacoma","CERTAINTY":"1","ZCTA":"98408","AV_CO":"053","ZIP":"98418","N_LCODE":"AP0","N_HOUSENUM":"3611","GEOLEVEL":"CENSUSTRACT","ZIPNAME":"98418D","AV_SCORE":100,"N_STREET":"D","Z4LINK":"984186813","AV_ALPHA":"27","TRACT00":"061900","BLOCK00":"2007","PHONE":"253-404-0737","N_ADDRESS":"3611 S D ST","N_UNIT":"","X_COORD":-122.43505,"N_ZIP4":"6813","N_STATE":"WA","TRACT90":"061900","BLOCK90":"08","N_ZIP":"98418","AV_ZIP":"98418","BG00":"2","STATE":"WA","N_CITY":"TACOMA","N_POSTDIR":"","AV_DATE":"Thu Sep 27 07:59:43 2007","BG90":"2","ACCURACY":"Close","TRACT90D":"0619.002","N_STRSUF":"ST","Y_COORD":47.22593,"id":"a6303u1znyqy","ADDRESS":"3611 South D","N_MCODE":"S81","N_PREDIR":"S","SOURCE":"Local Parcels","QUALITY":"02","TRACT00D":"0619.002","AV_CITY":"TACOMA"},"type":"Feature","geometry":{"type":"Point","coordinates":[-122.435053896,47.2259328730421]}},{"properties":{"NAME":"CH Care Spanaway Family Medical Clinic","CITY":"Spanaway","CERTAINTY":"1","ZCTA":"98387","AV_CO":"053","ZIP":"98387","N_LCODE":"AP0","N_HOUSENUM":"134","GEOLEVEL":"CENSUSTRACT","ZIPNAME":"98387188TH","AV_SCORE":100,"N_STREET":"188TH","Z4LINK":"983874618","AV_ALPHA":"27","TRACT00":"071410","BLOCK00":"1007","PHONE":"253-847-2304","N_ADDRESS":"134 188TH ST S","N_UNIT":"","X_COORD":-122.4342,"N_ZIP4":"4618","N_STATE":"WA","TRACT90":"071405","BLOCK90":"08","N_ZIP":"98387","AV_ZIP":"98387","BG00":"1","STATE":"WA","N_CITY":"SPANAWAY","N_POSTDIR":"S","AV_DATE":"Thu Sep 27 07:59:43 2007","BG90":"1","ACCURACY":"Close","TRACT90D":"0714.051","N_STRSUF":"ST","Y_COORD":47.08611,"id":"a6303u8qhahg","ADDRESS":"134 188th St. South","N_MCODE":"S80","N_PREDIR":"","SOURCE":"Local Parcels","QUALITY":"02","TRACT00D":"0714.101","AV_CITY":""},"type":"Feature","geometry":{"type":"Point","coordinates":[-122.43419772,47.0861090960594]}},{"properties":{"NAME":"CH Care Sumner Family Medical Clinic","CITY":"Sumner","CERTAINTY":"1","ZCTA":"98390","AV_CO":"053","ZIP":"98390","N_LCODE":"AS1","N_HOUSENUM":"1110","GEOLEVEL":"CENSUSTRACT","ZIPNAME":"98390FRYAR","AV_SCORE":100,"N_STREET":"FRYAR","Z4LINK":"983901512","AV_ALPHA":"27","TRACT00":"073301","BLOCK00":"1007","PHONE":"253-863-0406","N_ADDRESS":"1110 FRYAR AVE","N_UNIT":"","X_COORD":-122.2433,"N_ZIP4":"1512","N_STATE":"WA","TRACT90":"073300","BLOCK90":"08","N_ZIP":"98390","AV_ZIP":"98390","BG00":"1","STATE":"WA","N_CITY":"SUMNER","N_POSTDIR":"","AV_DATE":"Thu Sep 27 07:59:43 2007","BG90":"5","ACCURACY":"Close","TRACT90D":"0733.005","N_STRSUF":"AVE","Y_COORD":47.20503,"id":"a6303u0h4ydc","ADDRESS":"1110 Fryar Rd","N_MCODE":"S81","N_PREDIR":"","SOURCE":"Local Roads","QUALITY":"03","TRACT00D":"0733.011","AV_CITY":"SUMNER"},"type":"Feature","geometry":{"type":"Point","coordinates":[-122.243304187449,47.205027526697]}},{"properties":{"NAME":"CH Care Tillicum Family Medical Clinic","CITY":"Lakewood","CERTAINTY":"1","ZCTA":"98498","AV_CO":"053","ZIP":"98498","N_LCODE":"AP0","N_HOUSENUM":"14916","GEOLEVEL":"CENSUSTRACT","ZIPNAME":"98498WASHINGTON","AV_SCORE":100,"N_STREET":"WASHINGTON","Z4LINK":"984982271","AV_ALPHA":"27","TRACT00":"072000","BLOCK00":"3006","PHONE":"253-589-7027","N_ADDRESS":"14916 WASHINGTON AVE SW","N_UNIT":"","X_COORD":-122.55422,"N_ZIP4":"2271","N_STATE":"WA","TRACT90":"072000","BLOCK90":"08","N_ZIP":"98498","AV_ZIP":"98498","BG00":"3","STATE":"WA","N_CITY":"LAKEWOOD","N_POSTDIR":"SW","AV_DATE":"Thu Sep 27 07:59:43 2007","BG90":"3","ACCURACY":"Close","TRACT90D":"0720.003","N_STRSUF":"AVE","Y_COORD":47.1236,"id":"a6303txvbfvh","ADDRESS":"14916 Washington SW","N_MCODE":"S81","N_PREDIR":"","SOURCE":"Local Parcels","QUALITY":"02","TRACT00D":"0720.003","AV_CITY":"LAKEWOOD"},"type":"Feature","geometry":{"type":"Point","coordinates":[-122.55422036,47.1235991750594]}},{"properties":{"NAME":"CH Care Women?s Health Clinic","CITY":"Tacoma","CERTAINTY":"1","ZCTA":"98405","AV_CO":"053","ZIP":"98405","N_LCODE":"AS1","N_HOUSENUM":"1213","GEOLEVEL":"CENSUSTRACT","ZIPNAME":"9840511TH","AV_SCORE":100,"N_STREET":"11TH","Z4LINK":"984054020","AV_ALPHA":"27","TRACT00":"061300","BLOCK00":"2010","PHONE":"253-597-4163","N_ADDRESS":"1213 S 11TH ST","N_UNIT":"","X_COORD":-122.45422,"N_ZIP4":"4020","N_STATE":"WA","TRACT90":"061300","BLOCK90":"11","N_ZIP":"98405","AV_ZIP":"98405","BG00":"2","STATE":"WA","N_CITY":"TACOMA","N_POSTDIR":"","AV_DATE":"Thu Sep 27 07:59:43 2007","BG90":"2","ACCURACY":"Close","TRACT90D":"0613.002","N_STRSUF":"ST","Y_COORD":47.25166,"id":"a6303u6s7kx0","ADDRESS":"1213 South 11th Street","N_MCODE":"S80","N_PREDIR":"S","SOURCE":"Local Roads","QUALITY":"03","TRACT00D":"0613.002","AV_CITY":"TACOMA"},"type":"Feature","geometry":{"type":"Point","coordinates":[-122.454217279591,47.25165575991]}},{"properties":{"NAME":"CHAS Denny Murphy Medical &amp; Dental Clinics","CITY":"Spokane","CERTAINTY":"1","ZCTA":"99201","AV_CO":"063","ZIP":"99201","N_LCODE":"AS1","N_HOUSENUM":"1001","GEOLEVEL":"CENSUSTRACT","ZIPNAME":"992012ND","AV_SCORE":100,"N_STREET":"2ND","Z4LINK":"992014503","AV_ALPHA":"32","TRACT00":"003500","BLOCK00":"1056","PHONE":"509-835-1205  509-434-0308 (Dental)","N_ADDRESS":"1001 W 2ND AVE","N_UNIT":"","X_COORD":-117.42659,"N_ZIP4":"4503","N_STATE":"WA","TRACT90":"003500","BLOCK90":"09","N_ZIP":"99201","AV_ZIP":"99201","BG00":"1","STATE":"WA","N_CITY":"SPOKANE","N_POSTDIR":"","AV_DATE":"Thu Sep 27 07:59:43 2007","BG90":"3","ACCURACY":"Close","TRACT90D":"0035.003","N_STRSUF":"AVE","Y_COORD":47.65451,"id":"a6303u3dwvho","ADDRESS":"1001 W. 2nd Ave","N_MCODE":"S80","N_PREDIR":"W","SOURCE":"NAVTECH","QUALITY":"03","TRACT00D":"0035.001","AV_CITY":"SPOKANE"},"type":"Feature","geometry":{"type":"Point","coordinates":[-117.42658775,47.654506665711]}},{"properties":{"NAME":"CHAS Maple Medical &amp; Dental Clinics","CITY":"Spokane","CERTAINTY":"1","ZCTA":"99205","AV_CO":"063","ZIP":"99205","N_LCODE":"AS1","N_HOUSENUM":"3919","GEOLEVEL":"CENSUSTRACT","ZIPNAME":"99205MAPLE","AV_SCORE":100,"N_STREET":"MAPLE","Z4LINK":"992051349","AV_ALPHA":"32","TRACT00":"001200","BLOCK00":"2024","PHONE":"509-444-7801  509-242-1821 (Dental)","N_ADDRESS":"3919 N MAPLE ST","N_UNIT":"","X_COORD":-117.43517,"N_ZIP4":"1349","N_STATE":"WA","TRACT90":"001200","BLOCK90":"32","N_ZIP":"99205","AV_ZIP":"99205","BG00":"2","STATE":"WA","N_CITY":"SPOKANE","N_POSTDIR":"","AV_DATE":"Thu Sep 27 07:59:43 2007","BG90":"2","ACCURACY":"Close","TRACT90D":"0012.002","N_STRSUF":"ST","Y_COORD":47.69368,"id":"a6303u2p9dn6","ADDRESS":"3919 N. Maple St.","N_MCODE":"S80","N_PREDIR":"N","SOURCE":"Local Roads","QUALITY":"03","TRACT00D":"0012.002","AV_CITY":"SPOKANE"},"type":"Feature","geometry":{"type":"Point","coordinates":[-117.435169572628,47.6936839270963]}},{"properties":{"NAME":"CHAS North County Clinic","CITY":"Deer Park","CERTAINTY":"1","ZCTA":"99006","AV_CO":"063","ZIP":"99006","N_LCODE":"AS1","N_HOUSENUM":"401","GEOLEVEL":"CENSUSTRACT","ZIPNAME":"99006MAIN","AV_SCORE":100,"N_STREET":"MAIN","Z4LINK":"","AV_ALPHA":"32","TRACT00":"010301","BLOCK00":"2049","PHONE":"509-434-0292","N_ADDRESS":"401 S MAIN ST","N_UNIT":"","X_COORD":-117.47684,"N_ZIP4":"","N_STATE":"WA","TRACT90":"010301","BLOCK90":"51","N_ZIP":"99006","AV_ZIP":"99006","BG00":"2","STATE":"WA","N_CITY":"DEER PARK","N_POSTDIR":"","AV_DATE":"Thu Sep 27 07:59:43 2007","BG90":"2","ACCURACY":"Close","TRACT90D":"0103.012","N_STRSUF":"ST","Y_COORD":47.95058,"id":"a6303uappyiq","ADDRESS":"401 S. Main Street","N_MCODE":"T80","N_PREDIR":"S","SOURCE":"Local Roads","QUALITY":"03","TRACT00D":"0103.012","AV_CITY":"DEER PARK"},"type":"Feature","geometry":{"type":"Point","coordinates":[-117.476839844978,47.9505827433601]}},{"properties":{"NAME":"CHAS Northeast Medical Clinic","CITY":"Spokane","CERTAINTY":"1","ZCTA":"99207","AV_CO":"063","ZIP":"99207","N_LCODE":"AS1","N_HOUSENUM":"4001","GEOLEVEL":"CENSUSTRACT","ZIPNAME":"99207COOK","AV_SCORE":100,"N_STREET":"COOK","Z4LINK":"992075879","AV_ALPHA":"32","TRACT00":"001600","BLOCK00":"3019","PHONE":"509-487-1604","N_ADDRESS":"4001 N COOK ST","N_UNIT":"","X_COORD":-117.37364,"N_ZIP4":"5879","N_STATE":"WA","TRACT90":"001600","BLOCK90":"06","N_ZIP":"99207","AV_ZIP":"99207","BG00":"3","STATE":"WA","N_CITY":"SPOKANE","N_POSTDIR":"","AV_DATE":"Thu Sep 27 07:59:43 2007","BG90":"3","ACCURACY":"Close","TRACT90D":"0016.003","N_STRSUF":"ST","Y_COORD":47.69407,"id":"a6303u2sh7c9","ADDRESS":"4001 N. Cook","N_MCODE":"S81","N_PREDIR":"N","SOURCE":"Local Roads","QUALITY":"03","TRACT00D":"0016.003","AV_CITY":"SPOKANE"},"type":"Feature","geometry":{"type":"Point","coordinates":[-117.373639842551,47.6940695451688]}},{"properties":{"NAME":"CHAS Valley Medical Clinic","CITY":"Spokane","CERTAINTY":"1","ZCTA":"99206","AV_CO":"063","ZIP":"99206","N_LCODE":"AS1","N_HOUSENUM":"9227","GEOLEVEL":"CENSUSTRACT","ZIPNAME":"99206MAIN","AV_SCORE":100,"N_STREET":"MAIN","Z4LINK":"992063768","AV_ALPHA":"32","TRACT00":"012000","BLOCK00":"2037","PHONE":"509-434-0313","N_ADDRESS":"9227 E MAIN AVE","N_UNIT":"","X_COORD":-117.28102,"N_ZIP4":"3768","N_STATE":"WA","TRACT90":"012000","BLOCK90":"45","N_ZIP":"99206","AV_ZIP":"99206","BG00":"2","STATE":"WA","N_CITY":"SPOKANE VALLEY","N_POSTDIR":"","AV_DATE":"Thu Sep 27 07:59:43 2007","BG90":"2","ACCURACY":"Close","TRACT90D":"0120.002","N_STRSUF":"AVE","Y_COORD":47.65944,"id":"a6303ty2taka","ADDRESS":"9227 E. Main","N_MCODE":"SA1","N_PREDIR":"E","SOURCE":"NAVTECH","QUALITY":"03","TRACT00D":"0120.002","AV_CITY":"SPOKANE VALLEY"},"type":"Feature","geometry":{"type":"Point","coordinates":[-117.281022617338,47.6594433323777]}},{"properties":{"NAME":"CHC La Clinica Benton-Franklin County Detox","CITY":"Pasco","CERTAINTY":"1","ZCTA":"99301","AV_CO":"021","ZIP":"99301","N_LCODE":"AS1","N_HOUSENUM":"1020","GEOLEVEL":"CENSUSTRACT","ZIPNAME":"993017TH","AV_SCORE":100,"N_STREET":"7TH","Z4LINK":"993015794","AV_ALPHA":"11","TRACT00":"020100","BLOCK00":"6016","PHONE":"509-547-9000","N_ADDRESS":"1020 S 7TH AVE","N_UNIT":"","X_COORD":-119.09614,"N_ZIP4":"5794","N_STATE":"WA","TRACT90":"020100","BLOCK90":"40","N_ZIP":"99301","AV_ZIP":"99301","BG00":"6","STATE":"WA","N_CITY":"PASCO","N_POSTDIR":"","AV_DATE":"Thu Sep 27 07:59:43 2007","BG90":"8","ACCURACY":"Close","TRACT90D":"0201.008","N_STRSUF":"AVE","Y_COORD":46.22372,"id":"a6303tvrwcc5","ADDRESS":"1020 S. 7th Ave","N_MCODE":"S80","N_PREDIR":"S","SOURCE":"NAVTECH","QUALITY":"03","TRACT00D":"0201.006","AV_CITY":"PASCO"},"type":"Feature","geometry":{"type":"Point","coordinates":[-119.096137700047,46.2237199347854]}},{"properties":{"NAME":"CHC La Clinica Kennewick Medical","CITY":"Kennewick","CERTAINTY":"1","ZCTA":"99336","AV_CO":"005","ZIP":"99336","N_LCODE":"AS1","N_HOUSENUM":"5219","GEOLEVEL":"CENSUSTRACT","ZIPNAME":"99336CLEARWATER","AV_SCORE":100,"N_STREET":"CLEARWATER","Z4LINK":"993361914","AV_ALPHA":"03","TRACT00":"010901","BLOCK00":"4016","PHONE":"509-783-4454","N_ADDRESS":"5219 W CLEARWATER AVE","N_UNIT":"","X_COORD":-119.19377,"N_ZIP4":"1914","N_STATE":"WA","TRACT90":"010902","BLOCK90":"01","N_ZIP":"99336","AV_ZIP":"99336","BG00":"4","STATE":"WA","N_CITY":"KENNEWICK","N_POSTDIR":"","AV_DATE":"Thu Sep 27 07:59:43 2007","BG90":"2","ACCURACY":"Close","TRACT90D":"0109.022","N_STRSUF":"AVE","Y_COORD":46.21236,"id":"a6303tv7wztb","ADDRESS":"5219 W. Clearwater","N_MCODE":"S81","N_PREDIR":"W","SOURCE":"NAVTECH","QUALITY":"03","TRACT00D":"0109.014","AV_CITY":"KENNEWICK"},"type":"Feature","geometry":{"type":"Point","coordinates":[-119.19377475,46.2123566657243]}},{"properties":{"NAME":"CHC La Clinica North Franklin Social Services Center","CITY":"Basin City","CERTAINTY":"1","ZCTA":"99343","AV_CO":"021","ZIP":"99343","N_LCODE":"AS1","N_HOUSENUM":"6950","GEOLEVEL":"CENSUSTRACT","ZIPNAME":"99343ROAD 170","AV_SCORE":100,"N_STREET":"ROAD 170","Z4LINK":"993439737","AV_ALPHA":"11","TRACT00":"020800","BLOCK00":"4066","PHONE":"509-269-4115","N_ADDRESS":"6950 ROAD 170","N_UNIT":"","X_COORD":-119.14903,"N_ZIP4":"9737","N_STATE":"WA","TRACT90":"020800","BLOCK90":"94","N_ZIP":"99343","AV_ZIP":"99343","BG00":"4","STATE":"WA","N_CITY":"MESA","N_POSTDIR":"","AV_DATE":"Thu Sep 27 07:59:43 2007","BG90":"4","ACCURACY":"Close","TRACT90D":"0208.004","N_STRSUF":"","Y_COORD":46.59094,"id":"a6303u8fi9f5","ADDRESS":"6950 Road 170","N_MCODE":"SA0","N_PREDIR":"","SOURCE":"TIGER 2000","QUALITY":"03","TRACT00D":"0208.004","AV_CITY":""},"type":"Feature","geometry":{"type":"Point","coordinates":[-119.149027978069,46.5909410005608]}},{"properties":{"NAME":"CHC La Clinica Nueva Esperanza Counseling Center","CITY":"Pasco","CERTAINTY":"1","ZCTA":"99301","AV_CO":"021","ZIP":"99301","N_LCODE":"AS1","N_HOUSENUM":"720","GEOLEVEL":"CENSUSTRACT","ZIPNAME":"99301COURT","AV_SCORE":100,"N_STREET":"COURT","Z4LINK":"993014178","AV_ALPHA":"11","TRACT00":"020200","BLOCK00":"2002","PHONE":"509-545-6506","N_ADDRESS":"720 W COURT ST","N_UNIT":"","X_COORD":-119.0996,"N_ZIP4":"4178","N_STATE":"WA","TRACT90":"020200","BLOCK90":"03","N_ZIP":"99301","AV_ZIP":"99301","BG00":"2","STATE":"WA","N_CITY":"PASCO","N_POSTDIR":"","AV_DATE":"Thu Sep 27 07:59:43 2007","BG90":"2","ACCURACY":"Close","TRACT90D":"0202.002","N_STRSUF":"ST","Y_COORD":46.24125,"id":"a6303u99lbe4","ADDRESS":"720 W. Court St","N_MCODE":"S80","N_PREDIR":"W","SOURCE":"NAVTECH","QUALITY":"03","TRACT00D":"0202.002","AV_CITY":"PASCO"},"type":"Feature","geometry":{"type":"Point","coordinates":[-119.099601535735,46.2412466657243]}},{"properties":{"NAME":"CHC La Clinica Self Help Housing","CITY":"Pasco","CERTAINTY":"1","ZCTA":"99301","AV_CO":"021","ZIP":"99301","N_LCODE":"AS0","N_HOUSENUM":"2508","GEOLEVEL":"CENSUSTRACT","ZIPNAME":"99301ADELIA","AV_SCORE":70,"N_STREET":"ADELIA","Z4LINK":"993015998","AV_ALPHA":"11","TRACT00":"020100","BLOCK00":"2001","PHONE":"509-546-0740","N_ADDRESS":"2508 E ADELIA ST","N_UNIT":"","X_COORD":-119.06412,"N_ZIP4":"5998","N_STATE":"WA","TRACT90":"020100","BLOCK90":"09","N_ZIP":"99301","AV_ZIP":"99301","BG00":"2","STATE":"WA","N_CITY":"PASCO","N_POSTDIR":"","AV_DATE":"Thu Sep 27 07:59:43 2007","BG90":"2","ACCURACY":"Approximate","TRACT90D":"0201.002","N_STRSUF":"ST","Y_COORD":46.23704,"id":"a6303tyl560a","ADDRESS":"2508 E. Adelia","N_MCODE":"S81","N_PREDIR":"E","SOURCE":"Centrus","QUALITY":"03","TRACT00D":"0201.002","AV_CITY":"PASCO"},"type":"Feature","geometry":{"type":"Point","coordinates":[-119.064117,46.2370379990577]}},{"properties":{"NAME":"CHCKC Auburn CHC and Dental","CITY":"Auburn","CERTAINTY":"1","ZCTA":"98001","AV_CO":"033","ZIP":"98002","N_LCODE":"AS1","N_HOUSENUM":"126","GEOLEVEL":"CENSUSTRACT","ZIPNAME":"98002AUBURN","AV_SCORE":100,"N_STREET":"AUBURN","Z4LINK":"980025057","AV_ALPHA":"17","TRACT00":"030501","BLOCK00":"2015","PHONE":"253-735-0166  253-804-8713 (Dental)","N_ADDRESS":"126 AUBURN AVE","N_UNIT":"","X_COORD":-122.22781,"N_ZIP4":"5057","N_STATE":"WA","TRACT90":"030501","BLOCK90":"11","N_ZIP":"98002","AV_ZIP":"98002","BG00":"2","STATE":"WA","N_CITY":"AUBURN","N_POSTDIR":"","AV_DATE":"Thu Sep 27 07:59:43 2007","BG90":"2","ACCURACY":"Close","TRACT90D":"0305.012","N_STRSUF":"AVE","Y_COORD":47.30836,"id":"a6303u0vjvaf","ADDRESS":"126 Auburn Ave","N_MCODE":"S80","N_PREDIR":"","SOURCE":"Local Roads","QUALITY":"03","TRACT00D":"0305.012","AV_CITY":"AUBURN"},"type":"Feature","geometry":{"type":"Point","coordinates":[-122.227814975084,47.3083596920696]}},{"properties":{"NAME":"CHCKC Bothell-Kenmore CHC","CITY":"Kenmore","CERTAINTY":"1","ZCTA":"98028","AV_CO":"033","ZIP":"98028","N_LCODE":"AP0","N_HOUSENUM":"6016","GEOLEVEL":"CENSUSTRACT","ZIPNAME":"98028BOTHELL","AV_SCORE":100,"N_STREET":"BOTHELL","Z4LINK":"980289403","AV_ALPHA":"17","TRACT00":"021500","BLOCK00":"2013","PHONE":"425-486-0658","N_ADDRESS":"6016 NE BOTHELL WAY","N_UNIT":"","X_COORD":-122.26287,"N_ZIP4":"9403","N_STATE":"WA","TRACT90":"021500","BLOCK90":"05","N_ZIP":"98028","AV_ZIP":"98028","BG00":"2","STATE":"WA","N_CITY":"KENMORE","N_POSTDIR":"","AV_DATE":"Thu Sep 27 07:59:43 2007","BG90":"2","ACCURACY":"Close","TRACT90D":"0215.002","N_STRSUF":"WAY","Y_COORD":47.75867,"id":"a6303u0q1rxz","ADDRESS":"6016 NE Bothell Way","N_MCODE":"S80","N_PREDIR":"NE","SOURCE":"Local Parcels","QUALITY":"02","TRACT00D":"0215.002","AV_CITY":"KENMORE"},"type":"Feature","geometry":{"type":"Point","coordinates":[-122.262867095,47.758674923045]}},{"properties":{"NAME":"CHCKC Burien Community Health Center","CITY":"Burien","CERTAINTY":"1","ZCTA":"98166","AV_CO":"033","ZIP":"98166","N_LCODE":"AP0","N_HOUSENUM":"457","GEOLEVEL":"CENSUSTRACT","ZIPNAME":"98166148TH","AV_SCORE":100,"N_STREET":"148TH","Z4LINK":"981661975","AV_ALPHA":"17","TRACT00":"027900","BLOCK00":"1013","PHONE":"206-244-0264","N_ADDRESS":"457 SW 148TH ST","N_UNIT":"","X_COORD":-122.34039,"N_ZIP4":"1975","N_STATE":"WA","TRACT90":"027900","BLOCK90":"11","N_ZIP":"98166","AV_ZIP":"98166","BG00":"1","STATE":"WA","N_CITY":"BURIEN","N_POSTDIR":"","AV_DATE":"Thu Sep 27 07:59:43 2007","BG90":"1","ACCURACY":"Close","TRACT90D":"0279.001","N_STRSUF":"ST","Y_COORD":47.46952,"id":"a6303tvn19se","ADDRESS":"457 SW 148th","N_MCODE":"S81","N_PREDIR":"SW","SOURCE":"Local Parcels","QUALITY":"02","TRACT00D":"0279.001","AV_CITY":"BURIEN"},"type":"Feature","geometry":{"type":"Point","coordinates":[-122.340386234,47.4695198180434]}},{"properties":{"NAME":"CHCKC Eastside Community Dental Clinic","CITY":"Redmond","CERTAINTY":"1","ZCTA":"98052","AV_CO":"033","ZIP":"98052","N_LCODE":"AS1","N_HOUSENUM":"16345","GEOLEVEL":"CENSUSTRACT","ZIPNAME":"9805287TH","AV_SCORE":100,"N_STREET":"87TH","Z4LINK":"980523503","AV_ALPHA":"17","TRACT00":"032309","BLOCK00":"2019","PHONE":"425-838-8000","N_ADDRESS":"16345 NE 87TH ST","N_UNIT":"","X_COORD":-122.12241,"N_ZIP4":"3503","N_STATE":"WA","TRACT90":"032309","BLOCK90":"04","N_ZIP":"98052","AV_ZIP":"98052","BG00":"2","STATE":"WA","N_CITY":"REDMOND","N_POSTDIR":"","AV_DATE":"Thu Sep 27 07:59:43 2007","BG90":"3","ACCURACY":"Close","TRACT90D":"0323.093","N_STRSUF":"ST","Y_COORD":47.67963,"id":"a6303tzvry73","ADDRESS":"16345 NE 87th St.","N_MCODE":"S80","N_PREDIR":"NE","SOURCE":"Local Roads","QUALITY":"03","TRACT00D":"0323.092","AV_CITY":"REDMOND"},"type":"Feature","geometry":{"type":"Point","coordinates":[-122.122414640848,47.6796278085648]}},{"properties":{"NAME":"CHCKC Eastside Community Health Center","CITY":"Redmond","CERTAINTY":"1","ZCTA":"98052","AV_CO":"033","ZIP":"98052","N_LCODE":"AS1","N_HOUSENUM":"16315","GEOLEVEL":"CENSUSTRACT","ZIPNAME":"9805287TH","AV_SCORE":100,"N_STREET":"87TH","Z4LINK":"980523537","AV_ALPHA":"17","TRACT00":"032309","BLOCK00":"2019","PHONE":"425-882-1697","N_ADDRESS":"16315 NE 87TH ST","N_UNIT":"","X_COORD":-122.12277,"N_ZIP4":"3537","N_STATE":"WA","TRACT90":"032309","BLOCK90":"04","N_ZIP":"98052","AV_ZIP":"98052","BG00":"2","STATE":"WA","N_CITY":"REDMOND","N_POSTDIR":"","AV_DATE":"Thu Sep 27 07:59:43 2007","BG90":"3","ACCURACY":"Close","TRACT90D":"0323.093","N_STRSUF":"ST","Y_COORD":47.67963,"id":"a6303u8bwh1a","ADDRESS":"16315 NE 87th St.","N_MCODE":"S80","N_PREDIR":"NE","SOURCE":"Local Roads","QUALITY":"03","TRACT00D":"0323.092","AV_CITY":"REDMOND"},"type":"Feature","geometry":{"type":"Point","coordinates":[-122.122772077782,47.6796286824032]}},{"properties":{"NAME":"CHCKC Federal Way CHC &amp; Dental Clinic","CITY":"Federal Way","CERTAINTY":"1","ZCTA":"98003","AV_CO":"033","ZIP":"98003","N_LCODE":"AP0","N_HOUSENUM":"33431","GEOLEVEL":"CENSUSTRACT","ZIPNAME":"9800313TH","AV_SCORE":100,"N_STREET":"13TH","Z4LINK":"980036357","AV_ALPHA":"17","TRACT00":"030303","BLOCK00":"4011","PHONE":"253-874-7634  253-874-7646 (Dental)","N_ADDRESS":"33431 13TH PL S","N_UNIT":"","X_COORD":-122.31779,"N_ZIP4":"6357","N_STATE":"WA","TRACT90":"030303","BLOCK90":"16","N_ZIP":"98003","AV_ZIP":"98003","BG00":"4","STATE":"WA","N_CITY":"FEDERAL WAY","N_POSTDIR":"S","AV_DATE":"Thu Sep 27 07:59:43 2007","BG90":"4","ACCURACY":"Close","TRACT90D":"0303.034","N_STRSUF":"PL","Y_COORD":47.30194,"id":"a6303tyvy7qr","ADDRESS":"33431 13th Place S.","N_MCODE":"S80","N_PREDIR":"","SOURCE":"Local Parcels","QUALITY":"02","TRACT00D":"0303.034","AV_CITY":"FEDERAL WAY"},"type":"Feature","geometry":{"type":"Point","coordinates":[-122.317788139,47.3019444980425]}},{"properties":{"NAME":"CHCKC Kent CHC &amp; Dental","CITY":"Kent","CERTAINTY":"1","ZCTA":"98031","AV_CO":"033","ZIP":"98030","N_LCODE":"AP0","N_HOUSENUM":"403","GEOLEVEL":"CENSUSTRACT","ZIPNAME":"98030MEEKER","AV_SCORE":100,"N_STREET":"MEEKER","Z4LINK":"980305904","AV_ALPHA":"17","TRACT00":"029203","BLOCK00":"1027","PHONE":"253-852-2866  253-796-4071 (Dental)","N_ADDRESS":"403 E MEEKER ST","N_UNIT":"","X_COORD":-122.22935,"N_ZIP4":"5904","N_STATE":"WA","TRACT90":"029202","BLOCK90":"09","N_ZIP":"98030","AV_ZIP":"98030","BG00":"1","STATE":"WA","N_CITY":"KENT","N_POSTDIR":"","AV_DATE":"Thu Sep 27 07:59:43 2007","BG90":"3","ACCURACY":"Close","TRACT90D":"0292.023","N_STRSUF":"ST","Y_COORD":47.38191,"id":"a6303twyzvvs","ADDRESS":"403 East Meeker St","N_MCODE":"S80","N_PREDIR":"E","SOURCE":"Local Parcels","QUALITY":"02","TRACT00D":"0292.031","AV_CITY":"KENT"},"type":"Feature","geometry":{"type":"Point","coordinates":[-122.229346014,47.3819104560429]}},{"properties":{"NAME":"CHCKC Renton CHC","CITY":"Renton","CERTAINTY":"1","ZCTA":"98055","AV_CO":"033","ZIP":"98055","N_LCODE":"AP0","N_HOUSENUM":"200","GEOLEVEL":"CENSUSTRACT","ZIPNAME":"980572ND","AV_SCORE":100,"N_STREET":"2ND","Z4LINK":"980572011","AV_ALPHA":"17","TRACT00":"025300","BLOCK00":"5013","PHONE":"425-226-5536","N_ADDRESS":"200 S 2ND ST","N_UNIT":"","X_COORD":-122.21479,"N_ZIP4":"2011","N_STATE":"WA","TRACT90":"025300","BLOCK90":"32","N_ZIP":"98057","AV_ZIP":"98057","BG00":"5","STATE":"WA","N_CITY":"RENTON","N_POSTDIR":"","AV_DATE":"Thu Sep 27 07:59:43 2007","BG90":"5","ACCURACY":"Close","TRACT90D":"0253.005","N_STRSUF":"ST","Y_COORD":47.4818,"id":"a6303u6v1s3f","ADDRESS":"200 S. 2nd St.","N_MCODE":"S90","N_PREDIR":"S","SOURCE":"Local Parcels","QUALITY":"02","TRACT00D":"0253.005","AV_CITY":"RENTON"},"type":"Feature","geometry":{"type":"Point","coordinates":[-122.214788467,47.4818025280434]}},{"properties":{"NAME":"CHCKC SeaTac CHC","CITY":"SeaTac","CERTAINTY":"1","ZCTA":"98188","AV_CO":"033","ZIP":"98188","N_LCODE":"AS1","N_HOUSENUM":"4040","GEOLEVEL":"CENSUSTRACT","ZIPNAME":"98188188TH","AV_SCORE":100,"N_STREET":"188TH","Z4LINK":"981885070","AV_ALPHA":"17","TRACT00":"028403","BLOCK00":"2000","PHONE":"206-277-7200","N_ADDRESS":"4040 S 188TH ST","N_UNIT":"","X_COORD":-122.28366,"N_ZIP4":"5070","N_STATE":"WA","TRACT90":"028403","BLOCK90":"11","N_ZIP":"98188","AV_ZIP":"98188","BG00":"2","STATE":"WA","N_CITY":"SEATAC","N_POSTDIR":"","AV_DATE":"Thu Sep 27 07:59:43 2007","BG90":"5","ACCURACY":"Close","TRACT90D":"0284.035","N_STRSUF":"ST","Y_COORD":47.4345,"id":"a6303u9q6y9w","ADDRESS":"4040 S. 188th Street","N_MCODE":"S80","N_PREDIR":"S","SOURCE":"Local Roads","QUALITY":"03","TRACT00D":"0284.032","AV_CITY":"SEATAC"},"type":"Feature","geometry":{"type":"Point","coordinates":[-122.283661396822,47.4344975856444]}},{"properties":{"NAME":"CHCKC Tyee Campus Health Center","CITY":"SeaTac","CERTAINTY":"1","ZCTA":"98188","AV_CO":"033","ZIP":"98188","N_LCODE":"AP0","N_HOUSENUM":"4424","GEOLEVEL":"CENSUSTRACT","ZIPNAME":"98188188TH","AV_SCORE":100,"N_STREET":"188TH","Z4LINK":"981885028","AV_ALPHA":"17","TRACT00":"028403","BLOCK00":"4008","PHONE":"206-444-7747","N_ADDRESS":"4424 S 188TH ST","N_UNIT":"","X_COORD":-122.27888,"N_ZIP4":"5028","N_STATE":"WA","TRACT90":"028403","BLOCK90":"17","N_ZIP":"98188","AV_ZIP":"98188","BG00":"4","STATE":"WA","N_CITY":"SEATAC","N_POSTDIR":"","AV_DATE":"Thu Sep 27 07:59:43 2007","BG90":"4","ACCURACY":"Close","TRACT90D":"0284.034","N_STRSUF":"ST","Y_COORD":47.43531,"id":"a6303tz6e2a9","ADDRESS":"4424 South 188th St.","N_MCODE":"S80","N_PREDIR":"S","SOURCE":"Local Parcels","QUALITY":"02","TRACT00D":"0284.034","AV_CITY":"SEATAC"},"type":"Feature","geometry":{"type":"Point","coordinates":[-122.278883119,47.4353142890432]}},{"properties":{"NAME":"CHCSC Broadway Medical Clinic","CITY":"Everett","CERTAINTY":"1","ZCTA":"98201","AV_CO":"061","ZIP":"98201","N_LCODE":"AS1","N_HOUSENUM":"1410","GEOLEVEL":"CENSUSTRACT","ZIPNAME":"98201BROADWAY","AV_SCORE":100,"N_STREET":"BROADWAY","Z4LINK":"982011720","AV_ALPHA":"31","TRACT00":"040200","BLOCK00":"4006","PHONE":"425-789-2000","N_ADDRESS":"1410 BROADWAY","N_UNIT":"","X_COORD":-122.20119,"N_ZIP4":"1720","N_STATE":"WA","TRACT90":"040200","BLOCK90":"10","N_ZIP":"98201","AV_ZIP":"98201","BG00":"4","STATE":"WA","N_CITY":"EVERETT","N_POSTDIR":"","AV_DATE":"Thu Sep 27 07:59:43 2007","BG90":"4","ACCURACY":"Close","TRACT90D":"0402.004","N_STRSUF":"","Y_COORD":47.99872,"id":"a6303tz52zio","ADDRESS":"1410 Broadway","N_MCODE":"S80","N_PREDIR":"","SOURCE":"NAVTECH","QUALITY":"03","TRACT00D":"0402.004","AV_CITY":"EVERETT"},"type":"Feature","geometry":{"type":"Point","coordinates":[-122.201186967118,47.9987208105389]}},{"properties":{"NAME":"CHCSC Colby Dental Clinic","CITY":"Everett","CERTAINTY":"1","ZCTA":"98201","AV_CO":"061","ZIP":"98201","N_LCODE":"AP0","N_HOUSENUM":"2722","GEOLEVEL":"CENSUSTRACT","ZIPNAME":"98201COLBY","AV_SCORE":100,"N_STREET":"COLBY","Z4LINK":"982013557","AV_ALPHA":"31","TRACT00":"040800","BLOCK00":"2017","PHONE":"425-551-1000","N_ADDRESS":"2722 COLBY AVE","N_UNIT":"","X_COORD":-122.209,"N_ZIP4":"3557","N_STATE":"WA","TRACT90":"040800","BLOCK90":"10","N_ZIP":"98201","AV_ZIP":"98201","BG00":"2","STATE":"WA","N_CITY":"EVERETT","N_POSTDIR":"","AV_DATE":"Thu Sep 27 07:59:43 2007","BG90":"1","ACCURACY":"Close","TRACT90D":"0408.001","N_STRSUF":"AVE","Y_COORD":47.98095,"id":"a6303u28bjah","ADDRESS":"2722 Colby Ave","N_MCODE":"S80","N_PREDIR":"","SOURCE":"Local Parcels","QUALITY":"02","TRACT00D":"0408.002","AV_CITY":"EVERETT"},"type":"Feature","geometry":{"type":"Point","coordinates":[-122.208997641,47.9809477270463]}},{"properties":{"NAME":"CHCSC Evergreen Way Medical Clinic","CITY":"Everett","CERTAINTY":"1","ZCTA":"98208","AV_CO":"061","ZIP":"98208","N_LCODE":"AP0","N_HOUSENUM":"8609","GEOLEVEL":"CENSUSTRACT","ZIPNAME":"98208EVERGREEN","AV_SCORE":100,"N_STREET":"EVERGREEN","Z4LINK":"982082619","AV_ALPHA":"31","TRACT00":"041805","BLOCK00":"3002","PHONE":"425-551-6200","N_ADDRESS":"8609 EVERGREEN WAY","N_UNIT":"","X_COORD":-122.22962,"N_ZIP4":"2619","N_STATE":"WA","TRACT90":"041801","BLOCK90":"02","N_ZIP":"98208","AV_ZIP":"98208","BG00":"3","STATE":"WA","N_CITY":"EVERETT","N_POSTDIR":"","AV_DATE":"Thu Sep 27 07:59:43 2007","BG90":"1","ACCURACY":"Close","TRACT90D":"0418.011","N_STRSUF":"WAY","Y_COORD":47.91939,"id":"a6303tx0jpfp","ADDRESS":"8609 Evergreen Way","N_MCODE":"S80","N_PREDIR":"","SOURCE":"Local Parcels","QUALITY":"02","TRACT00D":"0418.053","AV_CITY":"EVERETT"},"type":"Feature","geometry":{"type":"Point","coordinates":[-122.22962104,47.919393764046]}},{"properties":{"NAME":"CHCSC Lynnwood Medical &amp; Dental Clinic","CITY":"Lynnwood","CERTAINTY":"1","ZCTA":"98036","AV_CO":"061","ZIP":"98036","N_LCODE":"AP0","N_HOUSENUM":"4111","GEOLEVEL":"CENSUSTRACT","ZIPNAME":"98036194TH","AV_SCORE":100,"N_STREET":"194TH","Z4LINK":"980364604","AV_ALPHA":"31","TRACT00":"051702","BLOCK00":"2010","PHONE":"425-835-5200  425-835-5204 (Dental)","N_ADDRESS":"4111 194TH ST SW","N_UNIT":"","X_COORD":-122.28868,"N_ZIP4":"4604","N_STATE":"WA","TRACT90":"051700","BLOCK90":"10","N_ZIP":"98036","AV_ZIP":"98036","BG00":"2","STATE":"WA","N_CITY":"LYNNWOOD","N_POSTDIR":"SW","AV_DATE":"Thu Sep 27 07:59:43 2007","BG90":"2","ACCURACY":"Close","TRACT90D":"0517.002","N_STRSUF":"ST","Y_COORD":47.82321,"id":"a6303uao42zp","ADDRESS":"4111 194th St. SW","N_MCODE":"S80","N_PREDIR":"","SOURCE":"Local Parcels","QUALITY":"02","TRACT00D":"0517.022","AV_CITY":"LYNNWOOD"},"type":"Feature","geometry":{"type":"Point","coordinates":[-122.288680744,47.8232099380454]}},{"properties":{"NAME":"CVCH Behavioral Health","CITY":"Wenatchee","CERTAINTY":"1","ZCTA":"98801","AV_CO":"007","ZIP":"98801","N_LCODE":"AS1","N_HOUSENUM":"701","GEOLEVEL":"CENSUSTRACT","ZIPNAME":"98801MILLER","AV_SCORE":100,"N_STREET":"MILLER","Z4LINK":"988012086","AV_ALPHA":"04","TRACT00":"960800","BLOCK00":"2008","PHONE":"509-662-7195","N_ADDRESS":"701 N MILLER ST","N_UNIT":"","X_COORD":-120.32475,"N_ZIP4":"2086","N_STATE":"WA","TRACT90":"960800","BLOCK90":"09","N_ZIP":"98801","AV_ZIP":"98801","BG00":"2","STATE":"WA","N_CITY":"WENATCHEE","N_POSTDIR":"","AV_DATE":"Thu Sep 27 07:59:43 2007","BG90":"2","ACCURACY":"Close","TRACT90D":"9608.002","N_STRSUF":"ST","Y_COORD":47.43165,"id":"a6303u44vp8m","ADDRESS":"701 N Miller","N_MCODE":"S81","N_PREDIR":"N","SOURCE":"NAVTECH","QUALITY":"03","TRACT00D":"9608.002","AV_CITY":"WENATCHEE"},"type":"Feature","geometry":{"type":"Point","coordinates":[-120.324747200659,47.4316498790243]}},{"properties":{"NAME":"CVCH Chelan Clinic","CITY":"Chelan","CERTAINTY":"1","ZCTA":"98816","AV_CO":"007","ZIP":"98816","N_LCODE":"AP0","N_HOUSENUM":"317","GEOLEVEL":"CENSUSTRACT","ZIPNAME":"98816JOHNSON","AV_SCORE":100,"N_STREET":"JOHNSON","Z4LINK":"","AV_ALPHA":"04","TRACT00":"960300","BLOCK00":"5017","PHONE":"509-682-6000","N_ADDRESS":"317 E JOHNSON AVE","N_UNIT":"","X_COORD":-120.01367,"N_ZIP4":"","N_STATE":"WA","TRACT90":"960300","BLOCK90":"23","N_ZIP":"98816","AV_ZIP":"98816","BG00":"5","STATE":"WA","N_CITY":"CHELAN","N_POSTDIR":"","AV_DATE":"Thu Sep 27 07:59:43 2007","BG90":"4","ACCURACY":"Close","TRACT90D":"9603.004","N_STRSUF":"AVE","Y_COORD":47.84228,"id":"a6303u13jjh5","ADDRESS":"317 E. Johnson","N_MCODE":"T81","N_PREDIR":"E","SOURCE":"Local Parcels","QUALITY":"02","TRACT00D":"9603.005","AV_CITY":"CHELAN"},"type":"Feature","geometry":{"type":"Point","coordinates":[-120.013671767,47.8422837160455]}},{"properties":{"NAME":"CVCH Children?s Behavioral and WIC","CITY":"Wenatchee","CERTAINTY":"1","ZCTA":"98801","AV_CO":"007","ZIP":"98801","N_LCODE":"AS1","N_HOUSENUM":"504","GEOLEVEL":"CENSUSTRACT","ZIPNAME":"98801ORONDO","AV_SCORE":100,"N_STREET":"ORONDO","Z4LINK":"988012830","AV_ALPHA":"04","TRACT00":"961000","BLOCK00":"4008","PHONE":"509-662-4296   509-664-3771 (WIC)","N_ADDRESS":"504 ORONDO AVE","N_UNIT":"","X_COORD":-120.31615,"N_ZIP4":"2830","N_STATE":"WA","TRACT90":"961000","BLOCK90":"10","N_ZIP":"98801","AV_ZIP":"98801","BG00":"4","STATE":"WA","N_CITY":"WENATCHEE","N_POSTDIR":"","AV_DATE":"Thu Sep 27 07:59:43 2007","BG90":"4","ACCURACY":"Close","TRACT90D":"9610.004","N_STRSUF":"AVE","Y_COORD":47.42017,"id":"a6303u2k3amy","ADDRESS":"504 Orondo","N_MCODE":"S81","N_PREDIR":"","SOURCE":"GDT 1000","QUALITY":"03","TRACT00D":"9610.004","AV_CITY":"WENATCHEE"},"type":"Feature","geometry":{"type":"Point","coordinates":[-120.316147054511,47.4201717318919]}},{"properties":{"NAME":"Columbia Basin Health Association (CBHA) - Administrative Offices &amp; Clinic","CITY":"Othello","CERTAINTY":"1","ZCTA":"99344","AV_CO":"001","ZIP":"99344","N_LCODE":"AS1","N_HOUSENUM":"140","GEOLEVEL":"CENSUSTRACT","ZIPNAME":"99344MAIN","AV_SCORE":100,"N_STREET":"MAIN","Z4LINK":"993441040","AV_ALPHA":"01","TRACT00":"950400","BLOCK00":"2042","PHONE":"509-488-5256  509-488-2020 (Vision)","N_ADDRESS":"140 E MAIN ST","N_UNIT":"","X_COORD":-119.17337,"N_ZIP4":"1040","N_STATE":"WA","TRACT90":"950400","BLOCK90":"43","N_ZIP":"99344","AV_ZIP":"99344","BG00":"2","STATE":"WA","N_CITY":"OTHELLO","N_POSTDIR":"","AV_DATE":"Thu Sep 27 07:59:43 2007","BG90":"2","ACCURACY":"Close","TRACT90D":"9504.002","N_STRSUF":"ST","Y_COORD":46.82608,"id":"a6303u26gcm3","ADDRESS":"140 East Main","N_MCODE":"S81","N_PREDIR":"E","SOURCE":"NAVTECH","QUALITY":"03","TRACT00D":"9504.002","AV_CITY":"OTHELLO"},"type":"Feature","geometry":{"type":"Point","coordinates":[-119.173372683125,46.8260807952045]}},{"properties":{"NAME":"Columbia Valley Community Health Services (CVCH) - Administrative Offices &amp; Clinic","CITY":"Wenatchee","CERTAINTY":"1","ZCTA":"98801","AV_CO":"007","ZIP":"98801","N_LCODE":"AP0","N_HOUSENUM":"600","GEOLEVEL":"CENSUSTRACT","ZIPNAME":"98801ORONDO","AV_SCORE":100,"N_STREET":"ORONDO","Z4LINK":"988012800","AV_ALPHA":"04","TRACT00":"961000","BLOCK00":"4009","PHONE":"509-662-6000","N_ADDRESS":"600 ORONDO AVE","N_UNIT":"","X_COORD":-120.31837,"N_ZIP4":"2800","N_STATE":"WA","TRACT90":"961000","BLOCK90":"11","N_ZIP":"98801","AV_ZIP":"98801","BG00":"4","STATE":"WA","N_CITY":"WENATCHEE","N_POSTDIR":"","AV_DATE":"Thu Sep 27 07:59:43 2007","BG90":"4","ACCURACY":"Close","TRACT90D":"9610.004","N_STRSUF":"AVE","Y_COORD":47.4188,"id":"a6303txtt0f0","ADDRESS":"600 Orondo Ave","N_MCODE":"S80","N_PREDIR":"","SOURCE":"Local Parcels","QUALITY":"02","TRACT00D":"9610.004","AV_CITY":"WENATCHEE"},"type":"Feature","geometry":{"type":"Point","coordinates":[-120.318369274,47.4188027470431]}},{"properties":{"NAME":"Community Health Association of Spokane (CHAS) - Administrative Offices","CITY":"Spokane","CERTAINTY":"1","ZCTA":"99205","AV_CO":"063","ZIP":"99205","N_LCODE":"AS1","N_HOUSENUM":"3919","GEOLEVEL":"CENSUSTRACT","ZIPNAME":"99205MAPLE","AV_SCORE":100,"N_STREET":"MAPLE","Z4LINK":"992051349","AV_ALPHA":"32","TRACT00":"001200","BLOCK00":"2024","PHONE":"509-444-8888","N_ADDRESS":"3919 N MAPLE ST","N_UNIT":"","X_COORD":-117.43517,"N_ZIP4":"1349","N_STATE":"WA","TRACT90":"001200","BLOCK90":"32","N_ZIP":"99205","AV_ZIP":"99205","BG00":"2","STATE":"WA","N_CITY":"SPOKANE","N_POSTDIR":"","AV_DATE":"Thu Sep 27 07:59:43 2007","BG90":"2","ACCURACY":"Close","TRACT90D":"0012.002","N_STRSUF":"ST","Y_COORD":47.69368,"id":"a6303twqsthi","ADDRESS":"3919 N. Maple St.","N_MCODE":"S80","N_PREDIR":"N","SOURCE":"Local Roads","QUALITY":"03","TRACT00D":"0012.002","AV_CITY":"SPOKANE"},"type":"Feature","geometry":{"type":"Point","coordinates":[-117.435169572628,47.6936839270963]}},{"properties":{"NAME":"Community Health Care (CH Care) - Administrative Offices","CITY":"Tacoma","CERTAINTY":"1","ZCTA":"98402","AV_CO":"053","ZIP":"98421","N_LCODE":"AP0","N_HOUSENUM":"101","GEOLEVEL":"CENSUSTRACT","ZIPNAME":"9842126TH","AV_SCORE":100,"N_STREET":"26TH","Z4LINK":"984211108","AV_ALPHA":"27","TRACT00":"061602","BLOCK00":"1057","PHONE":"253-597-4550","N_ADDRESS":"101 E 26TH ST","N_UNIT":"","X_COORD":-122.43347,"N_ZIP4":"1108","N_STATE":"WA","TRACT90":"061602","BLOCK90":"03","N_ZIP":"98421","AV_ZIP":"98402","BG00":"1","STATE":"WA","N_CITY":"TACOMA","N_POSTDIR":"","AV_DATE":"Thu Sep 27 07:59:43 2007","BG90":"2","ACCURACY":"Close","TRACT90D":"0616.022","N_STRSUF":"ST","Y_COORD":47.23853,"id":"a6303tv2uw9c","ADDRESS":"101 E 26th St","N_MCODE":"S80","N_PREDIR":"E","SOURCE":"Local Parcels","QUALITY":"02","TRACT00D":"0616.021","AV_CITY":"TACOMA"},"type":"Feature","geometry":{"type":"Point","coordinates":[-122.433465032,47.2385270710422]}},{"properties":{"NAME":"Community Health Center - La Clinica (CHC La Clinica) - Administrative Offices &amp; Clinic","CITY":"Pasco","CERTAINTY":"1","ZCTA":"99301","AV_CO":"021","ZIP":"99301","N_LCODE":"AS1","N_HOUSENUM":"515","GEOLEVEL":"CENSUSTRACT","ZIPNAME":"99301COURT","AV_SCORE":100,"N_STREET":"COURT","Z4LINK":"993013737","AV_ALPHA":"11","TRACT00":"020300","BLOCK00":"3020","PHONE":"509-547-2204","N_ADDRESS":"515 W COURT ST","N_UNIT":"","X_COORD":-119.09598,"N_ZIP4":"3737","N_STATE":"WA","TRACT90":"020300","BLOCK90":"25","N_ZIP":"99301","AV_ZIP":"99301","BG00":"3","STATE":"WA","N_CITY":"PASCO","N_POSTDIR":"","AV_DATE":"Thu Sep 27 07:59:43 2007","BG90":"3","ACCURACY":"Close","TRACT90D":"0203.003","N_STRSUF":"ST","Y_COORD":46.24137,"id":"a6303ty33fv5","ADDRESS":"515 W. Court St.","N_MCODE":"S80","N_PREDIR":"W","SOURCE":"NAVTECH","QUALITY":"03","TRACT00D":"0203.003","AV_CITY":"PASCO"},"type":"Feature","geometry":{"type":"Point","coordinates":[-119.095980984823,46.241373332391]}},{"properties":{"NAME":"Community Health Centers of King County (CHCKC) - Administrative Offices","CITY":"Renton","CERTAINTY":"1","ZCTA":"98055","AV_CO":"033","ZIP":"98057","N_LCODE":"AS1","N_HOUSENUM":"955","GEOLEVEL":"CENSUSTRACT","ZIPNAME":"98057POWELL","AV_SCORE":55,"N_STREET":"POWELL","Z4LINK":"980572908","AV_ALPHA":"17","TRACT00":"026200","BLOCK00":"1046","PHONE":"425-277-1311","N_ADDRESS":"955 POWELL AVE SW","N_UNIT":"","X_COORD":-122.23095,"N_ZIP4":"2908","N_STATE":"WA","TRACT90":"025900","BLOCK90":"01","N_ZIP":"98057","AV_ZIP":"98057","BG00":"1","STATE":"WA","N_CITY":"RENTON","N_POSTDIR":"SW","AV_DATE":"Thu Sep 27 07:59:43 2007","BG90":"9","ACCURACY":"Approximate","TRACT90D":"0259.009","N_STRSUF":"AVE","Y_COORD":47.46996,"id":"a6303tx5sldl","ADDRESS":"955 Powell Ave SW","N_MCODE":"S80","N_PREDIR":"","SOURCE":"NAVTECH","QUALITY":"03","TRACT00D":"0262.001","AV_CITY":"RENTON"},"type":"Feature","geometry":{"type":"Point","coordinates":[-122.230946719347,47.469959400949]}},{"properties":{"NAME":"Community Health Centers of Snohomish County (CHCSC) - Administrative Offices","CITY":"Everett","CERTAINTY":"1","ZCTA":"98203","AV_CO":"061","ZIP":"98206","N_LCODE":"AP0","N_HOUSENUM":"5929","GEOLEVEL":"CENSUSTRACT","ZIPNAME":"98203EVERGREEN","AV_SCORE":100,"N_STREET":"EVERGREEN","Z4LINK":"982036031","AV_ALPHA":"31","TRACT00":"041100","BLOCK00":"1001","PHONE":"425-258-2797","N_ADDRESS":"5929 EVERGREEN WAY","N_UNIT":"","X_COORD":-122.21597,"N_ZIP4":"6031","N_STATE":"WA","TRACT90":"041100","BLOCK90":"02","N_ZIP":"98203","AV_ZIP":"98203","BG00":"1","STATE":"WA","N_CITY":"EVERETT","N_POSTDIR":"","AV_DATE":"Thu Sep 27 07:59:43 2007","BG90":"1","ACCURACY":"Close","TRACT90D":"0411.001","N_STRSUF":"WAY","Y_COORD":47.94368,"id":"a6303u77nh1n","ADDRESS":"5929 Evergreen Way","N_MCODE":"S90","N_PREDIR":"","SOURCE":"Local Parcels","QUALITY":"02","TRACT00D":"0411.001","AV_CITY":"EVERETT"},"type":"Feature","geometry":{"type":"Point","coordinates":[-122.21597448,47.9436807590461]}},{"properties":{"NAME":"Country Doctor - Carolyn Downs Family Medical Clinic","CITY":"Seattle","CERTAINTY":"1","ZCTA":"98122","AV_CO":"033","ZIP":"98122","N_LCODE":"AS1","N_HOUSENUM":"2101","GEOLEVEL":"CENSUSTRACT","ZIPNAME":"98122YESLER","AV_SCORE":100,"N_STREET":"YESLER","Z4LINK":"981225959","AV_ALPHA":"17","TRACT00":"009000","BLOCK00":"1002","PHONE":"206-299-1900","N_ADDRESS":"2101 E YESLER WAY","N_UNIT":"","X_COORD":-122.30501,"N_ZIP4":"5959","N_STATE":"WA","TRACT90":"009000","BLOCK90":"03","N_ZIP":"98122","AV_ZIP":"98144","BG00":"1","STATE":"WA","N_CITY":"SEATTLE","N_POSTDIR":"","AV_DATE":"Thu Sep 27 07:59:43 2007","BG90":"1","ACCURACY":"Close","TRACT90D":"0090.001","N_STRSUF":"WAY","Y_COORD":47.60159,"id":"a6303ub2s9pg","ADDRESS":"2101 E. Yesler Way","N_MCODE":"S80","N_PREDIR":"E","SOURCE":"Local Roads","QUALITY":"03","TRACT00D":"0090.001","AV_CITY":"SEATTLE"},"type":"Feature","geometry":{"type":"Point","coordinates":[-122.305013331469,47.6015863115935]}},{"properties":{"NAME":"Country Doctor Community Clinic - Administrative Offices &amp; Clinic","CITY":"Seattle","CERTAINTY":"1","ZCTA":"98112","AV_CO":"033","ZIP":"98112","N_LCODE":"AP0","N_HOUSENUM":"500","GEOLEVEL":"CENSUSTRACT","ZIPNAME":"9811219TH","AV_SCORE":100,"N_STREET":"19TH","Z4LINK":"981124007","AV_ALPHA":"17","TRACT00":"007600","BLOCK00":"2000","PHONE":"206-299-1600","N_ADDRESS":"500 19TH AVE E","N_UNIT":"","X_COORD":-122.307,"N_ZIP4":"4007","N_STATE":"WA","TRACT90":"007600","BLOCK90":"06","N_ZIP":"98112","AV_ZIP":"98112","BG00":"2","STATE":"WA","N_CITY":"SEATTLE","N_POSTDIR":"E","AV_DATE":"Thu Sep 27 07:59:43 2007","BG90":"2","ACCURACY":"Close","TRACT90D":"0076.002","N_STRSUF":"AVE","Y_COORD":47.62342,"id":"a6303u0remtw","ADDRESS":"500 19th Ave. E.","N_MCODE":"S80","N_PREDIR":"","SOURCE":"Local Parcels","QUALITY":"02","TRACT00D":"0076.002","AV_CITY":"SEATTLE"},"type":"Feature","geometry":{"type":"Point","coordinates":[-122.307000933,47.6234192040443]}},{"properties":{"NAME":"Cowlitz Family Health Center - Administrative Offices &amp; Clinic","CITY":"Longview","CERTAINTY":"1","ZCTA":"98632","AV_CO":"015","ZIP":"98632","N_LCODE":"AP0","N_HOUSENUM":"1057","GEOLEVEL":"CENSUSTRACT","ZIPNAME":"9863212TH","AV_SCORE":100,"N_STREET":"12TH","Z4LINK":"986322509","AV_ALPHA":"08","TRACT00":"000100","BLOCK00":"1030","PHONE":"360-636-3892","N_ADDRESS":"1057 12TH AVE","N_UNIT":"","X_COORD":-122.93494,"N_ZIP4":"2509","N_STATE":"WA","TRACT90":"000100","BLOCK90":"08","N_ZIP":"98632","AV_ZIP":"98632","BG00":"1","STATE":"WA","N_CITY":"LONGVIEW","N_POSTDIR":"","AV_DATE":"Thu Sep 27 07:59:43 2007","BG90":"1","ACCURACY":"Close","TRACT90D":"0001.001","N_STRSUF":"AVE","Y_COORD":46.13324,"id":"a6303tyem97l","ADDRESS":"1057 12th Ave","N_MCODE":"S80","N_PREDIR":"","SOURCE":"Local Parcels","QUALITY":"02","TRACT00D":"0001.001","AV_CITY":"LONGVIEW"},"type":"Feature","geometry":{"type":"Point","coordinates":[-122.934941283,46.1332446210576]}},{"properties":{"NAME":"Cowlitz Family Health Center North Beach Clinic","CITY":"Ocean Park","CERTAINTY":"1","ZCTA":"98640","AV_CO":"049","ZIP":"98640","N_LCODE":"AS1","N_HOUSENUM":"21610","GEOLEVEL":"CENSUSTRACT","ZIPNAME":"98640PACIFIC","AV_SCORE":100,"N_STREET":"PACIFIC","Z4LINK":"986403206","AV_ALPHA":"25","TRACT00":"950700","BLOCK00":"2007","PHONE":"360-665-3000","N_ADDRESS":"21610 PACIFIC WAY","N_UNIT":"","X_COORD":-124.05276,"N_ZIP4":"3206","N_STATE":"WA","TRACT90":"950700","BLOCK90":"05","N_ZIP":"98640","AV_ZIP":"98640","BG00":"2","STATE":"WA","N_CITY":"OCEAN PARK","N_POSTDIR":"","AV_DATE":"Thu Sep 27 07:59:43 2007","BG90":"4","ACCURACY":"Close","TRACT90D":"9507.004","N_STRSUF":"WAY","Y_COORD":46.45887,"id":"a6303u570kon","ADDRESS":"21610 Pacific Hwy","N_MCODE":"S81","N_PREDIR":"","SOURCE":"NAVTECH","QUALITY":"03","TRACT00D":"9507.002","AV_CITY":""},"type":"Feature","geometry":{"type":"Point","coordinates":[-124.05276307168,46.4588706476226]}},{"properties":{"NAME":"Cowlitz Family Health Center Woodland Clinic","CITY":"Woodland","CERTAINTY":"1","ZCTA":"98674","AV_CO":"015","ZIP":"98674","N_LCODE":"AS1","N_HOUSENUM":"1251","GEOLEVEL":"CENSUSTRACT","ZIPNAME":"98674LEWIS RIVER","AV_SCORE":100,"N_STREET":"LEWIS RIVER","Z4LINK":"986749265","AV_ALPHA":"08","TRACT00":"001500","BLOCK00":"4035","PHONE":"360-225-4310","N_ADDRESS":"1251 LEWIS RIVER RD","N_UNIT":"","X_COORD":-122.73992,"N_ZIP4":"9265","N_STATE":"WA","TRACT90":"001500","BLOCK90":"20","N_ZIP":"98674","AV_ZIP":"98674","BG00":"4","STATE":"WA","N_CITY":"WOODLAND","N_POSTDIR":"","AV_DATE":"Thu Sep 27 07:59:43 2007","BG90":"4","ACCURACY":"Close","TRACT90D":"0015.004","N_STRSUF":"RD","Y_COORD":45.90863,"id":"a6303u98azmp","ADDRESS":"1251 Lewis River Rd","N_MCODE":"S80","N_PREDIR":"","SOURCE":"NAVTECH","QUALITY":"03","TRACT00D":"0015.004","AV_CITY":"WOODLAND"},"type":"Feature","geometry":{"type":"Point","coordinates":[-122.739915158806,45.9086289452267]}},{"properties":{"NAME":"Family Health Centers - Administrative Offices &amp; Clinic","CITY":"Okanogan","CERTAINTY":"1","ZCTA":"98840","AV_CO":"047","ZIP":"98840","N_LCODE":"AS1","N_HOUSENUM":"716","GEOLEVEL":"CENSUSTRACT","ZIPNAME":"988401ST","AV_SCORE":100,"N_STREET":"1ST","Z4LINK":"988409679","AV_ALPHA":"24","TRACT00":"970700","BLOCK00":"3006","PHONE":"509-422-5700","N_ADDRESS":"716 1ST AVE S","N_UNIT":"","X_COORD":-119.58466,"N_ZIP4":"9679","N_STATE":"WA","TRACT90":"970700","BLOCK90":"04","N_ZIP":"98840","AV_ZIP":"98840","BG00":"3","STATE":"WA","N_CITY":"OKANOGAN","N_POSTDIR":"S","AV_DATE":"Thu Sep 27 07:59:43 2007","BG90":"3","ACCURACY":"Close","TRACT90D":"9707.003","N_STRSUF":"AVE","Y_COORD":48.35959,"id":"a6303u3trm56","ADDRESS":"716 First Ave. S","N_MCODE":"S88","N_PREDIR":"","SOURCE":"NAVTECH","QUALITY":"03","TRACT00D":"9707.003","AV_CITY":"OKANOGAN"},"type":"Feature","geometry":{"type":"Point","coordinates":[-119.584661949491,48.3595937811461]}},{"properties":{"NAME":"Family Health Centers Brewster","CITY":"Brewster","CERTAINTY":"3","ZCTA":"98812","AV_CO":"047","ZIP":"98812","N_LCODE":"ZT7F","N_HOUSENUM":"525","GEOLEVEL":"ZIPCODE","ZIPNAME":"98812JAY","AV_SCORE":40,"N_STREET":"JAY","Z4LINK":"","AV_ALPHA":"24","TRACT00":"970800","BLOCK00":"3002","PHONE":"509-689-3455","N_ADDRESS":"525 WEST JAY ST","N_UNIT":"","X_COORD":-119.78327,"N_ZIP4":"","N_STATE":"WA","TRACT90":"970800","BLOCK90":"04","N_ZIP":"98812","AV_ZIP":"98812","BG00":"3","STATE":"WA","N_CITY":"BREWSTER","N_POSTDIR":"","AV_DATE":"Thu Sep 27 07:59:43 2007","BG90":"3","ACCURACY":"Very Approximate","TRACT90D":"9708.003","N_STRSUF":"ST","Y_COORD":48.10019,"id":"a6303u2xxiqo","ADDRESS":"525 West Jay St","N_MCODE":"E024","N_PREDIR":"W","SOURCE":"Street Centroid","QUALITY":"05","TRACT00D":"9708.003","AV_CITY":"BREWSTER"},"type":"Feature","geometry":{"type":"Point","coordinates":[-119.783269979,48.100186334347]}},{"properties":{"NAME":"Family Health Centers Okanogan Dental","CITY":"Okanogan","CERTAINTY":"1","ZCTA":"98840","AV_CO":"047","ZIP":"98840","N_LCODE":"AS1","N_HOUSENUM":"626","GEOLEVEL":"CENSUSTRACT","ZIPNAME":"988402ND","AV_SCORE":100,"N_STREET":"2ND","Z4LINK":"","AV_ALPHA":"24","TRACT00":"970700","BLOCK00":"2060","PHONE":"509-422-6705","N_ADDRESS":"626 2ND AVE S","N_UNIT":"","X_COORD":-119.58449,"N_ZIP4":"","N_STATE":"WA","TRACT90":"970700","BLOCK90":"41","N_ZIP":"98840","AV_ZIP":"98840","BG00":"2","STATE":"WA","N_CITY":"OKANOGAN","N_POSTDIR":"S","AV_DATE":"Thu Sep 27 07:59:43 2007","BG90":"2","ACCURACY":"Close","TRACT90D":"9707.002","N_STRSUF":"AVE","Y_COORD":48.36102,"id":"a6303u387myt","ADDRESS":"626 Second Ave. S","N_MCODE":"T88","N_PREDIR":"","SOURCE":"GDT 1000","QUALITY":"03","TRACT00D":"9707.002","AV_CITY":"OKANOGAN"},"type":"Feature","geometry":{"type":"Point","coordinates":[-119.584487864563,48.3610211799045]}},{"properties":{"NAME":"Family Health Centers Tonasket","CITY":"Tonasket","CERTAINTY":"1","ZCTA":"98855","AV_CO":"047","ZIP":"98855","N_LCODE":"AS1","N_HOUSENUM":"106","GEOLEVEL":"CENSUSTRACT","ZIPNAME":"98855WHITCOMB","AV_SCORE":100,"N_STREET":"WHITCOMB","Z4LINK":"988559286","AV_ALPHA":"24","TRACT00":"970400","BLOCK00":"1058","PHONE":"509-486-0114","N_ADDRESS":"106 S WHITCOMB AVE","N_UNIT":"","X_COORD":-119.43769,"N_ZIP4":"9286","N_STATE":"WA","TRACT90":"970400","BLOCK90":"41","N_ZIP":"98855","AV_ZIP":"98855","BG00":"1","STATE":"WA","N_CITY":"TONASKET","N_POSTDIR":"","AV_DATE":"Thu Sep 27 07:59:43 2007","BG90":"1","ACCURACY":"Close","TRACT90D":"9704.001","N_STRSUF":"AVE","Y_COORD":48.70707,"id":"a6303txcfa97","ADDRESS":"106 S. Whitcomb","N_MCODE":"S81","N_PREDIR":"S","SOURCE":"NAVTECH","QUALITY":"03","TRACT00D":"9704.001","AV_CITY":"TONASKET"},"type":"Feature","geometry":{"type":"Point","coordinates":[-119.437687651087,48.7070724553447]}},{"properties":{"NAME":"ICHS Holly Park Medical &amp; Dental","CITY":"Seattle","CERTAINTY":"1","ZCTA":"98118","AV_CO":"033","ZIP":"98118","N_LCODE":"AS1","N_HOUSENUM":"3815","GEOLEVEL":"CENSUSTRACT","ZIPNAME":"98118OTHELLO","AV_SCORE":100,"N_STREET":"OTHELLO","Z4LINK":"981183510","AV_ALPHA":"17","TRACT00":"011000","BLOCK00":"2001","PHONE":"206-788-3500","N_ADDRESS":"3815 S OTHELLO ST","N_UNIT":"","X_COORD":-122.2845,"N_ZIP4":"3510","N_STATE":"WA","TRACT90":"011000","BLOCK90":"01","N_ZIP":"98118","AV_ZIP":"98118","BG00":"2","STATE":"WA","N_CITY":"SEATTLE","N_POSTDIR":"","AV_DATE":"Thu Sep 27 07:59:43 2007","BG90":"2","ACCURACY":"Close","TRACT90D":"0110.002","N_STRSUF":"ST","Y_COORD":47.53695,"id":"a6303tvl5jh2","ADDRESS":"3815 S. Othello St.","N_MCODE":"S80","N_PREDIR":"S","SOURCE":"Local Roads","QUALITY":"03","TRACT00D":"0110.002","AV_CITY":"SEATTLE"},"type":"Feature","geometry":{"type":"Point","coordinates":[-122.284497626039,47.5369511313343]}},{"properties":{"NAME":"ICHS International District Clinic","CITY":"Seattle","CERTAINTY":"1","ZCTA":"98104","AV_CO":"033","ZIP":"98104","N_LCODE":"AS1","N_HOUSENUM":"720","GEOLEVEL":"CENSUSTRACT","ZIPNAME":"981048TH","AV_SCORE":100,"N_STREET":"8TH","Z4LINK":"981043032","AV_ALPHA":"17","TRACT00":"009100","BLOCK00":"1017","PHONE":"206-788-3700","N_ADDRESS":"720 8TH AVE S","N_UNIT":"","X_COORD":-122.32237,"N_ZIP4":"3032","N_STATE":"WA","TRACT90":"009100","BLOCK90":"03","N_ZIP":"98104","AV_ZIP":"98104","BG00":"1","STATE":"WA","N_CITY":"SEATTLE","N_POSTDIR":"S","AV_DATE":"Thu Sep 27 07:59:43 2007","BG90":"2","ACCURACY":"Close","TRACT90D":"0091.002","N_STRSUF":"AVE","Y_COORD":47.59648,"id":"a6303tuohdq9","ADDRESS":"720 8th Ave. S","N_MCODE":"S80","N_PREDIR":"","SOURCE":"Local Roads","QUALITY":"03","TRACT00D":"0091.001","AV_CITY":"SEATTLE"},"type":"Feature","geometry":{"type":"Point","coordinates":[-122.322374425891,47.5964843091665]}},{"properties":{"NAME":"Interfaith Community Health Center - Administrative Offices, Clinic &amp; Mobile Dental","CITY":"Bellingham","CERTAINTY":"1","ZCTA":"98225","AV_CO":"073","ZIP":"98225","N_LCODE":"AP0","N_HOUSENUM":"220","GEOLEVEL":"CENSUSTRACT","ZIPNAME":"98225UNITY","AV_SCORE":100,"N_STREET":"UNITY","Z4LINK":"982254429","AV_ALPHA":"37","TRACT00":"000600","BLOCK00":"1003","PHONE":"360-676-6177","N_ADDRESS":"220 UNITY ST","N_UNIT":"","X_COORD":-122.47621,"N_ZIP4":"4429","N_STATE":"WA","TRACT90":"000600","BLOCK90":"11","N_ZIP":"98225","AV_ZIP":"98225","BG00":"1","STATE":"WA","N_CITY":"BELLINGHAM","N_POSTDIR":"","AV_DATE":"Thu Sep 27 07:59:43 2007","BG90":"1","ACCURACY":"Close","TRACT90D":"0006.001","N_STRSUF":"ST","Y_COORD":48.75366,"id":"a6303u12ssh8","ADDRESS":"220 Unity Street","N_MCODE":"S80","N_PREDIR":"","SOURCE":"Local Parcels","QUALITY":"02","TRACT00D":"0006.001","AV_CITY":"BELLINGHAM"},"type":"Feature","geometry":{"type":"Point","coordinates":[-122.476212276,48.7536558150512]}},{"properties":{"NAME":"Interfaith Point Roberts Wellness Clinic","CITY":"Point Roberts","CERTAINTY":"1","ZCTA":"98281","AV_CO":"073","ZIP":"98281","N_LCODE":"AP0","N_HOUSENUM":"2030","GEOLEVEL":"CENSUSTRACT","ZIPNAME":"98281BENSON","AV_SCORE":100,"N_STREET":"BENSON","Z4LINK":"982819206","AV_ALPHA":"37","TRACT00":"011000","BLOCK00":"3001","PHONE":"360-945-2580","N_ADDRESS":"2030 BENSON RD","N_UNIT":"","X_COORD":-123.04406,"N_ZIP4":"9206","N_STATE":"WA","TRACT90":"011000","BLOCK90":"02","N_ZIP":"98281","AV_ZIP":"98281","BG00":"3","STATE":"WA","N_CITY":"POINT ROBERTS","N_POSTDIR":"","AV_DATE":"Thu Sep 27 07:59:43 2007","BG90":"3","ACCURACY":"Close","TRACT90D":"0110.003","N_STRSUF":"RD","Y_COORD":48.98873,"id":"a6303u7tuzxu","ADDRESS":"2030 Benson Road","N_MCODE":"S80","N_PREDIR":"","SOURCE":"Local Parcels","QUALITY":"02","TRACT00D":"0110.003","AV_CITY":""},"type":"Feature","geometry":{"type":"Point","coordinates":[-123.044063185,48.9887255430528]}},{"properties":{"NAME":"International Commmunity Health Services (ICHS) - Administrative Offices","CITY":"Seattle","CERTAINTY":"1","ZCTA":"98104","AV_CO":"033","ZIP":"98104","N_LCODE":"AP0","N_HOUSENUM":"412","GEOLEVEL":"CENSUSTRACT","ZIPNAME":"98104MAYNARD","AV_SCORE":100,"N_STREET":"MAYNARD","Z4LINK":"981042917","AV_ALPHA":"17","TRACT00":"009100","BLOCK00":"2002","PHONE":"206-788-3650","N_ADDRESS":"412 MAYNARD AVE S","N_UNIT":"","X_COORD":-122.32468,"N_ZIP4":"2917","N_STATE":"WA","TRACT90":"009100","BLOCK90":"06","N_ZIP":"98104","AV_ZIP":"98104","BG00":"2","STATE":"WA","N_CITY":"SEATTLE","N_POSTDIR":"S","AV_DATE":"Thu Sep 27 07:59:43 2007","BG90":"4","ACCURACY":"Close","TRACT90D":"0091.004","N_STRSUF":"AVE","Y_COORD":47.59879,"id":"a6303tv1blzw","ADDRESS":"412 Maynard Ave. S","N_MCODE":"S80","N_PREDIR":"","SOURCE":"Local Parcels","QUALITY":"02","TRACT00D":"0091.002","AV_CITY":"SEATTLE"},"type":"Feature","geometry":{"type":"Point","coordinates":[-122.324680098,47.5987898710441]}},{"properties":{"NAME":"Moses Lake Community Health Center - Administrative Offices &amp; Clinic","CITY":"Moses Lake","CERTAINTY":"1","ZCTA":"98837","AV_CO":"025","ZIP":"98837","N_LCODE":"AS1","N_HOUSENUM":"605","GEOLEVEL":"CENSUSTRACT","ZIPNAME":"98837COOLIDGE","AV_SCORE":100,"N_STREET":"COOLIDGE","Z4LINK":"988371893","AV_ALPHA":"13","TRACT00":"981000","BLOCK00":"2028","PHONE":"509-765-0674","N_ADDRESS":"605 S COOLIDGE ST","N_UNIT":"","X_COORD":-119.26259,"N_ZIP4":"1893","N_STATE":"WA","TRACT90":"981000","BLOCK90":"29","N_ZIP":"98837","AV_ZIP":"98837","BG00":"2","STATE":"WA","N_CITY":"MOSES LAKE","N_POSTDIR":"","AV_DATE":"Thu Sep 27 07:59:43 2007","BG90":"2","ACCURACY":"Close","TRACT90D":"9810.002","N_STRSUF":"ST","Y_COORD":47.12954,"id":"a6303u36sd5e","ADDRESS":"605 Coolidge Drive","N_MCODE":"S83","N_PREDIR":"S","SOURCE":"NAVTECH","QUALITY":"03","TRACT00D":"9810.002","AV_CITY":"MOSES LAKE"},"type":"Feature","geometry":{"type":"Point","coordinates":[-119.26258916042,47.1295440463425]}},{"properties":{"NAME":"Moses Lake Quincy Clinic","CITY":"Quincy","CERTAINTY":"1","ZCTA":"98848","AV_CO":"025","ZIP":"98848","N_LCODE":"AS1","N_HOUSENUM":"1450","GEOLEVEL":"CENSUSTRACT","ZIPNAME":"988481ST","AV_SCORE":100,"N_STREET":"1ST","Z4LINK":"988481695","AV_ALPHA":"13","TRACT00":"980600","BLOCK00":"3021","PHONE":"509-787-6423","N_ADDRESS":"1450 1ST AVE SW","N_UNIT":"","X_COORD":-119.8547,"N_ZIP4":"1695","N_STATE":"WA","TRACT90":"980600","BLOCK90":"06A","N_ZIP":"98848","AV_ZIP":"98848","BG00":"3","STATE":"WA","N_CITY":"QUINCY","N_POSTDIR":"SW","AV_DATE":"Thu Sep 27 07:59:43 2007","BG90":"3","ACCURACY":"Close","TRACT90D":"9806.003","N_STRSUF":"AVE","Y_COORD":47.22619,"id":"a6303u14xrzi","ADDRESS":"1450 First Ave. SW","N_MCODE":"S88","N_PREDIR":"","SOURCE":"NAVTECH","QUALITY":"03","TRACT00D":"9806.003","AV_CITY":"QUINCY"},"type":"Feature","geometry":{"type":"Point","coordinates":[-119.85469600807,47.2261926663315]}},{"properties":{"NAME":"N.A.T.I.V.E. Health of Spokane","CITY":"Spokane","CERTAINTY":"1","ZCTA":"99207","AV_CO":"063","ZIP":"99207","N_LCODE":"AS1","N_HOUSENUM":"505","GEOLEVEL":"CENSUSTRACT","ZIPNAME":"99207NORTH FOOTHILLS","AV_SCORE":100,"N_STREET":"NORTH FOOTHILLS","Z4LINK":"992072101","AV_ALPHA":"32","TRACT00":"001400","BLOCK00":"3029","PHONE":"509-483-7535","N_ADDRESS":"505 E NORTH FOOTHILLS DR","N_UNIT":"","X_COORD":-117.40305,"N_ZIP4":"2101","N_STATE":"WA","TRACT90":"001400","BLOCK90":"07","N_ZIP":"99207","AV_ZIP":"99207","BG00":"3","STATE":"WA","N_CITY":"SPOKANE","N_POSTDIR":"","AV_DATE":"Thu Sep 27 07:59:43 2007","BG90":"3","ACCURACY":"Close","TRACT90D":"0014.003","N_STRSUF":"DR","Y_COORD":47.68305,"id":"a6303u9jvur7","ADDRESS":"505 E. North Foothills","N_MCODE":"S81","N_PREDIR":"E","SOURCE":"Local Roads","QUALITY":"03","TRACT00D":"0014.003","AV_CITY":"SPOKANE"},"type":"Feature","geometry":{"type":"Point","coordinates":[-117.403046174002,47.6830483516544]}},{"properties":{"NAME":"N.A.T.I.V.E. Project - Administrative Offices","CITY":"Spokane","CERTAINTY":"1","ZCTA":"99201","AV_CO":"063","ZIP":"99201","N_LCODE":"AS1","N_HOUSENUM":"1803","GEOLEVEL":"CENSUSTRACT","ZIPNAME":"99201MAXWELL","AV_SCORE":100,"N_STREET":"MAXWELL","Z4LINK":"992012831","AV_ALPHA":"32","TRACT00":"002100","BLOCK00":"2033","PHONE":"509-325-5502","N_ADDRESS":"1803 W MAXWELL AVE","N_UNIT":"","X_COORD":-117.43856,"N_ZIP4":"2831","N_STATE":"WA","TRACT90":"002100","BLOCK90":"06","N_ZIP":"99201","AV_ZIP":"99201","BG00":"2","STATE":"WA","N_CITY":"SPOKANE","N_POSTDIR":"","AV_DATE":"Thu Sep 27 07:59:43 2007","BG90":"4","ACCURACY":"Close","TRACT90D":"0021.004","N_STRSUF":"AVE","Y_COORD":47.67072,"id":"a6303u8d8gof","ADDRESS":"1803 West Maxwell","N_MCODE":"S81","N_PREDIR":"W","SOURCE":"NAVTECH","QUALITY":"03","TRACT00D":"0021.002","AV_CITY":"SPOKANE"},"type":"Feature","geometry":{"type":"Point","coordinates":[-117.438563474503,47.6707166657111]}},{"properties":{"NAME":"NEWHP Chewelah Community Health Center","CITY":"Chewelah","CERTAINTY":"1","ZCTA":"99109","AV_CO":"065","ZIP":"99109","N_LCODE":"AS1","N_HOUSENUM":"518","GEOLEVEL":"CENSUSTRACT","ZIPNAME":"99109CLAY","AV_SCORE":100,"N_STREET":"CLAY","Z4LINK":"991098947","AV_ALPHA":"33","TRACT00":"950700","BLOCK00":"1042","PHONE":"509-935-8424","N_ADDRESS":"518 E CLAY AVE","N_UNIT":"","X_COORD":-117.71141,"N_ZIP4":"8947","N_STATE":"WA","TRACT90":"950700","BLOCK90":"41","N_ZIP":"99109","AV_ZIP":"99109","BG00":"1","STATE":"WA","N_CITY":"CHEWELAH","N_POSTDIR":"","AV_DATE":"Thu Sep 27 07:59:43 2007","BG90":"1","ACCURACY":"Close","TRACT90D":"9507.001","N_STRSUF":"AVE","Y_COORD":48.27722,"id":"a6303txtm6al","ADDRESS":"518 E. Clay St.","N_MCODE":"S81","N_PREDIR":"E","SOURCE":"NAVTECH","QUALITY":"03","TRACT00D":"9507.001","AV_CITY":"CHEWELAH"},"type":"Feature","geometry":{"type":"Point","coordinates":[-117.711410727274,48.2772166657148]}},{"properties":{"NAME":"NEWHP Colville Community Dental Clinic","CITY":"Colville","CERTAINTY":"1","ZCTA":"99114","AV_CO":"065","ZIP":"99114","N_LCODE":"AP0","N_HOUSENUM":"370","GEOLEVEL":"CENSUSTRACT","ZIPNAME":"99114MAIN","AV_SCORE":100,"N_STREET":"MAIN","Z4LINK":"991142310","AV_ALPHA":"33","TRACT00":"950300","BLOCK00":"2058","PHONE":"509-684-1440","N_ADDRESS":"370 N MAIN ST","N_UNIT":"","X_COORD":-117.90573,"N_ZIP4":"2310","N_STATE":"WA","TRACT90":"950300","BLOCK90":"39","N_ZIP":"99114","AV_ZIP":"99114","BG00":"2","STATE":"WA","N_CITY":"COLVILLE","N_POSTDIR":"","AV_DATE":"Thu Sep 27 07:59:43 2007","BG90":"2","ACCURACY":"Close","TRACT90D":"9503.002","N_STRSUF":"ST","Y_COORD":48.54739,"id":"a6303uawm6gm","ADDRESS":"370 N. Main St","N_MCODE":"S80","N_PREDIR":"N","SOURCE":"Local Parcels","QUALITY":"02","TRACT00D":"9503.002","AV_CITY":"COLVILLE"},"type":"Feature","geometry":{"type":"Point","coordinates":[-117.905731201172,48.5473899831807]}},{"properties":{"NAME":"NEWHP Kettle River Community Health Center","CITY":"Orient","CERTAINTY":"1","ZCTA":"99160","AV_CO":"019","ZIP":"99160","N_LCODE":"AS1","N_HOUSENUM":"141","GEOLEVEL":"CENSUSTRACT","ZIPNAME":"991603RD","AV_SCORE":100,"N_STREET":"3RD","Z4LINK":"991609418","AV_ALPHA":"10","TRACT00":"980100","BLOCK00":"1129","PHONE":"509-684-5521","N_ADDRESS":"141 3RD AVE","N_UNIT":"","X_COORD":-118.204,"N_ZIP4":"9418","N_STATE":"WA","TRACT90":"980100","BLOCK90":"24","N_ZIP":"99160","AV_ZIP":"99141","BG00":"1","STATE":"WA","N_CITY":"ORIENT","N_POSTDIR":"","AV_DATE":"Thu Sep 27 07:59:43 2007","BG90":"1","ACCURACY":"Close","TRACT90D":"9801.001","N_STRSUF":"AVE","Y_COORD":48.86585,"id":"a6303u6lo9ul","ADDRESS":"141 Third Ave","N_MCODE":"S88","N_PREDIR":"","SOURCE":"NAVTECH","QUALITY":"03","TRACT00D":"9801.001","AV_CITY":""},"type":"Feature","geometry":{"type":"Point","coordinates":[-118.204000916688,48.8658457718863]}},{"properties":{"NAME":"NEWHP Loon Lake Community Health Center","CITY":"Loon Lake","CERTAINTY":"1","ZCTA":"99148","AV_CO":"065","ZIP":"99148","N_LCODE":"AS1","N_HOUSENUM":"3994","GEOLEVEL":"CENSUSTRACT","ZIPNAME":"99148COLVILLE","AV_SCORE":100,"N_STREET":"COLVILLE","Z4LINK":"991489789","AV_ALPHA":"33","TRACT00":"951100","BLOCK00":"3079","PHONE":"509-233-8412","N_ADDRESS":"3994 COLVILLE RD","N_UNIT":"","X_COORD":-117.63036,"N_ZIP4":"9789","N_STATE":"WA","TRACT90":"951100","BLOCK90":"52","N_ZIP":"99148","AV_ZIP":"99148","BG00":"3","STATE":"WA","N_CITY":"LOON LAKE","N_POSTDIR":"","AV_DATE":"Thu Sep 27 07:59:43 2007","BG90":"3","ACCURACY":"Close","TRACT90D":"9511.003","N_STRSUF":"RD","Y_COORD":48.06284,"id":"a6303tvwp2iw","ADDRESS":"3994 Colville Rd","N_MCODE":"S80","N_PREDIR":"","SOURCE":"Local Roads","QUALITY":"03","TRACT00D":"9511.003","AV_CITY":""},"type":"Feature","geometry":{"type":"Point","coordinates":[-117.630360172559,48.0628432994427]}},{"properties":{"NAME":"NEWHP Northport Community Health Center","CITY":"Northport","CERTAINTY":"1","ZCTA":"99157","AV_CO":"065","ZIP":"99157","N_LCODE":"AS1","N_HOUSENUM":"411","GEOLEVEL":"CENSUSTRACT","ZIPNAME":"99157SUMMIT","AV_SCORE":100,"N_STREET":"SUMMIT","Z4LINK":"","AV_ALPHA":"33","TRACT00":"950100","BLOCK00":"1193","PHONE":"509-732-4252","N_ADDRESS":"411 SUMMIT AVE","N_UNIT":"","X_COORD":-117.78251,"N_ZIP4":"","N_STATE":"WA","TRACT90":"950100","BLOCK90":"40","N_ZIP":"99157","AV_ZIP":"99114","BG00":"1","STATE":"WA","N_CITY":"NORTHPORT","N_POSTDIR":"","AV_DATE":"Thu Sep 27 07:59:43 2007","BG90":"1","ACCURACY":"Close","TRACT90D":"9501.001","N_STRSUF":"AVE","Y_COORD":48.91695,"id":"a6303u9h8i9r","ADDRESS":"411 Summit","N_MCODE":"T81","N_PREDIR":"","SOURCE":"NAVTECH","QUALITY":"03","TRACT00D":"9501.001","AV_CITY":"NORTHPORT"},"type":"Feature","geometry":{"type":"Point","coordinates":[-117.782509785161,48.9169475709854]}},{"properties":{"NAME":"NEWHP Selkirk Community Health Center","CITY":"Ione","CERTAINTY":"1","ZCTA":"99139","AV_CO":"051","ZIP":"99139","N_LCODE":"AS1","N_HOUSENUM":"208","GEOLEVEL":"CENSUSTRACT","ZIPNAME":"99139CEDAR CREEK","AV_SCORE":55,"N_STREET":"CEDAR CREEK","Z4LINK":"","AV_ALPHA":"26","TRACT00":"970100","BLOCK00":"1081","PHONE":"509-442-3514","N_ADDRESS":"208 CEDAR CREEK TERRACE","N_UNIT":"","X_COORD":-117.43261,"N_ZIP4":"","N_STATE":"WA","TRACT90":"970100","BLOCK90":"61B","N_ZIP":"99139","AV_ZIP":"99139","BG00":"1","STATE":"WA","N_CITY":"IONE","N_POSTDIR":"","AV_DATE":"Thu Sep 27 07:59:43 2007","BG90":"1","ACCURACY":"Approximate","TRACT90D":"9701.001","N_STRSUF":"TER","Y_COORD":48.74883,"id":"a6303txmo6j9","ADDRESS":"208 Cedar Creek Terrace","N_MCODE":"E022","N_PREDIR":"","SOURCE":"NAVTECH","QUALITY":"03","TRACT00D":"9701.001","AV_CITY":""},"type":"Feature","geometry":{"type":"Point","coordinates":[-117.432614839112,48.7488317249536]}},{"properties":{"NAME":"NEWHP Springdale Community Health Center","CITY":"Springdale","CERTAINTY":"1","ZCTA":"99173","AV_CO":"065","ZIP":"99173","N_LCODE":"AS0","N_HOUSENUM":"114","GEOLEVEL":"CENSUSTRACT","ZIPNAME":"99173MAIN","AV_SCORE":70,"N_STREET":"MAIN","Z4LINK":"991739740","AV_ALPHA":"33","TRACT00":"951100","BLOCK00":"1029","PHONE":"509-258-4234","N_ADDRESS":"114 S MAIN ST","N_UNIT":"","X_COORD":-117.74171,"N_ZIP4":"9740","N_STATE":"WA","TRACT90":"951100","BLOCK90":"63","N_ZIP":"99173","AV_ZIP":"99173","BG00":"1","STATE":"WA","N_CITY":"SPRINGDALE","N_POSTDIR":"","AV_DATE":"Thu Sep 27 07:59:43 2007","BG90":"1","ACCURACY":"Approximate","TRACT90D":"9511.001","N_STRSUF":"ST","Y_COORD":48.05566,"id":"a6303u1emjod","ADDRESS":"114 S. Main","N_MCODE":"S81","N_PREDIR":"S","SOURCE":"Centrus","QUALITY":"03","TRACT00D":"9511.001","AV_CITY":"SPRINGDALE"},"type":"Feature","geometry":{"type":"Point","coordinates":[-117.741707,48.0556599990467]}},{"properties":{"NAME":"NorthEast Washington Health Programs (NEWHP) - Administrative Offices","CITY":"Chewelah","CERTAINTY":"1","ZCTA":"99109","AV_CO":"065","ZIP":"99109","N_LCODE":"AP0","N_HOUSENUM":"509","GEOLEVEL":"CENSUSTRACT","ZIPNAME":"99109MAIN","AV_SCORE":100,"N_STREET":"MAIN","Z4LINK":"991098964","AV_ALPHA":"33","TRACT00":"950700","BLOCK00":"1047","PHONE":"509-935-6001","N_ADDRESS":"509 E MAIN AVE","N_UNIT":"","X_COORD":-117.71043,"N_ZIP4":"8964","N_STATE":"WA","TRACT90":"950700","BLOCK90":"47A","N_ZIP":"99109","AV_ZIP":"99109","BG00":"1","STATE":"WA","N_CITY":"CHEWELAH","N_POSTDIR":"","AV_DATE":"Thu Sep 27 07:59:43 2007","BG90":"1","ACCURACY":"Close","TRACT90D":"9507.001","N_STRSUF":"AVE","Y_COORD":48.27629,"id":"a6303u939kbt","ADDRESS":"509 E. Main Street","N_MCODE":"S81","N_PREDIR":"E","SOURCE":"Local Parcels","QUALITY":"02","TRACT00D":"9507.001","AV_CITY":"CHEWELAH"},"type":"Feature","geometry":{"type":"Point","coordinates":[-117.710433959961,48.2762947073]}},{"properties":{"NAME":"PCHS Bremerton Medical &amp; Dental","CITY":"Bremerton","CERTAINTY":"1","ZCTA":"98337","AV_CO":"035","ZIP":"98337","N_LCODE":"AP0","N_HOUSENUM":"616","GEOLEVEL":"CENSUSTRACT","ZIPNAME":"983376TH","AV_SCORE":100,"N_STREET":"6TH","Z4LINK":"983371420","AV_ALPHA":"18","TRACT00":"080500","BLOCK00":"2020","PHONE":"360-377-3776  360-478-2368 (Dental)","N_ADDRESS":"616 6TH ST","N_UNIT":"","X_COORD":-122.62899,"N_ZIP4":"1420","N_STATE":"WA","TRACT90":"080500","BLOCK90":"22","N_ZIP":"98337","AV_ZIP":"98337","BG00":"2","STATE":"WA","N_CITY":"BREMERTON","N_POSTDIR":"","AV_DATE":"Thu Sep 27 07:59:43 2007","BG90":"2","ACCURACY":"Close","TRACT90D":"0805.002","N_STRSUF":"ST","Y_COORD":47.56767,"id":"a6303tvvbabn","ADDRESS":"616 Sixth St","N_MCODE":"S88","N_PREDIR":"","SOURCE":"Local Parcels","QUALITY":"02","TRACT00D":"0805.002","AV_CITY":"BREMERTON"},"type":"Feature","geometry":{"type":"Point","coordinates":[-122.628985395,47.5676690680439]}},{"properties":{"NAME":"PCHS Port Orchard","CITY":"Port Orchard","CERTAINTY":"1","ZCTA":"98366","AV_CO":"035","ZIP":"98366","N_LCODE":"AS1","N_HOUSENUM":"320","GEOLEVEL":"CENSUSTRACT","ZIPNAME":"98366KITSAP","AV_SCORE":100,"N_STREET":"KITSAP","Z4LINK":"983663778","AV_ALPHA":"18","TRACT00":"092200","BLOCK00":"3005","PHONE":"360-876-7215","N_ADDRESS":"320 S KITSAP BLVD","N_UNIT":"","X_COORD":-122.65289,"N_ZIP4":"3778","N_STATE":"WA","TRACT90":"092200","BLOCK90":"02","N_ZIP":"98366","AV_ZIP":"98366","BG00":"3","STATE":"WA","N_CITY":"PORT ORCHARD","N_POSTDIR":"","AV_DATE":"Thu Sep 27 07:59:43 2007","BG90":"4","ACCURACY":"Close","TRACT90D":"0922.004","N_STRSUF":"BLVD","Y_COORD":47.5225,"id":"a6303u369wiz","ADDRESS":"320 South Kitsap Blvd","N_MCODE":"S80","N_PREDIR":"S","SOURCE":"GDT 1000","QUALITY":"03","TRACT00D":"0922.003","AV_CITY":"PORT ORCHARD"},"type":"Feature","geometry":{"type":"Point","coordinates":[-122.652888170926,47.5224961618147]}},{"properties":{"NAME":"PCHS Poulsbo","CITY":"Poulsbo","CERTAINTY":"1","ZCTA":"98370","AV_CO":"035","ZIP":"98370","N_LCODE":"AS1","N_HOUSENUM":"19045","GEOLEVEL":"CENSUSTRACT","ZIPNAME":"98370STATE HIGHWAY 305","AV_SCORE":100,"N_STREET":"STATE HIGHWAY 305","Z4LINK":"983707311","AV_ALPHA":"18","TRACT00":"090500","BLOCK00":"4000","PHONE":"360-779-1963","N_ADDRESS":"19045 STATE HIGHWAY 305 NE","N_UNIT":"","X_COORD":-122.63753,"N_ZIP4":"7311","N_STATE":"WA","TRACT90":"090500","BLOCK90":"01","N_ZIP":"98370","AV_ZIP":"98370","BG00":"4","STATE":"WA","N_CITY":"POULSBO","N_POSTDIR":"NE","AV_DATE":"Thu Sep 27 07:59:43 2007","BG90":"4","ACCURACY":"Close","TRACT90D":"0905.004","N_STRSUF":"","Y_COORD":47.73613,"id":"a6303u6jhpaw","ADDRESS":"19045 Hwy 305","N_MCODE":"S84","N_PREDIR":"","SOURCE":"TIGER 2000","QUALITY":"03","TRACT00D":"0905.004","AV_CITY":"POULSBO"},"type":"Feature","geometry":{"type":"Point","coordinates":[-122.637530537871,47.73613479229]}},{"properties":{"NAME":"PSNHC 45th St. Medical, Dental &amp; Homeless","CITY":"Seattle","CERTAINTY":"1","ZCTA":"98103","AV_CO":"033","ZIP":"98103","N_LCODE":"AP0","N_HOUSENUM":"1629","GEOLEVEL":"CENSUSTRACT","ZIPNAME":"9810345TH","AV_SCORE":100,"N_STREET":"45TH","Z4LINK":"981036701","AV_ALPHA":"17","TRACT00":"005000","BLOCK00":"1016","PHONE":"206-633-3350  206-633-7650 (Homeless)","N_ADDRESS":"1629 N 45TH ST","N_UNIT":"","X_COORD":-122.33774,"N_ZIP4":"6701","N_STATE":"WA","TRACT90":"005000","BLOCK90":"18","N_ZIP":"98103","AV_ZIP":"98103","BG00":"1","STATE":"WA","N_CITY":"SEATTLE","N_POSTDIR":"","AV_DATE":"Thu Sep 27 07:59:43 2007","BG90":"1","ACCURACY":"Close","TRACT90D":"0050.001","N_STRSUF":"ST","Y_COORD":47.66109,"id":"a6303u1x6wv9","ADDRESS":"1629 N. 45th St.","N_MCODE":"S80","N_PREDIR":"N","SOURCE":"Local Parcels","QUALITY":"02","TRACT00D":"0050.001","AV_CITY":"SEATTLE"},"type":"Feature","geometry":{"type":"Point","coordinates":[-122.33774068,47.6610850810445]}},{"properties":{"NAME":"PSNHC Central Area Dental Clinic","CITY":"Seattle","CERTAINTY":"1","ZCTA":"98122","AV_CO":"033","ZIP":"98122","N_LCODE":"AS1","N_HOUSENUM":"2101","GEOLEVEL":"CENSUSTRACT","ZIPNAME":"98122YESLER","AV_SCORE":100,"N_STREET":"YESLER","Z4LINK":"981225959","AV_ALPHA":"17","TRACT00":"009000","BLOCK00":"1002","PHONE":"206-461-7801","N_ADDRESS":"2101 E YESLER WAY","N_UNIT":"","X_COORD":-122.30501,"N_ZIP4":"5959","N_STATE":"WA","TRACT90":"009000","BLOCK90":"03","N_ZIP":"98122","AV_ZIP":"98144","BG00":"1","STATE":"WA","N_CITY":"SEATTLE","N_POSTDIR":"","AV_DATE":"Thu Sep 27 07:59:43 2007","BG90":"1","ACCURACY":"Close","TRACT90D":"0090.001","N_STRSUF":"WAY","Y_COORD":47.60159,"id":"a6303u45aisv","ADDRESS":"2101 E. Yesler Way","N_MCODE":"S80","N_PREDIR":"E","SOURCE":"Local Roads","QUALITY":"03","TRACT00D":"0090.001","AV_CITY":"SEATTLE"},"type":"Feature","geometry":{"type":"Point","coordinates":[-122.305013331469,47.6015863115935]}},{"properties":{"NAME":"PSNHC Denny Wellness Center","CITY":"Seattle","CERTAINTY":"1","ZCTA":"98106","AV_CO":"033","ZIP":"98126","N_LCODE":"AP0","N_HOUSENUM":"8402","GEOLEVEL":"CENSUSTRACT","ZIPNAME":"9812630TH","AV_SCORE":100,"N_STREET":"30TH","Z4LINK":"981263711","AV_ALPHA":"17","TRACT00":"011400","BLOCK00":"2009","PHONE":"206-923-2809","N_ADDRESS":"8402 30TH AVE SW","N_UNIT":"","X_COORD":-122.37051,"N_ZIP4":"3711","N_STATE":"WA","TRACT90":"011400","BLOCK90":"01","N_ZIP":"98126","AV_ZIP":"98126","BG00":"2","STATE":"WA","N_CITY":"SEATTLE","N_POSTDIR":"SW","AV_DATE":"Thu Sep 27 07:59:43 2007","BG90":"2","ACCURACY":"Close","TRACT90D":"0114.002","N_STRSUF":"AVE","Y_COORD":47.52738,"id":"a6303u1c9u0l","ADDRESS":"8402 30th Ave. SW","N_MCODE":"S80","N_PREDIR":"","SOURCE":"Local Parcels","QUALITY":"02","TRACT00D":"0114.002","AV_CITY":"SEATTLE"},"type":"Feature","geometry":{"type":"Point","coordinates":[-122.370514787,47.5273792970437]}},{"properties":{"NAME":"PSNHC Georgetown Family Dental Clinic","CITY":"Seattle","CERTAINTY":"1","ZCTA":"98108","AV_CO":"033","ZIP":"98108","N_LCODE":"AP0","N_HOUSENUM":"6200","GEOLEVEL":"CENSUSTRACT","ZIPNAME":"9810813TH","AV_SCORE":100,"N_STREET":"13TH","Z4LINK":"981082706","AV_ALPHA":"17","TRACT00":"010900","BLOCK00":"2079","PHONE":"206-461-6943","N_ADDRESS":"6200 13TH AVE S","N_UNIT":"","X_COORD":-122.31577,"N_ZIP4":"2706","N_STATE":"WA","TRACT90":"010900","BLOCK90":"19","N_ZIP":"98108","AV_ZIP":"98108","BG00":"2","STATE":"WA","N_CITY":"SEATTLE","N_POSTDIR":"S","AV_DATE":"Thu Sep 27 07:59:43 2007","BG90":"2","ACCURACY":"Close","TRACT90D":"0109.002","N_STRSUF":"AVE","Y_COORD":47.54749,"id":"a6303tvag06v","ADDRESS":"6200 13th Ave. S.","N_MCODE":"S80","N_PREDIR":"","SOURCE":"Local Parcels","QUALITY":"02","TRACT00D":"0109.002","AV_CITY":"SEATTLE"},"type":"Feature","geometry":{"type":"Point","coordinates":[-122.315768989,47.5474931880439]}},{"properties":{"NAME":"PSNHC Greenwood Medical Clinic","CITY":"Seattle","CERTAINTY":"1","ZCTA":"98103","AV_CO":"033","ZIP":"98103","N_LCODE":"AP0","N_HOUSENUM":"415","GEOLEVEL":"CENSUSTRACT","ZIPNAME":"9810385TH","AV_SCORE":100,"N_STREET":"85TH","Z4LINK":"981033701","AV_ALPHA":"17","TRACT00":"002800","BLOCK00":"5001","PHONE":"206-782-8660","N_ADDRESS":"415 N 85TH ST","N_UNIT":"","X_COORD":-122.35344,"N_ZIP4":"3701","N_STATE":"WA","TRACT90":"002800","BLOCK90":"12","N_ZIP":"98103","AV_ZIP":"98103","BG00":"5","STATE":"WA","N_CITY":"SEATTLE","N_POSTDIR":"","AV_DATE":"Thu Sep 27 07:59:43 2007","BG90":"5","ACCURACY":"Close","TRACT90D":"0028.005","N_STRSUF":"ST","Y_COORD":47.69021,"id":"a6303u9vrdoc","ADDRESS":"415 N. 85th St.","N_MCODE":"S80","N_PREDIR":"N","SOURCE":"Local Parcels","QUALITY":"02","TRACT00D":"0028.005","AV_CITY":"SEATTLE"},"type":"Feature","geometry":{"type":"Point","coordinates":[-122.353437414,47.6902129850447]}},{"properties":{"NAME":"PSNHC High Point Medical &amp; Dental Clinic","CITY":"Seattle","CERTAINTY":"1","ZCTA":"98126","AV_CO":"033","ZIP":"98126","N_LCODE":"AS1","N_HOUSENUM":"6020","GEOLEVEL":"CENSUSTRACT","ZIPNAME":"9812635TH","AV_SCORE":100,"N_STREET":"35TH","Z4LINK":"981263002","AV_ALPHA":"17","TRACT00":"010600","BLOCK00":"1008","PHONE":"206-461-6950","N_ADDRESS":"6020 35TH AVE SW","N_UNIT":"","X_COORD":-122.37629,"N_ZIP4":"3002","N_STATE":"WA","TRACT90":"010600","BLOCK90":"09","N_ZIP":"98126","AV_ZIP":"98126","BG00":"1","STATE":"WA","N_CITY":"SEATTLE","N_POSTDIR":"SW","AV_DATE":"Thu Sep 27 07:59:43 2007","BG90":"1","ACCURACY":"Close","TRACT90D":"0106.001","N_STRSUF":"AVE","Y_COORD":47.54821,"id":"a6303twqqhll","ADDRESS":"6020 35th Ave. SW","N_MCODE":"S80","N_PREDIR":"","SOURCE":"Local Roads","QUALITY":"03","TRACT00D":"0106.001","AV_CITY":"SEATTLE"},"type":"Feature","geometry":{"type":"Point","coordinates":[-122.37629013432,47.5482098769544]}},{"properties":{"NAME":"PSNHC Madison Wellness Center","CITY":"Seattle","CERTAINTY":"1","ZCTA":"98116","AV_CO":"033","ZIP":"98116","N_LCODE":"AP0","N_HOUSENUM":"3429","GEOLEVEL":"CENSUSTRACT","ZIPNAME":"9811645TH","AV_SCORE":100,"N_STREET":"45TH","Z4LINK":"981163330","AV_ALPHA":"17","TRACT00":"009702","BLOCK00":"1017","PHONE":"206-933-7842","N_ADDRESS":"3429 45TH AVE SW","N_UNIT":"","X_COORD":-122.39078,"N_ZIP4":"3330","N_STATE":"WA","TRACT90":"009700","BLOCK90":"20","N_ZIP":"98116","AV_ZIP":"98116","BG00":"1","STATE":"WA","N_CITY":"SEATTLE","N_POSTDIR":"SW","AV_DATE":"Thu Sep 27 07:59:43 2007","BG90":"1","ACCURACY":"Close","TRACT90D":"0097.001","N_STRSUF":"AVE","Y_COORD":47.57255,"id":"a6303tww2j7l","ADDRESS":"3429 45th Ave. SW","N_MCODE":"S80","N_PREDIR":"","SOURCE":"Local Parcels","QUALITY":"02","TRACT00D":"0097.021","AV_CITY":"SEATTLE"},"type":"Feature","geometry":{"type":"Point","coordinates":[-122.390777621,47.572546518044]}},{"properties":{"NAME":"PSNHC Midwifery and Women's Health","CITY":"Seattle","CERTAINTY":"1","ZCTA":"98112","AV_CO":"033","ZIP":"98112","N_LCODE":"AP0","N_HOUSENUM":"201","GEOLEVEL":"CENSUSTRACT","ZIPNAME":"9811216TH","AV_SCORE":100,"N_STREET":"16TH","Z4LINK":"981125226","AV_ALPHA":"17","TRACT00":"007600","BLOCK00":"3008","PHONE":"206-324-1449","N_ADDRESS":"201 16TH AVE E","N_UNIT":"","X_COORD":-122.31207,"N_ZIP4":"5226","N_STATE":"WA","TRACT90":"007600","BLOCK90":"09","N_ZIP":"98112","AV_ZIP":"98112","BG00":"3","STATE":"WA","N_CITY":"SEATTLE","N_POSTDIR":"E","AV_DATE":"Thu Sep 27 07:59:43 2007","BG90":"3","ACCURACY":"Close","TRACT90D":"0076.003","N_STRSUF":"AVE","Y_COORD":47.61994,"id":"a6303tvrne5e","ADDRESS":"201 16th Ave. E.","N_MCODE":"S80","N_PREDIR":"","SOURCE":"Local Parcels","QUALITY":"02","TRACT00D":"0076.003","AV_CITY":"SEATTLE"},"type":"Feature","geometry":{"type":"Point","coordinates":[-122.312067147,47.6199390160442]}},{"properties":{"NAME":"PSNHC Pike Market Medical Clinic","CITY":"Seattle","CERTAINTY":"1","ZCTA":"98101","AV_CO":"033","ZIP":"98101","N_LCODE":"AS1","N_HOUSENUM":"1930","GEOLEVEL":"CENSUSTRACT","ZIPNAME":"98101POST","AV_SCORE":100,"N_STREET":"POST","Z4LINK":"981011015","AV_ALPHA":"17","TRACT00":"008002","BLOCK00":"1008","PHONE":"206-728-4143","N_ADDRESS":"1930 POST ALY","N_UNIT":"","X_COORD":-122.34212,"N_ZIP4":"1015","N_STATE":"WA","TRACT90":"008000","BLOCK90":"05","N_ZIP":"98101","AV_ZIP":"98101","BG00":"1","STATE":"WA","N_CITY":"SEATTLE","N_POSTDIR":"","AV_DATE":"Thu Sep 27 07:59:43 2007","BG90":"2","ACCURACY":"Close","TRACT90D":"0080.002","N_STRSUF":"ALY","Y_COORD":47.61017,"id":"a6303u3xuigg","ADDRESS":"1930 Post Alley","N_MCODE":"S80","N_PREDIR":"","SOURCE":"NAVTECH","QUALITY":"03","TRACT00D":"0080.021","AV_CITY":"SEATTLE"},"type":"Feature","geometry":{"type":"Point","coordinates":[-122.342118637511,47.6101741348974]}},{"properties":{"NAME":"PSNHC Rainier Beach Medical Clinic","CITY":"Seattle","CERTAINTY":"1","ZCTA":"98118","AV_CO":"033","ZIP":"98118","N_LCODE":"AP0","N_HOUSENUM":"8444","GEOLEVEL":"CENSUSTRACT","ZIPNAME":"98118RAINIER","AV_SCORE":100,"N_STREET":"RAINIER","Z4LINK":"981184655","AV_ALPHA":"17","TRACT00":"011800","BLOCK00":"6005","PHONE":"206-722-8444","N_ADDRESS":"8444 RAINIER AVE S","N_UNIT":"","X_COORD":-122.26948,"N_ZIP4":"4655","N_STATE":"WA","TRACT90":"011800","BLOCK90":"12","N_ZIP":"98118","AV_ZIP":"98118","BG00":"6","STATE":"WA","N_CITY":"SEATTLE","N_POSTDIR":"S","AV_DATE":"Thu Sep 27 07:59:43 2007","BG90":"6","ACCURACY":"Close","TRACT90D":"0118.006","N_STRSUF":"AVE","Y_COORD":47.5268,"id":"a6303u89q2sp","ADDRESS":"8444 Rainier Ave. S.","N_MCODE":"S80","N_PREDIR":"","SOURCE":"Local Parcels","QUALITY":"02","TRACT00D":"0118.006","AV_CITY":"SEATTLE"},"type":"Feature","geometry":{"type":"Point","coordinates":[-122.269479034,47.5267999460437]}},{"properties":{"NAME":"PSNHC Rainier Park Medical Clinic","CITY":"Seattle","CERTAINTY":"1","ZCTA":"98118","AV_CO":"033","ZIP":"98118","N_LCODE":"AP0","N_HOUSENUM":"4400","GEOLEVEL":"CENSUSTRACT","ZIPNAME":"9811837TH","AV_SCORE":100,"N_STREET":"37TH","Z4LINK":"981181609","AV_ALPHA":"17","TRACT00":"010100","BLOCK00":"5015","PHONE":"206-461-6957","N_ADDRESS":"4400 37TH AVE S","N_UNIT":"","X_COORD":-122.28572,"N_ZIP4":"1609","N_STATE":"WA","TRACT90":"010100","BLOCK90":"03","N_ZIP":"98118","AV_ZIP":"98118","BG00":"5","STATE":"WA","N_CITY":"SEATTLE","N_POSTDIR":"S","AV_DATE":"Thu Sep 27 07:59:43 2007","BG90":"5","ACCURACY":"Close","TRACT90D":"0101.005","N_STRSUF":"AVE","Y_COORD":47.56347,"id":"a6303u1lds3c","ADDRESS":"4400 37th Ave.  S.","N_MCODE":"S80","N_PREDIR":"","SOURCE":"Local Parcels","QUALITY":"02","TRACT00D":"0101.005","AV_CITY":"SEATTLE"},"type":"Feature","geometry":{"type":"Point","coordinates":[-122.285716113,47.563472974044]}},{"properties":{"NAME":"PSNHC Roosevelt Teen Health","CITY":"Seattle","CERTAINTY":"1","ZCTA":"98115","AV_CO":"033","ZIP":"98115","N_LCODE":"AP0","N_HOUSENUM":"1410","GEOLEVEL":"CENSUSTRACT","ZIPNAME":"9811566TH","AV_SCORE":100,"N_STREET":"66TH","Z4LINK":"981156744","AV_ALPHA":"17","TRACT00":"002600","BLOCK00":"3005","PHONE":"206-527-8336","N_ADDRESS":"1410 NE 66TH ST","N_UNIT":"","X_COORD":-122.31337,"N_ZIP4":"6744","N_STATE":"WA","TRACT90":"002600","BLOCK90":"11","N_ZIP":"98115","AV_ZIP":"98115","BG00":"3","STATE":"WA","N_CITY":"SEATTLE","N_POSTDIR":"","AV_DATE":"Thu Sep 27 07:59:43 2007","BG90":"3","ACCURACY":"Close","TRACT90D":"0026.003","N_STRSUF":"ST","Y_COORD":47.67728,"id":"a6303u6ovh20","ADDRESS":"1410 NE 66th St","N_MCODE":"S80","N_PREDIR":"NE","SOURCE":"Local Parcels","QUALITY":"02","TRACT00D":"0026.003","AV_CITY":"SEATTLE"},"type":"Feature","geometry":{"type":"Point","coordinates":[-122.313366812,47.6772775120445]}},{"properties":{"NAME":"PSNHC Sealth Teen Health Center","CITY":"Seattle","CERTAINTY":"1","ZCTA":"98106","AV_CO":"033","ZIP":"98126","N_LCODE":"AS1","N_HOUSENUM":"2600","GEOLEVEL":"CENSUSTRACT","ZIPNAME":"98126THISTLE","AV_SCORE":100,"N_STREET":"THISTLE","Z4LINK":"981263748","AV_ALPHA":"17","TRACT00":"011400","BLOCK00":"1007","PHONE":"206-938-1360","N_ADDRESS":"2600 SW THISTLE ST","N_UNIT":"","X_COORD":-122.36632,"N_ZIP4":"3748","N_STATE":"WA","TRACT90":"011400","BLOCK90":"11","N_ZIP":"98126","AV_ZIP":"98106","BG00":"1","STATE":"WA","N_CITY":"SEATTLE","N_POSTDIR":"","AV_DATE":"Thu Sep 27 07:59:43 2007","BG90":"1","ACCURACY":"Close","TRACT90D":"0114.001","N_STRSUF":"ST","Y_COORD":47.52836,"id":"a6303u5v8ucs","ADDRESS":"2600 SW Thistle St.","N_MCODE":"S80","N_PREDIR":"SW","SOURCE":"Local Roads","QUALITY":"03","TRACT00D":"0114.001","AV_CITY":"SEATTLE"},"type":"Feature","geometry":{"type":"Point","coordinates":[-122.366324744027,47.5283621849144]}},{"properties":{"NAME":"PSNHC Southeast Family Dental Clinic","CITY":"Seattle","CERTAINTY":"1","ZCTA":"98118","AV_CO":"033","ZIP":"98118","N_LCODE":"AS1","N_HOUSENUM":"3800","GEOLEVEL":"CENSUSTRACT","ZIPNAME":"98118MYRTLE","AV_SCORE":100,"N_STREET":"MYRTLE","Z4LINK":"981183529","AV_ALPHA":"17","TRACT00":"011000","BLOCK00":"1010","PHONE":"206-461-6981","N_ADDRESS":"3800 S MYRTLE ST","N_UNIT":"","X_COORD":-122.28472,"N_ZIP4":"3529","N_STATE":"WA","TRACT90":"011000","BLOCK90":"05","N_ZIP":"98118","AV_ZIP":"98118","BG00":"1","STATE":"WA","N_CITY":"SEATTLE","N_POSTDIR":"","AV_DATE":"Thu Sep 27 07:59:43 2007","BG90":"1","ACCURACY":"Close","TRACT90D":"0110.001","N_STRSUF":"ST","Y_COORD":47.53896,"id":"a6303uai3o8h","ADDRESS":"3800 S. Myrtle St.","N_MCODE":"S80","N_PREDIR":"S","SOURCE":"Local Roads","QUALITY":"03","TRACT00D":"0110.001","AV_CITY":"SEATTLE"},"type":"Feature","geometry":{"type":"Point","coordinates":[-122.284717968724,47.5389622172328]}},{"properties":{"NAME":"PSNHC West Seattle Teen Health Center","CITY":"Seattle","CERTAINTY":"1","ZCTA":"98116","AV_CO":"033","ZIP":"98116","N_LCODE":"AP0","N_HOUSENUM":"3000","GEOLEVEL":"CENSUSTRACT","ZIPNAME":"98116CALIFORNIA","AV_SCORE":100,"N_STREET":"CALIFORNIA","Z4LINK":"981163302","AV_ALPHA":"17","TRACT00":"009800","BLOCK00":"8006","PHONE":"206-658-8048","N_ADDRESS":"3000 CALIFORNIA AVE SW","N_UNIT":"","X_COORD":-122.38609,"N_ZIP4":"3302","N_STATE":"WA","TRACT90":"009800","BLOCK90":"03","N_ZIP":"98116","AV_ZIP":"98116","BG00":"8","STATE":"WA","N_CITY":"SEATTLE","N_POSTDIR":"SW","AV_DATE":"Thu Sep 27 07:59:43 2007","BG90":"8","ACCURACY":"Close","TRACT90D":"0098.008","N_STRSUF":"AVE","Y_COORD":47.57673,"id":"a6303tvi2lgy","ADDRESS":"3000 California Ave. SW","N_MCODE":"S80","N_PREDIR":"","SOURCE":"Local Parcels","QUALITY":"02","TRACT00D":"0098.008","AV_CITY":"SEATTLE"},"type":"Feature","geometry":{"type":"Point","coordinates":[-122.386087546,47.576726211044]}},{"properties":{"NAME":"Peninsula Community Health Services (PCHS) - Administrative Offices","CITY":"Bremerton","CERTAINTY":"1","ZCTA":"98337","AV_CO":"035","ZIP":"98337","N_LCODE":"AP0","N_HOUSENUM":"400","GEOLEVEL":"CENSUSTRACT","ZIPNAME":"98337WARREN","AV_SCORE":100,"N_STREET":"WARREN","Z4LINK":"983371487","AV_ALPHA":"18","TRACT00":"080500","BLOCK00":"4007","PHONE":"360-478-2366","N_ADDRESS":"400 WARREN AVE","N_UNIT":"","X_COORD":-122.63238,"N_ZIP4":"1487","N_STATE":"WA","TRACT90":"081300","BLOCK90":"16","N_ZIP":"98337","AV_ZIP":"98337","BG00":"4","STATE":"WA","N_CITY":"BREMERTON","N_POSTDIR":"","AV_DATE":"Thu Sep 27 07:59:43 2007","BG90":"1","ACCURACY":"Close","TRACT90D":"0813.001","N_STRSUF":"AVE","Y_COORD":47.56617,"id":"a6303u6e6h0v","ADDRESS":"400 Warren Ave","N_MCODE":"S80","N_PREDIR":"","SOURCE":"Local Parcels","QUALITY":"02","TRACT00D":"0805.004","AV_CITY":"BREMERTON"},"type":"Feature","geometry":{"type":"Point","coordinates":[-122.632381662,47.566171346044]}},{"properties":{"NAME":"Puget Sound Neighborhood Health Centers (PSNHC) - Administrative Offices","CITY":"Seattle","CERTAINTY":"1","ZCTA":"98104","AV_CO":"033","ZIP":"98104","N_LCODE":"AS1","N_HOUSENUM":"905","GEOLEVEL":"CENSUSTRACT","ZIPNAME":"98104SPRUCE","AV_SCORE":100,"N_STREET":"SPRUCE","Z4LINK":"981042474","AV_ALPHA":"17","TRACT00":"008500","BLOCK00":"2018","PHONE":"206-461-6935","N_ADDRESS":"905 SPRUCE ST","N_UNIT":"","X_COORD":-122.32204,"N_ZIP4":"2474","N_STATE":"WA","TRACT90":"008500","BLOCK90":"10","N_ZIP":"98104","AV_ZIP":"98104","BG00":"2","STATE":"WA","N_CITY":"SEATTLE","N_POSTDIR":"","AV_DATE":"Thu Sep 27 07:59:43 2007","BG90":"2","ACCURACY":"Close","TRACT90D":"0085.002","N_STRSUF":"ST","Y_COORD":47.60265,"id":"a6303u7msvlc","ADDRESS":"905 Spruce Street","N_MCODE":"S80","N_PREDIR":"","SOURCE":"Local Roads","QUALITY":"03","TRACT00D":"0085.002","AV_CITY":"SEATTLE"},"type":"Feature","geometry":{"type":"Point","coordinates":[-122.322042553367,47.6026507695755]}},{"properties":{"NAME":"Sea Mar Aberdeen Medical &amp; Dental","CITY":"Aberdeen","CERTAINTY":"1","ZCTA":"98520","AV_CO":"027","ZIP":"98520","N_LCODE":"AS1","N_HOUSENUM":"1813","GEOLEVEL":"CENSUSTRACT","ZIPNAME":"98520SUMNER","AV_SCORE":100,"N_STREET":"SUMNER","Z4LINK":"985204600","AV_ALPHA":"14","TRACT00":"001200","BLOCK00":"2039","PHONE":"360-538-1293  360-538-1463 (Dental)","N_ADDRESS":"1813 SUMNER AVE","N_UNIT":"","X_COORD":-123.83781,"N_ZIP4":"4600","N_STATE":"WA","TRACT90":"001200","BLOCK90":"37","N_ZIP":"98520","AV_ZIP":"98520","BG00":"2","STATE":"WA","N_CITY":"ABERDEEN","N_POSTDIR":"","AV_DATE":"Thu Sep 27 07:59:43 2007","BG90":"2","ACCURACY":"Close","TRACT90D":"0012.002","N_STRSUF":"AVE","Y_COORD":46.97597,"id":"a6303u5uh5uh","ADDRESS":"1813 Sumner Ave.","N_MCODE":"S80","N_PREDIR":"","SOURCE":"NAVTECH","QUALITY":"03","TRACT00D":"0012.002","AV_CITY":"ABERDEEN"},"type":"Feature","geometry":{"type":"Point","coordinates":[-123.837808801119,46.975969721064]}},{"properties":{"NAME":"Sea Mar Behavioral Health Clinic &amp; Homeless","CITY":"Mt. Vernon","CERTAINTY":"1","ZCTA":"98273","AV_CO":"057","ZIP":"98273","N_LCODE":"AS1","N_HOUSENUM":"2500","GEOLEVEL":"CENSUSTRACT","ZIPNAME":"98273COLLEGE","AV_SCORE":100,"N_STREET":"COLLEGE","Z4LINK":"982735862","AV_ALPHA":"29","TRACT00":"952300","BLOCK00":"1006","PHONE":"360-428-8912","N_ADDRESS":"2500 E COLLEGE WAY","N_UNIT":"","X_COORD":-122.30957,"N_ZIP4":"5862","N_STATE":"WA","TRACT90":"952300","BLOCK90":"04","N_ZIP":"98273","AV_ZIP":"98273","BG00":"1","STATE":"WA","N_CITY":"MOUNT VERNON","N_POSTDIR":"","AV_DATE":"Thu Sep 27 07:59:43 2007","BG90":"1","ACCURACY":"Close","TRACT90D":"9523.001","N_STRSUF":"WAY","Y_COORD":48.43551,"id":"a6303tzujdo2","ADDRESS":"2500 E. College","N_MCODE":"SA1","N_PREDIR":"E","SOURCE":"NAVTECH","QUALITY":"03","TRACT00D":"9523.001","AV_CITY":"MOUNT VERNON"},"type":"Feature","geometry":{"type":"Point","coordinates":[-122.309572941449,48.4355142253519]}},{"properties":{"NAME":"Sea Mar Bellingham Medical, Dental &amp; Behavioral Health","CITY":"Bellingham","CERTAINTY":"1","ZCTA":"98226","AV_CO":"073","ZIP":"98226","N_LCODE":"AS1","N_HOUSENUM":"4455","GEOLEVEL":"CENSUSTRACT","ZIPNAME":"98226CORDATA","AV_SCORE":100,"N_STREET":"CORDATA","Z4LINK":"982268037","AV_ALPHA":"37","TRACT00":"000200","BLOCK00":"1059","PHONE":"360-671-3225","N_ADDRESS":"4455 CORDATA PKWY","N_UNIT":"","X_COORD":-122.49621,"N_ZIP4":"8037","N_STATE":"WA","TRACT90":"000200","BLOCK90":"27B","N_ZIP":"98226","AV_ZIP":"98226","BG00":"1","STATE":"WA","N_CITY":"BELLINGHAM","N_POSTDIR":"","AV_DATE":"Thu Sep 27 07:59:43 2007","BG90":"1","ACCURACY":"Close","TRACT90D":"0002.001","N_STRSUF":"PKWY","Y_COORD":48.80116,"id":"a6303u9zhpwb","ADDRESS":"4455 Cordata Parkway","N_MCODE":"S80","N_PREDIR":"","SOURCE":"NAVTECH","QUALITY":"03","TRACT00D":"0002.001","AV_CITY":"BELLINGHAM"},"type":"Feature","geometry":{"type":"Point","coordinates":[-122.496206661869,48.8011628697149]}},{"properties":{"NAME":"Sea Mar Burien Dental Clinic","CITY":"Burien","CERTAINTY":"1","ZCTA":"98148","AV_CO":"033","ZIP":"98148","N_LCODE":"AP0","N_HOUSENUM":"18010","GEOLEVEL":"CENSUSTRACT","ZIPNAME":"981488TH","AV_SCORE":100,"N_STREET":"8TH","Z4LINK":"981481908","AV_ALPHA":"17","TRACT00":"028402","BLOCK00":"4018","PHONE":"206-433-2242","N_ADDRESS":"18010 8TH AVE S","N_UNIT":"","X_COORD":-122.32272,"N_ZIP4":"1908","N_STATE":"WA","TRACT90":"028401","BLOCK90":"05","N_ZIP":"98148","AV_ZIP":"98148","BG00":"4","STATE":"WA","N_CITY":"SEATAC","N_POSTDIR":"S","AV_DATE":"Thu Sep 27 07:59:43 2007","BG90":"9","ACCURACY":"Close","TRACT90D":"0284.019","N_STRSUF":"AVE","Y_COORD":47.44111,"id":"a6303u8il13c","ADDRESS":"18010 8th Avenue S","N_MCODE":"SA0","N_PREDIR":"","SOURCE":"Local Parcels","QUALITY":"02","TRACT00D":"0284.024","AV_CITY":"BURIEN"},"type":"Feature","geometry":{"type":"Point","coordinates":[-122.322719322,47.4411104270432]}},{"properties":{"NAME":"Sea Mar Burien Medical Clinic","CITY":"Burien","CERTAINTY":"1","ZCTA":"98166","AV_CO":"033","ZIP":"98166","N_LCODE":"AP0","N_HOUSENUM":"14434","GEOLEVEL":"CENSUSTRACT","ZIPNAME":"98166AMBAUM","AV_SCORE":100,"N_STREET":"AMBAUM","Z4LINK":"981661438","AV_ALPHA":"17","TRACT00":"027500","BLOCK00":"3009","PHONE":"206-812-6140","N_ADDRESS":"14434 AMBAUM BLVD SW","N_UNIT":"","X_COORD":-122.34667,"N_ZIP4":"1438","N_STATE":"WA","TRACT90":"027500","BLOCK90":"06","N_ZIP":"98166","AV_ZIP":"98166","BG00":"3","STATE":"WA","N_CITY":"BURIEN","N_POSTDIR":"SW","AV_DATE":"Thu Sep 27 07:59:43 2007","BG90":"3","ACCURACY":"Close","TRACT90D":"0275.003","N_STRSUF":"BLVD","Y_COORD":47.47294,"id":"a6303tx8gy4m","ADDRESS":"14434 Ambaum Blvd. SW","N_MCODE":"S80","N_PREDIR":"","SOURCE":"Local Parcels","QUALITY":"02","TRACT00D":"0275.003","AV_CITY":"BURIEN"},"type":"Feature","geometry":{"type":"Point","coordinates":[-122.346672951,47.4729350540434]}},{"properties":{"NAME":"Sea Mar Burlington Dental Clinic","CITY":"Burlington","CERTAINTY":"1","ZCTA":"98233","AV_CO":"057","ZIP":"98233","N_LCODE":"AS1","N_HOUSENUM":"119","GEOLEVEL":"CENSUSTRACT","ZIPNAME":"98233FAIRHAVEN","AV_SCORE":100,"N_STREET":"FAIRHAVEN","Z4LINK":"982331701","AV_ALPHA":"29","TRACT00":"951800","BLOCK00":"1027","PHONE":"360-755-9151","N_ADDRESS":"119 E FAIRHAVEN AVE","N_UNIT":"","X_COORD":-122.33525,"N_ZIP4":"1701","N_STATE":"WA","TRACT90":"951800","BLOCK90":"20","N_ZIP":"98233","AV_ZIP":"98233","BG00":"1","STATE":"WA","N_CITY":"BURLINGTON","N_POSTDIR":"","AV_DATE":"Thu Sep 27 07:59:43 2007","BG90":"1","ACCURACY":"Close","TRACT90D":"9518.001","N_STRSUF":"AVE","Y_COORD":48.47566,"id":"a6303tyc1y2o","ADDRESS":"119 E. Fairhaven","N_MCODE":"S81","N_PREDIR":"E","SOURCE":"NAVTECH","QUALITY":"03","TRACT00D":"9518.001","AV_CITY":"BURLINGTON"},"type":"Feature","geometry":{"type":"Point","coordinates":[-122.335250992558,48.4756590964226]}},{"properties":{"NAME":"Sea Mar Community Care &amp; Child Development Center","CITY":"Seattle","CERTAINTY":"1","ZCTA":"98108","AV_CO":"033","ZIP":"98108","N_LCODE":"AP0","N_HOUSENUM":"1040","GEOLEVEL":"CENSUSTRACT","ZIPNAME":"98108HENDERSON","AV_SCORE":100,"N_STREET":"HENDERSON","Z4LINK":"981084720","AV_ALPHA":"17","TRACT00":"011200","BLOCK00":"3012","PHONE":"206-763-5210  206-788-3317 (CDC)","N_ADDRESS":"1040 S HENDERSON ST","N_UNIT":"","X_COORD":-122.31864,"N_ZIP4":"4720","N_STATE":"WA","TRACT90":"011200","BLOCK90":"08","N_ZIP":"98108","AV_ZIP":"98108","BG00":"3","STATE":"WA","N_CITY":"SEATTLE","N_POSTDIR":"","AV_DATE":"Thu Sep 27 07:59:43 2007","BG90":"3","ACCURACY":"Close","TRACT90D":"0112.003","N_STRSUF":"ST","Y_COORD":47.5239,"id":"a6303txfp5qt","ADDRESS":"1040 S Henderson Street","N_MCODE":"S80","N_PREDIR":"S","SOURCE":"Local Parcels","QUALITY":"02","TRACT00D":"0112.003","AV_CITY":"SEATTLE"},"type":"Feature","geometry":{"type":"Point","coordinates":[-122.318637312,47.5239031320437]}},{"properties":{"NAME":"Sea Mar Community Health Centers - Administrative Offices","CITY":"Seattle","CERTAINTY":"1","ZCTA":"98108","AV_CO":"033","ZIP":"98108","N_LCODE":"AP0","N_HOUSENUM":"1040","GEOLEVEL":"CENSUSTRACT","ZIPNAME":"98108HENDERSON","AV_SCORE":100,"N_STREET":"HENDERSON","Z4LINK":"981084720","AV_ALPHA":"17","TRACT00":"011200","BLOCK00":"3012","PHONE":"206-763-5277","N_ADDRESS":"1040 S HENDERSON ST","N_UNIT":"","X_COORD":-122.31864,"N_ZIP4":"4720","N_STATE":"WA","TRACT90":"011200","BLOCK90":"08","N_ZIP":"98108","AV_ZIP":"98108","BG00":"3","STATE":"WA","N_CITY":"SEATTLE","N_POSTDIR":"","AV_DATE":"Thu Sep 27 07:59:43 2007","BG90":"3","ACCURACY":"Close","TRACT90D":"0112.003","N_STRSUF":"ST","Y_COORD":47.5239,"id":"a6303tyrgegs","ADDRESS":"1040 S. Henderson St.","N_MCODE":"S80","N_PREDIR":"S","SOURCE":"Local Parcels","QUALITY":"02","TRACT00D":"0112.003","AV_CITY":"SEATTLE"},"type":"Feature","geometry":{"type":"Point","coordinates":[-122.318637312,47.5239031320437]}},{"properties":{"NAME":"Sea Mar Copalis Beach","CITY":"Copalis Beach","CERTAINTY":"4","ZCTA":"98535","AV_CO":"027","ZIP":"98535","N_LCODE":"ZT5V","N_HOUSENUM":"3010","GEOLEVEL":"ZIPCODE","ZIPNAME":"98535STATE ROUTE 109","AV_SCORE":70,"N_STREET":"STATE ROUTE 109","Z4LINK":"","AV_ALPHA":"14","TRACT00":"000200","BLOCK00":"4076","PHONE":"360-289-2427","N_ADDRESS":"3010 STATE ROUTE 109","N_UNIT":"","X_COORD":-124.1214,"N_ZIP4":"","N_STATE":"WA","TRACT90":"000200","BLOCK90":"05","N_ZIP":"98535","AV_ZIP":"98535","BG00":"4","STATE":"WA","N_CITY":"COPALIS BEACH","N_POSTDIR":"","AV_DATE":"Thu Sep 27 07:59:43 2007","BG90":"4","ACCURACY":"Very Approximate","TRACT90D":"0002.004","N_STRSUF":"","Y_COORD":47.0873,"id":"a6303u5km5zd","ADDRESS":"3010 State Route 109","N_MCODE":"E024","N_PREDIR":"","SOURCE":"Centrus","QUALITY":"09","TRACT00D":"0002.004","AV_CITY":""},"type":"Feature","geometry":{"type":"Point","coordinates":[-124.174110955534,47.1077961475169]}},{"properties":{"NAME":"Sea Mar Des Moines Recovery &amp; Longterm Care","CITY":"Des Moines","CERTAINTY":"1","ZCTA":"98198","AV_CO":"033","ZIP":"98198","N_LCODE":"AP0","N_HOUSENUM":"24215","GEOLEVEL":"CENSUSTRACT","ZIPNAME":"98198PACIFIC","AV_SCORE":100,"N_STREET":"PACIFIC","Z4LINK":"981984024","AV_ALPHA":"17","TRACT00":"029003","BLOCK00":"2012","PHONE":"206-812-6160  206-878-7393","N_ADDRESS":"24215 PACIFIC HWY S","N_UNIT":"","X_COORD":-122.29792,"N_ZIP4":"4024","N_STATE":"WA","TRACT90":"029002","BLOCK90":"03","N_ZIP":"98198","AV_ZIP":"98198","BG00":"2","STATE":"WA","N_CITY":"DES MOINES","N_POSTDIR":"S","AV_DATE":"Thu Sep 27 07:59:43 2007","BG90":"2","ACCURACY":"Close","TRACT90D":"0290.022","N_STRSUF":"HWY","Y_COORD":47.38424,"id":"a6303u4eq04i","ADDRESS":"24215 Pacific Highway S","N_MCODE":"S80","N_PREDIR":"","SOURCE":"Local Parcels","QUALITY":"02","TRACT00D":"0290.032","AV_CITY":"DES MOINES"},"type":"Feature","geometry":{"type":"Point","coordinates":[-122.297918419,47.3842408370429]}},{"properties":{"NAME":"Sea Mar Everett Outpatient Behavioral Health Clinic","CITY":"Everett","CERTAINTY":"1","ZCTA":"98208","AV_CO":"061","ZIP":"98208","N_LCODE":"AS1","N_HOUSENUM":"1031","GEOLEVEL":"CENSUSTRACT","ZIPNAME":"98208EVERETT MALL","AV_SCORE":100,"N_STREET":"EVERETT MALL","Z4LINK":"982082833","AV_ALPHA":"31","TRACT00":"041805","BLOCK00":"2013","PHONE":"425-347-5415","N_ADDRESS":"1031 SE EVERETT MALL WAY","N_UNIT":"","X_COORD":-122.21894,"N_ZIP4":"2833","N_STATE":"WA","TRACT90":"041801","BLOCK90":"19","N_ZIP":"98208","AV_ZIP":"98208","BG00":"2","STATE":"WA","N_CITY":"EVERETT","N_POSTDIR":"","AV_DATE":"Thu Sep 27 07:59:43 2007","BG90":"2","ACCURACY":"Close","TRACT90D":"0418.012","N_STRSUF":"WAY","Y_COORD":47.91084,"id":"a6303txf01vh","ADDRESS":"1031 SE Everett Mall Way","N_MCODE":"S80","N_PREDIR":"SE","SOURCE":"NAVTECH","QUALITY":"03","TRACT00D":"0418.052","AV_CITY":"EVERETT"},"type":"Feature","geometry":{"type":"Point","coordinates":[-122.218943251905,47.9108356199277]}},{"properties":{"NAME":"Sea Mar Everson Medical","CITY":"Everson","CERTAINTY":"1","ZCTA":"98247","AV_CO":"073","ZIP":"98247","N_LCODE":"AP0","N_HOUSENUM":"6884","GEOLEVEL":"CENSUSTRACT","ZIPNAME":"98247HANNEGAN","AV_SCORE":100,"N_STREET":"HANNEGAN","Z4LINK":"982479637","AV_ALPHA":"37","TRACT00":"010700","BLOCK00":"2012","PHONE":"360-354-0766","N_ADDRESS":"6884 HANNEGAN RD","N_UNIT":"","X_COORD":-122.44206,"N_ZIP4":"9637","N_STATE":"WA","TRACT90":"010700","BLOCK90":"09","N_ZIP":"98247","AV_ZIP":"98247","BG00":"2","STATE":"WA","N_CITY":"EVERSON","N_POSTDIR":"","AV_DATE":"Thu Sep 27 07:59:43 2007","BG90":"2","ACCURACY":"Close","TRACT90D":"0107.002","N_STRSUF":"RD","Y_COORD":48.89145,"id":"a6303u7sv9o5","ADDRESS":"6884 Hannegan Rd","N_MCODE":"S80","N_PREDIR":"","SOURCE":"Local Parcels","QUALITY":"02","TRACT00D":"0107.002","AV_CITY":""},"type":"Feature","geometry":{"type":"Point","coordinates":[-122.442064766,48.8914528990521]}},{"properties":{"NAME":"Sea Mar Marysville Medical &amp; Dental Clinic","CITY":"Marysville","CERTAINTY":"1","ZCTA":"98270","AV_CO":"061","ZIP":"98270","N_LCODE":"AP0","N_HOUSENUM":"9710","GEOLEVEL":"CENSUSTRACT","ZIPNAME":"98270STATE","AV_SCORE":100,"N_STREET":"STATE","Z4LINK":"982702232","AV_ALPHA":"31","TRACT00":"052805","BLOCK00":"3017","PHONE":"360-653-1742","N_ADDRESS":"9710 STATE AVE","N_UNIT":"","X_COORD":-122.17394,"N_ZIP4":"2232","N_STATE":"WA","TRACT90":"052802","BLOCK90":"23A","N_ZIP":"98270","AV_ZIP":"98270","BG00":"3","STATE":"WA","N_CITY":"MARYSVILLE","N_POSTDIR":"","AV_DATE":"Thu Sep 27 07:59:43 2007","BG90":"2","ACCURACY":"Close","TRACT90D":"0528.022","N_STRSUF":"AVE","Y_COORD":48.08365,"id":"a6303u88ulme","ADDRESS":"9710 State Ave","N_MCODE":"S80","N_PREDIR":"","SOURCE":"Local Parcels","QUALITY":"02","TRACT00D":"0528.053","AV_CITY":"MARYSVILLE"},"type":"Feature","geometry":{"type":"Point","coordinates":[-122.173941596,48.083649153047]}},{"properties":{"NAME":"Sea Mar Monroe Outpatient Behavioral. Health Clinic","CITY":"Monroe","CERTAINTY":"1","ZCTA":"98272","AV_CO":"061","ZIP":"98272","N_LCODE":"AP0","N_HOUSENUM":"909","GEOLEVEL":"CENSUSTRACT","ZIPNAME":"98272MAIN","AV_SCORE":100,"N_STREET":"MAIN","Z4LINK":"982722030","AV_ALPHA":"31","TRACT00":"052205","BLOCK00":"4009","PHONE":"360-805-3122","N_ADDRESS":"909 W MAIN ST","N_UNIT":"","X_COORD":-121.983,"N_ZIP4":"2030","N_STATE":"WA","TRACT90":"052201","BLOCK90":"14A","N_ZIP":"98272","AV_ZIP":"98272","BG00":"4","STATE":"WA","N_CITY":"MONROE","N_POSTDIR":"","AV_DATE":"Thu Sep 27 07:59:43 2007","BG90":"4","ACCURACY":"Close","TRACT90D":"0522.014","N_STRSUF":"ST","Y_COORD":47.8522,"id":"a6303u5slgfd","ADDRESS":"909 W Main Street","N_MCODE":"S80","N_PREDIR":"W","SOURCE":"Local Parcels","QUALITY":"02","TRACT00D":"0522.054","AV_CITY":"MONROE"},"type":"Feature","geometry":{"type":"Point","coordinates":[-121.983003631,47.8521952220456]}},{"properties":{"NAME":"Sea Mar Mt Vernon Medical &amp; Dental Clinics","CITY":"Mt. Vernon","CERTAINTY":"1","ZCTA":"98273","AV_CO":"057","ZIP":"98273","N_LCODE":"AS1","N_HOUSENUM":"1400","GEOLEVEL":"CENSUSTRACT","ZIPNAME":"98273LAVENTURE","AV_SCORE":100,"N_STREET":"LAVENTURE","Z4LINK":"982732766","AV_ALPHA":"29","TRACT00":"952300","BLOCK00":"1006","PHONE":"360-428-4075","N_ADDRESS":"1400 N LAVENTURE RD","N_UNIT":"","X_COORD":-122.31346,"N_ZIP4":"2766","N_STATE":"WA","TRACT90":"952300","BLOCK90":"04","N_ZIP":"98273","AV_ZIP":"98273","BG00":"1","STATE":"WA","N_CITY":"MOUNT VERNON","N_POSTDIR":"","AV_DATE":"Thu Sep 27 07:59:43 2007","BG90":"1","ACCURACY":"Close","TRACT90D":"9523.001","N_STRSUF":"RD","Y_COORD":48.43299,"id":"a6303tzdaxvh","ADDRESS":"1400 N. LaVenture","N_MCODE":"SA1","N_PREDIR":"N","SOURCE":"GDT 1000","QUALITY":"03","TRACT00D":"9523.001","AV_CITY":"MOUNT VERNON"},"type":"Feature","geometry":{"type":"Point","coordinates":[-122.313463016726,48.4329933120691]}},{"properties":{"NAME":"Sea Mar Mt. Vernon OB/GYN Care","CITY":"Mt. Vernon","CERTAINTY":"1","ZCTA":"98273","AV_CO":"057","ZIP":"98273","N_LCODE":"AS1","N_HOUSENUM":"110","GEOLEVEL":"CENSUSTRACT","ZIPNAME":"98273LAVENTURE","AV_SCORE":100,"N_STREET":"LAVENTURE","Z4LINK":"982733901","AV_ALPHA":"29","TRACT00":"952300","BLOCK00":"2003","PHONE":"360-424-5344","N_ADDRESS":"110 N LAVENTURE RD","N_UNIT":"","X_COORD":-122.31345,"N_ZIP4":"3901","N_STATE":"WA","TRACT90":"952300","BLOCK90":"04A","N_ZIP":"98273","AV_ZIP":"98273","BG00":"2","STATE":"WA","N_CITY":"MOUNT VERNON","N_POSTDIR":"","AV_DATE":"Thu Sep 27 07:59:43 2007","BG90":"2","ACCURACY":"Close","TRACT90D":"9523.002","N_STRSUF":"RD","Y_COORD":48.42114,"id":"a6303txantds","ADDRESS":"110 N. LaVenture","N_MCODE":"SA1","N_PREDIR":"N","SOURCE":"GDT 1000","QUALITY":"03","TRACT00D":"9523.002","AV_CITY":"MOUNT VERNON"},"type":"Feature","geometry":{"type":"Point","coordinates":[-122.313446666667,48.4211387389632]}},{"properties":{"NAME":"Sea Mar Oak Harbor Dental","CITY":"Oak Harbor","CERTAINTY":"1","ZCTA":"98277","AV_CO":"029","ZIP":"98277","N_LCODE":"AS1","N_HOUSENUM":"31775","GEOLEVEL":"CENSUSTRACT","ZIPNAME":"98277SR 20","AV_SCORE":100,"N_STREET":"SR 20","Z4LINK":"","AV_ALPHA":"15","TRACT00":"970700","BLOCK00":"1007","PHONE":"360-679-9216","N_ADDRESS":"31775 SR 20","N_UNIT":"","X_COORD":-122.65785,"N_ZIP4":"","N_STATE":"WA","TRACT90":"970600","BLOCK90":"01","N_ZIP":"98277","AV_ZIP":"98277","BG00":"1","STATE":"WA","N_CITY":"OAK HARBOR","N_POSTDIR":"","AV_DATE":"Thu Sep 27 07:59:43 2007","BG90":"1","ACCURACY":"Close","TRACT90D":"9706.001","N_STRSUF":"","Y_COORD":48.29236,"id":"a6303twvuzhj","ADDRESS":"31775 SR 20","N_MCODE":"E023","N_PREDIR":"","SOURCE":"NAVTECH-HWY","QUALITY":"03","TRACT00D":"9707.001","AV_CITY":"OAK HARBOR"},"type":"Feature","geometry":{"type":"Point","coordinates":[-122.657845074652,48.2923558105081]}},{"properties":{"NAME":"Sea Mar Olympia Behavioral Health Center","CITY":"Tumwater","CERTAINTY":"1","ZCTA":"98501","AV_CO":"067","ZIP":"98501","N_LCODE":"AP0","N_HOUSENUM":"409","GEOLEVEL":"CENSUSTRACT","ZIPNAME":"98501CUSTER","AV_SCORE":100,"N_STREET":"CUSTER","Z4LINK":"985013350","AV_ALPHA":"34","TRACT00":"010800","BLOCK00":"2012","PHONE":"360-570-8258","N_ADDRESS":"409 CUSTER WAY SE","N_UNIT":"","X_COORD":-122.90062,"N_ZIP4":"3350","N_STATE":"WA","TRACT90":"010800","BLOCK90":"07","N_ZIP":"98501","AV_ZIP":"98501","BG00":"2","STATE":"WA","N_CITY":"TUMWATER","N_POSTDIR":"SE","AV_DATE":"Thu Sep 27 07:59:43 2007","BG90":"2","ACCURACY":"Close","TRACT90D":"0108.002","N_STRSUF":"WAY","Y_COORD":47.01634,"id":"a6303u6jzm9k","ADDRESS":"409 Custer Way","N_MCODE":"S84","N_PREDIR":"","SOURCE":"Local Parcels","QUALITY":"02","TRACT00D":"0108.002","AV_CITY":"TUMWATER"},"type":"Feature","geometry":{"type":"Point","coordinates":[-122.900615877,47.0163403630592]}},{"properties":{"NAME":"Sea Mar Olympia Medical Clinic","CITY":"Olympia","CERTAINTY":"1","ZCTA":"98502","AV_CO":"067","ZIP":"98502","N_LCODE":"AP0","N_HOUSENUM":"3030","GEOLEVEL":"CENSUSTRACT","ZIPNAME":"98502LIMITED","AV_SCORE":100,"N_STREET":"LIMITED","Z4LINK":"985022704","AV_ALPHA":"34","TRACT00":"010600","BLOCK00":"3001","PHONE":"360-491-1399","N_ADDRESS":"3030 LIMITED LN NW","N_UNIT":"","X_COORD":-122.93946,"N_ZIP4":"2704","N_STATE":"WA","TRACT90":"010600","BLOCK90":"01","N_ZIP":"98502","AV_ZIP":"98502","BG00":"3","STATE":"WA","N_CITY":"OLYMPIA","N_POSTDIR":"NW","AV_DATE":"Thu Sep 27 07:59:43 2007","BG90":"3","ACCURACY":"Close","TRACT90D":"0106.003","N_STRSUF":"LN","Y_COORD":47.04872,"id":"a6303u7gfrfy","ADDRESS":"3030 Limited Lane NW","N_MCODE":"S80","N_PREDIR":"","SOURCE":"Local Parcels","QUALITY":"02","TRACT00D":"0106.003","AV_CITY":"OLYMPIA"},"type":"Feature","geometry":{"type":"Point","coordinates":[-122.939456073,47.0487194630593]}},{"properties":{"NAME":"Sea Mar Puyallup Medical &amp; Dental Clinic","CITY":"Puyallup","CERTAINTY":"1","ZCTA":"98374","AV_CO":"053","ZIP":"98373","N_LCODE":"AS1","N_HOUSENUM":"10217","GEOLEVEL":"CENSUSTRACT","ZIPNAME":"98374125TH STREET","AV_SCORE":100,"N_STREET":"125TH STREET","Z4LINK":"983742761","AV_ALPHA":"27","TRACT00":"071208","BLOCK00":"1004","PHONE":"253-864-4550  253-864-4760 (Dental)","N_ADDRESS":"10217 125TH STREET CT E","N_UNIT":"","X_COORD":-122.29274,"N_ZIP4":"2761","N_STATE":"WA","TRACT90":"071203","BLOCK90":"05","N_ZIP":"98374","AV_ZIP":"98374","BG00":"1","STATE":"WA","N_CITY":"PUYALLUP","N_POSTDIR":"E","AV_DATE":"Thu Sep 27 07:59:43 2007","BG90":"3","ACCURACY":"Close","TRACT90D":"0712.033","N_STRSUF":"CT","Y_COORD":47.14226,"id":"a6303tvpy6vt","ADDRESS":"10217 125th Court E","N_MCODE":"A99","N_PREDIR":"","SOURCE":"GDT 1000","QUALITY":"03","TRACT00D":"0712.081","AV_CITY":""},"type":"Feature","geometry":{"type":"Point","coordinates":[-122.292741510176,47.1422560498438]}},{"properties":{"NAME":"Sea Mar Renacer (Males) Youth Treatment Center","CITY":"Seattle","CERTAINTY":"1","ZCTA":"98108","AV_CO":"033","ZIP":"98168","N_LCODE":"AP0","N_HOUSENUM":"10001","GEOLEVEL":"CENSUSTRACT","ZIPNAME":"9816817TH","AV_SCORE":100,"N_STREET":"17TH","Z4LINK":"981681615","AV_ALPHA":"17","TRACT00":"026400","BLOCK00":"5000","PHONE":"206-766-6960","N_ADDRESS":"10001 17TH PL S","N_UNIT":"","X_COORD":-122.3108,"N_ZIP4":"1615","N_STATE":"WA","TRACT90":"026400","BLOCK90":"12","N_ZIP":"98168","AV_ZIP":"98108","BG00":"5","STATE":"WA","N_CITY":"SEATTLE","N_POSTDIR":"S","AV_DATE":"Thu Sep 27 07:59:43 2007","BG90":"5","ACCURACY":"Close","TRACT90D":"0264.005","N_STRSUF":"PL","Y_COORD":47.5144,"id":"a6303twruaiv","ADDRESS":"10001 17th Place S","N_MCODE":"S80","N_PREDIR":"","SOURCE":"Local Parcels","QUALITY":"02","TRACT00D":"0264.005","AV_CITY":""},"type":"Feature","geometry":{"type":"Point","coordinates":[-122.310801092,47.5143958590436]}},{"properties":{"NAME":"Sea Mar Seattle Dental Clinic","CITY":"Seattle","CERTAINTY":"1","ZCTA":"98108","AV_CO":"033","ZIP":"98108","N_LCODE":"AP0","N_HOUSENUM":"8915","GEOLEVEL":"CENSUSTRACT","ZIPNAME":"9810814TH","AV_SCORE":100,"N_STREET":"14TH","Z4LINK":"981084813","AV_ALPHA":"17","TRACT00":"011200","BLOCK00":"3012","PHONE":"206-762-3263","N_ADDRESS":"8915 14TH AVE S","N_UNIT":"","X_COORD":-122.31519,"N_ZIP4":"4813","N_STATE":"WA","TRACT90":"011200","BLOCK90":"08","N_ZIP":"98108","AV_ZIP":"98108","BG00":"3","STATE":"WA","N_CITY":"SEATTLE","N_POSTDIR":"S","AV_DATE":"Thu Sep 27 07:59:43 2007","BG90":"3","ACCURACY":"Close","TRACT90D":"0112.003","N_STRSUF":"AVE","Y_COORD":47.52321,"id":"a6303u18rimi","ADDRESS":"8915 14th Ave. S.","N_MCODE":"S80","N_PREDIR":"","SOURCE":"Local Parcels","QUALITY":"02","TRACT00D":"0112.003","AV_CITY":"SEATTLE"},"type":"Feature","geometry":{"type":"Point","coordinates":[-122.315188395,47.5232073110437]}},{"properties":{"NAME":"Sea Mar Seattle Medical Clinic","CITY":"Seattle","CERTAINTY":"1","ZCTA":"98108","AV_CO":"033","ZIP":"98108","N_LCODE":"AP0","N_HOUSENUM":"8720","GEOLEVEL":"CENSUSTRACT","ZIPNAME":"9810814TH","AV_SCORE":100,"N_STREET":"14TH","Z4LINK":"981084807","AV_ALPHA":"17","TRACT00":"011200","BLOCK00":"3011","PHONE":"206-762-3730","N_ADDRESS":"8720 14TH AVE S","N_UNIT":"","X_COORD":-122.31461,"N_ZIP4":"4807","N_STATE":"WA","TRACT90":"011200","BLOCK90":"16","N_ZIP":"98108","AV_ZIP":"98108","BG00":"3","STATE":"WA","N_CITY":"SEATTLE","N_POSTDIR":"S","AV_DATE":"Thu Sep 27 07:59:43 2007","BG90":"3","ACCURACY":"Close","TRACT90D":"0112.003","N_STRSUF":"AVE","Y_COORD":47.52499,"id":"a6303u7qvi7g","ADDRESS":"8720 14th Ave. S.","N_MCODE":"S80","N_PREDIR":"","SOURCE":"Local Parcels","QUALITY":"02","TRACT00D":"0112.003","AV_CITY":"SEATTLE"},"type":"Feature","geometry":{"type":"Point","coordinates":[-122.314611047,47.5249879190437]}},{"properties":{"NAME":"Sea Mar Seattle Outpatient Behavioral. Health Clinic","CITY":"Seattle","CERTAINTY":"1","ZCTA":"98108","AV_CO":"033","ZIP":"98168","N_LCODE":"AP0","N_HOUSENUM":"10001","GEOLEVEL":"CENSUSTRACT","ZIPNAME":"9816817TH","AV_SCORE":100,"N_STREET":"17TH","Z4LINK":"981681615","AV_ALPHA":"17","TRACT00":"026400","BLOCK00":"5000","PHONE":"206-766-6976","N_ADDRESS":"10001 17TH PL S","N_UNIT":"","X_COORD":-122.3108,"N_ZIP4":"1615","N_STATE":"WA","TRACT90":"026400","BLOCK90":"12","N_ZIP":"98168","AV_ZIP":"98108","BG00":"5","STATE":"WA","N_CITY":"SEATTLE","N_POSTDIR":"S","AV_DATE":"Thu Sep 27 07:59:43 2007","BG90":"5","ACCURACY":"Close","TRACT90D":"0264.005","N_STRSUF":"PL","Y_COORD":47.5144,"id":"a6303ty37rc8","ADDRESS":"10001 17th Place S","N_MCODE":"S80","N_PREDIR":"","SOURCE":"Local Parcels","QUALITY":"02","TRACT00D":"0264.005","AV_CITY":""},"type":"Feature","geometry":{"type":"Point","coordinates":[-122.310801092,47.5143958590436]}},{"properties":{"NAME":"Sea Mar Tacoma Adult Treatment Center","CITY":"Tacoma","CERTAINTY":"1","ZCTA":"98409","AV_CO":"053","ZIP":"98409","N_LCODE":"AP0","N_HOUSENUM":"1415","GEOLEVEL":"CENSUSTRACT","ZIPNAME":"98409CENTER","AV_SCORE":100,"N_STREET":"CENTER","Z4LINK":"984098210","AV_ALPHA":"27","TRACT00":"061700","BLOCK00":"4000","PHONE":"253-627-2250","N_ADDRESS":"1415 CENTER ST","N_UNIT":"","X_COORD":-122.45264,"N_ZIP4":"8210","N_STATE":"WA","TRACT90":"061700","BLOCK90":"01","N_ZIP":"98409","AV_ZIP":"98409","BG00":"4","STATE":"WA","N_CITY":"TACOMA","N_POSTDIR":"","AV_DATE":"Thu Sep 27 07:59:43 2007","BG90":"4","ACCURACY":"Close","TRACT90D":"0617.004","N_STRSUF":"ST","Y_COORD":47.23443,"id":"a6303u7qdbw9","ADDRESS":"1415 Center St","N_MCODE":"S80","N_PREDIR":"","SOURCE":"Local Parcels","QUALITY":"02","TRACT00D":"0617.004","AV_CITY":"TACOMA"},"type":"Feature","geometry":{"type":"Point","coordinates":[-122.452635676,47.2344321600421]}},{"properties":{"NAME":"Sea Mar Tacoma Behavioral Health","CITY":"Tacoma","CERTAINTY":"1","ZCTA":"98405","AV_CO":"053","ZIP":"98405","N_LCODE":"AP0","N_HOUSENUM":"1516","GEOLEVEL":"CENSUSTRACT","ZIPNAME":"9840511TH","AV_SCORE":100,"N_STREET":"11TH","Z4LINK":"984053332","AV_ALPHA":"27","TRACT00":"061300","BLOCK00":"2006","PHONE":"253-396-1634","N_ADDRESS":"1516 S 11TH ST","N_UNIT":"","X_COORD":-122.45841,"N_ZIP4":"3332","N_STATE":"WA","TRACT90":"061300","BLOCK90":"07","N_ZIP":"98405","AV_ZIP":"98405","BG00":"2","STATE":"WA","N_CITY":"TACOMA","N_POSTDIR":"","AV_DATE":"Thu Sep 27 07:59:43 2007","BG90":"2","ACCURACY":"Close","TRACT90D":"0613.002","N_STRSUF":"ST","Y_COORD":47.25108,"id":"a6303ty6duz1","ADDRESS":"1516 South 11th Street","N_MCODE":"S80","N_PREDIR":"S","SOURCE":"Local Parcels","QUALITY":"02","TRACT00D":"0613.002","AV_CITY":"TACOMA"},"type":"Feature","geometry":{"type":"Point","coordinates":[-122.458410112,47.2510805720422]}},{"properties":{"NAME":"Sea Mar Tacoma Medical &amp; Dental Clinic","CITY":"Tacoma","CERTAINTY":"1","ZCTA":"98405","AV_CO":"053","ZIP":"98405","N_LCODE":"AP0","N_HOUSENUM":"1112","GEOLEVEL":"CENSUSTRACT","ZIPNAME":"98405CUSHMAN","AV_SCORE":100,"N_STREET":"CUSHMAN","Z4LINK":"984053631","AV_ALPHA":"27","TRACT00":"061300","BLOCK00":"2016","PHONE":"253-593-2144","N_ADDRESS":"1112 S CUSHMAN AVE","N_UNIT":"","X_COORD":-122.45773,"N_ZIP4":"3631","N_STATE":"WA","TRACT90":"061300","BLOCK90":"15","N_ZIP":"98405","AV_ZIP":"98405","BG00":"2","STATE":"WA","N_CITY":"TACOMA","N_POSTDIR":"","AV_DATE":"Thu Sep 27 07:59:43 2007","BG90":"2","ACCURACY":"Close","TRACT90D":"0613.002","N_STRSUF":"AVE","Y_COORD":47.25077,"id":"a6303u86gh6q","ADDRESS":"1112 S. Cushman","N_MCODE":"S81","N_PREDIR":"S","SOURCE":"Local Parcels","QUALITY":"02","TRACT00D":"0613.002","AV_CITY":"TACOMA"},"type":"Feature","geometry":{"type":"Point","coordinates":[-122.457727167,47.2507714110422]}},{"properties":{"NAME":"Sea Mar Tumwater Dental","CITY":"Tumwater","CERTAINTY":"1","ZCTA":"98501","AV_CO":"067","ZIP":"98501","N_LCODE":"AP0","N_HOUSENUM":"409","GEOLEVEL":"CENSUSTRACT","ZIPNAME":"98501CUSTER","AV_SCORE":100,"N_STREET":"CUSTER","Z4LINK":"985013350","AV_ALPHA":"34","TRACT00":"010800","BLOCK00":"2012","PHONE":"360-570-8016","N_ADDRESS":"409 CUSTER WAY SE","N_UNIT":"","X_COORD":-122.90062,"N_ZIP4":"3350","N_STATE":"WA","TRACT90":"010800","BLOCK90":"07","N_ZIP":"98501","AV_ZIP":"98501","BG00":"2","STATE":"WA","N_CITY":"TUMWATER","N_POSTDIR":"SE","AV_DATE":"Thu Sep 27 07:59:43 2007","BG90":"2","ACCURACY":"Close","TRACT90D":"0108.002","N_STRSUF":"WAY","Y_COORD":47.01634,"id":"a6303tzoplyc","ADDRESS":"409 Custer Way","N_MCODE":"S84","N_PREDIR":"","SOURCE":"Local Parcels","QUALITY":"02","TRACT00D":"0108.002","AV_CITY":"TUMWATER"},"type":"Feature","geometry":{"type":"Point","coordinates":[-122.900615877,47.0163403630592]}},{"properties":{"NAME":"Sea Mar Vancouver Dental","CITY":"Vancouver","CERTAINTY":"1","ZCTA":"98665","AV_CO":"011","ZIP":"98665","N_LCODE":"AP0","N_HOUSENUM":"1412","GEOLEVEL":"CENSUSTRACT","ZIPNAME":"9866588TH","AV_SCORE":100,"N_STREET":"88TH","Z4LINK":"986659620","AV_ALPHA":"06","TRACT00":"040804","BLOCK00":"1003","PHONE":"360-574-4074","N_ADDRESS":"1412 NE 88TH ST","N_UNIT":"","X_COORD":-122.6571,"N_ZIP4":"9620","N_STATE":"WA","TRACT90":"040801","BLOCK90":"05","N_ZIP":"98665","AV_ZIP":"98665","BG00":"1","STATE":"WA","N_CITY":"VANCOUVER","N_POSTDIR":"","AV_DATE":"Thu Sep 27 07:59:43 2007","BG90":"2","ACCURACY":"Close","TRACT90D":"0408.012","N_STRSUF":"ST","Y_COORD":45.68619,"id":"a6303tvy1r33","ADDRESS":"1412 NE 88th St.","N_MCODE":"S80","N_PREDIR":"NE","SOURCE":"Local Parcels","QUALITY":"02","TRACT00D":"0408.041","AV_CITY":""},"type":"Feature","geometry":{"type":"Point","coordinates":[-122.657101861,45.6861887480571]}},{"properties":{"NAME":"Sea Mar Vancouver Medical","CITY":"Vancouver","CERTAINTY":"1","ZCTA":"98664","AV_CO":"011","ZIP":"98664","N_LCODE":"AP0","N_HOUSENUM":"7410","GEOLEVEL":"CENSUSTRACT","ZIPNAME":"98664DELAWARE","AV_SCORE":100,"N_STREET":"DELAWARE","Z4LINK":"986641408","AV_ALPHA":"06","TRACT00":"043000","BLOCK00":"1015","PHONE":"360-896-5128","N_ADDRESS":"7410 DELAWARE LN","N_UNIT":"","X_COORD":-122.59469,"N_ZIP4":"1408","N_STATE":"WA","TRACT90":"043000","BLOCK90":"21","N_ZIP":"98664","AV_ZIP":"98664","BG00":"1","STATE":"WA","N_CITY":"VANCOUVER","N_POSTDIR":"","AV_DATE":"Thu Sep 27 07:59:43 2007","BG90":"1","ACCURACY":"Close","TRACT90D":"0430.001","N_STRSUF":"LN","Y_COORD":45.6245,"id":"a6303tza0rmw","ADDRESS":"7410 Delaware Lane","N_MCODE":"S80","N_PREDIR":"","SOURCE":"Local Parcels","QUALITY":"02","TRACT00D":"0430.001","AV_CITY":"VANCOUVER"},"type":"Feature","geometry":{"type":"Point","coordinates":[-122.59469324,45.624495609057]}},{"properties":{"NAME":"Sea Mar Visions (Female) Youth Treatment Center","CITY":"Bellingham","CERTAINTY":"1","ZCTA":"98226","AV_CO":"073","ZIP":"98226","N_LCODE":"AP0","N_HOUSENUM":"1603","GEOLEVEL":"CENSUSTRACT","ZIPNAME":"98226ILLINOIS","AV_SCORE":100,"N_STREET":"ILLINOIS","Z4LINK":"982263644","AV_ALPHA":"37","TRACT00":"000700","BLOCK00":"1015","PHONE":"360-647-4266","N_ADDRESS":"1603 E ILLINOIS ST","N_UNIT":"","X_COORD":-122.45288,"N_ZIP4":"3644","N_STATE":"WA","TRACT90":"000700","BLOCK90":"02","N_ZIP":"98226","AV_ZIP":"98226","BG00":"1","STATE":"WA","N_CITY":"BELLINGHAM","N_POSTDIR":"","AV_DATE":"Thu Sep 27 07:59:43 2007","BG90":"1","ACCURACY":"Close","TRACT90D":"0007.001","N_STRSUF":"ST","Y_COORD":48.76844,"id":"a6303u1brcz4","ADDRESS":"1603 E. Illinois","N_MCODE":"S81","N_PREDIR":"E","SOURCE":"Local Parcels","QUALITY":"02","TRACT00D":"0007.001","AV_CITY":"BELLINGHAM"},"type":"Feature","geometry":{"type":"Point","coordinates":[-122.45287999,48.7684422210513]}},{"properties":{"NAME":"Sea Mar White Center Clinic","CITY":"Seattle","CERTAINTY":"1","ZCTA":"98106","AV_CO":"033","ZIP":"98106","N_LCODE":"AP0","N_HOUSENUM":"9650","GEOLEVEL":"CENSUSTRACT","ZIPNAME":"9810615TH","AV_SCORE":100,"N_STREET":"15TH","Z4LINK":"981062820","AV_ALPHA":"17","TRACT00":"026500","BLOCK00":"4002","PHONE":"206-965-1000","N_ADDRESS":"9650 15TH AVE SW","N_UNIT":"","X_COORD":-122.35344,"N_ZIP4":"2820","N_STATE":"WA","TRACT90":"026500","BLOCK90":"02","N_ZIP":"98106","AV_ZIP":"98106","BG00":"4","STATE":"WA","N_CITY":"SEATTLE","N_POSTDIR":"SW","AV_DATE":"Thu Sep 27 07:59:43 2007","BG90":"5","ACCURACY":"Close","TRACT90D":"0265.005","N_STRSUF":"AVE","Y_COORD":47.51624,"id":"a6303twhonsv","ADDRESS":"9650 15th Avenue SW","N_MCODE":"S80","N_PREDIR":"","SOURCE":"Local Parcels","QUALITY":"02","TRACT00D":"0265.004","AV_CITY":""},"type":"Feature","geometry":{"type":"Point","coordinates":[-122.353443603,47.5162397940437]}},{"properties":{"NAME":"Seattle Indian Health Board - Administrative Offices","CITY":"Seattle","CERTAINTY":"1","ZCTA":"98144","AV_CO":"033","ZIP":"98144","N_LCODE":"AP0","N_HOUSENUM":"606","GEOLEVEL":"CENSUSTRACT","ZIPNAME":"9814412TH","AV_SCORE":100,"N_STREET":"12TH","Z4LINK":"981442008","AV_ALPHA":"17","TRACT00":"009000","BLOCK00":"3020","PHONE":"206-324-9360","N_ADDRESS":"606 12TH AVE S","N_UNIT":"","X_COORD":-122.31669,"N_ZIP4":"2008","N_STATE":"WA","TRACT90":"009000","BLOCK90":"26","N_ZIP":"98144","AV_ZIP":"98144","BG00":"3","STATE":"WA","N_CITY":"SEATTLE","N_POSTDIR":"S","AV_DATE":"Thu Sep 27 07:59:43 2007","BG90":"3","ACCURACY":"Close","TRACT90D":"0090.003","N_STRSUF":"AVE","Y_COORD":47.59708,"id":"a6303tx0kxcm","ADDRESS":"606 12th Ave S","N_MCODE":"S80","N_PREDIR":"","SOURCE":"Local Parcels","QUALITY":"02","TRACT00D":"0090.003","AV_CITY":"SEATTLE"},"type":"Feature","geometry":{"type":"Point","coordinates":[-122.316690657,47.5970784460441]}},{"properties":{"NAME":"Seattle Indian Health Board Leschi Center","CITY":"Seattle","CERTAINTY":"1","ZCTA":"98144","AV_CO":"033","ZIP":"98114","N_LCODE":"AP0","N_HOUSENUM":"611","GEOLEVEL":"CENSUSTRACT","ZIPNAME":"9814412TH","AV_SCORE":100,"N_STREET":"12TH","Z4LINK":"981441910","AV_ALPHA":"17","TRACT00":"009100","BLOCK00":"1006","PHONE":"206-324-9360","N_ADDRESS":"611 12TH AVE S","N_UNIT":"","X_COORD":-122.31796,"N_ZIP4":"1910","N_STATE":"WA","TRACT90":"009100","BLOCK90":"02","N_ZIP":"98144","AV_ZIP":"98104","BG00":"1","STATE":"WA","N_CITY":"SEATTLE","N_POSTDIR":"S","AV_DATE":"Thu Sep 27 07:59:43 2007","BG90":"2","ACCURACY":"Close","TRACT90D":"0091.002","N_STRSUF":"AVE","Y_COORD":47.59708,"id":"a6303u2muq5r","ADDRESS":"611 12th Ave. South","N_MCODE":"S90","N_PREDIR":"","SOURCE":"Local Parcels","QUALITY":"02","TRACT00D":"0091.001","AV_CITY":"SEATTLE"},"type":"Feature","geometry":{"type":"Point","coordinates":[-122.31795832,47.5970816430441]}},{"properties":{"NAME":"Seattle Indian Health Board Thunderbird","CITY":"Seattle","CERTAINTY":"1","ZCTA":"98118","AV_CO":"033","ZIP":"98118","N_LCODE":"AP0","N_HOUSENUM":"9236","GEOLEVEL":"CENSUSTRACT","ZIPNAME":"98118RENTON","AV_SCORE":100,"N_STREET":"RENTON","Z4LINK":"981185322","AV_ALPHA":"17","TRACT00":"011800","BLOCK00":"4006","PHONE":"206-722-7152","N_ADDRESS":"9236 RENTON AVE S","N_UNIT":"","X_COORD":-122.27233,"N_ZIP4":"5322","N_STATE":"WA","TRACT90":"011800","BLOCK90":"11","N_ZIP":"98118","AV_ZIP":"98118","BG00":"4","STATE":"WA","N_CITY":"SEATTLE","N_POSTDIR":"S","AV_DATE":"Thu Sep 27 07:59:43 2007","BG90":"4","ACCURACY":"Close","TRACT90D":"0118.004","N_STRSUF":"AVE","Y_COORD":47.52052,"id":"a6303u0yp2sv","ADDRESS":"9236 Renton Ave. S","N_MCODE":"S80","N_PREDIR":"","SOURCE":"Local Parcels","QUALITY":"02","TRACT00D":"0118.004","AV_CITY":"SEATTLE"},"type":"Feature","geometry":{"type":"Point","coordinates":[-122.272329359,47.5205172050437]}},{"properties":{"NAME":"Valley View Health Center - Administrative Offices &amp; Clinic","CITY":"Chehalis","CERTAINTY":"1","ZCTA":"98532","AV_CO":"041","ZIP":"98532","N_LCODE":"AP0","N_HOUSENUM":"500","GEOLEVEL":"CENSUSTRACT","ZIPNAME":"98532WASHINGTON","AV_SCORE":100,"N_STREET":"WASHINGTON","Z4LINK":"985323058","AV_ALPHA":"21","TRACT00":"970900","BLOCK00":"1002","PHONE":"360-748-7400   360-748-8788 (Dental)","N_ADDRESS":"500 SE WASHINGTON AVE","N_UNIT":"","X_COORD":-122.95843,"N_ZIP4":"3058","N_STATE":"WA","TRACT90":"970900","BLOCK90":"01","N_ZIP":"98532","AV_ZIP":"98532","BG00":"1","STATE":"WA","N_CITY":"CHEHALIS","N_POSTDIR":"","AV_DATE":"Thu Sep 27 07:59:43 2007","BG90":"3","ACCURACY":"Close","TRACT90D":"9709.003","N_STRSUF":"AVE","Y_COORD":46.65944,"id":"a6303u05ibz8","ADDRESS":"500 SE Washington Ave","N_MCODE":"S80","N_PREDIR":"SE","SOURCE":"Local Parcels","QUALITY":"02","TRACT00D":"9709.001","AV_CITY":"CHEHALIS"},"type":"Feature","geometry":{"type":"Point","coordinates":[-122.958429516,46.6594368480584]}},{"properties":{"NAME":"Valley View Health Center Onalaska","CITY":"Onalaska","CERTAINTY":"1","ZCTA":"98532","AV_CO":"041","ZIP":"98570","N_LCODE":"AS0","N_HOUSENUM":"1810","GEOLEVEL":"CENSUSTRACT","ZIPNAME":"98570STATE HIGHWAY 508","AV_SCORE":70,"N_STREET":"STATE HIGHWAY 508","Z4LINK":"985709636","AV_ALPHA":"21","TRACT00":"971200","BLOCK00":"1004","PHONE":"360-978-6600","N_ADDRESS":"1810 STATE HIGHWAY 508","N_UNIT":"","X_COORD":-122.83851,"N_ZIP4":"9636","N_STATE":"WA","TRACT90":"971200","BLOCK90":"03","N_ZIP":"98570","AV_ZIP":"98532","BG00":"1","STATE":"WA","N_CITY":"ONALASKA","N_POSTDIR":"","AV_DATE":"Thu Sep 27 07:59:43 2007","BG90":"1","ACCURACY":"Approximate","TRACT90D":"9712.001","N_STRSUF":"","Y_COORD":46.57592,"id":"a6303u8eajs5","ADDRESS":"1810 Highway 508","N_MCODE":"S80","N_PREDIR":"","SOURCE":"Centrus","QUALITY":"03","TRACT00D":"9712.001","AV_CITY":""},"type":"Feature","geometry":{"type":"Point","coordinates":[-122.838509,46.5759199990582]}},{"properties":{"NAME":"Valley View Health Center Toledo","CITY":"Toledo","CERTAINTY":"1","ZCTA":"98591","AV_CO":"041","ZIP":"98591","N_LCODE":"AS1","N_HOUSENUM":"401","GEOLEVEL":"CENSUSTRACT","ZIPNAME":"98591COWLITZ","AV_SCORE":100,"N_STREET":"COWLITZ","Z4LINK":"","AV_ALPHA":"21","TRACT00":"971600","BLOCK00":"1040","PHONE":"360-864-4400","N_ADDRESS":"401 COWLITZ ST","N_UNIT":"","X_COORD":-122.84844,"N_ZIP4":"","N_STATE":"WA","TRACT90":"971600","BLOCK90":"24","N_ZIP":"98591","AV_ZIP":"98591","BG00":"1","STATE":"WA","N_CITY":"TOLEDO","N_POSTDIR":"","AV_DATE":"Thu Sep 27 07:59:43 2007","BG90":"1","ACCURACY":"Close","TRACT90D":"9716.001","N_STRSUF":"ST","Y_COORD":46.43971,"id":"a6303twkhfzl","ADDRESS":"401 Cowlitz Street","N_MCODE":"T80","N_PREDIR":"","SOURCE":"NAVTECH","QUALITY":"03","TRACT00D":"9716.001","AV_CITY":"TOLEDO"},"type":"Feature","geometry":{"type":"Point","coordinates":[-122.848437007154,46.4397103508073]}},{"properties":{"NAME":"Valley View Health Center Winlock","CITY":"Winlock","CERTAINTY":"1","ZCTA":"98596","AV_CO":"041","ZIP":"98596","N_LCODE":"AS1","N_HOUSENUM":"615","GEOLEVEL":"CENSUSTRACT","ZIPNAME":"98596CEMETARY","AV_SCORE":100,"N_STREET":"CEMETARY","Z4LINK":"985969303","AV_ALPHA":"21","TRACT00":"971500","BLOCK00":"2004","PHONE":"360-785-9400","N_ADDRESS":"615 CEMETARY RD","N_UNIT":"","X_COORD":-122.92505,"N_ZIP4":"9303","N_STATE":"WA","TRACT90":"971500","BLOCK90":"02A","N_ZIP":"98596","AV_ZIP":"98596","BG00":"2","STATE":"WA","N_CITY":"WINLOCK","N_POSTDIR":"","AV_DATE":"Thu Sep 27 07:59:43 2007","BG90":"2","ACCURACY":"Close","TRACT90D":"9715.002","N_STRSUF":"RD","Y_COORD":46.48708,"id":"a6303u52t4lz","ADDRESS":"615 Cemetery Road","N_MCODE":"S89","N_PREDIR":"","SOURCE":"NAVTECH","QUALITY":"03","TRACT00D":"9715.002","AV_CITY":""},"type":"Feature","geometry":{"type":"Point","coordinates":[-122.925053629691,46.4870849700176]}},{"properties":{"NAME":"YNHS Neighborhood Connections","CITY":"Yakima","CERTAINTY":"1","ZCTA":"98901","AV_CO":"077","ZIP":"98901","N_LCODE":"AP0","N_HOUSENUM":"102","GEOLEVEL":"CENSUSTRACT","ZIPNAME":"98901NACHES","AV_SCORE":100,"N_STREET":"NACHES","Z4LINK":"989012947","AV_ALPHA":"39","TRACT00":"001500","BLOCK00":"1006","PHONE":"509-454-4143","N_ADDRESS":"102 S NACHES AVE","N_UNIT":"","X_COORD":-120.49977,"N_ZIP4":"2947","N_STATE":"WA","TRACT90":"001500","BLOCK90":"08","N_ZIP":"98901","AV_ZIP":"98901","BG00":"1","STATE":"WA","N_CITY":"YAKIMA","N_POSTDIR":"","AV_DATE":"Thu Sep 27 07:59:43 2007","BG90":"1","ACCURACY":"Close","TRACT90D":"0015.001","N_STRSUF":"AVE","Y_COORD":46.60203,"id":"a6303ub2gu70","ADDRESS":"102 South Naches","N_MCODE":"S81","N_PREDIR":"S","SOURCE":"Local Parcels","QUALITY":"02","TRACT00D":"0015.001","AV_CITY":"YAKIMA"},"type":"Feature","geometry":{"type":"Point","coordinates":[-120.499772448,46.6020261660584]}},{"properties":{"NAME":"YNHS Sunnyside","CITY":"Sunnyside","CERTAINTY":"1","ZCTA":"98944","AV_CO":"077","ZIP":"98944","N_LCODE":"AP0","N_HOUSENUM":"617","GEOLEVEL":"CENSUSTRACT","ZIPNAME":"98944SCOON","AV_SCORE":100,"N_STREET":"SCOON","Z4LINK":"989441031","AV_ALPHA":"39","TRACT00":"002001","BLOCK00":"1009","PHONE":"509-837-8200","N_ADDRESS":"617 SCOON RD","N_UNIT":"","X_COORD":-120.02144,"N_ZIP4":"1031","N_STATE":"WA","TRACT90":"002001","BLOCK90":"05A","N_ZIP":"98944","AV_ZIP":"98944","BG00":"1","STATE":"WA","N_CITY":"SUNNYSIDE","N_POSTDIR":"","AV_DATE":"Thu Sep 27 07:59:43 2007","BG90":"1","ACCURACY":"Close","TRACT90D":"0020.011","N_STRSUF":"RD","Y_COORD":46.3333,"id":"a6303txrgg0h","ADDRESS":"617 Scoon Rd","N_MCODE":"S80","N_PREDIR":"","SOURCE":"Local Parcels","QUALITY":"02","TRACT00D":"0020.011","AV_CITY":"SUNNYSIDE"},"type":"Feature","geometry":{"type":"Point","coordinates":[-120.021441148,46.3332987140579]}},{"properties":{"NAME":"YVFWC Behavioral Health Services","CITY":"Yakima","CERTAINTY":"1","ZCTA":"98903","AV_CO":"077","ZIP":"98903","N_LCODE":"AP0","N_HOUSENUM":"918","GEOLEVEL":"CENSUSTRACT","ZIPNAME":"98903MEAD","AV_SCORE":100,"N_STREET":"MEAD","Z4LINK":"989033720","AV_ALPHA":"39","TRACT00":"001400","BLOCK00":"1008","PHONE":"509-453-1344","N_ADDRESS":"918 E MEAD AVE","N_UNIT":"","X_COORD":-120.48907,"N_ZIP4":"3720","N_STATE":"WA","TRACT90":"001400","BLOCK90":"08B","N_ZIP":"98903","AV_ZIP":"98903","BG00":"1","STATE":"WA","N_CITY":"YAKIMA","N_POSTDIR":"","AV_DATE":"Thu Sep 27 07:59:43 2007","BG90":"1","ACCURACY":"Close","TRACT90D":"0014.001","N_STRSUF":"AVE","Y_COORD":46.57736,"id":"a6303tyixsa7","ADDRESS":"918 E. Mead Ave","N_MCODE":"S80","N_PREDIR":"E","SOURCE":"Local Parcels","QUALITY":"02","TRACT00D":"0014.001","AV_CITY":"YAKIMA"},"type":"Feature","geometry":{"type":"Point","coordinates":[-120.489067541,46.5773602700583]}},{"properties":{"NAME":"YVFWC Casa de Esperanza","CITY":"Yakima","CERTAINTY":"1","ZCTA":"98901","AV_CO":"077","ZIP":"98901","N_LCODE":"AS1","N_HOUSENUM":"402","GEOLEVEL":"CENSUSTRACT","ZIPNAME":"989014TH","AV_SCORE":100,"N_STREET":"4TH","Z4LINK":"989012470","AV_ALPHA":"39","TRACT00":"000200","BLOCK00":"3014","PHONE":"509-453-9387","N_ADDRESS":"402 N 4TH ST","N_UNIT":"","X_COORD":-120.50416,"N_ZIP4":"2470","N_STATE":"WA","TRACT90":"000200","BLOCK90":"06","N_ZIP":"98901","AV_ZIP":"98901","BG00":"3","STATE":"WA","N_CITY":"YAKIMA","N_POSTDIR":"","AV_DATE":"Thu Sep 27 07:59:43 2007","BG90":"4","ACCURACY":"Close","TRACT90D":"0002.004","N_STRSUF":"ST","Y_COORD":46.60842,"id":"a6303ty3cyl4","ADDRESS":"402 N. Fourth St","N_MCODE":"S88","N_PREDIR":"N","SOURCE":"Local Roads","QUALITY":"03","TRACT00D":"0002.003","AV_CITY":"YAKIMA"},"type":"Feature","geometry":{"type":"Point","coordinates":[-120.504159066916,46.6084246788324]}},{"properties":{"NAME":"YVFWC Casa de Esperanza Grandview","CITY":"Grandview","CERTAINTY":"1","ZCTA":"98930","AV_CO":"077","ZIP":"98930","N_LCODE":"AP0","N_HOUSENUM":"300","GEOLEVEL":"CENSUSTRACT","ZIPNAME":"98930DIVISION","AV_SCORE":100,"N_STREET":"DIVISION","Z4LINK":"989301359","AV_ALPHA":"39","TRACT00":"001900","BLOCK00":"1034","PHONE":"509-882-3273","N_ADDRESS":"300 DIVISION ST","N_UNIT":"","X_COORD":-119.90238,"N_ZIP4":"1359","N_STATE":"WA","TRACT90":"001900","BLOCK90":"37","N_ZIP":"98930","AV_ZIP":"98930","BG00":"1","STATE":"WA","N_CITY":"GRANDVIEW","N_POSTDIR":"","AV_DATE":"Thu Sep 27 07:59:43 2007","BG90":"1","ACCURACY":"Close","TRACT90D":"0019.001","N_STRSUF":"ST","Y_COORD":46.25327,"id":"a6303txvd4nb","ADDRESS":"300 Division St.","N_MCODE":"S80","N_PREDIR":"","SOURCE":"Local Parcels","QUALITY":"02","TRACT00D":"0019.001","AV_CITY":"GRANDVIEW"},"type":"Feature","geometry":{"type":"Point","coordinates":[-119.902383178,46.2532737160578]}},{"properties":{"NAME":"YVFWC Children's Village ? Upper Valley","CITY":"Yakima","CERTAINTY":"1","ZCTA":"98902","AV_CO":"077","ZIP":"98902","N_LCODE":"AS1","N_HOUSENUM":"3801","GEOLEVEL":"CENSUSTRACT","ZIPNAME":"98902KERN","AV_SCORE":100,"N_STREET":"KERN","Z4LINK":"989026340","AV_ALPHA":"39","TRACT00":"000300","BLOCK00":"2025","PHONE":"509-574-3220","N_ADDRESS":"3801 KERN WAY","N_UNIT":"","X_COORD":-120.55884,"N_ZIP4":"6340","N_STATE":"WA","TRACT90":"000300","BLOCK90":"07","N_ZIP":"98902","AV_ZIP":"98902","BG00":"2","STATE":"WA","N_CITY":"YAKIMA","N_POSTDIR":"","AV_DATE":"Thu Sep 27 07:59:43 2007","BG90":"2","ACCURACY":"Close","TRACT90D":"0003.002","N_STRSUF":"WAY","Y_COORD":46.61082,"id":"a6303u4p5sw8","ADDRESS":"3801 Kern Rd","N_MCODE":"S81","N_PREDIR":"","SOURCE":"NAVTECH","QUALITY":"03","TRACT00D":"0003.002","AV_CITY":"YAKIMA"},"type":"Feature","geometry":{"type":"Point","coordinates":[-120.55884431214,46.6108191148652]}},{"properties":{"NAME":"YVFWC Family Dental Care","CITY":"Ellensburg","CERTAINTY":"1","ZCTA":"98926","AV_CO":"037","ZIP":"98926","N_LCODE":"AS1","N_HOUSENUM":"201","GEOLEVEL":"CENSUSTRACT","ZIPNAME":"98926MOUNTAIN VIEW","AV_SCORE":100,"N_STREET":"MOUNTAIN VIEW","Z4LINK":"989263770","AV_ALPHA":"19","TRACT00":"975600","BLOCK00":"4004","PHONE":"509-962-2435","N_ADDRESS":"201 E MOUNTAIN VIEW AVE","N_UNIT":"","X_COORD":-120.54537,"N_ZIP4":"3770","N_STATE":"WA","TRACT90":"975600","BLOCK90":"36","N_ZIP":"98926","AV_ZIP":"98926","BG00":"4","STATE":"WA","N_CITY":"ELLENSBURG","N_POSTDIR":"","AV_DATE":"Thu Sep 27 07:59:43 2007","BG90":"3","ACCURACY":"Close","TRACT90D":"9756.003","N_STRSUF":"AVE","Y_COORD":46.98464,"id":"a6303uarsgaf","ADDRESS":"201 E. Mountain View","N_MCODE":"S81","N_PREDIR":"E","SOURCE":"NAVTECH","QUALITY":"03","TRACT00D":"9756.004","AV_CITY":"ELLENSBURG"},"type":"Feature","geometry":{"type":"Point","coordinates":[-120.545368,46.9846433323924]}},{"properties":{"NAME":"YVFWC Family Health Network","CITY":"Yakima","CERTAINTY":"1","ZCTA":"98902","AV_CO":"077","ZIP":"98902","N_LCODE":"AP0","N_HOUSENUM":"2205","GEOLEVEL":"CENSUSTRACT","ZIPNAME":"98902LINCOLN","AV_SCORE":100,"N_STREET":"LINCOLN","Z4LINK":"989022437","AV_ALPHA":"39","TRACT00":"000500","BLOCK00":"2014","PHONE":"509-469-6305","N_ADDRESS":"2205 W LINCOLN AVE","N_UNIT":"","X_COORD":-120.539,"N_ZIP4":"2437","N_STATE":"WA","TRACT90":"000500","BLOCK90":"05B","N_ZIP":"98902","AV_ZIP":"98902","BG00":"2","STATE":"WA","N_CITY":"YAKIMA","N_POSTDIR":"","AV_DATE":"Thu Sep 27 07:59:43 2007","BG90":"2","ACCURACY":"Close","TRACT90D":"0005.002","N_STRSUF":"AVE","Y_COORD":46.60395,"id":"a6303u9omfua","ADDRESS":"2205 West Lincoln Ave","N_MCODE":"S80","N_PREDIR":"W","SOURCE":"Local Parcels","QUALITY":"02","TRACT00D":"0005.002","AV_CITY":"YAKIMA"},"type":"Feature","geometry":{"type":"Point","coordinates":[-120.538998962,46.6039529510583]}},{"properties":{"NAME":"YVFWC Family Medical Center","CITY":"Walla Walla","CERTAINTY":"1","ZCTA":"99362","AV_CO":"071","ZIP":"99362","N_LCODE":"AS1","N_HOUSENUM":"1120","GEOLEVEL":"CENSUSTRACT","ZIPNAME":"99362ROSE","AV_SCORE":100,"N_STREET":"ROSE","Z4LINK":"993621662","AV_ALPHA":"36","TRACT00":"920600","BLOCK00":"1003","PHONE":"509-525-6650","N_ADDRESS":"1120 W ROSE ST","N_UNIT":"","X_COORD":-118.35628,"N_ZIP4":"1662","N_STATE":"WA","TRACT90":"920600","BLOCK90":"27","N_ZIP":"99362","AV_ZIP":"99362","BG00":"1","STATE":"WA","N_CITY":"WALLA WALLA","N_POSTDIR":"","AV_DATE":"Thu Sep 27 07:59:43 2007","BG90":"1","ACCURACY":"Close","TRACT90D":"9206.001","N_STRSUF":"ST","Y_COORD":46.0616,"id":"a6303u4eu7dg","ADDRESS":"1120 West Rose St","N_MCODE":"S80","N_PREDIR":"W","SOURCE":"NAVTECH","QUALITY":"03","TRACT00D":"9206.001","AV_CITY":"WALLA WALLA"},"type":"Feature","geometry":{"type":"Point","coordinates":[-118.356278651564,46.0616045220068]}},{"properties":{"NAME":"YVFWC Grandview Medical &amp; Dental Clinic","CITY":"Grandview","CERTAINTY":"1","ZCTA":"98930","AV_CO":"077","ZIP":"98930","N_LCODE":"AS1","N_HOUSENUM":"1000","GEOLEVEL":"CENSUSTRACT","ZIPNAME":"98930WALLACE","AV_SCORE":100,"N_STREET":"WALLACE","Z4LINK":"989308805","AV_ALPHA":"39","TRACT00":"001800","BLOCK00":"2086","PHONE":"509-882-3444","N_ADDRESS":"1000 WALLACE WAY","N_UNIT":"","X_COORD":-119.92163,"N_ZIP4":"8805","N_STATE":"WA","TRACT90":"001800","BLOCK90":"77A","N_ZIP":"98930","AV_ZIP":"98930","BG00":"2","STATE":"WA","N_CITY":"GRANDVIEW","N_POSTDIR":"","AV_DATE":"Thu Sep 27 07:59:43 2007","BG90":"3","ACCURACY":"Close","TRACT90D":"0018.003","N_STRSUF":"WAY","Y_COORD":46.26581,"id":"a6303u53tps5","ADDRESS":"1000 Wallace Way","N_MCODE":"S80","N_PREDIR":"","SOURCE":"GDT 1000","QUALITY":"03","TRACT00D":"0018.002","AV_CITY":"GRANDVIEW"},"type":"Feature","geometry":{"type":"Point","coordinates":[-119.921627561487,46.2658090752127]}},{"properties":{"NAME":"YVFWC Miramar Health Center","CITY":"Pasco","CERTAINTY":"1","ZCTA":"99301","AV_CO":"021","ZIP":"99301","N_LCODE":"AS1","N_HOUSENUM":"1608","GEOLEVEL":"CENSUSTRACT","ZIPNAME":"99301ROAD 44","AV_SCORE":100,"N_STREET":"ROAD 44","Z4LINK":"993012667","AV_ALPHA":"11","TRACT00":"020502","BLOCK00":"2020","PHONE":"509-543-9280","N_ADDRESS":"1608 N ROAD 44","N_UNIT":"","X_COORD":-119.1487,"N_ZIP4":"2667","N_STATE":"WA","TRACT90":"020502","BLOCK90":"19A","N_ZIP":"99301","AV_ZIP":"99301","BG00":"2","STATE":"WA","N_CITY":"PASCO","N_POSTDIR":"","AV_DATE":"Thu Sep 27 07:59:43 2007","BG90":"2","ACCURACY":"Close","TRACT90D":"0205.022","N_STRSUF":"","Y_COORD":46.24284,"id":"a6303u8t4fl1","ADDRESS":"1608 Road 44","N_MCODE":"S82","N_PREDIR":"N","SOURCE":"TIGER 2000","QUALITY":"03","TRACT00D":"0205.022","AV_CITY":"PASCO"},"type":"Feature","geometry":{"type":"Point","coordinates":[-119.148703333333,46.2428420398734]}},{"properties":{"NAME":"YVFWC Mountainview Women's Health Center","CITY":"Grandview","CERTAINTY":"1","ZCTA":"98930","AV_CO":"077","ZIP":"98930","N_LCODE":"AS1","N_HOUSENUM":"240","GEOLEVEL":"CENSUSTRACT","ZIPNAME":"98930DIVISION","AV_SCORE":100,"N_STREET":"DIVISION","Z4LINK":"989301357","AV_ALPHA":"39","TRACT00":"001900","BLOCK00":"1037","PHONE":"509-882-4700","N_ADDRESS":"240 DIVISION ST","N_UNIT":"","X_COORD":-119.90203,"N_ZIP4":"1357","N_STATE":"WA","TRACT90":"001900","BLOCK90":"35","N_ZIP":"98930","AV_ZIP":"98930","BG00":"1","STATE":"WA","N_CITY":"GRANDVIEW","N_POSTDIR":"","AV_DATE":"Thu Sep 27 07:59:43 2007","BG90":"1","ACCURACY":"Close","TRACT90D":"0019.001","N_STRSUF":"ST","Y_COORD":46.25423,"id":"a6303tv6mnc4","ADDRESS":"240 Division St","N_MCODE":"S80","N_PREDIR":"","SOURCE":"NAVTECH","QUALITY":"03","TRACT00D":"0019.001","AV_CITY":"GRANDVIEW"},"type":"Feature","geometry":{"type":"Point","coordinates":[-119.902029203239,46.25423102151]}},{"properties":{"NAME":"YVFWC Northwest Community Action Center","CITY":"Toppenish","CERTAINTY":"1","ZCTA":"98948","AV_CO":"077","ZIP":"98948","N_LCODE":"AS1","N_HOUSENUM":"706","GEOLEVEL":"CENSUSTRACT","ZIPNAME":"98948RENTSCHLER","AV_SCORE":100,"N_STREET":"RENTSCHLER","Z4LINK":"989481100","AV_ALPHA":"39","TRACT00":"002300","BLOCK00":"4023","PHONE":"509-865-7630","N_ADDRESS":"706 RENTSCHLER LN","N_UNIT":"","X_COORD":-120.32035,"N_ZIP4":"1100","N_STATE":"WA","TRACT90":"002300","BLOCK90":"16A","N_ZIP":"98948","AV_ZIP":"98948","BG00":"4","STATE":"WA","N_CITY":"TOPPENISH","N_POSTDIR":"","AV_DATE":"Thu Sep 27 07:59:43 2007","BG90":"4","ACCURACY":"Close","TRACT90D":"0023.004","N_STRSUF":"LN","Y_COORD":46.37746,"id":"a6303twapv9k","ADDRESS":"706 Rentschler","N_MCODE":"S81","N_PREDIR":"","SOURCE":"NAVTECH","QUALITY":"03","TRACT00D":"0023.004","AV_CITY":"TOPPENISH"},"type":"Feature","geometry":{"type":"Point","coordinates":[-120.320353035816,46.3774616186926]}},{"properties":{"NAME":"YVFWC Prosser Medical Center","CITY":"Prosser","CERTAINTY":"1","ZCTA":"99350","AV_CO":"005","ZIP":"99350","N_LCODE":"AS1","N_HOUSENUM":"740","GEOLEVEL":"CENSUSTRACT","ZIPNAME":"99350MEMORIAL","AV_SCORE":100,"N_STREET":"MEMORIAL","Z4LINK":"993501525","AV_ALPHA":"03","TRACT00":"011700","BLOCK00":"4009","PHONE":"509-786-1931","N_ADDRESS":"740 MEMORIAL ST","N_UNIT":"","X_COORD":-119.76373,"N_ZIP4":"1525","N_STATE":"WA","TRACT90":"011700","BLOCK90":"04","N_ZIP":"99350","AV_ZIP":"99350","BG00":"4","STATE":"WA","N_CITY":"PROSSER","N_POSTDIR":"","AV_DATE":"Thu Sep 27 07:59:43 2007","BG90":"4","ACCURACY":"Close","TRACT90D":"0117.004","N_STRSUF":"ST","Y_COORD":46.20876,"id":"a6303u8ubhq0","ADDRESS":"740 Memorial St","N_MCODE":"S80","N_PREDIR":"","SOURCE":"TIGER 2006","QUALITY":"03","TRACT00D":"0117.004","AV_CITY":"PROSSER"},"type":"Feature","geometry":{"type":"Point","coordinates":[-119.763730420065,46.2087570280435]}},{"properties":{"NAME":"YVFWC Spokane Falls Family Clinic","CITY":"Spokane","CERTAINTY":"1","ZCTA":"99201","AV_CO":"063","ZIP":"99210","N_LCODE":"AS1","N_HOUSENUM":"120","GEOLEVEL":"CENSUSTRACT","ZIPNAME":"99201MISSION","AV_SCORE":100,"N_STREET":"MISSION","Z4LINK":"992012322","AV_ALPHA":"32","TRACT00":"002400","BLOCK00":"1009","PHONE":"509-326-4343","N_ADDRESS":"120 W MISSION AVE","N_UNIT":"","X_COORD":-117.41316,"N_ZIP4":"2322","N_STATE":"WA","TRACT90":"002400","BLOCK90":"10","N_ZIP":"99201","AV_ZIP":"99205","BG00":"1","STATE":"WA","N_CITY":"SPOKANE","N_POSTDIR":"","AV_DATE":"Thu Sep 27 07:59:43 2007","BG90":"1","ACCURACY":"Close","TRACT90D":"0024.001","N_STRSUF":"AVE","Y_COORD":47.67185,"id":"a6303u9z3ftl","ADDRESS":"120 West Mission Ave","N_MCODE":"S90","N_PREDIR":"W","SOURCE":"NAVTECH","QUALITY":"03","TRACT00D":"0024.001","AV_CITY":"SPOKANE"},"type":"Feature","geometry":{"type":"Point","coordinates":[-117.413156530312,47.6718455193965]}},{"properties":{"NAME":"YVFWC Toppenish Medical &amp; Dental","CITY":"Toppenish","CERTAINTY":"1","ZCTA":"98948","AV_CO":"077","ZIP":"98948","N_LCODE":"AP0","N_HOUSENUM":"518","GEOLEVEL":"CENSUSTRACT","ZIPNAME":"989481ST","AV_SCORE":100,"N_STREET":"1ST","Z4LINK":"989481564","AV_ALPHA":"39","TRACT00":"002300","BLOCK00":"3040","PHONE":"509-865-5600","N_ADDRESS":"518 W 1ST AVE","N_UNIT":"","X_COORD":-120.318,"N_ZIP4":"1564","N_STATE":"WA","TRACT90":"002300","BLOCK90":"41","N_ZIP":"98948","AV_ZIP":"98948","BG00":"3","STATE":"WA","N_CITY":"TOPPENISH","N_POSTDIR":"","AV_DATE":"Thu Sep 27 07:59:43 2007","BG90":"3","ACCURACY":"Close","TRACT90D":"0023.003","N_STRSUF":"AVE","Y_COORD":46.37447,"id":"a6303u7dbeoz","ADDRESS":"518 West First Ave","N_MCODE":"S88","N_PREDIR":"W","SOURCE":"Local Parcels","QUALITY":"02","TRACT00D":"0023.003","AV_CITY":"TOPPENISH"},"type":"Feature","geometry":{"type":"Point","coordinates":[-120.31800438,46.3744652260579]}},{"properties":{"NAME":"YVFWC Valley Family Medicine","CITY":"Prosser","CERTAINTY":"1","ZCTA":"99350","AV_CO":"005","ZIP":"99350","N_LCODE":"AS1","N_HOUSENUM":"821","GEOLEVEL":"CENSUSTRACT","ZIPNAME":"99350MEMORIAL","AV_SCORE":100,"N_STREET":"MEMORIAL","Z4LINK":"993501526","AV_ALPHA":"03","TRACT00":"011700","BLOCK00":"4009","PHONE":"509-786-2010","N_ADDRESS":"821 MEMORIAL ST","N_UNIT":"","X_COORD":-119.76361,"N_ZIP4":"1526","N_STATE":"WA","TRACT90":"011700","BLOCK90":"04","N_ZIP":"99350","AV_ZIP":"99350","BG00":"4","STATE":"WA","N_CITY":"PROSSER","N_POSTDIR":"","AV_DATE":"Thu Sep 27 07:59:43 2007","BG90":"4","ACCURACY":"Close","TRACT90D":"0117.004","N_STRSUF":"ST","Y_COORD":46.20908,"id":"a6303u10657d","ADDRESS":"821 Memorial St","N_MCODE":"S80","N_PREDIR":"","SOURCE":"NAVTECH","QUALITY":"03","TRACT00D":"0117.004","AV_CITY":"PROSSER"},"type":"Feature","geometry":{"type":"Point","coordinates":[-119.763607364239,46.209084010105]}},{"properties":{"NAME":"YVFWC Valley Women's Health","CITY":"Yakima","CERTAINTY":"1","ZCTA":"98902","AV_CO":"077","ZIP":"98902","N_LCODE":"AP0","N_HOUSENUM":"2205","GEOLEVEL":"CENSUSTRACT","ZIPNAME":"98902LINCOLN","AV_SCORE":100,"N_STREET":"LINCOLN","Z4LINK":"989022437","AV_ALPHA":"39","TRACT00":"000500","BLOCK00":"2014","PHONE":"509-575-1234","N_ADDRESS":"2205 W LINCOLN AVE","N_UNIT":"","X_COORD":-120.539,"N_ZIP4":"2437","N_STATE":"WA","TRACT90":"000500","BLOCK90":"05B","N_ZIP":"98902","AV_ZIP":"98902","BG00":"2","STATE":"WA","N_CITY":"YAKIMA","N_POSTDIR":"","AV_DATE":"Thu Sep 27 07:59:43 2007","BG90":"2","ACCURACY":"Close","TRACT90D":"0005.002","N_STRSUF":"AVE","Y_COORD":46.60395,"id":"a6303u6osgld","ADDRESS":"2205 West Lincoln Ave","N_MCODE":"S80","N_PREDIR":"W","SOURCE":"Local Parcels","QUALITY":"02","TRACT00D":"0005.002","AV_CITY":"YAKIMA"},"type":"Feature","geometry":{"type":"Point","coordinates":[-120.538998962,46.6039529510583]}},{"properties":{"NAME":"YVFWC ViewCrest Pediatric Dentistry","CITY":"Yakima","CERTAINTY":"1","ZCTA":"98902","AV_CO":"077","ZIP":"98902","N_LCODE":"AP0","N_HOUSENUM":"2205","GEOLEVEL":"CENSUSTRACT","ZIPNAME":"98902LINCOLN","AV_SCORE":100,"N_STREET":"LINCOLN","Z4LINK":"989022437","AV_ALPHA":"39","TRACT00":"000500","BLOCK00":"2014","PHONE":"509-575-3399","N_ADDRESS":"2205 W LINCOLN AVE","N_UNIT":"","X_COORD":-120.539,"N_ZIP4":"2437","N_STATE":"WA","TRACT90":"000500","BLOCK90":"05B","N_ZIP":"98902","AV_ZIP":"98902","BG00":"2","STATE":"WA","N_CITY":"YAKIMA","N_POSTDIR":"","AV_DATE":"Thu Sep 27 07:59:43 2007","BG90":"2","ACCURACY":"Close","TRACT90D":"0005.002","N_STRSUF":"AVE","Y_COORD":46.60395,"id":"a6303u1hbhwd","ADDRESS":"2205 West Lincoln Ave","N_MCODE":"S80","N_PREDIR":"W","SOURCE":"Local Parcels","QUALITY":"02","TRACT00D":"0005.002","AV_CITY":"YAKIMA"},"type":"Feature","geometry":{"type":"Point","coordinates":[-120.538998962,46.6039529510583]}},{"properties":{"NAME":"YVFWC WIC Program ? Memorial Hospital","CITY":"Yakima","CERTAINTY":"1","ZCTA":"98902","AV_CO":"077","ZIP":"98902","N_LCODE":"AP0","N_HOUSENUM":"2811","GEOLEVEL":"CENSUSTRACT","ZIPNAME":"98902TIETON","AV_SCORE":100,"N_STREET":"TIETON","Z4LINK":"989023761","AV_ALPHA":"39","TRACT00":"000800","BLOCK00":"3002","PHONE":"509-576-0146","N_ADDRESS":"2811 TIETON DR","N_UNIT":"","X_COORD":-120.54741,"N_ZIP4":"3761","N_STATE":"WA","TRACT90":"000800","BLOCK90":"03","N_ZIP":"98902","AV_ZIP":"98902","BG00":"3","STATE":"WA","N_CITY":"YAKIMA","N_POSTDIR":"","AV_DATE":"Thu Sep 27 07:59:43 2007","BG90":"3","ACCURACY":"Close","TRACT90D":"0008.003","N_STRSUF":"DR","Y_COORD":46.5936,"id":"a6303u9tzdfl","ADDRESS":"2811 Tieton Drive","N_MCODE":"S80","N_PREDIR":"","SOURCE":"Local Parcels","QUALITY":"02","TRACT00D":"0008.003","AV_CITY":"YAKIMA"},"type":"Feature","geometry":{"type":"Point","coordinates":[-120.547413804,46.5936019770583]}},{"properties":{"NAME":"YVFWC Wapato WIC","CITY":"Wapato","CERTAINTY":"1","ZCTA":"98951","AV_CO":"077","ZIP":"98951","N_LCODE":"AP0","N_HOUSENUM":"715","GEOLEVEL":"CENSUSTRACT","ZIPNAME":"989511ST","AV_SCORE":100,"N_STREET":"1ST","Z4LINK":"989511152","AV_ALPHA":"39","TRACT00":"002500","BLOCK00":"3010","PHONE":"509-877-6167","N_ADDRESS":"715 W 1ST ST","N_UNIT":"","X_COORD":-120.42831,"N_ZIP4":"1152","N_STATE":"WA","TRACT90":"002500","BLOCK90":"01","N_ZIP":"98951","AV_ZIP":"98951","BG00":"3","STATE":"WA","N_CITY":"WAPATO","N_POSTDIR":"","AV_DATE":"Thu Sep 27 07:59:43 2007","BG90":"3","ACCURACY":"Close","TRACT90D":"0025.003","N_STRSUF":"ST","Y_COORD":46.44701,"id":"a6303u56wmls","ADDRESS":"715 West 1st Street","N_MCODE":"S80","N_PREDIR":"W","SOURCE":"Local Parcels","QUALITY":"02","TRACT00D":"0025.003","AV_CITY":"WAPATO"},"type":"Feature","geometry":{"type":"Point","coordinates":[-120.428305041,46.447008433058]}},{"properties":{"NAME":"YVFWC Women?s Health Network","CITY":"Yakima","CERTAINTY":"1","ZCTA":"98902","AV_CO":"077","ZIP":"98902","N_LCODE":"AP0","N_HOUSENUM":"2205","GEOLEVEL":"CENSUSTRACT","ZIPNAME":"98902LINCOLN","AV_SCORE":100,"N_STREET":"LINCOLN","Z4LINK":"989022437","AV_ALPHA":"39","TRACT00":"000500","BLOCK00":"2014","PHONE":"509-575-1990","N_ADDRESS":"2205 W LINCOLN AVE","N_UNIT":"","X_COORD":-120.539,"N_ZIP4":"2437","N_STATE":"WA","TRACT90":"000500","BLOCK90":"05B","N_ZIP":"98902","AV_ZIP":"98902","BG00":"2","STATE":"WA","N_CITY":"YAKIMA","N_POSTDIR":"","AV_DATE":"Thu Sep 27 07:59:43 2007","BG90":"2","ACCURACY":"Close","TRACT90D":"0005.002","N_STRSUF":"AVE","Y_COORD":46.60395,"id":"a6303u0698ci","ADDRESS":"2205 West Lincoln Ave","N_MCODE":"S80","N_PREDIR":"W","SOURCE":"Local Parcels","QUALITY":"02","TRACT00D":"0005.002","AV_CITY":"YAKIMA"},"type":"Feature","geometry":{"type":"Point","coordinates":[-120.538998962,46.6039529510583]}},{"properties":{"NAME":"YVFWC Yakima Medical &amp; Dental Clinic","CITY":"Yakima","CERTAINTY":"1","ZCTA":"98901","AV_CO":"077","ZIP":"98901","N_LCODE":"AS1","N_HOUSENUM":"602","GEOLEVEL":"CENSUSTRACT","ZIPNAME":"98901NOB HILL","AV_SCORE":100,"N_STREET":"NOB HILL","Z4LINK":"989013534","AV_ALPHA":"39","TRACT00":"001500","BLOCK00":"4022","PHONE":"509-248-3334  509-453-7144","N_ADDRESS":"602 E NOB HILL BLVD","N_UNIT":"","X_COORD":-120.49418,"N_ZIP4":"3534","N_STATE":"WA","TRACT90":"001500","BLOCK90":"14B","N_ZIP":"98901","AV_ZIP":"98901","BG00":"4","STATE":"WA","N_CITY":"YAKIMA","N_POSTDIR":"","AV_DATE":"Thu Sep 27 07:59:43 2007","BG90":"4","ACCURACY":"Close","TRACT90D":"0015.004","N_STRSUF":"BLVD","Y_COORD":46.58524,"id":"a6303u50myj0","ADDRESS":"602 East Nob Hill Blvd","N_MCODE":"S80","N_PREDIR":"E","SOURCE":"Local Roads","QUALITY":"03","TRACT00D":"0015.004","AV_CITY":"YAKIMA"},"type":"Feature","geometry":{"type":"Point","coordinates":[-120.494183543272,46.5852441544598]}},{"properties":{"NAME":"Yakima Neighborhood Health Services (YNHS) - Administrative Offices &amp; Clinic","CITY":"Yakima","CERTAINTY":"1","ZCTA":"98901","AV_CO":"077","ZIP":"98907","N_LCODE":"AP0","N_HOUSENUM":"12","GEOLEVEL":"CENSUSTRACT","ZIPNAME":"989018TH","AV_SCORE":100,"N_STREET":"8TH","Z4LINK":"989013020","AV_ALPHA":"39","TRACT00":"000100","BLOCK00":"1017","PHONE":"509-454-4143","N_ADDRESS":"12 S 8TH ST","N_UNIT":"","X_COORD":-120.49553,"N_ZIP4":"3020","N_STATE":"WA","TRACT90":"000100","BLOCK90":"20","N_ZIP":"98901","AV_ZIP":"98901","BG00":"1","STATE":"WA","N_CITY":"YAKIMA","N_POSTDIR":"","AV_DATE":"Thu Sep 27 07:59:43 2007","BG90":"1","ACCURACY":"Close","TRACT90D":"0001.001","N_STRSUF":"ST","Y_COORD":46.60374,"id":"a6303u008rf0","ADDRESS":"12 South 8th St.","N_MCODE":"S90","N_PREDIR":"S","SOURCE":"Local Parcels","QUALITY":"02","TRACT00D":"0001.001","AV_CITY":"YAKIMA"},"type":"Feature","geometry":{"type":"Point","coordinates":[-120.495529092,46.6037419330583]}},{"properties":{"NAME":"Yakima Valley Farm Workers Clinic (YVFWC) - Administrative Offices, Behavioral Health &amp; Mobile Cl","CITY":"Toppenish","CERTAINTY":"1","ZCTA":"98948","AV_CO":"077","ZIP":"98948","N_LCODE":"AP0","N_HOUSENUM":"518","GEOLEVEL":"CENSUSTRACT","ZIPNAME":"989481ST","AV_SCORE":100,"N_STREET":"1ST","Z4LINK":"989481564","AV_ALPHA":"39","TRACT00":"002300","BLOCK00":"3040","PHONE":"509-865-5898","N_ADDRESS":"518 W 1ST AVE","N_UNIT":"","X_COORD":-120.318,"N_ZIP4":"1564","N_STATE":"WA","TRACT90":"002300","BLOCK90":"41","N_ZIP":"98948","AV_ZIP":"98948","BG00":"3","STATE":"WA","N_CITY":"TOPPENISH","N_POSTDIR":"","AV_DATE":"Thu Sep 27 07:59:43 2007","BG90":"3","ACCURACY":"Close","TRACT90D":"0023.003","N_STRSUF":"AVE","Y_COORD":46.37447,"id":"a6303u9asm3c","ADDRESS":"518 West First Ave","N_MCODE":"S88","N_PREDIR":"W","SOURCE":"Local Parcels","QUALITY":"02","TRACT00D":"0023.003","AV_CITY":"TOPPENISH"},"type":"Feature","geometry":{"type":"Point","coordinates":[-120.31800438,46.3744652260579]}}],"is_temporal":false,"author":{"url":"http://ww4.doh.wa.gov/gis/gisdata.htm","metadata":"http://ww4.doh.wa.gov/gis/metadata/cmhc.htm","contact_name":"","contact_address":"","source":"Washington State Department of Health","contact_phone":""},"source":"http://ww4.doh.wa.gov/gis/gisdata.htm","pagination":{"sort":null,"start":0,"total":156,"limit":1000000},"state":"complete","tags":"health,medicine,washington","published":"2007-10-01T12:00:00Z","id":3219}