{"type":"FeatureCollection","data_type":"Data Feed","url_type":"csv","permissions":[{"permissions":{"download":true,"view":true},"group_id":"everyone"}],"classification":null,"title":"Runner Mp","count":24,"stream_id":322990,"contributor":{"url":"http://geocommons.com/users/62170","name":"CharlesMPRhomes"},"data_attributes":null,"calculation_params":null,"icon_link":null,"link":"http://geocommons.com/overlays/322990.json","extent":[-118.584,33.5761,-117.16,34.4223],"geometry_types":["point"],"unique_name":null,"name":"Runner Mp","feature_count":24,"description":"","next_feature":null,"is_raster":false,"short_classification":"Y","stats":{"geo_latitude":{"max":34.42226,"variance":0.0396360740046362,"mean":33.968153125,"stdev":0.19908810613554,"min":33.576069,"median":33.986229},"geo_longitude":{"max":-117.159508,"variance":0.216248699097189,"mean":-117.570891666667,"stdev":0.465025482201985,"min":-118.584068,"median":-117.400009},"geo_accuracy":{"max":87,"variance":0.318840579710145,"mean":86.8333333333333,"stdev":0.56465970257328,"min":85,"median":87}},"features":[{"properties":{"city":"Anaheim","zip":"92804","geo_latitude":33.826359,"geo_longitude":-118.008308,"geo_accuracy":85,"id":"acc13hz6ik0l","address":"410 S Danbrook"},"type":"Feature","geometry":{"type":"Point","coordinates":[-118.008308,33.826359]}},{"properties":{"city":"Canyon Lake","zip":"92587","geo_latitude":33.686661,"geo_longitude":-117.240936,"geo_accuracy":87,"id":"acc13hs1pt8n","address":"24052  Outrigger Drive"},"type":"Feature","geometry":{"type":"Point","coordinates":[-117.240936,33.686661]}},{"properties":{"city":"Corona","zip":"92881","geo_latitude":33.84277,"geo_longitude":-117.520081,"geo_accuracy":87,"id":"acc13hsewbfg","address":"19065 Stroh Avenue"},"type":"Feature","geometry":{"type":"Point","coordinates":[-117.520081,33.84277]}},{"properties":{"city":"Lake Elsinore","zip":"92532","geo_latitude":33.67413,"geo_longitude":-117.283318,"geo_accuracy":87,"id":"acc13hyoukwi","address":"28  Bella Firenze"},"type":"Feature","geometry":{"type":"Point","coordinates":[-117.283318,33.67413]}},{"properties":{"city":"Lake Elsinore","zip":"92532","geo_latitude":33.674648,"geo_longitude":-117.279907,"geo_accuracy":87,"id":"acc13hxqcg0y","address":"9 Plaza Lucerna"},"type":"Feature","geometry":{"type":"Point","coordinates":[-117.279907,33.674648]}},{"properties":{"city":"Long Beach","zip":"90805","geo_latitude":33.873241,"geo_longitude":-118.177383,"geo_accuracy":87,"id":"acc13i4e1g49","address":"6525  Orange Avenue"},"type":"Feature","geometry":{"type":"Point","coordinates":[-118.177383,33.873241]}},{"properties":{"city":"Moreno Valley","zip":"92553","geo_latitude":33.933109,"geo_longitude":-117.22345,"geo_accuracy":87,"id":"acc13i08rx3l","address":"25158  Marsel Ranch Road"},"type":"Feature","geometry":{"type":"Point","coordinates":[-117.22345,33.933109]}},{"properties":{"city":"Moreno Valley","zip":"92555","geo_latitude":33.95599,"geo_longitude":-117.172539,"geo_accuracy":87,"id":"acc13hulw7ff","address":"28094 Morrey Lane"},"type":"Feature","geometry":{"type":"Point","coordinates":[-117.172539,33.95599]}},{"properties":{"city":"Northridge","zip":"91326","geo_latitude":34.27597,"geo_longitude":-118.584068,"geo_accuracy":87,"id":"acc13hunhqf1","address":"20704 Vercelli Way"},"type":"Feature","geometry":{"type":"Point","coordinates":[-118.584068,34.27597]}},{"properties":{"city":"Redlands","zip":"92374","geo_latitude":34.08041,"geo_longitude":-117.168503,"geo_accuracy":87,"id":"acc13ht5gy5s","address":"1069  Occidental Circle"},"type":"Feature","geometry":{"type":"Point","coordinates":[-117.168503,34.08041]}},{"properties":{"city":"Redlands","zip":"92374","geo_latitude":34.060459,"geo_longitude":-117.159508,"geo_accuracy":87,"id":"acc13hu43ctj","address":"605  Jeremy Court"},"type":"Feature","geometry":{"type":"Point","coordinates":[-117.159508,34.060459]}},{"properties":{"city":"Redlands","zip":"92374","geo_latitude":34.067829,"geo_longitude":-117.17279,"geo_accuracy":87,"id":"acc13hxqi4dw","address":"819  Harvard Court"},"type":"Feature","geometry":{"type":"Point","coordinates":[-117.17279,34.067829]}},{"properties":{"city":"Riverside","zip":"92503","geo_latitude":33.894909,"geo_longitude":-117.482628,"geo_accuracy":87,"id":"acc13i1jdy8f","address":"11571  Queensborough Street"},"type":"Feature","geometry":{"type":"Point","coordinates":[-117.482628,33.894909]}},{"properties":{"city":"Riverside","zip":"92509","geo_latitude":33.9925,"geo_longitude":-117.401131,"geo_accuracy":87,"id":"acc13hudn7gv","address":"3926  Driving Range Road"},"type":"Feature","geometry":{"type":"Point","coordinates":[-117.401131,33.9925]}},{"properties":{"city":"Riverside","zip":"92506","geo_latitude":33.970051,"geo_longitude":-117.400009,"geo_accuracy":87,"id":"acc13hw63np9","address":"5473  Tower Road"},"type":"Feature","geometry":{"type":"Point","coordinates":[-117.400009,33.970051]}},{"properties":{"city":"Riverside","zip":"92509","geo_latitude":33.986229,"geo_longitude":-117.436562,"geo_accuracy":87,"id":"acc13huk8wyy","address":"7050  Valdez Avenue"},"type":"Feature","geometry":{"type":"Point","coordinates":[-117.436562,33.986229]}},{"properties":{"city":"San Bernardino","zip":"92408","geo_latitude":34.057671,"geo_longitude":-117.286408,"geo_accuracy":87,"id":"acc13hs3b8ua","address":"2448 South Dartmouth Road"},"type":"Feature","geometry":{"type":"Point","coordinates":[-117.286408,34.057671]}},{"properties":{"city":"San Bernardino","zip":"92346","geo_latitude":34.110371,"geo_longitude":-117.221336,"geo_accuracy":87,"id":"acc13hsx6r65","address":"26720  6th Street"},"type":"Feature","geometry":{"type":"Point","coordinates":[-117.221336,34.110371]}},{"properties":{"city":"Aliso Viejo","zip":"92656","geo_latitude":33.576069,"geo_longitude":-117.731956,"geo_accuracy":87,"id":"acc13hthw2et","address":"18  Parisville"},"type":"Feature","geometry":{"type":"Point","coordinates":[-117.731956,33.576069]}},{"properties":{"city":"Altadena","zip":"91001","geo_latitude":34.193771,"geo_longitude":-118.14048,"geo_accuracy":87,"id":"acc13hu8cjfj","address":"2859  Marengo Avenue"},"type":"Feature","geometry":{"type":"Point","coordinates":[-118.14048,34.193771]}},{"properties":{"city":"Canyon Country","zip":"91351","geo_latitude":34.42226,"geo_longitude":-118.479362,"geo_accuracy":87,"id":"acc13htlg358","address":"19636  Lonerock Street"},"type":"Feature","geometry":{"type":"Point","coordinates":[-118.479362,34.42226]}},{"properties":{"city":"Fontana","zip":"92336","geo_latitude":34.15213,"geo_longitude":-117.482307,"geo_accuracy":87,"id":"acc13i73oyfw","address":"5608  Bridle Court"},"type":"Feature","geometry":{"type":"Point","coordinates":[-117.482307,34.15213]}},{"properties":{"city":"Los Angeles","zip":"90064","geo_latitude":34.02935,"geo_longitude":-118.433029,"geo_accuracy":87,"id":"acc13hx9p1cm","address":"11289  IVY Place"},"type":"Feature","geometry":{"type":"Point","coordinates":[-118.433029,34.02935]}},{"properties":{"city":"Moreno Valley","zip":"92551","geo_latitude":33.898788,"geo_longitude":-117.215401,"geo_accuracy":85,"id":"acc13i6k39vt","address":"25606  Vista Famoso"},"type":"Feature","geometry":{"type":"Point","coordinates":[-117.215401,33.898788]}}],"is_temporal":false,"author":{"url":"","metadata":"","contact_name":"","contact_address":"","source":"","contact_phone":""},"source":"","pagination":{"sort":null,"start":0,"total":24,"limit":1000000},"state":"complete","tags":"","published":"2014-08-16T16:18:28-04:00","id":322990}