{"type":"FeatureCollection","data_type":"Dataset","url_type":null,"permissions":[{"permissions":{"download":true,"view":true},"group_id":"everyone"}],"classification":null,"title":"geocodeMap","count":138,"stream_id":323127,"contributor":{"url":"http://geocommons.com/users/62206","name":"matt.oakley01@hotmail.com"},"data_attributes":null,"calculation_params":null,"icon_link":null,"link":"http://geocommons.com/overlays/323127.json","extent":[0.0,0.0,0.0,0.0],"geometry_types":[],"unique_name":null,"name":"geocodeMap","feature_count":138,"description":"","next_feature":null,"is_raster":false,"short_classification":"Y","stats":{"latitude":{"max":null,"min":null,"median":null},"close":{"max":2359,"variance":25179.9705882353,"mean":2141.0,"stdev":158.681979406092,"min":1730,"median":2200},"longitude":{"max":null,"min":null,"median":null},"geocode score":{"max":0,"variance":0.0,"mean":0.0,"stdev":0.0,"min":0,"median":0},"easting":{"max":492983,"variance":245399155.469163,"mean":479147.405797101,"stdev":15665.2212071571,"min":309107,"median":480048},"open":{"max":1030,"variance":22040.4407471018,"mean":656.452554744526,"stdev":148.460232881071,"min":1,"median":700},"northern":{"max":610279,"variance":1098738524.50587,"mean":251818.347826087,"stdev":33147.2249895202,"min":227058,"median":243947}},"features":[{"properties":{"latitude":null,"postcode":"MK2 2DW","close":1730,"tel":"01908 373978","fascia":"MARTINS","longitude":null,"id":"accb886hiwkg","address":"83-85 Queensway","easting":487272,"geocode score":0,"northern":233712,"open":700,"geocode precision":"unmatched"},"type":"Feature","geometry":null},{"properties":{"latitude":null,"postcode":"MK2 2JP","close":2200,"tel":"01908 631138","fascia":"Shell HKS Norman","longitude":null,"id":"accb88fne3fj","address":"Saxon Street","easting":487163,"geocode score":0,"northern":234132,"open":600,"geocode precision":"unmatched"},"type":"Feature","geometry":null},{"properties":{"latitude":null,"postcode":"MK2 2JP","close":2200,"tel":"01908 631135","fascia":"Shell HKS Saxon","longitude":null,"id":"accb886jn7un","address":"Saxon Street","easting":487163,"geocode score":0,"northern":234132,"open":1,"geocode precision":"unmatched"},"type":"Feature","geometry":null},{"properties":{"latitude":null,"postcode":"MK2 2NP","close":2100,"tel":"1908271727","fascia":"Londis","longitude":null,"id":"accb887y2w95","address":"34 Victoria Road","easting":488003,"geocode score":0,"northern":234015,"open":700,"geocode precision":"unmatched"},"type":"Feature","geometry":null},{"properties":{"latitude":null,"postcode":"MK2 3AQ","close":2300,"tel":"1908367687","fascia":"The Co-op","longitude":null,"id":"accb885h4fk3","address":"Water Eaton Road","easting":487718,"geocode score":0,"northern":233090,"open":700,"geocode precision":"unmatched"},"type":"Feature","geometry":null},{"properties":{"latitude":null,"postcode":"MK2 3QJ","close":1900,"tel":"01908 367070","fascia":"Happy Shopper","longitude":null,"id":"accb88hje5el","address":"113 Serpentine Court","easting":487631,"geocode score":0,"northern":232152,"open":830,"geocode precision":"unmatched"},"type":"Feature","geometry":null},{"properties":{"latitude":null,"postcode":"MK2 3QL","close":1930,"tel":"1908374240","fascia":"Best One","longitude":null,"id":"accb88i7riuf","address":"104 Serpentine Court","easting":487589,"geocode score":0,"northern":232124,"open":700,"geocode precision":"unmatched"},"type":"Feature","geometry":null},{"properties":{"latitude":null,"postcode":"MK3 5BU","close":2300,"tel":"1908372116","fascia":"The Co-op","longitude":null,"id":"accb887t7e2m","address":"Newton Road","easting":485636,"geocode score":0,"northern":233217,"open":600,"geocode precision":"unmatched"},"type":"Feature","geometry":null},{"properties":{"latitude":null,"postcode":"MK3 5DT","close":2100,"tel":"1908646010","fascia":"Bestone Food and Wine","longitude":null,"id":"accb88hs4ky3","address":"28 St Marys Avenue","easting":485398,"geocode score":0,"northern":233116,"open":800,"geocode precision":"unmatched"},"type":"Feature","geometry":null},{"properties":{"latitude":null,"postcode":"MK3 5NG","close":2000,"tel":"1908643276","fascia":"VNG Stores","longitude":null,"id":"accb88ka6ic4","address":"105 Chepstow Drive","easting":484636,"geocode score":0,"northern":232895,"open":700,"geocode precision":"unmatched"},"type":"Feature","geometry":null},{"properties":{"latitude":null,"postcode":"MK3 6PB","close":2200,"tel":"01908 366096","fascia":"Melrose News","longitude":null,"id":"accb88hzdx0n","address":"15 Melrose Avenue","easting":486001,"geocode score":0,"northern":234910,"open":700,"geocode precision":"unmatched"},"type":"Feature","geometry":null},{"properties":{"latitude":null,"postcode":"MK3 7DE","close":1800,"tel":"01908 370326","fascia":"MARTINS","longitude":null,"id":"accb885jfa8e","address":"218 Whaddon Way","easting":485544,"geocode score":0,"northern":233835,"open":600,"geocode precision":"unmatched"},"type":"Feature","geometry":null},{"properties":{"latitude":null,"postcode":"MK3 7DQ","close":2300,"tel":"1908643993","fascia":"Londis Express","longitude":null,"id":"accb88dlxhhu","address":"Whaddon Way","easting":485314,"geocode score":0,"northern":233636,"open":600,"geocode precision":"unmatched"},"type":"Feature","geometry":null},{"properties":{"latitude":null,"postcode":"MK4 2AS","close":2200,"tel":"1908502766","fascia":"One Stop","longitude":null,"id":"accb888cxfv4","address":"4 Whitehouse Drive","easting":484733,"geocode score":0,"northern":234382,"open":700,"geocode precision":"unmatched"},"type":"Feature","geometry":null},{"properties":{"latitude":null,"postcode":"MK5 8AF","close":2000,"tel":"1908666200","fascia":"Loughton Village Store","longitude":null,"id":"accb88i3712c","address":"71 London Road","easting":483485,"geocode score":0,"northern":237132,"open":800,"geocode precision":"unmatched"},"type":"Feature","geometry":null},{"properties":{"latitude":null,"postcode":"MK6 2AD","close":2300,"tel":"1908667578","fascia":"Fishermead Convenience","longitude":null,"id":"accb88fapzad","address":"157 Fishermead Boulevard","easting":486264,"geocode score":0,"northern":238452,"open":600,"geocode precision":"unmatched"},"type":"Feature","geometry":null},{"properties":{"latitude":null,"postcode":"MK6 2BG","close":2100,"tel":"1908236455","fascia":"Ever Green","longitude":null,"id":"accb88hbvk7e","address":"26 Penryn Avenue","easting":486174,"geocode score":0,"northern":238486,"open":900,"geocode precision":"unmatched"},"type":"Feature","geometry":null},{"properties":{"latitude":null,"postcode":"MK6 2BL","close":2200,"tel":"01908 673104","fascia":"Sabeeh Mini Market","longitude":null,"id":"accb888wshmq","address":"26 Gurnards Avenue","easting":486091,"geocode score":0,"northern":238588,"open":900,"geocode precision":"unmatched"},"type":"Feature","geometry":null},{"properties":{"latitude":null,"postcode":"MK6 2QA","close":2000,"tel":"1908660264","fascia":"Eagle News","longitude":null,"id":"accb886vf0g7","address":"247 Oldbrook Boulevard","easting":485650,"geocode score":0,"northern":238002,"open":630,"geocode precision":"unmatched"},"type":"Feature","geometry":null},{"properties":{"latitude":null,"postcode":"MK6 2QB","close":2100,"tel":"01908 675696","fascia":"Premier Handy Stores","longitude":null,"id":"accb88k7o568","address":"177 Oldbrook Boulevard","easting":485577,"geocode score":0,"northern":237955,"open":800,"geocode precision":"unmatched"},"type":"Feature","geometry":null},{"properties":{"latitude":null,"postcode":"MK6 4JH","close":2300,"tel":"1908969607","fascia":"Netherfield Wine","longitude":null,"id":"accb88ardv0n","address":"21 Farthing Grove","easting":486965,"geocode score":0,"northern":236771,"open":900,"geocode precision":"unmatched"},"type":"Feature","geometry":null},{"properties":{"latitude":null,"postcode":"MK6 4LP","close":2100,"tel":"01908 691717","fascia":"Bean Hill Store","longitude":null,"id":"accb88h11lxa","address":"1 Dodkin","easting":486928,"geocode score":0,"northern":236192,"open":700,"geocode precision":"unmatched"},"type":"Feature","geometry":null},{"properties":{"latitude":null,"postcode":"MK6 4NN","close":2000,"tel":"1908670739","fascia":"Netherfield Post Office","longitude":null,"id":"accb88b18d8n","address":"23 Farthing Grove","easting":486961,"geocode score":0,"northern":236783,"open":700,"geocode precision":"unmatched"},"type":"Feature","geometry":null},{"properties":{"latitude":null,"postcode":"MK6 5BZ","close":2100,"tel":"1908660335","fascia":"Eagle Supermarket","longitude":null,"id":"accb88932x28","address":"2 Harrier Court","easting":486433,"geocode score":0,"northern":237825,"open":700,"geocode precision":"unmatched"},"type":"Feature","geometry":null},{"properties":{"latitude":null,"postcode":"MK6 5DD","close":2200,"tel":"1908678267","fascia":"One Stop","longitude":null,"id":"accb88ip909o","address":"52 Garroways","easting":486248,"geocode score":0,"northern":236966,"open":700,"geocode precision":"unmatched"},"type":"Feature","geometry":null},{"properties":{"latitude":null,"postcode":"MK7 6HH","close":2200,"tel":"1908677116","fascia":"Kents Hill Supperstore","longitude":null,"id":"accb88hcl4op","address":"1 Tenterden Crescent","easting":489614,"geocode score":0,"northern":237128,"open":700,"geocode precision":"unmatched"},"type":"Feature","geometry":null},{"properties":{"latitude":null,"postcode":"MK7 7ED","close":2100,"tel":"1908691945","fascia":"Greenstar","longitude":null,"id":"accb887ypgwn","address":"1 Wadesmill Lane","easting":489628,"geocode score":0,"northern":235987,"open":700,"geocode precision":"unmatched"},"type":"Feature","geometry":null},{"properties":{"latitude":null,"postcode":"MK8 0AS","close":2100,"tel":"1908261267","fascia":"Premier","longitude":null,"id":"accb88hrho6v","address":"54 Lennon Drive","easting":482259,"geocode score":0,"northern":237129,"open":700,"geocode precision":"unmatched"},"type":"Feature","geometry":null},{"properties":{"latitude":null,"postcode":"MK8 0LW","close":2200,"tel":"1908505435","fascia":"Budgens","longitude":null,"id":"accb88d7nkhw","address":"Unit 7 New Hill Place","easting":481941,"geocode score":0,"northern":236611,"open":700,"geocode precision":"unmatched"},"type":"Feature","geometry":null},{"properties":{"latitude":null,"postcode":"MK8 8HG","close":2200,"tel":"1908568686","fascia":"One Stop","longitude":null,"id":"accb88cstj8r","address":"63 The High Street","easting":482257,"geocode score":0,"northern":238427,"open":600,"geocode precision":"unmatched"},"type":"Feature","geometry":null},{"properties":{"latitude":null,"postcode":"MK8 9AQ","close":2300,"tel":"01908 307308","fascia":"Great Holm Store","longitude":null,"id":"accb88fcan00","address":"1-3 Highgrove Hill","easting":482673,"geocode score":0,"northern":237784,"open":700,"geocode precision":"unmatched"},"type":"Feature","geometry":null},{"properties":{"latitude":null,"postcode":"MK9 1BB","close":2300,"tel":"1908509108","fascia":"Station Express","longitude":null,"id":"accb88ga7npl","address":"Unit 7","easting":484206,"geocode score":0,"northern":238060,"open":600,"geocode precision":"unmatched"},"type":"Feature","geometry":null},{"properties":{"latitude":null,"postcode":"MK9 3AT","close":2000,"tel":"1908678342","fascia":"Moore Stores","longitude":null,"id":"accb88ibt75f","address":"22 Secklow Gate West","easting":485299,"geocode score":0,"northern":239255,"open":600,"geocode precision":"unmatched"},"type":"Feature","geometry":null},{"properties":{"latitude":null,"postcode":"MK9 3DA","close":2300,"tel":"1908231494","fascia":"Texaco - Milton Keynes","longitude":null,"id":"accb888in4eb","address":"Childs Way","easting":485989,"geocode score":0,"northern":238754,"open":600,"geocode precision":"unmatched"},"type":"Feature","geometry":null},{"properties":{"latitude":null,"postcode":"MK9 3DZ","close":2359,"tel":"01908 678045","fascia":"BP - Portway","longitude":null,"id":"accb889x88rb","address":"Portway","easting":485409,"geocode score":0,"northern":239570,"open":1,"geocode precision":"unmatched"},"type":"Feature","geometry":null},{"properties":{"latitude":null,"postcode":"MK9 3NB","close":2200,"tel":"1908666671","fascia":"The Point News Agent","longitude":null,"id":"accb88eddo4t","address":"602 Midsummer Blvd","easting":485462,"geocode score":0,"northern":238837,"open":600,"geocode precision":"unmatched"},"type":"Feature","geometry":null},{"properties":{"latitude":null,"postcode":"MK9 3XS","close":2359,"tel":"1908677770","fascia":"Kiosk Xscape","longitude":null,"id":"accb8872it4j","address":"602 Marlborough Gate","easting":485920,"geocode score":0,"northern":238853,"open":800,"geocode precision":"unmatched"},"type":"Feature","geometry":null},{"properties":{"latitude":null,"postcode":"MK10 9NY","close":2200,"tel":"1908242990","fascia":"Budgens","longitude":null,"id":"accb889cihm0","address":"54-56 Tanfield Lane","easting":489524,"geocode score":0,"northern":239748,"open":700,"geocode precision":"unmatched"},"type":"Feature","geometry":null},{"properties":{"latitude":null,"postcode":"MK11 1AY","close":2300,"tel":"01908 260491","fascia":"MCCOLLS","longitude":null,"id":"accb887n6bvd","address":"51 High Street","easting":478651,"geocode score":0,"northern":240518,"open":600,"geocode precision":"unmatched"},"type":"Feature","geometry":null},{"properties":{"latitude":null,"postcode":"MK11 1ED","close":2200,"tel":"1908263433","fascia":"Eurosupermarket","longitude":null,"id":"accb88i536bk","address":"51 Wolverton Road","easting":479076,"geocode score":0,"northern":240509,"open":700,"geocode precision":"unmatched"},"type":"Feature","geometry":null},{"properties":{"latitude":null,"postcode":"MK11 1NJ","close":2200,"tel":"1908562371","fascia":"Galley Hill Stores","longitude":null,"id":"accb88gt57bp","address":"Galley Hill Local Centre","easting":479796,"geocode score":0,"northern":239974,"open":700,"geocode precision":"unmatched"},"type":"Feature","geometry":null},{"properties":{"latitude":null,"postcode":"MK12 5JQ","close":2000,"tel":"01908 457500","fascia":"ASDA Supermarket","longitude":null,"id":"accb889vwv2h","address":"1-2 Glyn Square","easting":481870,"geocode score":0,"northern":241204,"open":800,"geocode precision":"unmatched"},"type":"Feature","geometry":null},{"properties":{"latitude":null,"postcode":"MK12 5LJ","close":2300,"tel":"1908227961","fascia":"NH Service Station","longitude":null,"id":"accb88ea6w17","address":"Stratford Road","easting":481711,"geocode score":0,"northern":241186,"open":630,"geocode precision":"unmatched"},"type":"Feature","geometry":null},{"properties":{"latitude":null,"postcode":"MK12 6AY","close":2300,"tel":"1908318118","fascia":"Greenleys Food And Wine","longitude":null,"id":"accb88bnd79h","address":"4 Ardwell Lane","easting":480508,"geocode score":0,"northern":240261,"open":800,"geocode precision":"unmatched"},"type":"Feature","geometry":null},{"properties":{"latitude":null,"postcode":"MK12 6JP","close":2200,"tel":"1908317437","fascia":"Hodge Lea Food &amp; Wine","longitude":null,"id":"accb88ceym9b","address":"11 Brookside","easting":481736,"geocode score":0,"northern":239664,"open":700,"geocode precision":"unmatched"},"type":"Feature","geometry":null},{"properties":{"latitude":null,"postcode":"MK13 0BT","close":2300,"tel":"01908 312 956","fascia":"The Co-op","longitude":null,"id":"accb88k892dv","address":"42-44 High Street","easting":482952,"geocode score":0,"northern":241414,"open":600,"geocode precision":"unmatched"},"type":"Feature","geometry":null},{"properties":{"latitude":null,"postcode":"MK13 0BT","close":2300,"tel":"01908 312 227","fascia":"Costcutter (Euro Supermarket)","longitude":null,"id":"accb88fdeas9","address":"22 High Street","easting":482952,"geocode score":0,"northern":241414,"open":600,"geocode precision":"unmatched"},"type":"Feature","geometry":null},{"properties":{"latitude":null,"postcode":"MK13 7AW","close":2100,"tel":"1908312792","fascia":"Nickys Store","longitude":null,"id":"accb88j7g4vi","address":"103 Bradwell Road","easting":483398,"geocode score":0,"northern":240769,"open":530,"geocode precision":"unmatched"},"type":"Feature","geometry":null},{"properties":{"latitude":null,"postcode":"MK13 8BT","close":2200,"tel":"1908665888","fascia":"Sirajco Mini Market","longitude":null,"id":"accb885okay6","address":"2 Wandsworth Place","easting":484607,"geocode score":0,"northern":239213,"open":600,"geocode precision":"unmatched"},"type":"Feature","geometry":null},{"properties":{"latitude":null,"postcode":"MK13 8DY","close":2300,"tel":"01908 607 694","fascia":"One Stop","longitude":null,"id":"accb88d02rb5","address":"123 Bradwell Common Blvd","easting":484314,"geocode score":0,"northern":239158,"open":700,"geocode precision":"unmatched"},"type":"Feature","geometry":null},{"properties":{"latitude":null,"postcode":"MK14 5HA","close":2300,"tel":"1908605426","fascia":"The Co-op","longitude":null,"id":"accb885ewerh","address":"2 St Ledger Court","easting":485100,"geocode score":0,"northern":241636,"open":700,"geocode precision":"unmatched"},"type":"Feature","geometry":null},{"properties":{"latitude":null,"postcode":"MK14 6BN","close":1900,"tel":"1908315691","fascia":"Costcutter","longitude":null,"id":"accb88h7ompf","address":"20 Purbeck","easting":484253,"geocode score":0,"northern":241007,"open":800,"geocode precision":"unmatched"},"type":"Feature","geometry":null},{"properties":{"latitude":null,"postcode":"MK14 6JY","close":2230,"tel":"1908397800","fascia":"Euro Off Licence &amp; Store","longitude":null,"id":"accb88b7k6s0","address":"4 Tower Crescent","easting":485978,"geocode score":0,"northern":240966,"open":800,"geocode precision":"unmatched"},"type":"Feature","geometry":null},{"properties":{"latitude":null,"postcode":"MK14 7AF","close":2200,"tel":"1908201597","fascia":"Sirajco Butt &amp; Sons","longitude":null,"id":"accb88987387","address":"263 Conniburrow Blvd","easting":485359,"geocode score":0,"northern":239907,"open":600,"geocode precision":"unmatched"},"type":"Feature","geometry":null},{"properties":{"latitude":null,"postcode":"MK14 7AH","close":2200,"tel":"1908604234","fascia":"B &amp; K News","longitude":null,"id":"accb888bb43u","address":"258 Conniburrow Boule","easting":485259,"geocode score":0,"northern":239738,"open":500,"geocode precision":"unmatched"},"type":"Feature","geometry":null},{"properties":{"latitude":null,"postcode":"MK14 7QB","close":2200,"tel":"1908393984","fascia":"Downs Barn","longitude":null,"id":"accb88blf4s3","address":"127 Downs Barn Boulevard","easting":485927,"geocode score":0,"northern":240215,"open":700,"geocode precision":"unmatched"},"type":"Feature","geometry":null},{"properties":{"latitude":null,"postcode":"MK15 8HR","close":2359,"tel":"1908210676","fascia":"Texaco HKS Tongwell","longitude":null,"id":"accb88jy70gc","address":"Monks Way","easting":486721,"geocode score":0,"northern":241784,"open":1,"geocode precision":"unmatched"},"type":"Feature","geometry":null},{"properties":{"latitude":null,"postcode":"MK15 9JL","close":2100,"tel":"1908666795","fascia":"Lakers Supermarket","longitude":null,"id":"accb8871aadh","address":"9 Granville Square","easting":487033,"geocode score":0,"northern":241212,"open":700,"geocode precision":"unmatched"},"type":"Feature","geometry":null},{"properties":{"latitude":null,"postcode":"MK16 8AQ","close":1830,"tel":"01908 519180","fascia":"MARTINS","longitude":null,"id":"accb88ei0wlt","address":"64 High Street","easting":487629,"geocode score":0,"northern":243947,"open":600,"geocode precision":"unmatched"},"type":"Feature","geometry":null},{"properties":{"latitude":null,"postcode":"MK16 8AQ","close":2200,"tel":"1908614977","fascia":"The Co-op","longitude":null,"id":"accb888vin7p","address":"78-79 High Street","easting":487629,"geocode score":0,"northern":243947,"open":700,"geocode precision":"unmatched"},"type":"Feature","geometry":null},{"properties":{"latitude":null,"postcode":"MK16 8AQ","close":2200,"tel":"01908 611796","fascia":"The Co-op","longitude":null,"id":"accb88e3j6qp","address":"62 High Street","easting":487629,"geocode score":0,"northern":243947,"open":700,"geocode precision":"unmatched"},"type":"Feature","geometry":null},{"properties":{"latitude":null,"postcode":"MK16 8SB","close":2200,"tel":"1908614454","fascia":"The Co-op","longitude":null,"id":"accb888zwyu9","address":"Wordsworth Avenue","easting":486182,"geocode score":0,"northern":243971,"open":800,"geocode precision":"unmatched"},"type":"Feature","geometry":null},{"properties":{"latitude":null,"postcode":"MK16 9BA","close":2130,"tel":"1908616287","fascia":"Tickford Superstore","longitude":null,"id":"accb88gmhl7s","address":"103 Tickford Street","easting":488304,"geocode score":0,"northern":243562,"open":500,"geocode precision":"unmatched"},"type":"Feature","geometry":null},{"properties":{"latitude":null,"postcode":"MK17 0AP","close":1930,"tel":"1908368856","fascia":"Greenway Grocerey","longitude":null,"id":"accb88cg3dxy","address":"17a Greenway","easting":484648,"geocode score":0,"northern":231602,"open":700,"geocode precision":"unmatched"},"type":"Feature","geometry":null},{"properties":{"latitude":null,"postcode":"MK17 8QY","close":1730,"tel":"01908 281620","fascia":"MARTINS","longitude":null,"id":"accb887s9mcx","address":"57 High Street","easting":492935,"geocode score":0,"northern":235743,"open":630,"geocode precision":"unmatched"},"type":"Feature","geometry":null},{"properties":{"latitude":null,"postcode":"MK17 8RF","close":2200,"tel":"01908 583233","fascia":"The Co-op","longitude":null,"id":"accb88d4rf8v","address":"25-27 High Street","easting":492983,"geocode score":0,"northern":235611,"open":700,"geocode precision":"unmatched"},"type":"Feature","geometry":null},{"properties":{"latitude":null,"postcode":"MK18 1DA","close":2300,"tel":"01280 812095","fascia":"Londis","longitude":null,"id":"accb88jtj36b","address":"40 - 41 Nelson Street","easting":469382,"geocode score":0,"northern":233700,"open":700,"geocode precision":"unmatched"},"type":"Feature","geometry":null},{"properties":{"latitude":null,"postcode":"MK18 1NT","close":2300,"tel":"1280821397","fascia":"Belci Food and Wine","longitude":null,"id":"accb88c7fk56","address":"6 High Street","easting":469751,"geocode score":0,"northern":234131,"open":1000,"geocode precision":"unmatched"},"type":"Feature","geometry":null},{"properties":{"latitude":null,"postcode":"MK18 2NT","close":2200,"tel":"01296 730278","fascia":"The Co-op","longitude":null,"id":"accb88iar0sf","address":"West Street","easting":469647,"geocode score":0,"northern":227058,"open":700,"geocode precision":"unmatched"},"type":"Feature","geometry":null},{"properties":{"latitude":null,"postcode":"MK18 3DQ","close":2200,"tel":"1296715502","fascia":"The Co-op","longitude":null,"id":"accb88az4o2f","address":"78 High Street","easting":476981,"geocode score":0,"northern":227959,"open":630,"geocode precision":"unmatched"},"type":"Feature","geometry":null},{"properties":{"latitude":null,"postcode":"MK19 6FG","close":2230,"tel":"7702350510","fascia":"Food and Wine","longitude":null,"id":"accb88h9bneh","address":"Stratford Business Park","easting":477724,"geocode score":0,"northern":241482,"open":630,"geocode precision":"unmatched"},"type":"Feature","geometry":null},{"properties":{"latitude":null,"postcode":"MK19 6HT","close":2100,"tel":"1908568640","fascia":"Spar","longitude":null,"id":"accb88ey42yu","address":"12-14 Little London","easting":476069,"geocode score":0,"northern":239831,"open":700,"geocode precision":"unmatched"},"type":"Feature","geometry":null},{"properties":{"latitude":null,"postcode":"NN1 1PT","close":2359,"tel":"1604629234","fascia":"Booze City","longitude":null,"id":"accb8868dusv","address":"1a St. Peters Walk","easting":475250,"geocode score":0,"northern":260378,"open":900,"geocode precision":"unmatched"},"type":"Feature","geometry":null},{"properties":{"latitude":null,"postcode":"NN1 2BH","close":1800,"tel":"01604 631959","fascia":"MARTINS","longitude":null,"id":"accb88jke5ql","address":"71a Abington Street","easting":475824,"geocode score":0,"northern":260717,"open":700,"geocode precision":"unmatched"},"type":"Feature","geometry":null},{"properties":{"latitude":null,"postcode":"NN1 2EU","close":1800,"tel":"1604602399","fascia":"Normans News Plus","longitude":null,"id":"accb88ipuifb","address":"31 The Drapery","easting":475378,"geocode score":0,"northern":260585,"open":800,"geocode precision":"unmatched"},"type":"Feature","geometry":null},{"properties":{"latitude":null,"postcode":"NN1 2JD","close":1830,"tel":"1604472732","fascia":"Ambe Supermarket","longitude":null,"id":"accb88a8999l","address":"2 St Marks House","easting":475152,"geocode score":0,"northern":260838,"open":630,"geocode precision":"unmatched"},"type":"Feature","geometry":null},{"properties":{"latitude":null,"postcode":"NN1 2LU","close":1815,"tel":"1604639344","fascia":"Kabin Newsagents","longitude":null,"id":"accb88k3flzo","address":"Sheep Street","easting":475378,"geocode score":0,"northern":260655,"open":600,"geocode precision":"unmatched"},"type":"Feature","geometry":null},{"properties":{"latitude":null,"postcode":"NN1 2NQ","close":2300,"tel":"1604604136","fascia":"Regent Food and Wine","longitude":null,"id":"accb88c6kdtc","address":"10-11 Regent Square","easting":475348,"geocode score":0,"northern":261010,"open":700,"geocode precision":"unmatched"},"type":"Feature","geometry":null},{"properties":{"latitude":null,"postcode":"NN1 3JE","close":2130,"tel":"1604460840","fascia":"Nisa","longitude":null,"id":"accb88h8j3zv","address":"11 Clare Street","easting":476067,"geocode score":0,"northern":261218,"open":730,"geocode precision":"unmatched"},"type":"Feature","geometry":null},{"properties":{"latitude":null,"postcode":"NN1 3RL","close":1930,"tel":"1604631731","fascia":"Nishma Newsagent","longitude":null,"id":"accb88hwk7zk","address":"41 Barrack Road","easting":475394,"geocode score":0,"northern":261405,"open":800,"geocode precision":"unmatched"},"type":"Feature","geometry":null},{"properties":{"latitude":null,"postcode":"NN1 4DR","close":2359,"tel":"07595 232556","fascia":"Costcutter","longitude":null,"id":"accb887igi61","address":"123 Wellingborough Road","easting":476336,"geocode score":0,"northern":260901,"open":600,"geocode precision":"unmatched"},"type":"Feature","geometry":null},{"properties":{"latitude":null,"postcode":"NN1 4EJ","close":2359,"tel":"1604250427","fascia":"Abington Supermarket","longitude":null,"id":"accb88e6uy7p","address":"244 Wellingborough Road","easting":476874,"geocode score":0,"northern":261025,"open":600,"geocode precision":"unmatched"},"type":"Feature","geometry":null},{"properties":{"latitude":null,"postcode":"NN1 4EP","close":1900,"tel":"1604637986","fascia":"Asheesh News","longitude":null,"id":"accb88ign7at","address":"332 Wellingborough Road","easting":477042,"geocode score":0,"northern":261135,"open":500,"geocode precision":"unmatched"},"type":"Feature","geometry":null},{"properties":{"latitude":null,"postcode":"NN1 5LU","close":2200,"tel":"1604631565","fascia":"Londis Supermarket","longitude":null,"id":"accb88exvypr","address":"70 King Edward Road","easting":477528,"geocode score":0,"northern":261096,"open":600,"geocode precision":"unmatched"},"type":"Feature","geometry":null},{"properties":{"latitude":null,"postcode":"NN2 6BH","close":2300,"tel":"01604 633801","fascia":"The Co-op","longitude":null,"id":"accb889d71kb","address":"31-33 Semilong Road","easting":475162,"geocode score":0,"northern":261504,"open":600,"geocode precision":"unmatched"},"type":"Feature","geometry":null},{"properties":{"latitude":null,"postcode":"NN2 6EZ","close":2130,"tel":"1604715184","fascia":"Kandies","longitude":null,"id":"accb8887lajt","address":"42 Kingsthorpe Road","easting":475335,"geocode score":0,"northern":261922,"open":630,"geocode precision":"unmatched"},"type":"Feature","geometry":null},{"properties":{"latitude":null,"postcode":"NN2 6LA","close":2100,"tel":"1604719899","fascia":"Nisa Today Local","longitude":null,"id":"accb88h421vd","address":"37-39 Balmoral Road","easting":475290,"geocode score":0,"northern":262371,"open":630,"geocode precision":"unmatched"},"type":"Feature","geometry":null},{"properties":{"latitude":null,"postcode":"NN2 6LS","close":2000,"tel":"01604 692500","fascia":"ASDA Supermarket","longitude":null,"id":"accb886ejxsx","address":"Thornton Road","easting":474963,"geocode score":0,"northern":262248,"open":800,"geocode precision":"unmatched"},"type":"Feature","geometry":null},{"properties":{"latitude":null,"postcode":"NN2 7BD","close":1830,"tel":"01604 792629","fascia":"MARTINS","longitude":null,"id":"accb88ejdk6o","address":"12 Kingsthorpe Centre","easting":475083,"geocode score":0,"northern":263236,"open":800,"geocode precision":"unmatched"},"type":"Feature","geometry":null},{"properties":{"latitude":null,"postcode":"NN2 7BL","close":2000,"tel":"1604713095","fascia":"Kingsley General Store","longitude":null,"id":"accb888onqwu","address":"84 Kingsley Road","easting":476428,"geocode score":0,"northern":262106,"open":730,"geocode precision":"unmatched"},"type":"Feature","geometry":null},{"properties":{"latitude":null,"postcode":"NN2 7HH","close":2300,"tel":"01604 714820","fascia":"The Co-op","longitude":null,"id":"accb88g5xicu","address":"Kingsley Park Terrace","easting":476707,"geocode score":0,"northern":262212,"open":700,"geocode precision":"unmatched"},"type":"Feature","geometry":null},{"properties":{"latitude":null,"postcode":"NN2 7LA","close":1930,"tel":"1604712624","fascia":"Amisha Newsagent","longitude":null,"id":"accb8855hvgp","address":"1 Greenview Drive","easting":476341,"geocode score":0,"northern":262825,"open":600,"geocode precision":"unmatched"},"type":"Feature","geometry":null},{"properties":{"latitude":null,"postcode":"NN2 7QF","close":2200,"tel":"1604474240","fascia":"Fourways","longitude":null,"id":"accb88hkbul4","address":"30 Rosedale Road","easting":475650,"geocode score":0,"northern":263090,"open":630,"geocode precision":"unmatched"},"type":"Feature","geometry":null},{"properties":{"latitude":null,"postcode":"NN2 7RE","close":2330,"tel":"01604 714374","fascia":"The Co-op","longitude":null,"id":"accb88fgbaq0","address":"18-20 Newnham Road","easting":476039,"geocode score":0,"northern":263469,"open":700,"geocode precision":"unmatched"},"type":"Feature","geometry":null},{"properties":{"latitude":null,"postcode":"NN2 7SL","close":1930,"tel":"1604711153","fascia":"Kingsthorpe News","longitude":null,"id":"accb88iopd7z","address":"77a Harborough Road","easting":475195,"geocode score":0,"northern":263511,"open":500,"geocode precision":"unmatched"},"type":"Feature","geometry":null},{"properties":{"latitude":null,"postcode":"NN2 8LD","close":2100,"tel":"1604454160","fascia":"Chalcombe Stores","longitude":null,"id":"accb88guadph","address":"44a Chalcombe Avenue","easting":475463,"geocode score":0,"northern":264236,"open":700,"geocode precision":"unmatched"},"type":"Feature","geometry":null},{"properties":{"latitude":null,"postcode":"NN2 8QA","close":2000,"tel":"1604843663","fascia":"Leyland Drive Stores","longitude":null,"id":"accb88baimi0","address":"17 Leyland Drive","easting":474210,"geocode score":0,"northern":263993,"open":600,"geocode precision":"unmatched"},"type":"Feature","geometry":null},{"properties":{"latitude":null,"postcode":"NN3 2HF","close":2300,"tel":"1604712696","fascia":"Nisa Local","longitude":null,"id":"accb88f3hlgo","address":"170-172 Birchfield Road","easting":477525,"geocode score":0,"northern":262147,"open":600,"geocode precision":"unmatched"},"type":"Feature","geometry":null},{"properties":{"latitude":null,"postcode":"NN3 2HG","close":2100,"tel":"01604 718300","fascia":"Manish Newsagent","longitude":null,"id":"accb88gbmcvw","address":"178 Birchfield Road East","easting":477578,"geocode score":0,"northern":262173,"open":530,"geocode precision":"unmatched"},"type":"Feature","geometry":null},{"properties":{"latitude":null,"postcode":"NN3 2HG","close":2300,"tel":"1604712749","fascia":"The Co-op","longitude":null,"id":"accb88iseose","address":"Birchfield Road East","easting":477578,"geocode score":0,"northern":262173,"open":600,"geocode precision":"unmatched"},"type":"Feature","geometry":null},{"properties":{"latitude":null,"postcode":"NN3 2JN","close":2100,"tel":"1604710671","fascia":"Londis Supermarket","longitude":null,"id":"accb88iw0ow3","address":"154 Beech Avenue","easting":477370,"geocode score":0,"northern":262549,"open":600,"geocode precision":"unmatched"},"type":"Feature","geometry":null},{"properties":{"latitude":null,"postcode":"NN3 2PU","close":2300,"tel":"7866848671","fascia":"A &amp; D Mini Market","longitude":null,"id":"accb889t7p6e","address":"205 Broadway East","easting":478026,"geocode score":0,"northern":262578,"open":700,"geocode precision":"unmatched"},"type":"Feature","geometry":null},{"properties":{"latitude":null,"postcode":"NN3 2RA","close":2300,"tel":"1604412205","fascia":"Nisa Local","longitude":null,"id":"accb88d0ffik","address":"65 Broadmead Avenue","easting":477630,"geocode score":0,"northern":262908,"open":600,"geocode precision":"unmatched"},"type":"Feature","geometry":null},{"properties":{"latitude":null,"postcode":"NN3 2RP","close":2000,"tel":"1604406697","fascia":"Premier Express","longitude":null,"id":"accb88efi4p4","address":"276a Broadmead Ave","easting":478051,"geocode score":0,"northern":263089,"open":730,"geocode precision":"unmatched"},"type":"Feature","geometry":null},{"properties":{"latitude":null,"postcode":"NN3 3LN","close":2100,"tel":"1604624704","fascia":"Mace","longitude":null,"id":"accb88eqw615","address":"53 Landcross Drive","easting":478164,"geocode score":0,"northern":261043,"open":530,"geocode precision":"unmatched"},"type":"Feature","geometry":null},{"properties":{"latitude":null,"postcode":"NN3 5DD","close":1900,"tel":"1604401422","fascia":"Costcutter","longitude":null,"id":"accb88kd63nj","address":"Olden Road","easting":481387,"geocode score":0,"northern":264069,"open":700,"geocode precision":"unmatched"},"type":"Feature","geometry":null},{"properties":{"latitude":null,"postcode":"NN3 5DS","close":2000,"tel":"01604 644809","fascia":"Southfields Foods","longitude":null,"id":"accb885ry5l0","address":"Unit 1 Farmhill Road","easting":480048,"geocode score":0,"northern":264864,"open":700,"geocode precision":"unmatched"},"type":"Feature","geometry":null},{"properties":{"latitude":null,"postcode":"NN3 6JE","close":2359,"tel":"1604645960","fascia":"Premier Boothvike","longitude":null,"id":"accb88ggw65x","address":"7 Booth Lane North","easting":478360,"geocode score":0,"northern":264298,"open":530,"geocode precision":"unmatched"},"type":"Feature","geometry":null},{"properties":{"latitude":null,"postcode":"NN3 6JR","close":2200,"tel":"1604494046","fascia":"T K Supermarket","longitude":null,"id":"accb88iwlang","address":"1 Boothville Green","easting":478548,"geocode score":0,"northern":263992,"open":700,"geocode precision":"unmatched"},"type":"Feature","geometry":null},{"properties":{"latitude":null,"postcode":"NN3 7TB","close":2200,"tel":"1604642246","fascia":"Co-op Midlands","longitude":null,"id":"accb88ahw7a0","address":"Stocks Hill","easting":478379,"geocode score":0,"northern":266219,"open":700,"geocode precision":"unmatched"},"type":"Feature","geometry":null},{"properties":{"latitude":null,"postcode":"NN3 7UP","close":2030,"tel":"1604491263","fascia":"Yogi Store","longitude":null,"id":"accb88d5wlhb","address":"50 Overstone Road","easting":478813,"geocode score":0,"northern":266279,"open":600,"geocode precision":"unmatched"},"type":"Feature","geometry":null},{"properties":{"latitude":null,"postcode":"NN3 8NQ","close":2000,"tel":"1604408849","fascia":"Costcutter","longitude":null,"id":"accb887l8isd","address":"2-3 Lings Local Centre","easting":479602,"geocode score":0,"northern":263513,"open":700,"geocode precision":"unmatched"},"type":"Feature","geometry":null},{"properties":{"latitude":null,"postcode":"NN3 8QH","close":2200,"tel":"1604410657","fascia":"Londis","longitude":null,"id":"accb888ta5fh","address":"Blackthorn Local Centre","easting":480731,"geocode score":0,"northern":263680,"open":700,"geocode precision":"unmatched"},"type":"Feature","geometry":null},{"properties":{"latitude":null,"postcode":"NN3 8XW","close":2200,"tel":"1604648998","fascia":"Goldings Supermarket","longitude":null,"id":"accb889q1t2g","address":"Goldings Local Centre","easting":480214,"geocode score":0,"northern":264322,"open":600,"geocode precision":"unmatched"},"type":"Feature","geometry":null},{"properties":{"latitude":null,"postcode":"NN3 9AL","close":2200,"tel":"1604947045","fascia":"Little Billing Stores","longitude":null,"id":"accb88l2enah","address":"23 Valley Road","easting":480583,"geocode score":0,"northern":262238,"open":700,"geocode precision":"unmatched"},"type":"Feature","geometry":null},{"properties":{"latitude":null,"postcode":"NN3 9TW","close":2100,"tel":"1604405975","fascia":"Standers Barn Supermarket","longitude":null,"id":"accb88blsigy","address":"2 Walledwell Court","easting":479888,"geocode score":0,"northern":262116,"open":630,"geocode precision":"unmatched"},"type":"Feature","geometry":null},{"properties":{"latitude":null,"postcode":"NN4 8DN","close":2300,"tel":"1604761246","fascia":"Farcotton Food and Wine","longitude":null,"id":"accb88ck4f26","address":"121 St Leonards Road","easting":475218,"geocode score":0,"northern":259442,"open":600,"geocode precision":"unmatched"},"type":"Feature","geometry":null},{"properties":{"latitude":null,"postcode":"NN4 8ER","close":2100,"tel":"01604 692510","fascia":"ASDA Supermarket","longitude":null,"id":"accb88angkq1","address":"London Road","easting":475540,"geocode score":0,"northern":259515,"open":800,"geocode precision":"unmatched"},"type":"Feature","geometry":null},{"properties":{"latitude":null,"postcode":"NN4 8JA","close":2300,"tel":"01604 762150","fascia":"The Co-op","longitude":null,"id":"accb887fwboq","address":"5 Rothersthorpe Road","easting":474652,"geocode score":0,"northern":259083,"open":600,"geocode precision":"unmatched"},"type":"Feature","geometry":null},{"properties":{"latitude":null,"postcode":"NN4 9UW","close":1900,"tel":"1604767108","fascia":"The Hill Shop","longitude":null,"id":"accb88jxfzzu","address":"Hunsbury Hill Road","easting":473441,"geocode score":0,"northern":258673,"open":630,"geocode precision":"unmatched"},"type":"Feature","geometry":null},{"properties":{"latitude":null,"postcode":"NN5 4XB","close":2200,"tel":"1604751610","fascia":"One Stop Stores","longitude":null,"id":"accb888cipxd","address":"St Crispins Local Centre","easting":471646,"geocode score":0,"northern":260935,"open":700,"geocode precision":"unmatched"},"type":"Feature","geometry":null},{"properties":{"latitude":null,"postcode":"NN5 5AW","close":2230,"tel":"1604592858","fascia":"Londis Convenience Store","longitude":null,"id":"accb88h2hdpd","address":"94 Windsor Crescent","easting":473255,"geocode score":0,"northern":260986,"open":600,"geocode precision":"unmatched"},"type":"Feature","geometry":null},{"properties":{"latitude":null,"postcode":"NN5 5BG","close":1930,"tel":"1604751703","fascia":"Costcutter","longitude":null,"id":"accb88b8wbx4","address":"93 Weedon Road","easting":473895,"geocode score":0,"northern":260855,"open":500,"geocode precision":"unmatched"},"type":"Feature","geometry":null},{"properties":{"latitude":null,"postcode":"NN5 5DX","close":2300,"tel":"01604 948512","fascia":"Ambush Street Mini Market","longitude":null,"id":"accb88bkqy8e","address":"38-40a Ambush Street","easting":474486,"geocode score":0,"northern":260545,"open":700,"geocode precision":"unmatched"},"type":"Feature","geometry":null},{"properties":{"latitude":null,"postcode":"NN5 5EN","close":2300,"tel":"7944129211","fascia":"Ur Local Express","longitude":null,"id":"accb88776hht","address":"154 St. James Park Road","easting":474371,"geocode score":0,"northern":260844,"open":700,"geocode precision":"unmatched"},"type":"Feature","geometry":null},{"properties":{"latitude":null,"postcode":"NN5 5ER","close":2200,"tel":"1604589510","fascia":"Jimmys End","longitude":null,"id":"accb885l3b62","address":"10 Greenwood Road","easting":474245,"geocode score":0,"northern":260868,"open":1030,"geocode precision":"unmatched"},"type":"Feature","geometry":null},{"properties":{"latitude":null,"postcode":"NN5 5LE","close":1930,"tel":"1604753354","fascia":"Normans News","longitude":null,"id":"accb888nu8ty","address":"163 St. James Road","easting":474230,"geocode score":0,"northern":260699,"open":500,"geocode precision":"unmatched"},"type":"Feature","geometry":null},{"properties":{"latitude":null,"postcode":"NN5 6JQ","close":2300,"tel":"01604 585444","fascia":"The Co-op","longitude":null,"id":"accb88dmoruw","address":"Pond Farm Close","easting":472200,"geocode score":0,"northern":261156,"open":700,"geocode precision":"unmatched"},"type":"Feature","geometry":null},{"properties":{"latitude":null,"postcode":"NN5 6NT","close":2200,"tel":"1604753840","fascia":"Ashvin Food &amp; Wine","longitude":null,"id":"accb88b0rnxb","address":"3 Quarry Road","easting":471597,"geocode score":0,"northern":262872,"open":800,"geocode precision":"unmatched"},"type":"Feature","geometry":null},{"properties":{"latitude":null,"postcode":"NN5 6PD","close":2130,"tel":"1604595892","fascia":"Spar","longitude":null,"id":"accb889dvs17","address":"381 Harlestone Road","easting":472339,"geocode score":0,"northern":262427,"open":630,"geocode precision":"unmatched"},"type":"Feature","geometry":null},{"properties":{"latitude":null,"postcode":"NN5 7AS","close":2359,"tel":"1604759859","fascia":"Mill Lane Service Stn","longitude":null,"id":"accb88ez8nl0","address":"Mill Lane","easting":473770,"geocode score":0,"northern":262108,"open":1,"geocode precision":"unmatched"},"type":"Feature","geometry":null},{"properties":{"latitude":null,"postcode":"NN5 7BG","close":2300,"tel":"1604752052","fascia":"Dallington Stores","longitude":null,"id":"accb88b4s4og","address":"22 Dallington Road","easting":474102,"geocode score":0,"northern":261288,"open":600,"geocode precision":"unmatched"},"type":"Feature","geometry":null},{"properties":{"latitude":null,"postcode":"NN5 7HA","close":1900,"tel":"01604 758 596","fascia":"Pauls Papers","longitude":null,"id":"accb88gm4az4","address":"53 Glebeland Road","easting":474034,"geocode score":0,"northern":261885,"open":600,"geocode precision":"unmatched"},"type":"Feature","geometry":null},{"properties":{"latitude":null,"postcode":"NN5 7LQ","close":2100,"tel":"1604582636","fascia":"Londis","longitude":null,"id":"accb889c90we","address":"9-15 Park Square","easting":473817,"geocode score":0,"northern":262531,"open":700,"geocode precision":"unmatched"},"type":"Feature","geometry":null},{"properties":{"latitude":null,"postcode":"NN7 1BD","close":1900,"tel":"1604890490","fascia":"Ramco Filling Stn","longitude":null,"id":"accb889fnpkg","address":"3 Bedford Road","easting":482098,"geocode score":0,"northern":258690,"open":700,"geocode precision":"unmatched"},"type":"Feature","geometry":null},{"properties":{"latitude":null,"postcode":"NN7 3PG","close":2000,"tel":"1604831711","fascia":"Bugbrooke Stores","longitude":null,"id":"accb88jwf546","address":"40 High Street","easting":467764,"geocode score":0,"northern":257189,"open":600,"geocode precision":"unmatched"},"type":"Feature","geometry":null},{"properties":{"latitude":null,"postcode":"NN7 4PL","close":2200,"tel":"1327340428","fascia":"One Stop","longitude":null,"id":"accb88dtx47c","address":"14-16 Church Street","easting":463171,"geocode score":0,"northern":259243,"open":600,"geocode precision":"unmatched"},"type":"Feature","geometry":null},{"properties":{"latitude":null,"postcode":null,"close":null,"tel":null,"fascia":null,"longitude":null,"id":"accb88bzetj6","address":null,"easting":309107,"geocode score":0,"northern":610279,"open":null,"geocode precision":null},"type":"Feature","geometry":null}],"is_temporal":false,"author":{"url":"","metadata":null,"contact_name":null,"contact_address":null,"source":null,"contact_phone":null},"source":"","pagination":{"sort":null,"start":0,"total":138,"limit":1000000},"state":"complete","tags":"","published":"2014-08-16T16:41:33-04:00","id":323127}