{"type":"FeatureCollection","data_type":"Dataset","url_type":null,"permissions":[{"permissions":{"download":true,"view":true},"group_id":"everyone"}],"classification":null,"title":"Washington State health Department, Health Service Corp Providers, Washington, 2008","count":50,"stream_id":3231,"contributor":{"url":"http://geocommons.com/users/139","name":"Burkey"},"data_attributes":null,"calculation_params":null,"icon_link":null,"link":"http://geocommons.com/overlays/3231.json","extent":[-124.394,45.6244,-117.427,48.8021],"geometry_types":["point"],"unique_name":null,"name":"Washington State health Department, Health Service Corp Providers, Washington, 2008","feature_count":50,"description":"Abstract: Health Service Corp Providers\nPurpose:\n    This dataset was made as part of a project to map Washington's Health System.","next_feature":null,"is_raster":false,"short_classification":"Y","stats":{"CERTAINTY":{"max":null,"min":null,"median":null},"ZCTA":{"max":null,"min":null,"median":null},"AV_SCORE":{"max":100,"mean":93.7,"variance":267.15306122449,"stdev":16.3448175647356,"min":40,"median":100},"RUCA":{"max":10.5,"mean":3.794,"variance":11.796493877551,"stdev":3.43460243369608,"min":1.0,"median":1.0},"BLOCK00":{"max":null,"min":null,"median":null},"Y_COORDS":{"max":null,"min":null,"median":null},"N_ZIP":{"max":null,"min":null,"median":null},"AV_ZIP":{"max":null,"min":null,"median":null},"BG00":{"max":null,"min":null,"median":null},"BG90":{"max":null,"min":null,"median":null},"TRACT90D":{"max":null,"min":null,"median":null},"TRACT00D":{"max":null,"min":null,"median":null},"X_COORDS":{"max":null,"min":null,"median":null}},"features":[{"properties":{"NAME":"AUBURN COMMUNITY HEALTH CENTER","CITY":"AUBURN","CERTAINTY":"1","ZCTA":"98002","AV_CO":"033","ZIP":"98002","N_LCODE":"AS1","N_HOUSENUM":"126","GEOLEVEL":"CENSUSTRACT","AV_SCORE":100,"RUCA":1.0,"N_STREET":"AUBURN","AV_ALPHA":"17","TRACT00":"030600","BLOCK00":"3009","N_ADDRESS":"126 AUBURN AVE","N_UNIT":"","N_ZIP4":"5057","N_STATE":"WA","TRACT90":"030600","BLOCK90":"23","Y_COORDS":"47.30834","N_ZIP":"98002","AV_ZIP":"98002","BG00":"3","STATE":"WA","N_CITY":"AUBURN","N_POSTDIR":"","AV_DATE":"Thu Mar 27 07:43:17 2008","BG90":"3","ACCURACY":"Close","TRACT90D":"0306.003","ZIP4":"5082","N_STRSUF":"AVE","id":"a62vxfd90vb8","ADDRESS":"126 AUBURN AVENUE","N_MCODE":"S80","N_PREDIR":"","SOURCE":"TIGER 2006","QUALITY":"03","TRACT00D":"0306.003","X_COORDS":"-122.22680","AV_CITY":"AUBURN"},"type":"Feature","geometry":{"type":"Point","coordinates":[-122.226800122621,47.3083408461603]}},{"properties":{"NAME":"BEHAVIORAL HEALTH SERVICES","CITY":"YAKIMA","CERTAINTY":"1","ZCTA":"98903","AV_CO":"077","ZIP":"98903","N_LCODE":"AS1","N_HOUSENUM":"918","GEOLEVEL":"CENSUSTRACT","AV_SCORE":100,"RUCA":1.0,"N_STREET":"MEAD","AV_ALPHA":"39","TRACT00":"001400","BLOCK00":"1008","N_ADDRESS":"918 E MEAD AVE","N_UNIT":"","N_ZIP4":"3720","N_STATE":"WA","TRACT90":"001400","BLOCK90":"08B","Y_COORDS":"46.57735","N_ZIP":"98903","AV_ZIP":"98903","BG00":"1","STATE":"WA","N_CITY":"YAKIMA","N_POSTDIR":"","AV_DATE":"Thu Mar 27 07:43:17 2008","BG90":"1","ACCURACY":"Close","TRACT90D":"0014.001","ZIP4":"3720","N_STRSUF":"AVE","id":"a62vxf2de6dl","ADDRESS":"918 EAST MEAD AVENUE","N_MCODE":"S00","N_PREDIR":"E","SOURCE":"TIGER 2006","QUALITY":"03","TRACT00D":"0014.001","X_COORDS":"-120.48839","AV_CITY":"YAKIMA"},"type":"Feature","geometry":{"type":"Point","coordinates":[-120.488391603484,46.5773521736614]}},{"properties":{"NAME":"BOGACHIEL CLINIC","CITY":"FORKS","CERTAINTY":"1","ZCTA":"98331","AV_CO":"009","ZIP":"98331","N_LCODE":"AS1","N_HOUSENUM":"590","GEOLEVEL":"CENSUSTRACT","AV_SCORE":100,"RUCA":7.0,"N_STREET":"BOGACHIEL","AV_ALPHA":"05","TRACT00":"980300","BLOCK00":"4008","N_ADDRESS":"590 BOGACHIEL WAY","N_UNIT":"","N_ZIP4":"9120","N_STATE":"WA","TRACT90":"980300","BLOCK90":"14","Y_COORDS":"47.94574","N_ZIP":"98331","AV_ZIP":"98331","BG00":"4","STATE":"WA","N_CITY":"FORKS","N_POSTDIR":"","AV_DATE":"Thu Mar 27 07:43:17 2008","BG90":"4","ACCURACY":"Close","TRACT90D":"9803.004","ZIP4":"9120","N_STRSUF":"WAY","id":"a62vxezwyz2a","ADDRESS":"590 BOGACHIEL WAY","N_MCODE":"S00","N_PREDIR":"","SOURCE":"TIGER 2006","QUALITY":"03","TRACT00D":"9803.004","X_COORDS":"-124.39395","AV_CITY":"FORKS"},"type":"Feature","geometry":{"type":"Point","coordinates":[-124.393951465009,47.9457357002776]}},{"properties":{"NAME":"BREWSTER CLINIC FHC","CITY":"BREWSTER","CERTAINTY":"3","ZCTA":"98812","AV_CO":"047","ZIP":"98812","N_LCODE":"ZT7F","N_HOUSENUM":"525","GEOLEVEL":"ZIPCODE","AV_SCORE":40,"RUCA":10.0,"N_STREET":"JAY","AV_ALPHA":"24","TRACT00":"970800","BLOCK00":"3002","N_ADDRESS":"525 WEST JAY AVENUE","N_UNIT":"","N_ZIP4":"","N_STATE":"WA","TRACT90":"970800","BLOCK90":"04","Y_COORDS":"48.10019","N_ZIP":"98812","AV_ZIP":"98812","BG00":"3","STATE":"WA","N_CITY":"BREWSTER","N_POSTDIR":"","AV_DATE":"Thu Mar 27 07:43:17 2008","BG90":"3","ACCURACY":"Very Approximate","TRACT90D":"9708.003","ZIP4":"","N_STRSUF":"AVE","id":"a62vxf9kt507","ADDRESS":"525 WEST JAY AVENUE","N_MCODE":"E024","N_PREDIR":"W","SOURCE":"Street Centroid","QUALITY":"05","TRACT00D":"9708.003","X_COORDS":"-119.78327","AV_CITY":"BREWSTER"},"type":"Feature","geometry":{"type":"Point","coordinates":[-119.783269979,48.100186334347]}},{"properties":{"NAME":"CHAS DENNY MURPHY MED&amp;DENTAL","CITY":"SPOKANE","CERTAINTY":"1","ZCTA":"99201","AV_CO":"063","ZIP":"99201","N_LCODE":"AS1","N_HOUSENUM":"1001","GEOLEVEL":"CENSUSTRACT","AV_SCORE":100,"RUCA":1.0,"N_STREET":"2ND","AV_ALPHA":"32","TRACT00":"003500","BLOCK00":"1056","N_ADDRESS":"1001 W 2ND AVE","N_UNIT":"","N_ZIP4":"4503","N_STATE":"WA","TRACT90":"003500","BLOCK90":"09","Y_COORDS":"47.65419","N_ZIP":"99201","AV_ZIP":"99201","BG00":"1","STATE":"WA","N_CITY":"SPOKANE","N_POSTDIR":"","AV_DATE":"Thu Mar 27 07:43:17 2008","BG90":"3","ACCURACY":"Close","TRACT90D":"0035.003","ZIP4":"4503","N_STRSUF":"AVE","id":"a62vxf0cthsa","ADDRESS":"1001 WEST 2ND AVENUE","N_MCODE":"S00","N_PREDIR":"W","SOURCE":"TIGER 2006","QUALITY":"03","TRACT00D":"0035.001","X_COORDS":"-117.42658","AV_CITY":"SPOKANE"},"type":"Feature","geometry":{"type":"Point","coordinates":[-117.4265835,47.6541941736476]}},{"properties":{"NAME":"CHC LA CLINICA - PASCO DENTAL","CITY":"PASCO","CERTAINTY":"1","ZCTA":"99301","AV_CO":"021","ZIP":"99301","N_LCODE":"AS1","N_HOUSENUM":"515","GEOLEVEL":"CENSUSTRACT","AV_SCORE":100,"RUCA":1.0,"N_STREET":"COURT","AV_ALPHA":"11","TRACT00":"020300","BLOCK00":"3020","N_ADDRESS":"515 W COURT ST","N_UNIT":"","N_ZIP4":"3737","N_STATE":"WA","TRACT90":"020300","BLOCK90":"25","Y_COORDS":"46.24169","N_ZIP":"99301","AV_ZIP":"99301","BG00":"3","STATE":"WA","N_CITY":"PASCO","N_POSTDIR":"","AV_DATE":"Thu Mar 27 07:43:17 2008","BG90":"3","ACCURACY":"Close","TRACT90D":"0203.003","ZIP4":"3737","N_STRSUF":"ST","id":"a62vxf0iwj60","ADDRESS":"515 W COURT ST","N_MCODE":"S00","N_PREDIR":"W","SOURCE":"NAVTECH","QUALITY":"03","TRACT00D":"0203.003","X_COORDS":"-119.09598","AV_CITY":"PASCO"},"type":"Feature","geometry":{"type":"Point","coordinates":[-119.095980984823,46.2416868244545]}},{"properties":{"NAME":"CLAIRE RONEY P.C.","CITY":"PORT TOWNSEND","CERTAINTY":"1","ZCTA":"98368","AV_CO":"031","ZIP":"98368","N_LCODE":"AS1","N_HOUSENUM":"905","GEOLEVEL":"CENSUSTRACT","AV_SCORE":100,"RUCA":8.0,"N_STREET":"HIDDEN TRAIL","AV_ALPHA":"16","TRACT00":"950500","BLOCK00":"1027","N_ADDRESS":"905 HIDDEN TRAIL RD","N_UNIT":"","N_ZIP4":"9602","N_STATE":"WA","TRACT90":"950500","BLOCK90":"12","Y_COORDS":"48.11075","N_ZIP":"98368","AV_ZIP":"98368","BG00":"1","STATE":"WA","N_CITY":"PORT TOWNSEND","N_POSTDIR":"","AV_DATE":"Thu Mar 27 07:43:17 2008","BG90":"1","ACCURACY":"Close","TRACT90D":"9505.001","ZIP4":"9602","N_STRSUF":"RD","id":"a62vxf1fjsx2","ADDRESS":"905 HIDDEN TRAIL ROAD","N_MCODE":"S00","N_PREDIR":"","SOURCE":"TIGER 2006","QUALITY":"03","TRACT00D":"9505.001","X_COORDS":"-122.83562","AV_CITY":""},"type":"Feature","geometry":{"type":"Point","coordinates":[-122.835616984194,48.1107482136543]}},{"properties":{"NAME":"COLUMBIA VALLEY COMMUNITY HEALTH CENTER","CITY":"WENATCHEE","CERTAINTY":"1","ZCTA":"98801","AV_CO":"007","ZIP":"98801","N_LCODE":"AS1","N_HOUSENUM":"600","GEOLEVEL":"CENSUSTRACT","AV_SCORE":100,"RUCA":1.0,"N_STREET":"ORONDO","AV_ALPHA":"04","TRACT00":"961000","BLOCK00":"4008","N_ADDRESS":"600 ORONDO AVE","N_UNIT":"","N_ZIP4":"2800","N_STATE":"WA","TRACT90":"961000","BLOCK90":"10","Y_COORDS":"47.41924","N_ZIP":"98801","AV_ZIP":"98801","BG00":"4","STATE":"WA","N_CITY":"WENATCHEE","N_POSTDIR":"","AV_DATE":"Thu Mar 27 07:43:17 2008","BG90":"4","ACCURACY":"Close","TRACT90D":"9610.004","ZIP4":"2800","N_STRSUF":"AVE","id":"a62vxf40b1ls","ADDRESS":"600 ORONDO","N_MCODE":"S01","N_PREDIR":"","SOURCE":"TIGER 2006","QUALITY":"03","TRACT00D":"9610.004","X_COORDS":"-120.31752","AV_CITY":"WENATCHEE"},"type":"Feature","geometry":{"type":"Point","coordinates":[-120.317519814374,47.4192376524855]}},{"properties":{"NAME":"COMMUNITY HEALTH CARE DELIVERY SYSTEM","CITY":"TACOMA","CERTAINTY":"1","ZCTA":"98402","AV_CO":"053","ZIP":"98421","N_LCODE":"AS1","N_HOUSENUM":"101","GEOLEVEL":"CENSUSTRACT","AV_SCORE":100,"RUCA":1.0,"N_STREET":"26TH","AV_ALPHA":"27","TRACT00":"061602","BLOCK00":"1057","N_ADDRESS":"101 E 26TH ST","N_UNIT":"","N_ZIP4":"1108","N_STATE":"WA","TRACT90":"061602","BLOCK90":"03","Y_COORDS":"47.23832","N_ZIP":"98421","AV_ZIP":"98402","BG00":"1","STATE":"WA","N_CITY":"TACOMA","N_POSTDIR":"","AV_DATE":"Thu Mar 27 07:43:17 2008","BG90":"2","ACCURACY":"Close","TRACT90D":"0616.022","ZIP4":"1108","N_STRSUF":"ST","id":"a62vxf9ez30u","ADDRESS":"101 EAST 26TH STREET","N_MCODE":"S00","N_PREDIR":"E","SOURCE":"TIGER 2006","QUALITY":"03","TRACT00D":"0616.021","X_COORDS":"-122.43343","AV_CITY":"TACOMA"},"type":"Feature","geometry":{"type":"Point","coordinates":[-122.433427272639,47.2383193159864]}},{"properties":{"NAME":"COMMUNITY HEALTH CENTERS OF KING COUNTY","CITY":"RENTON","CERTAINTY":"1","ZCTA":"98055","AV_CO":"033","ZIP":"98057","N_LCODE":"AS0","N_HOUSENUM":"955","GEOLEVEL":"CENSUSTRACT","AV_SCORE":70,"RUCA":1.0,"N_STREET":"POWELL","AV_ALPHA":"17","TRACT00":"026200","BLOCK00":"1046","N_ADDRESS":"955 POWELL AVE SW","N_UNIT":"","N_ZIP4":"2908","N_STATE":"WA","TRACT90":"025900","BLOCK90":"01","Y_COORDS":"47.46968","N_ZIP":"98057","AV_ZIP":"98057","BG00":"1","STATE":"WA","N_CITY":"RENTON","N_POSTDIR":"SW","AV_DATE":"Thu Mar 27 07:43:17 2008","BG90":"9","ACCURACY":"Approximate","TRACT90D":"0259.009","ZIP4":"2908","N_STRSUF":"AVE","id":"a62vxf2qhx38","ADDRESS":"955 POWELL AVENUE SW","N_MCODE":"S00","N_PREDIR":"","SOURCE":"Centrus","QUALITY":"03","TRACT00D":"0262.001","X_COORDS":"-122.23110","AV_CITY":"RENTON"},"type":"Feature","geometry":{"type":"Point","coordinates":[-122.231102,47.4696809990434]}},{"properties":{"NAME":"COWLITZ FAMILY HEALTH CENTER","CITY":"LONGVIEW","CERTAINTY":"1","ZCTA":"98632","AV_CO":"015","ZIP":"98632","N_LCODE":"AS1","N_HOUSENUM":"1057","GEOLEVEL":"CENSUSTRACT","AV_SCORE":100,"RUCA":1.0,"N_STREET":"12TH","AV_ALPHA":"08","TRACT00":"000100","BLOCK00":"1030","N_ADDRESS":"1057 12TH AVE","N_UNIT":"","N_ZIP4":"2509","N_STATE":"WA","TRACT90":"000100","BLOCK90":"08","Y_COORDS":"46.13280","N_ZIP":"98632","AV_ZIP":"98632","BG00":"1","STATE":"WA","N_CITY":"LONGVIEW","N_POSTDIR":"","AV_DATE":"Thu Mar 27 07:43:17 2008","BG90":"1","ACCURACY":"Close","TRACT90D":"0001.001","ZIP4":"2509","N_STRSUF":"AVE","id":"a62vxf1ak1rl","ADDRESS":"1057 12TH AVENUE","N_MCODE":"S00","N_PREDIR":"","SOURCE":"TIGER 2006","QUALITY":"03","TRACT00D":"0001.001","X_COORDS":"-122.93509","AV_CITY":"LONGVIEW"},"type":"Feature","geometry":{"type":"Point","coordinates":[-122.935093343127,46.1327989697867]}},{"properties":{"NAME":"CVCH - CHELAN CLINIC","CITY":"CHELAN","CERTAINTY":"1","ZCTA":"98816","AV_CO":"007","ZIP":"98816","N_LCODE":"AP0","N_HOUSENUM":"317","GEOLEVEL":"CENSUSTRACT","AV_SCORE":100,"RUCA":7.3,"N_STREET":"JOHNSON","AV_ALPHA":"04","TRACT00":"960300","BLOCK00":"5017","N_ADDRESS":"317 E JOHNSON AVE","N_UNIT":"","N_ZIP4":"","N_STATE":"WA","TRACT90":"960300","BLOCK90":"23","Y_COORDS":"47.84230","N_ZIP":"98816","AV_ZIP":"98816","BG00":"5","STATE":"WA","N_CITY":"CHELAN","N_POSTDIR":"","AV_DATE":"Thu Mar 27 07:43:17 2008","BG90":"4","ACCURACY":"Close","TRACT90D":"9603.004","ZIP4":"8631","N_STRSUF":"AVE","id":"a62vxfaso5el","ADDRESS":"317 E. JOHNSON AVENUE","N_MCODE":"T80","N_PREDIR":"E","SOURCE":"Local Parcels","QUALITY":"02","TRACT00D":"9603.005","X_COORDS":"-120.01367","AV_CITY":"CHELAN"},"type":"Feature","geometry":{"type":"Point","coordinates":[-120.013668674092,47.8423021627591]}},{"properties":{"NAME":"FAMILY HEALTH CENTERS","CITY":"OKANOGAN","CERTAINTY":"1","ZCTA":"98840","AV_CO":"047","ZIP":"98840","N_LCODE":"AS1","N_HOUSENUM":"716","GEOLEVEL":"CENSUSTRACT","AV_SCORE":100,"RUCA":7.0,"N_STREET":"1ST","AV_ALPHA":"24","TRACT00":"970700","BLOCK00":"3007","N_ADDRESS":"716 1ST AVE S","N_UNIT":"","N_ZIP4":"9679","N_STATE":"WA","TRACT90":"970700","BLOCK90":"05","Y_COORDS":"48.35983","N_ZIP":"98840","AV_ZIP":"98840","BG00":"3","STATE":"WA","N_CITY":"OKANOGAN","N_POSTDIR":"S","AV_DATE":"Thu Mar 27 07:43:17 2008","BG90":"3","ACCURACY":"Close","TRACT90D":"9707.003","ZIP4":"1340","N_STRSUF":"AVE","id":"a62vxfemwmjg","ADDRESS":"716 FIRST AVENUE SOUTH","N_MCODE":"S89","N_PREDIR":"","SOURCE":"TIGER 2006","QUALITY":"03","TRACT00D":"9707.003","X_COORDS":"-119.58512","AV_CITY":"OKANOGAN"},"type":"Feature","geometry":{"type":"Point","coordinates":[-119.585120433294,48.3598332796746]}},{"properties":{"NAME":"FEDERAL WAY COMM MED/DENTAL CTR","CITY":"FEDERAL WAY","CERTAINTY":"1","ZCTA":"98003","AV_CO":"033","ZIP":"98003","N_LCODE":"AS1","N_HOUSENUM":"33431","GEOLEVEL":"CENSUSTRACT","AV_SCORE":100,"RUCA":1.0,"N_STREET":"13TH","AV_ALPHA":"17","TRACT00":"030303","BLOCK00":"4011","N_ADDRESS":"33431 13TH PL S","N_UNIT":"","N_ZIP4":"6357","N_STATE":"WA","TRACT90":"030303","BLOCK90":"16","Y_COORDS":"47.30341","N_ZIP":"98003","AV_ZIP":"98003","BG00":"4","STATE":"WA","N_CITY":"FEDERAL WAY","N_POSTDIR":"S","AV_DATE":"Thu Mar 27 07:43:17 2008","BG90":"4","ACCURACY":"Close","TRACT90D":"0303.034","ZIP4":"6357","N_STRSUF":"PL","id":"a62vxffdzgys","ADDRESS":"33431 13TH PLACE SOUTH","N_MCODE":"S00","N_PREDIR":"","SOURCE":"TIGER 2006","QUALITY":"03","TRACT00D":"0303.034","X_COORDS":"-122.31789","AV_CITY":"FEDERAL WAY"},"type":"Feature","geometry":{"type":"Point","coordinates":[-122.31788678008,47.3034090578616]}},{"properties":{"NAME":"GRANT MENTAL HEALTHCARE","CITY":"MOSES LAKE","CERTAINTY":"1","ZCTA":"98837","AV_CO":"025","ZIP":"98837","N_LCODE":"AS1","N_HOUSENUM":"840","GEOLEVEL":"CENSUSTRACT","AV_SCORE":100,"RUCA":4.0,"N_STREET":"PLUM","AV_ALPHA":"13","TRACT00":"981000","BLOCK00":"2028","N_ADDRESS":"840 E PLUM ST","N_UNIT":"","N_ZIP4":"1874","N_STATE":"WA","TRACT90":"981000","BLOCK90":"29","Y_COORDS":"47.12858","N_ZIP":"98837","AV_ZIP":"98837","BG00":"2","STATE":"WA","N_CITY":"MOSES LAKE","N_POSTDIR":"","AV_DATE":"Thu Mar 27 07:43:17 2008","BG90":"2","ACCURACY":"Close","TRACT90D":"9810.002","ZIP4":"1874","N_STRSUF":"ST","id":"a62vxfbkfodj","ADDRESS":"840 EAST PLUM STREET","N_MCODE":"S00","N_PREDIR":"E","SOURCE":"TIGER 2006","QUALITY":"03","TRACT00D":"9810.002","X_COORDS":"-119.26327","AV_CITY":"MOSES LAKE"},"type":"Feature","geometry":{"type":"Point","coordinates":[-119.263268043157,47.1285773322132]}},{"properties":{"NAME":"GRANT MENTAL HEALTHCARE","CITY":"QUINCY","CERTAINTY":"1","ZCTA":"98848","AV_CO":"025","ZIP":"98848","N_LCODE":"AS1","N_HOUSENUM":"203","GEOLEVEL":"CENSUSTRACT","AV_SCORE":100,"RUCA":7.0,"N_STREET":"CENTRAL","AV_ALPHA":"13","TRACT00":"980600","BLOCK00":"1027","N_ADDRESS":"203 CENTRAL AVE S","N_UNIT":"","N_ZIP4":"1272","N_STATE":"WA","TRACT90":"980600","BLOCK90":"53","Y_COORDS":"47.23620","N_ZIP":"98848","AV_ZIP":"98848","BG00":"1","STATE":"WA","N_CITY":"QUINCY","N_POSTDIR":"S","AV_DATE":"Thu Mar 27 07:43:17 2008","BG90":"1","ACCURACY":"Close","TRACT90D":"9806.001","ZIP4":"","N_STRSUF":"AVE","id":"a62vxf8ya3w9","ADDRESS":"203 S. CENTRAL AVENUE","N_MCODE":"S86","N_PREDIR":"","SOURCE":"TIGER 2006","QUALITY":"03","TRACT00D":"9806.001","X_COORDS":"-119.85353","AV_CITY":"QUINCY"},"type":"Feature","geometry":{"type":"Point","coordinates":[-119.853534780804,47.2362049621822]}},{"properties":{"NAME":"GRANT MENTAL HEALTHCARE","CITY":"GRAND COULEE","CERTAINTY":"1","ZCTA":"99133","AV_CO":"025","ZIP":"99133","N_LCODE":"AS1","N_HOUSENUM":"322","GEOLEVEL":"CENSUSTRACT","AV_SCORE":100,"RUCA":10.0,"N_STREET":"FORTUYN","AV_ALPHA":"13","TRACT00":"980100","BLOCK00":"1048","N_ADDRESS":"322 FORTUYN RD","N_UNIT":"","N_ZIP4":"8790","N_STATE":"WA","TRACT90":"980100","BLOCK90":"60","Y_COORDS":"47.94279","N_ZIP":"99133","AV_ZIP":"99133","BG00":"1","STATE":"WA","N_CITY":"GRAND COULEE","N_POSTDIR":"","AV_DATE":"Thu Mar 27 07:43:17 2008","BG90":"1","ACCURACY":"Close","TRACT90D":"9801.001","ZIP4":"","N_STRSUF":"RD","id":"a62vxf8kyu6u","ADDRESS":"322 FORTUYN ROAD","N_MCODE":"S80","N_PREDIR":"","SOURCE":"TIGER 2006","QUALITY":"03","TRACT00D":"9801.001","X_COORDS":"-119.00623","AV_CITY":"GRAND COULEE"},"type":"Feature","geometry":{"type":"Point","coordinates":[-119.006230430696,47.9427873777086]}},{"properties":{"NAME":"INCHELIUM COMMUNITY HLTH CENTER","CITY":"INCHELIUM","CERTAINTY":"1","ZCTA":"99138","AV_CO":"019","ZIP":"99138","N_LCODE":"AS1","N_HOUSENUM":"39","GEOLEVEL":"CENSUSTRACT","AV_SCORE":100,"RUCA":10.0,"N_STREET":"SHORT CUT","AV_ALPHA":"10","TRACT00":"980300","BLOCK00":"2080","N_ADDRESS":"39 SHORT CUT ROAD","N_UNIT":"","N_ZIP4":"","N_STATE":"WA","TRACT90":"980300","BLOCK90":"43","Y_COORDS":"48.29641","N_ZIP":"99138","AV_ZIP":"99138","BG00":"2","STATE":"WA","N_CITY":"INCHELIUM","N_POSTDIR":"","AV_DATE":"Thu Mar 27 07:43:17 2008","BG90":"2","ACCURACY":"Close","TRACT90D":"9803.002","ZIP4":"","N_STRSUF":"RD","id":"a62vxf1zy28c","ADDRESS":"39 SHORT CUT ROAD","N_MCODE":"E020","N_PREDIR":"","SOURCE":"Local Roads","QUALITY":"03","TRACT00D":"9803.002","X_COORDS":"-118.20440","AV_CITY":""},"type":"Feature","geometry":{"type":"Point","coordinates":[-118.204396602577,48.2964091139951]}},{"properties":{"NAME":"INTERFAITH COMMUNITY HEALTH CTR","CITY":"BELLINGHAM","CERTAINTY":"1","ZCTA":"98225","AV_CO":"073","ZIP":"98225","N_LCODE":"AS1","N_HOUSENUM":"220","GEOLEVEL":"CENSUSTRACT","AV_SCORE":100,"RUCA":1.0,"N_STREET":"UNITY","AV_ALPHA":"37","TRACT00":"000600","BLOCK00":"1003","N_ADDRESS":"220 UNITY ST","N_UNIT":"","N_ZIP4":"4429","N_STATE":"WA","TRACT90":"000600","BLOCK90":"11","Y_COORDS":"48.75319","N_ZIP":"98225","AV_ZIP":"98225","BG00":"1","STATE":"WA","N_CITY":"BELLINGHAM","N_POSTDIR":"","AV_DATE":"Thu Mar 27 07:43:17 2008","BG90":"1","ACCURACY":"Close","TRACT90D":"0006.001","ZIP4":"4429","N_STRSUF":"ST","id":"a62vxf5ripbp","ADDRESS":"220 UNITY ST","N_MCODE":"S00","N_PREDIR":"","SOURCE":"TIGER 2006","QUALITY":"03","TRACT00D":"0006.001","X_COORDS":"-122.47613","AV_CITY":"BELLINGHAM"},"type":"Feature","geometry":{"type":"Point","coordinates":[-122.476128031727,48.7531863622031]}},{"properties":{"NAME":"KENT WAY COMMUNITY HEALTH CENTER","CITY":"KENT","CERTAINTY":"1","ZCTA":"98031","AV_CO":"033","ZIP":"98030","N_LCODE":"AS1","N_HOUSENUM":"403","GEOLEVEL":"CENSUSTRACT","AV_SCORE":100,"RUCA":1.0,"N_STREET":"MEEKER","AV_ALPHA":"17","TRACT00":"029203","BLOCK00":"1027","N_ADDRESS":"403 E MEEKER ST","N_UNIT":"","N_ZIP4":"5904","N_STATE":"WA","TRACT90":"029202","BLOCK90":"09","Y_COORDS":"47.38212","N_ZIP":"98030","AV_ZIP":"98030","BG00":"1","STATE":"WA","N_CITY":"KENT","N_POSTDIR":"","AV_DATE":"Thu Mar 27 07:43:17 2008","BG90":"3","ACCURACY":"Close","TRACT90D":"0292.023","ZIP4":"","N_STRSUF":"ST","id":"a62vxfb3ykcj","ADDRESS":"403 EAST MEEKER","N_MCODE":"S81","N_PREDIR":"E","SOURCE":"TIGER 2006","QUALITY":"03","TRACT00D":"0292.031","X_COORDS":"-122.22976","AV_CITY":"KENT"},"type":"Feature","geometry":{"type":"Point","coordinates":[-122.229764418368,47.3821188244397]}},{"properties":{"NAME":"MAPLE STREET CLINIC - CHAS","CITY":"SPOKANE","CERTAINTY":"1","ZCTA":"99205","AV_CO":"063","ZIP":"99205","N_LCODE":"AS1","N_HOUSENUM":"3919","GEOLEVEL":"CENSUSTRACT","AV_SCORE":100,"RUCA":1.0,"N_STREET":"MAPLE","AV_ALPHA":"32","TRACT00":"001200","BLOCK00":"2024","N_ADDRESS":"3919 N MAPLE ST","N_UNIT":"","N_ZIP4":"1349","N_STATE":"WA","TRACT90":"001200","BLOCK90":"32","Y_COORDS":"47.69373","N_ZIP":"99205","AV_ZIP":"99205","BG00":"2","STATE":"WA","N_CITY":"SPOKANE","N_POSTDIR":"","AV_DATE":"Thu Mar 27 07:43:17 2008","BG90":"2","ACCURACY":"Close","TRACT90D":"0012.002","ZIP4":"1349","N_STRSUF":"ST","id":"a62vxf2vmy7k","ADDRESS":"3919 NORTH MAPLE STREET","N_MCODE":"S00","N_PREDIR":"N","SOURCE":"TIGER 2006","QUALITY":"03","TRACT00D":"0012.002","X_COORDS":"-117.43542","AV_CITY":"SPOKANE"},"type":"Feature","geometry":{"type":"Point","coordinates":[-117.435423907048,47.6937289744507]}},{"properties":{"NAME":"MATTAWA COMMUNITY MEDICAL CLINIC","CITY":"MATTAWA","CERTAINTY":"1","ZCTA":"99349","AV_CO":"025","ZIP":"99349","N_LCODE":"AS1","N_HOUSENUM":"21O","GEOLEVEL":"CENSUSTRACT","AV_SCORE":55,"RUCA":10.0,"N_STREET":"GOVERNMENT","AV_ALPHA":"13","TRACT00":"981400","BLOCK00":"4140","N_ADDRESS":"21O GOVERNMENT WAY","N_UNIT":"","N_ZIP4":"","N_STATE":"WA","TRACT90":"981400","BLOCK90":"08A","Y_COORDS":"46.73821","N_ZIP":"99349","AV_ZIP":"99349","BG00":"4","STATE":"WA","N_CITY":"MATTAWA","N_POSTDIR":"","AV_DATE":"Thu Mar 27 07:43:17 2008","BG90":"4","ACCURACY":"Approximate","TRACT90D":"9814.004","ZIP4":"","N_STRSUF":"WAY","id":"a62vxf1ojkj2","ADDRESS":"21O GOVERNMENT ROAD","N_MCODE":"T81","N_PREDIR":"","SOURCE":"NAVTECH","QUALITY":"03","TRACT00D":"9814.004","X_COORDS":"-119.90881","AV_CITY":"MATTAWA"},"type":"Feature","geometry":{"type":"Point","coordinates":[-119.90880890385,46.7382064687431]}},{"properties":{"NAME":"MONROE CORRECTIONAL COMPLEX","CITY":"MONROE","CERTAINTY":"1","ZCTA":"98272","AV_CO":"061","ZIP":"98272","N_LCODE":"AS1","N_HOUSENUM":"16700","GEOLEVEL":"CENSUSTRACT","AV_SCORE":100,"RUCA":1.0,"N_STREET":"177TH","AV_ALPHA":"31","TRACT00":"052205","BLOCK00":"1003","N_ADDRESS":"16700 177TH AVE SE","N_UNIT":"","N_ZIP4":"9141","N_STATE":"WA","TRACT90":"052201","BLOCK90":"26","Y_COORDS":"47.84537","N_ZIP":"98272","AV_ZIP":"98272","BG00":"1","STATE":"WA","N_CITY":"MONROE","N_POSTDIR":"SE","AV_DATE":"Thu Mar 27 07:43:17 2008","BG90":"5","ACCURACY":"Close","TRACT90D":"0522.015","ZIP4":"","N_STRSUF":"AVE","id":"a62vxezh1fzn","ADDRESS":"16700 177TH AVENUE SE","N_MCODE":"S80","N_PREDIR":"","SOURCE":"TIGER 2006","QUALITY":"03","TRACT00D":"0522.051","X_COORDS":"-121.99214","AV_CITY":"MONROE"},"type":"Feature","geometry":{"type":"Point","coordinates":[-121.992144661663,47.8453707917058]}},{"properties":{"NAME":"MOSES LAKE COMMUNITY HEALTH CENTER","CITY":"MOSES LAKE","CERTAINTY":"1","ZCTA":"98837","AV_CO":"025","ZIP":"98837","N_LCODE":"AS1","N_HOUSENUM":"605","GEOLEVEL":"CENSUSTRACT","AV_SCORE":100,"RUCA":4.0,"N_STREET":"COOLIDGE","AV_ALPHA":"13","TRACT00":"981000","BLOCK00":"2028","N_ADDRESS":"605 S COOLIDGE ST","N_UNIT":"","N_ZIP4":"1893","N_STATE":"WA","TRACT90":"981000","BLOCK90":"29","Y_COORDS":"47.12899","N_ZIP":"98837","AV_ZIP":"98837","BG00":"2","STATE":"WA","N_CITY":"MOSES LAKE","N_POSTDIR":"","AV_DATE":"Thu Mar 27 07:43:17 2008","BG90":"2","ACCURACY":"Close","TRACT90D":"9810.002","ZIP4":"1893","N_STRSUF":"ST","id":"a62vxf3v35j4","ADDRESS":"605 COOLIDGE DRIVE","N_MCODE":"S03","N_PREDIR":"S","SOURCE":"TIGER 2006","QUALITY":"03","TRACT00D":"9810.002","X_COORDS":"-119.26281","AV_CITY":"MOSES LAKE"},"type":"Feature","geometry":{"type":"Point","coordinates":[-119.26281322941,47.1289870421542]}},{"properties":{"NAME":"NEIGHBORHOOD CONNECTIONS (HCH)","CITY":"YAKIMA","CERTAINTY":"1","ZCTA":"98901","AV_CO":"077","ZIP":"98901","N_LCODE":"AS1","N_HOUSENUM":"102","GEOLEVEL":"CENSUSTRACT","AV_SCORE":100,"RUCA":1.0,"N_STREET":"NACHES","AV_ALPHA":"39","TRACT00":"001500","BLOCK00":"1006","N_ADDRESS":"102 S NACHES AVE","N_UNIT":"","N_ZIP4":"2947","N_STATE":"WA","TRACT90":"001500","BLOCK90":"08","Y_COORDS":"46.60212","N_ZIP":"98901","AV_ZIP":"98901","BG00":"1","STATE":"WA","N_CITY":"YAKIMA","N_POSTDIR":"","AV_DATE":"Thu Mar 27 07:43:17 2008","BG90":"1","ACCURACY":"Close","TRACT90D":"0015.001","ZIP4":"","N_STRSUF":"AVE","id":"a62vxf8855vg","ADDRESS":"102 S NACHOS AVENUE","N_MCODE":"S89","N_PREDIR":"S","SOURCE":"TIGER 2006","QUALITY":"03","TRACT00D":"0015.001","X_COORDS":"-120.49960","AV_CITY":"YAKIMA"},"type":"Feature","geometry":{"type":"Point","coordinates":[-120.499604298772,46.6021172680399]}},{"properties":{"NAME":"NORTH WHIDBEY COMMUNITY CLINIC","CITY":"OAK HARBOR","CERTAINTY":"1","ZCTA":"98277","AV_CO":"029","ZIP":"98277","N_LCODE":"AS1","N_HOUSENUM":"1300","GEOLEVEL":"CENSUSTRACT","AV_SCORE":100,"RUCA":4.0,"N_STREET":"GOLDIE","AV_ALPHA":"15","TRACT00":"970400","BLOCK00":"1016","N_ADDRESS":"1300 NE GOLDIE ST","N_UNIT":"","N_ZIP4":"4832","N_STATE":"WA","TRACT90":"970400","BLOCK90":"14","Y_COORDS":"48.30936","N_ZIP":"98277","AV_ZIP":"98277","BG00":"1","STATE":"WA","N_CITY":"OAK HARBOR","N_POSTDIR":"","AV_DATE":"Thu Mar 27 07:43:17 2008","BG90":"1","ACCURACY":"Close","TRACT90D":"9704.001","ZIP4":"","N_STRSUF":"ST","id":"a62vxfeu9prg","ADDRESS":"1300 GOLDIE STREET","N_MCODE":"S82","N_PREDIR":"NE","SOURCE":"TIGER 2006","QUALITY":"03","TRACT00D":"9704.001","X_COORDS":"-122.64353","AV_CITY":"OAK HARBOR"},"type":"Feature","geometry":{"type":"Point","coordinates":[-122.643528526328,48.3093612200506]}},{"properties":{"NAME":"NORTHWEST PSYCHOLOGICAL RESOURSE","CITY":"LONGVIEW","CERTAINTY":"1","ZCTA":"98632","AV_CO":"015","ZIP":"98632","N_LCODE":"AS1","N_HOUSENUM":"945","GEOLEVEL":"CENSUSTRACT","AV_SCORE":100,"RUCA":1.0,"N_STREET":"11TH","AV_ALPHA":"08","TRACT00":"000200","BLOCK00":"4013","N_ADDRESS":"945 11TH AVE","N_UNIT":"","N_ZIP4":"2503","N_STATE":"WA","TRACT90":"000200","BLOCK90":"13","Y_COORDS":"46.13065","N_ZIP":"98632","AV_ZIP":"98632","BG00":"4","STATE":"WA","N_CITY":"LONGVIEW","N_POSTDIR":"","AV_DATE":"Thu Mar 27 07:43:17 2008","BG90":"4","ACCURACY":"Close","TRACT90D":"0002.004","ZIP4":"2503","N_STRSUF":"AVE","id":"a62vxf9wpxlj","ADDRESS":"945 11TH AVE","N_MCODE":"S00","N_PREDIR":"","SOURCE":"TIGER 2006","QUALITY":"03","TRACT00D":"0002.004","X_COORDS":"-122.93457","AV_CITY":"LONGVIEW"},"type":"Feature","geometry":{"type":"Point","coordinates":[-122.934571864315,46.1306516923148]}},{"properties":{"NAME":"OTHELLO FAMILY HEALTH CENTER","CITY":"OTHELLO","CERTAINTY":"1","ZCTA":"99344","AV_CO":"001","ZIP":"99344","N_LCODE":"AS1","N_HOUSENUM":"140","GEOLEVEL":"CENSUSTRACT","AV_SCORE":100,"RUCA":7.0,"N_STREET":"MAIN","AV_ALPHA":"01","TRACT00":"950400","BLOCK00":"2042","N_ADDRESS":"140 E MAIN ST","N_UNIT":"","N_ZIP4":"1040","N_STATE":"WA","TRACT90":"950400","BLOCK90":"43","Y_COORDS":"46.82588","N_ZIP":"99344","AV_ZIP":"99344","BG00":"2","STATE":"WA","N_CITY":"OTHELLO","N_POSTDIR":"","AV_DATE":"Thu Mar 27 07:43:17 2008","BG90":"2","ACCURACY":"Close","TRACT90D":"9504.002","ZIP4":"0546","N_STRSUF":"ST","id":"a62vxf7zuwhb","ADDRESS":"140 EAST MAIN ST","N_MCODE":"S80","N_PREDIR":"E","SOURCE":"TIGER 2006","QUALITY":"03","TRACT00D":"9504.002","X_COORDS":"-119.17344","AV_CITY":"OTHELLO"},"type":"Feature","geometry":{"type":"Point","coordinates":[-119.173438313781,46.8258751736619]}},{"properties":{"NAME":"PARKLAND CLINIC","CITY":"TACOMA","CERTAINTY":"1","ZCTA":"98444","AV_CO":"053","ZIP":"98444","N_LCODE":"AS1","N_HOUSENUM":"11225","GEOLEVEL":"CENSUSTRACT","AV_SCORE":100,"RUCA":1.0,"N_STREET":"PACIFIC","AV_ALPHA":"27","TRACT00":"071707","BLOCK00":"1009","N_ADDRESS":"11225 PACIFIC AVE S","N_UNIT":"","N_ZIP4":"5599","N_STATE":"WA","TRACT90":"071702","BLOCK90":"06","Y_COORDS":"47.15491","N_ZIP":"98444","AV_ZIP":"98444","BG00":"1","STATE":"WA","N_CITY":"TACOMA","N_POSTDIR":"S","AV_DATE":"Thu Mar 27 07:43:17 2008","BG90":"1","ACCURACY":"Close","TRACT90D":"0717.021","ZIP4":"5525","N_STRSUF":"AVE","id":"a62vxf292jvi","ADDRESS":"11225 PACIFIC AVENUE","N_MCODE":"S84","N_PREDIR":"","SOURCE":"TIGER 2006","QUALITY":"03","TRACT00D":"0717.071","X_COORDS":"-122.43374","AV_CITY":""},"type":"Feature","geometry":{"type":"Point","coordinates":[-122.433736174603,47.1549138182007]}},{"properties":{"NAME":"PCHS-PORT ORCHARD CLINC","CITY":"PORT ORCHARD","CERTAINTY":"1","ZCTA":"98366","AV_CO":"035","ZIP":"98366","N_LCODE":"AS1","N_HOUSENUM":"320","GEOLEVEL":"CENSUSTRACT","AV_SCORE":100,"RUCA":1.0,"N_STREET":"KITSAP","AV_ALPHA":"18","TRACT00":"092200","BLOCK00":"3005","N_ADDRESS":"320 S KITSAP BLVD","N_UNIT":"","N_ZIP4":"3778","N_STATE":"WA","TRACT90":"092200","BLOCK90":"02","Y_COORDS":"47.52218","N_ZIP":"98366","AV_ZIP":"98366","BG00":"3","STATE":"WA","N_CITY":"PORT ORCHARD","N_POSTDIR":"","AV_DATE":"Thu Mar 27 07:43:17 2008","BG90":"4","ACCURACY":"Close","TRACT90D":"0922.004","ZIP4":"3778","N_STRSUF":"BLVD","id":"a62vxfbabxsf","ADDRESS":"320 S. KITSAP BLVD","N_MCODE":"S00","N_PREDIR":"S","SOURCE":"TIGER 2006","QUALITY":"03","TRACT00D":"0922.003","X_COORDS":"-122.65290","AV_CITY":"PORT ORCHARD"},"type":"Feature","geometry":{"type":"Point","coordinates":[-122.65289544951,47.5221784107265]}},{"properties":{"NAME":"PENINSULA COMM MENTAL HLTH CTR","CITY":"PORT ANGELES","CERTAINTY":"1","ZCTA":"98362","AV_CO":"009","ZIP":"98362","N_LCODE":"AS1","N_HOUSENUM":"118","GEOLEVEL":"CENSUSTRACT","AV_SCORE":100,"RUCA":4.0,"N_STREET":"8TH","AV_ALPHA":"05","TRACT00":"980900","BLOCK00":"2000","N_ADDRESS":"118 E 8TH ST","N_UNIT":"","N_ZIP4":"6129","N_STATE":"WA","TRACT90":"980900","BLOCK90":"11","Y_COORDS":"48.11245","N_ZIP":"98362","AV_ZIP":"98362","BG00":"2","STATE":"WA","N_CITY":"PORT ANGELES","N_POSTDIR":"","AV_DATE":"Thu Mar 27 07:43:17 2008","BG90":"2","ACCURACY":"Close","TRACT90D":"9809.002","ZIP4":"","N_STRSUF":"ST","id":"a62vxfd0ouxl","ADDRESS":"118 EAST EIGHTH STREET","N_MCODE":"S89","N_PREDIR":"E","SOURCE":"TIGER 2006","QUALITY":"03","TRACT00D":"9809.002","X_COORDS":"-123.43912","AV_CITY":"PORT ANGELES"},"type":"Feature","geometry":{"type":"Point","coordinates":[-123.439116743288,48.1124513847507]}},{"properties":{"NAME":"QUINCY COMMUNITY HEALTH CENTER","CITY":"QUINCY","CERTAINTY":"1","ZCTA":"98848","AV_CO":"025","ZIP":"98848","N_LCODE":"AS1","N_HOUSENUM":"1450","GEOLEVEL":"CENSUSTRACT","AV_SCORE":100,"RUCA":7.0,"N_STREET":"1ST","AV_ALPHA":"13","TRACT00":"980600","BLOCK00":"3022","N_ADDRESS":"1450 1ST AVE SW","N_UNIT":"","N_ZIP4":"1695","N_STATE":"WA","TRACT90":"980600","BLOCK90":"06A","Y_COORDS":"47.22618","N_ZIP":"98848","AV_ZIP":"98848","BG00":"3","STATE":"WA","N_CITY":"QUINCY","N_POSTDIR":"SW","AV_DATE":"Thu Mar 27 07:43:17 2008","BG90":"3","ACCURACY":"Close","TRACT90D":"9806.003","ZIP4":"1695","N_STRSUF":"AVE","id":"a62vxfdlh9e4","ADDRESS":"1450 1ST AVE SW","N_MCODE":"S00","N_PREDIR":"","SOURCE":"NAVTECH","QUALITY":"03","TRACT00D":"9806.003","X_COORDS":"-119.85438","AV_CITY":"QUINCY"},"type":"Feature","geometry":{"type":"Point","coordinates":[-119.854382736199,47.2261809186363]}},{"properties":{"NAME":"RENTON COMMUNITY HEALTH CENTER","CITY":"RENTON","CERTAINTY":"1","ZCTA":"98055","AV_CO":"033","ZIP":"98055","N_LCODE":"AS0","N_HOUSENUM":"200","GEOLEVEL":"CENSUSTRACT","AV_SCORE":70,"RUCA":1.0,"N_STREET":"2ND","AV_ALPHA":"17","TRACT00":"025300","BLOCK00":"5013","N_ADDRESS":"200 S 2ND ST","N_UNIT":"","N_ZIP4":"2011","N_STATE":"WA","TRACT90":"025300","BLOCK90":"32","Y_COORDS":"47.48152","N_ZIP":"98057","AV_ZIP":"98057","BG00":"5","STATE":"WA","N_CITY":"RENTON","N_POSTDIR":"","AV_DATE":"Thu Mar 27 07:43:17 2008","BG90":"5","ACCURACY":"Approximate","TRACT90D":"0253.005","ZIP4":"2011","N_STRSUF":"ST","id":"a62vxf893qx3","ADDRESS":"200 SOUTH 2ND STREET","N_MCODE":"S10","N_PREDIR":"S","SOURCE":"Centrus","QUALITY":"03","TRACT00D":"0253.005","X_COORDS":"-122.21526","AV_CITY":"RENTON"},"type":"Feature","geometry":{"type":"Point","coordinates":[-122.215263,47.4815179990434]}},{"properties":{"NAME":"ROGER SAUX HEALTH CLINIC","CITY":"TAHOLAH","CERTAINTY":"3","ZCTA":"98587","AV_CO":"027","ZIP":"98587","N_LCODE":"ZT7F","N_HOUSENUM":"407","GEOLEVEL":"ZIPCODE","AV_SCORE":40,"RUCA":10.5,"N_STREET":"COMMUX","AV_ALPHA":"14","TRACT00":"000100","BLOCK00":"1301","N_ADDRESS":"407 COMMUX","N_UNIT":"","N_ZIP4":"","N_STATE":"WA","TRACT90":"000100","BLOCK90":"49","Y_COORDS":"47.34624","N_ZIP":"98587","AV_ZIP":"98587","BG00":"1","STATE":"WA","N_CITY":"TAHOLAH","N_POSTDIR":"","AV_DATE":"Thu Mar 27 07:43:17 2008","BG90":"2","ACCURACY":"Very Approximate","TRACT90D":"0001.002","ZIP4":"","N_STRSUF":"","id":"a62vxfebqwy0","ADDRESS":"407 COMMUX","N_MCODE":"E022","N_PREDIR":"","SOURCE":"Street Centroid","QUALITY":"05","TRACT00D":"0001.001","X_COORDS":"-124.29149","AV_CITY":""},"type":"Feature","geometry":{"type":"Point","coordinates":[-124.291486167,47.3462367124427]}},{"properties":{"NAME":"SEA MAR CHC - BELLINGHAM","CITY":"BELLINGHAM","CERTAINTY":"1","ZCTA":"98226","AV_CO":"073","ZIP":"98226","N_LCODE":"AS1","N_HOUSENUM":"4455","GEOLEVEL":"CENSUSTRACT","AV_SCORE":100,"RUCA":1.0,"N_STREET":"CORDATA","AV_ALPHA":"37","TRACT00":"000200","BLOCK00":"1059","N_ADDRESS":"4455 CORDATA PKWY","N_UNIT":"","N_ZIP4":"8037","N_STATE":"WA","TRACT90":"000200","BLOCK90":"27B","Y_COORDS":"48.80207","N_ZIP":"98226","AV_ZIP":"98226","BG00":"1","STATE":"WA","N_CITY":"BELLINGHAM","N_POSTDIR":"","AV_DATE":"Thu Mar 27 07:43:17 2008","BG90":"1","ACCURACY":"Close","TRACT90D":"0002.001","ZIP4":"8037","N_STRSUF":"PKWY","id":"a62vxf63psr5","ADDRESS":"4455 CORDATA PKWY","N_MCODE":"S00","N_PREDIR":"","SOURCE":"TIGER 2000","QUALITY":"03","TRACT00D":"0002.001","X_COORDS":"-122.49623","AV_CITY":"BELLINGHAM"},"type":"Feature","geometry":{"type":"Point","coordinates":[-122.496231425192,48.8020672475017]}},{"properties":{"NAME":"SEA MAR CHC - MARYSVILLE","CITY":"MARYSVILLE","CERTAINTY":"1","ZCTA":"98270","AV_CO":"061","ZIP":"98270","N_LCODE":"AS1","N_HOUSENUM":"9710","GEOLEVEL":"CENSUSTRACT","AV_SCORE":100,"RUCA":2.0,"N_STREET":"STATE","AV_ALPHA":"31","TRACT00":"052805","BLOCK00":"3017","N_ADDRESS":"9710 STATE AVE","N_UNIT":"","N_ZIP4":"2232","N_STATE":"WA","TRACT90":"052802","BLOCK90":"23A","Y_COORDS":"48.08363","N_ZIP":"98270","AV_ZIP":"98270","BG00":"3","STATE":"WA","N_CITY":"MARYSVILLE","N_POSTDIR":"","AV_DATE":"Thu Mar 27 07:43:17 2008","BG90":"2","ACCURACY":"Close","TRACT90D":"0528.022","ZIP4":"2232","N_STRSUF":"AVE","id":"a62vxf2wdpbk","ADDRESS":"9710 STATE AVENUE","N_MCODE":"S00","N_PREDIR":"","SOURCE":"TIGER 2006","QUALITY":"03","TRACT00D":"0528.053","X_COORDS":"-122.17337","AV_CITY":"MARYSVILLE"},"type":"Feature","geometry":{"type":"Point","coordinates":[-122.173373225246,48.0836331179322]}},{"properties":{"NAME":"SEA MAR CHC - OLYMPIA MEDICAL","CITY":"OLYMPIA","CERTAINTY":"1","ZCTA":"98502","AV_CO":"067","ZIP":"98502","N_LCODE":"AS1","N_HOUSENUM":"3030","GEOLEVEL":"CENSUSTRACT","AV_SCORE":100,"RUCA":1.0,"N_STREET":"LIMITED","AV_ALPHA":"34","TRACT00":"010600","BLOCK00":"3001","N_ADDRESS":"3030 LIMITED LN NW","N_UNIT":"","N_ZIP4":"2704","N_STATE":"WA","TRACT90":"010600","BLOCK90":"01","Y_COORDS":"47.04824","N_ZIP":"98502","AV_ZIP":"98502","BG00":"3","STATE":"WA","N_CITY":"OLYMPIA","N_POSTDIR":"NW","AV_DATE":"Thu Mar 27 07:43:17 2008","BG90":"3","ACCURACY":"Close","TRACT90D":"0106.003","ZIP4":"2704","N_STRSUF":"LN","id":"a62vxf2ndbur","ADDRESS":"3030 LIMITED LN NW","N_MCODE":"S00","N_PREDIR":"","SOURCE":"TIGER 2006","QUALITY":"03","TRACT00D":"0106.003","X_COORDS":"-122.93966","AV_CITY":"OLYMPIA"},"type":"Feature","geometry":{"type":"Point","coordinates":[-122.939655342804,47.0482392039226]}},{"properties":{"NAME":"SEA MAR CHC-MT. VERNON MED/DENT","CITY":"MOUNT VERNON","CERTAINTY":"1","ZCTA":"98273","AV_CO":"057","ZIP":"98273","N_LCODE":"AS1","N_HOUSENUM":"1400","GEOLEVEL":"CENSUSTRACT","AV_SCORE":100,"RUCA":1.0,"N_STREET":"LAVENTURE","AV_ALPHA":"29","TRACT00":"952300","BLOCK00":"1006","N_ADDRESS":"1400 N LAVENTURE RD","N_UNIT":"","N_ZIP4":"2766","N_STATE":"WA","TRACT90":"952300","BLOCK90":"04","Y_COORDS":"48.43299","N_ZIP":"98273","AV_ZIP":"98273","BG00":"1","STATE":"WA","N_CITY":"MOUNT VERNON","N_POSTDIR":"","AV_DATE":"Thu Mar 27 07:43:17 2008","BG90":"1","ACCURACY":"Close","TRACT90D":"9523.001","ZIP4":"2766","N_STRSUF":"RD","id":"a62vxf1m7mfw","ADDRESS":"1400 NORTH LAVENTRUE","N_MCODE":"S09","N_PREDIR":"N","SOURCE":"TIGER 2006","QUALITY":"03","TRACT00D":"9523.001","X_COORDS":"-122.31315","AV_CITY":"MOUNT VERNON"},"type":"Feature","geometry":{"type":"Point","coordinates":[-122.313148088879,48.4329927171884]}},{"properties":{"NAME":"SEA MAR COMMUNITY HEALTH CENTER","CITY":"SEATTLE","CERTAINTY":"1","ZCTA":"98108","AV_CO":"033","ZIP":"98108","N_LCODE":"AS1","N_HOUSENUM":"1040","GEOLEVEL":"CENSUSTRACT","AV_SCORE":100,"RUCA":1.0,"N_STREET":"HENDERSON","AV_ALPHA":"17","TRACT00":"011200","BLOCK00":"3012","N_ADDRESS":"1040 S HENDERSON ST","N_UNIT":"","N_ZIP4":"4720","N_STATE":"WA","TRACT90":"011200","BLOCK90":"08","Y_COORDS":"47.52342","N_ZIP":"98108","AV_ZIP":"98108","BG00":"3","STATE":"WA","N_CITY":"SEATTLE","N_POSTDIR":"","AV_DATE":"Thu Mar 27 07:43:17 2008","BG90":"3","ACCURACY":"Close","TRACT90D":"0112.003","ZIP4":"4720","N_STRSUF":"ST","id":"a62vxfbshiy2","ADDRESS":"1040 SOUTH HENDERSON","N_MCODE":"S01","N_PREDIR":"S","SOURCE":"TIGER 2006","QUALITY":"03","TRACT00D":"0112.003","X_COORDS":"-122.31974","AV_CITY":"SEATTLE"},"type":"Feature","geometry":{"type":"Point","coordinates":[-122.319741484095,47.5234178244405]}},{"properties":{"NAME":"SEA MAR TUMWATER DENTAL CLINIC","CITY":"TUMWATER","CERTAINTY":"1","ZCTA":"98501","AV_CO":"067","ZIP":"98501","N_LCODE":"AS1","N_HOUSENUM":"409","GEOLEVEL":"CENSUSTRACT","AV_SCORE":100,"RUCA":1.0,"N_STREET":"CUSTER","AV_ALPHA":"34","TRACT00":"010800","BLOCK00":"2012","N_ADDRESS":"409 CUSTER WAY SE","N_UNIT":"","N_ZIP4":"3350","N_STATE":"WA","TRACT90":"010800","BLOCK90":"07","Y_COORDS":"47.01631","N_ZIP":"98501","AV_ZIP":"98501","BG00":"2","STATE":"WA","N_CITY":"TUMWATER","N_POSTDIR":"SE","AV_DATE":"Thu Mar 27 07:43:17 2008","BG90":"2","ACCURACY":"Close","TRACT90D":"0108.002","ZIP4":"3350","N_STRSUF":"WAY","id":"a62vxfafkij2","ADDRESS":"409 CUSTER WAY SE","N_MCODE":"S00","N_PREDIR":"","SOURCE":"TIGER 2006","QUALITY":"03","TRACT00D":"0108.002","X_COORDS":"-122.90080","AV_CITY":"TUMWATER"},"type":"Feature","geometry":{"type":"Point","coordinates":[-122.900799021239,47.0163090304216]}},{"properties":{"NAME":"SELKIRK COMMUNITY HEALTH CENTER","CITY":"IONE","CERTAINTY":"1","ZCTA":"99139","AV_CO":"051","ZIP":"99139","N_LCODE":"AS1","N_HOUSENUM":"208","GEOLEVEL":"CENSUSTRACT","AV_SCORE":55,"RUCA":10.0,"N_STREET":"CEDAR CREEK","AV_ALPHA":"26","TRACT00":"970100","BLOCK00":"1129","N_ADDRESS":"208 CEDAR CREEK TERRACE","N_UNIT":"","N_ZIP4":"0197","N_STATE":"WA","TRACT90":"970100","BLOCK90":"86A","Y_COORDS":"48.73936","N_ZIP":"99139","AV_ZIP":"99139","BG00":"1","STATE":"WA","N_CITY":"IONE","N_POSTDIR":"","AV_DATE":"Thu Mar 27 07:43:17 2008","BG90":"1","ACCURACY":"Approximate","TRACT90D":"9701.001","ZIP4":"0197","N_STRSUF":"TER","id":"a62vxf3pwdzf","ADDRESS":"208 CEDAR CREEK TERRACE","N_MCODE":"E022","N_PREDIR":"","SOURCE":"TIGER 2006","QUALITY":"03","TRACT00D":"9701.001","X_COORDS":"-117.42778","AV_CITY":"IONE"},"type":"Feature","geometry":{"type":"Point","coordinates":[-117.427784815006,48.7393620949102]}},{"properties":{"NAME":"SHELTON FAMILY MEDICINE","CITY":"SHELTON","CERTAINTY":"1","ZCTA":"98584","AV_CO":"045","ZIP":"98584","N_LCODE":"AP0","N_HOUSENUM":"939","GEOLEVEL":"CENSUSTRACT","AV_SCORE":100,"RUCA":4.2,"N_STREET":"MOUNTAIN VIEW","AV_ALPHA":"23","TRACT00":"960700","BLOCK00":"2009","N_ADDRESS":"939 MOUNTAIN VIEW DR","N_UNIT":"","N_ZIP4":"4410","N_STATE":"WA","TRACT90":"960700","BLOCK90":"14","Y_COORDS":"47.22663","N_ZIP":"98584","AV_ZIP":"98584","BG00":"2","STATE":"WA","N_CITY":"SHELTON","N_POSTDIR":"","AV_DATE":"Thu Mar 27 07:43:17 2008","BG90":"2","ACCURACY":"Close","TRACT90D":"9607.002","ZIP4":"4411","N_STRSUF":"DR","id":"a62vxf0kklel","ADDRESS":"939 MOUNTAIN VIEW DR","N_MCODE":"S80","N_PREDIR":"","SOURCE":"Local Parcels","QUALITY":"02","TRACT00D":"9607.002","X_COORDS":"-123.11324","AV_CITY":"SHELTON"},"type":"Feature","geometry":{"type":"Point","coordinates":[-123.113244182,47.2266309590421]}},{"properties":{"NAME":"VALLEY VIEW HEALTH CENTER","CITY":"CHEHALIS","CERTAINTY":"1","ZCTA":"98532","AV_CO":"041","ZIP":"98532","N_LCODE":"AS1","N_HOUSENUM":"500","GEOLEVEL":"CENSUSTRACT","AV_SCORE":100,"RUCA":4.2,"N_STREET":"WASHINGTON","AV_ALPHA":"21","TRACT00":"970900","BLOCK00":"2000","N_ADDRESS":"500 SE WASHINGTON AVE","N_UNIT":"","N_ZIP4":"3058","N_STATE":"WA","TRACT90":"970900","BLOCK90":"09","Y_COORDS":"46.65993","N_ZIP":"98532","AV_ZIP":"98532","BG00":"2","STATE":"WA","N_CITY":"CHEHALIS","N_POSTDIR":"","AV_DATE":"Thu Mar 27 07:43:17 2008","BG90":"2","ACCURACY":"Close","TRACT90D":"9709.002","ZIP4":"0409","N_STRSUF":"AVE","id":"a62vxf6ms3bm","ADDRESS":"500 SE WASHINGTON","N_MCODE":"S81","N_PREDIR":"SE","SOURCE":"TIGER 2006","QUALITY":"03","TRACT00D":"9709.002","X_COORDS":"-122.95928","AV_CITY":"CHEHALIS"},"type":"Feature","geometry":{"type":"Point","coordinates":[-122.95928262277,46.6599290646756]}},{"properties":{"NAME":"VALLEY VIEW HEALTH CENTER - WINLOCK","CITY":"WINLOCK","CERTAINTY":"1","ZCTA":"98596","AV_CO":"041","ZIP":"98596","N_LCODE":"AS1","N_HOUSENUM":"615","GEOLEVEL":"CENSUSTRACT","AV_SCORE":100,"RUCA":5.0,"N_STREET":"CEMETARY","AV_ALPHA":"21","TRACT00":"971500","BLOCK00":"2004","N_ADDRESS":"615 CEMETARY RD","N_UNIT":"","N_ZIP4":"9303","N_STATE":"WA","TRACT90":"971500","BLOCK90":"02A","Y_COORDS":"46.48732","N_ZIP":"98596","AV_ZIP":"98596","BG00":"2","STATE":"WA","N_CITY":"WINLOCK","N_POSTDIR":"","AV_DATE":"Thu Mar 27 07:43:17 2008","BG90":"2","ACCURACY":"Close","TRACT90D":"9715.002","ZIP4":"","N_STRSUF":"RD","id":"a62vxfdslj2a","ADDRESS":"615 CEMETARY ROAD","N_MCODE":"S80","N_PREDIR":"","SOURCE":"TIGER 2006","QUALITY":"03","TRACT00D":"9715.002","X_COORDS":"-122.92531","AV_CITY":"WINLOCK"},"type":"Feature","geometry":{"type":"Point","coordinates":[-122.925310394416,46.4873244437562]}},{"properties":{"NAME":"VALLEY VISTA MEDICAL GROUP","CITY":"PROSSER","CERTAINTY":"1","ZCTA":"99350","AV_CO":"005","ZIP":"99350","N_LCODE":"AS1","N_HOUSENUM":"820","GEOLEVEL":"CENSUSTRACT","AV_SCORE":100,"RUCA":7.3,"N_STREET":"MEMORIAL","AV_ALPHA":"03","TRACT00":"011700","BLOCK00":"4009","N_ADDRESS":"820 MEMORIAL ST","N_UNIT":"","N_ZIP4":"1526","N_STATE":"WA","TRACT90":"011700","BLOCK90":"04","Y_COORDS":"46.20769","N_ZIP":"99350","AV_ZIP":"99350","BG00":"4","STATE":"WA","N_CITY":"PROSSER","N_POSTDIR":"","AV_DATE":"Thu Mar 27 07:43:17 2008","BG90":"4","ACCURACY":"Close","TRACT90D":"0117.004","ZIP4":"1525","N_STRSUF":"ST","id":"a62vxfcmkbtj","ADDRESS":"820 MEMORIAL STREET","N_MCODE":"S80","N_PREDIR":"","SOURCE":"TIGER 2006","QUALITY":"03","TRACT00D":"0117.004","X_COORDS":"-119.76349","AV_CITY":"PROSSER"},"type":"Feature","geometry":{"type":"Point","coordinates":[-119.763488145768,46.2076876130978]}},{"properties":{"NAME":"VANCOUVER CLINIC","CITY":"VANCOUVER","CERTAINTY":"1","ZCTA":"98664","AV_CO":"011","ZIP":"98664","N_LCODE":"AS1","N_HOUSENUM":"7410","GEOLEVEL":"CENSUSTRACT","AV_SCORE":100,"RUCA":1.0,"N_STREET":"DELAWARE","AV_ALPHA":"06","TRACT00":"043000","BLOCK00":"1015","N_ADDRESS":"7410 DELAWARE LN","N_UNIT":"","N_ZIP4":"1408","N_STATE":"WA","TRACT90":"043000","BLOCK90":"21","Y_COORDS":"45.62436","N_ZIP":"98664","AV_ZIP":"98664","BG00":"1","STATE":"WA","N_CITY":"VANCOUVER","N_POSTDIR":"","AV_DATE":"Thu Mar 27 07:43:17 2008","BG90":"1","ACCURACY":"Close","TRACT90D":"0430.001","ZIP4":"1408","N_STRSUF":"LN","id":"a62vxf9fk848","ADDRESS":"7410 EAST DELAWARE LANE","N_MCODE":"S02","N_PREDIR":"","SOURCE":"TIGER 2006","QUALITY":"03","TRACT00D":"0430.001","X_COORDS":"-122.59301","AV_CITY":"VANCOUVER"},"type":"Feature","geometry":{"type":"Point","coordinates":[-122.59300758014,45.6243558611245]}},{"properties":{"NAME":"WAHLUKE FAMILY MED/DDS CLINIC","CITY":"MATTAWA","CERTAINTY":"1","ZCTA":"99349","AV_CO":"025","ZIP":"99349","N_LCODE":"AS1","N_HOUSENUM":"601","GEOLEVEL":"CENSUSTRACT","AV_SCORE":55,"RUCA":10.0,"N_STREET":"GOVERNMENT","AV_ALPHA":"13","TRACT00":"981400","BLOCK00":"4127","N_ADDRESS":"601 GOVERNMENT WAY","N_UNIT":"","N_ZIP4":"","N_STATE":"WA","TRACT90":"981400","BLOCK90":"09A","Y_COORDS":"46.73817","N_ZIP":"99349","AV_ZIP":"99349","BG00":"4","STATE":"WA","N_CITY":"MATTAWA","N_POSTDIR":"","AV_DATE":"Thu Mar 27 07:43:17 2008","BG90":"4","ACCURACY":"Approximate","TRACT90D":"9814.004","ZIP4":"","N_STRSUF":"WAY","id":"a62vxez8wg39","ADDRESS":"601 GOVERNMENT WAY","N_MCODE":"E024","N_PREDIR":"","SOURCE":"NAVTECH","QUALITY":"03","TRACT00D":"9814.004","X_COORDS":"-119.89924","AV_CITY":"MATTAWA"},"type":"Feature","geometry":{"type":"Point","coordinates":[-119.899242889545,46.7381665504975]}},{"properties":{"NAME":"YAKIMA NEIGHBORHOOD HEALTH SERVICES","CITY":"YAKIMA","CERTAINTY":"1","ZCTA":"98901","AV_CO":"077","ZIP":"98901","N_LCODE":"AS1","N_HOUSENUM":"12","GEOLEVEL":"CENSUSTRACT","AV_SCORE":100,"RUCA":1.0,"N_STREET":"8TH","AV_ALPHA":"39","TRACT00":"000100","BLOCK00":"1017","N_ADDRESS":"12 S 8TH ST","N_UNIT":"","N_ZIP4":"3020","N_STATE":"WA","TRACT90":"000100","BLOCK90":"20","Y_COORDS":"46.60439","N_ZIP":"98901","AV_ZIP":"98901","BG00":"1","STATE":"WA","N_CITY":"YAKIMA","N_POSTDIR":"","AV_DATE":"Thu Mar 27 07:43:17 2008","BG90":"1","ACCURACY":"Close","TRACT90D":"0001.001","ZIP4":"","N_STRSUF":"ST","id":"a62vxf0rvp1v","ADDRESS":"12 SOUTH EIGHT STREET","N_MCODE":"S89","N_PREDIR":"S","SOURCE":"TIGER 2006","QUALITY":"03","TRACT00D":"0001.001","X_COORDS":"-120.49567","AV_CITY":"YAKIMA"},"type":"Feature","geometry":{"type":"Point","coordinates":[-120.495670439817,46.6043900622474]}},{"properties":{"NAME":"YVFWC - TOPPENISH","CITY":"TOPPENISH","CERTAINTY":"1","ZCTA":"98948","AV_CO":"077","ZIP":"98948","N_LCODE":"AS1","N_HOUSENUM":"518","GEOLEVEL":"CENSUSTRACT","AV_SCORE":100,"RUCA":4.2,"N_STREET":"1ST","AV_ALPHA":"39","TRACT00":"002300","BLOCK00":"3040","N_ADDRESS":"518 W 1ST AVE","N_UNIT":"","N_ZIP4":"1564","N_STATE":"WA","TRACT90":"002300","BLOCK90":"41","Y_COORDS":"46.37478","N_ZIP":"98948","AV_ZIP":"98948","BG00":"3","STATE":"WA","N_CITY":"TOPPENISH","N_POSTDIR":"","AV_DATE":"Thu Mar 27 07:43:17 2008","BG90":"3","ACCURACY":"Close","TRACT90D":"0023.003","ZIP4":"1564","N_STRSUF":"AVE","id":"a62vxf3mj83t","ADDRESS":"518 WEST 1ST AVENUE","N_MCODE":"S00","N_PREDIR":"W","SOURCE":"TIGER 2006","QUALITY":"03","TRACT00D":"0023.003","X_COORDS":"-120.31581","AV_CITY":"TOPPENISH"},"type":"Feature","geometry":{"type":"Point","coordinates":[-120.315814303069,46.374775173661]}},{"properties":{"NAME":"YVFWC YAKIMA CLINIC","CITY":"YAKIMA","CERTAINTY":"1","ZCTA":"98901","AV_CO":"077","ZIP":"98901","N_LCODE":"AS1","N_HOUSENUM":"602","GEOLEVEL":"CENSUSTRACT","AV_SCORE":100,"RUCA":1.0,"N_STREET":"NOB HILL","AV_ALPHA":"39","TRACT00":"001500","BLOCK00":"4022","N_ADDRESS":"602 E NOB HILL BLVD","N_UNIT":"","N_ZIP4":"3534","N_STATE":"WA","TRACT90":"001500","BLOCK90":"14A","Y_COORDS":"46.58496","N_ZIP":"98901","AV_ZIP":"98901","BG00":"4","STATE":"WA","N_CITY":"YAKIMA","N_POSTDIR":"","AV_DATE":"Thu Mar 27 07:43:17 2008","BG90":"4","ACCURACY":"Close","TRACT90D":"0015.004","ZIP4":"3534","N_STRSUF":"BLVD","id":"a62vxfdr13yq","ADDRESS":"602 EAST NOB HILL BLVD","N_MCODE":"S00","N_PREDIR":"E","SOURCE":"TIGER 2006","QUALITY":"03","TRACT00D":"0015.004","X_COORDS":"-120.49439","AV_CITY":"YAKIMA"},"type":"Feature","geometry":{"type":"Point","coordinates":[-120.494388752484,46.5849622110188]}}],"is_temporal":false,"author":{"url":"http://ww4.doh.wa.gov/gis/gisdata.htm","metadata":"http://ww4.doh.wa.gov/gis/metadata/hscp.htm","contact_name":"","contact_address":"","source":"Washington State health Department","contact_phone":""},"source":"http://ww4.doh.wa.gov/gis/gisdata.htm","pagination":{"sort":null,"start":0,"total":50,"limit":1000000},"state":"complete","tags":"health,healthcare,medicine,washington","published":"2008-03-27T12:00:00Z","id":3231}