{"type":"FeatureCollection","data_type":"Dataset","url_type":null,"permissions":[{"permissions":{"download":true,"view":true},"group_id":"everyone"}],"classification":null,"title":"citystateref","count":97,"stream_id":323587,"contributor":{"url":"http://geocommons.com/users/61676","name":"daniel.m.levin@jpmorgan.com"},"data_attributes":null,"calculation_params":null,"icon_link":null,"link":"http://geocommons.com/overlays/323587.json","extent":[-122.186,25.7743,-70.2624,47.4323],"geometry_types":["point"],"unique_name":null,"name":"citystateref","feature_count":97,"description":"","next_feature":null,"is_raster":false,"short_classification":"Y","stats":{"deal revenue":{"max":21512.79,"variance":5560742.78509132,"mean":556.364226804124,"stdev":2358.1227247731,"min":2.5,"median":40.31},"deal ct":{"max":451,"variance":2461.95317869416,"mean":14.4123711340206,"stdev":49.6180731054135,"min":1,"median":2}},"features":[{"properties":{"city":"Birmingham","geo_score":0.714,"deal revenue":5.04,"id":"acd7symhe1wu","deal ct":2,"geo_precision":"city","state":"AL"},"type":"Feature","geometry":{"type":"Point","coordinates":[-86.801904,33.456412]}},{"properties":{"city":"Costa Mesa","geo_score":0.714,"deal revenue":179.82,"id":"acd7syf7qguj","deal ct":8,"geo_precision":"city","state":"CA"},"type":"Feature","geometry":{"type":"Point","coordinates":[-115.967051,34.839964]}},{"properties":{"city":"East Palo Alto","geo_score":0.714,"deal revenue":500.49,"id":"acd7syowv9iv","deal ct":5,"geo_precision":"city","state":"CA"},"type":"Feature","geometry":{"type":"Point","coordinates":[-122.141075,37.468827]}},{"properties":{"city":"Irvine","geo_score":0.714,"deal revenue":99.3,"id":"acd7syqjldom","deal ct":13,"geo_precision":"city","state":"CA"},"type":"Feature","geometry":{"type":"Point","coordinates":[-117.72222,33.718018]}},{"properties":{"city":"Los Angeles","geo_score":0.714,"deal revenue":945.12,"id":"acd7syl9q2l1","deal ct":32,"geo_precision":"city","state":"CA"},"type":"Feature","geometry":{"type":"Point","coordinates":[-120.618608,38.052816]}},{"properties":{"city":"Menlo Park","geo_score":0.714,"deal revenue":1276.14,"id":"acd7syv3t9nk","deal ct":3,"geo_precision":"city","state":"CA"},"type":"Feature","geometry":{"type":"Point","coordinates":[-122.186373,37.439616]}},{"properties":{"city":"Mountain View","geo_score":0.714,"deal revenue":53.89,"id":"acd7sys787f4","deal ct":2,"geo_precision":"city","state":"CA"},"type":"Feature","geometry":{"type":"Point","coordinates":[-121.705327,37.189396]}},{"properties":{"city":"Newport Beach","geo_score":0.714,"deal revenue":15.25,"id":"acd7syq7mj5n","deal ct":1,"geo_precision":"city","state":"CA"},"type":"Feature","geometry":{"type":"Point","coordinates":[-117.928947,33.61891]}},{"properties":{"city":"Palo Alto","geo_score":0.714,"deal revenue":258.57,"id":"acd7syuq8ts6","deal ct":17,"geo_precision":"city","state":"CA"},"type":"Feature","geometry":{"type":"Point","coordinates":[-116.846046,33.016928]}},{"properties":{"city":"Redwood Shores","geo_score":0.714,"deal revenue":155.72,"id":"acd7sylsif24","deal ct":2,"geo_precision":"city","state":"CA"},"type":"Feature","geometry":{"type":"Point","coordinates":[-115.967051,34.839964]}},{"properties":{"city":"Sacramento","geo_score":0.714,"deal revenue":4.4,"id":"acd7syso5c8t","deal ct":1,"geo_precision":"city","state":"CA"},"type":"Feature","geometry":{"type":"Point","coordinates":[-121.555406,38.380456]}},{"properties":{"city":"San Diego","geo_score":0.714,"deal revenue":51.9,"id":"acd7sypzk9kg","deal ct":5,"geo_precision":"city","state":"CA"},"type":"Feature","geometry":{"type":"Point","coordinates":[-117.174366,32.7211]}},{"properties":{"city":"San Francisco","geo_score":0.714,"deal revenue":1714.58,"id":"acd7syks9ix1","deal ct":44,"geo_precision":"city","state":"CA"},"type":"Feature","geometry":{"type":"Point","coordinates":[-118.298662,33.786594]}},{"properties":{"city":"San Jose","geo_score":0.714,"deal revenue":5.0,"id":"acd7syga0xm5","deal ct":1,"geo_precision":"city","state":"CA"},"type":"Feature","geometry":{"type":"Point","coordinates":[-121.705327,37.189396]}},{"properties":{"city":"Santa Monica","geo_score":0.714,"deal revenue":2.56,"id":"acd7syf2wmlf","deal ct":1,"geo_precision":"city","state":"CA"},"type":"Feature","geometry":{"type":"Point","coordinates":[-116.994511,32.843956]}},{"properties":{"city":"Sherman Oaks","geo_score":0.714,"deal revenue":15.51,"id":"acd7syv402ac","deal ct":1,"geo_precision":"city","state":"CA"},"type":"Feature","geometry":{"type":"Point","coordinates":[-120.594892,35.118865]}},{"properties":{"city":"Denver","geo_score":0.714,"deal revenue":170.92,"id":"acd7sypf4rlh","deal ct":9,"geo_precision":"city","state":"CO"},"type":"Feature","geometry":{"type":"Point","coordinates":[-104.856808,39.726303]}},{"properties":{"city":"Englewood","geo_score":0.714,"deal revenue":30.0,"id":"acd7sytkftdf","deal ct":1,"geo_precision":"city","state":"CO"},"type":"Feature","geometry":{"type":"Point","coordinates":[-104.973852,39.648958]}},{"properties":{"city":"Bridgeport","geo_score":0.714,"deal revenue":3.33,"id":"acd7syg2w0ed","deal ct":1,"geo_precision":"city","state":"CT"},"type":"Feature","geometry":{"type":"Point","coordinates":[-73.363661,41.308873]}},{"properties":{"city":"Hartford","geo_score":0.714,"deal revenue":18.5,"id":"acd7sypc30k4","deal ct":1,"geo_precision":"city","state":"CT"},"type":"Feature","geometry":{"type":"Point","coordinates":[-72.677099,41.78007]}},{"properties":{"city":"New Canaan","geo_score":0.714,"deal revenue":4.02,"id":"acd7sylfztg2","deal ct":1,"geo_precision":"city","state":"CT"},"type":"Feature","geometry":{"type":"Point","coordinates":[-73.501267,41.162209]}},{"properties":{"city":"Stamford","geo_score":0.714,"deal revenue":169.1,"id":"acd7syiqf3kh","deal ct":15,"geo_precision":"city","state":"CT"},"type":"Feature","geometry":{"type":"Point","coordinates":[-73.536216,41.054082]}},{"properties":{"city":"Westport","geo_score":0.714,"deal revenue":9.17,"id":"acd7sytwxmje","deal ct":1,"geo_precision":"city","state":"CT"},"type":"Feature","geometry":{"type":"Point","coordinates":[-73.343261,41.144496]}},{"properties":{"city":"Washington","geo_score":0.714,"deal revenue":2091.69,"id":"acd7syg5x7yh","deal ct":56,"geo_precision":"city","state":"DC"},"type":"Feature","geometry":{"type":"Point","coordinates":[-77.036366,38.895112]}},{"properties":{"city":"DOVER","geo_score":0.714,"deal revenue":3.9,"id":"acd7syoqb9tf","deal ct":1,"geo_precision":"city","state":"DE"},"type":"Feature","geometry":{"type":"Point","coordinates":[-75.49549,39.156376]}},{"properties":{"city":"Fort Lauderdale","geo_score":0.714,"deal revenue":107.29,"id":"acd7syr231k2","deal ct":12,"geo_precision":"city","state":"FL"},"type":"Feature","geometry":{"type":"Point","coordinates":[-80.208381,26.166474]}},{"properties":{"city":"Miami","geo_score":0.714,"deal revenue":409.09,"id":"acd7syqhcb6s","deal ct":17,"geo_precision":"city","state":"FL"},"type":"Feature","geometry":{"type":"Point","coordinates":[-80.193659,25.774266]}},{"properties":{"city":"Saint Petersburg","geo_score":0.714,"deal revenue":6.75,"id":"acd7sytzixn8","deal ct":2,"geo_precision":"city","state":"FL"},"type":"Feature","geometry":{"type":"Point","coordinates":[-82.115644,27.273659]}},{"properties":{"city":"Tampa","geo_score":0.714,"deal revenue":147.3,"id":"acd7syrahyas","deal ct":4,"geo_precision":"city","state":"FL"},"type":"Feature","geometry":{"type":"Point","coordinates":[-82.582035,27.996097]}},{"properties":{"city":"Atlanta","geo_score":0.714,"deal revenue":768.67,"id":"acd7syrexn58","deal ct":36,"geo_precision":"city","state":"GA"},"type":"Feature","geometry":{"type":"Point","coordinates":[-84.47405,33.844371]}},{"properties":{"city":"Chicago","geo_score":0.714,"deal revenue":4552.01,"id":"acd7syiywni5","deal ct":156,"geo_precision":"city","state":"IL"},"type":"Feature","geometry":{"type":"Point","coordinates":[-87.68732,41.811929]}},{"properties":{"city":"River Forest","geo_score":0.714,"deal revenue":3.75,"id":"acd7sys2v9p8","deal ct":1,"geo_precision":"city","state":"IL"},"type":"Feature","geometry":{"type":"Point","coordinates":[-87.68732,41.811929]}},{"properties":{"city":"Schiller Park","geo_score":0.714,"deal revenue":3.49,"id":"acd7syhn9542","deal ct":1,"geo_precision":"city","state":"IL"},"type":"Feature","geometry":{"type":"Point","coordinates":[-89.052317,37.899054]}},{"properties":{"city":"Indianapolis","geo_score":0.714,"deal revenue":260.59,"id":"acd7syhk8i8n","deal ct":21,"geo_precision":"city","state":"IN"},"type":"Feature","geometry":{"type":"Point","coordinates":[-86.13216,39.775092]}},{"properties":{"city":"Louisville","geo_score":0.714,"deal revenue":11.17,"id":"acd7syqlxw3i","deal ct":2,"geo_precision":"city","state":"KY"},"type":"Feature","geometry":{"type":"Point","coordinates":[-85.676819,38.188962]}},{"properties":{"city":"New Orleans","geo_score":0.714,"deal revenue":6.59,"id":"acd7syfe727m","deal ct":2,"geo_precision":"city","state":"LA"},"type":"Feature","geometry":{"type":"Point","coordinates":[-89.930956,30.068812]}},{"properties":{"city":"Boston","geo_score":0.714,"deal revenue":2078.63,"id":"acd7sygjtbmw","deal ct":68,"geo_precision":"city","state":"MA"},"type":"Feature","geometry":{"type":"Point","coordinates":[-71.026964,42.370567]}},{"properties":{"city":"Waltham","geo_score":0.714,"deal revenue":7.68,"id":"acd7syip02z4","deal ct":2,"geo_precision":"city","state":"MA"},"type":"Feature","geometry":{"type":"Point","coordinates":[-71.2398,42.388938]}},{"properties":{"city":"Baltimore","geo_score":0.714,"deal revenue":41.51,"id":"acd7sys4io5k","deal ct":5,"geo_precision":"city","state":"MD"},"type":"Feature","geometry":{"type":"Point","coordinates":[-75.844658,39.058168]}},{"properties":{"city":"Chevy Chase","geo_score":0.714,"deal revenue":44.53,"id":"acd7syhnbrkf","deal ct":2,"geo_precision":"city","state":"MD"},"type":"Feature","geometry":{"type":"Point","coordinates":[-77.076367,38.971222]}},{"properties":{"city":"Portland","geo_score":0.714,"deal revenue":36.45,"id":"acd7symf6voe","deal ct":2,"geo_precision":"city","state":"ME"},"type":"Feature","geometry":{"type":"Point","coordinates":[-70.262393,43.658784]}},{"properties":{"city":"Ann Arbor","geo_score":0.714,"deal revenue":30.63,"id":"acd7syr69kf8","deal ct":2,"geo_precision":"city","state":"MI"},"type":"Feature","geometry":{"type":"Point","coordinates":[-86.176715,42.96502]}},{"properties":{"city":"Bloomfield Hills","geo_score":0.714,"deal revenue":28.7,"id":"acd7sylh5kwm","deal ct":2,"geo_precision":"city","state":"MI"},"type":"Feature","geometry":{"type":"Point","coordinates":[-83.273418,42.575599]}},{"properties":{"city":"Detroit","geo_score":0.714,"deal revenue":142.96,"id":"acd7sykli04u","deal ct":10,"geo_precision":"city","state":"MI"},"type":"Feature","geometry":{"type":"Point","coordinates":[-83.150823,42.239933]}},{"properties":{"city":"Grand Rapids","geo_score":0.714,"deal revenue":183.38,"id":"acd7syfypbdb","deal ct":5,"geo_precision":"city","state":"MI"},"type":"Feature","geometry":{"type":"Point","coordinates":[-85.306756,46.158336]}},{"properties":{"city":"Lansing","geo_score":0.714,"deal revenue":60.04,"id":"acd7syj8x17v","deal ct":4,"geo_precision":"city","state":"MI"},"type":"Feature","geometry":{"type":"Point","coordinates":[-84.555535,42.732535]}},{"properties":{"city":"Southfield","geo_score":0.714,"deal revenue":26.0,"id":"acd7sypiwx8r","deal ct":2,"geo_precision":"city","state":"MI"},"type":"Feature","geometry":{"type":"Point","coordinates":[-83.279164,42.478495]}},{"properties":{"city":"Troy","geo_score":0.714,"deal revenue":7.5,"id":"acd7sygl7jx6","deal ct":1,"geo_precision":"city","state":"MI"},"type":"Feature","geometry":{"type":"Point","coordinates":[-82.89105,43.675016]}},{"properties":{"city":"Kansas City","geo_score":0.714,"deal revenue":128.67,"id":"acd7sys67rri","deal ct":3,"geo_precision":"city","state":"MO"},"type":"Feature","geometry":{"type":"Point","coordinates":[-94.598583,39.102404]}},{"properties":{"city":"Saint Louis","geo_score":0.714,"deal revenue":83.9,"id":"acd7syptxkgb","deal ct":8,"geo_precision":"city","state":"MO"},"type":"Feature","geometry":{"type":"Point","coordinates":[-92.254481,38.251613]}},{"properties":{"city":"Charlotte","geo_score":0.714,"deal revenue":151.96,"id":"acd7sypyhst6","deal ct":10,"geo_precision":"city","state":"NC"},"type":"Feature","geometry":{"type":"Point","coordinates":[-80.804151,35.26002]}},{"properties":{"city":"Raleigh","geo_score":0.714,"deal revenue":17.43,"id":"acd7syonu8t1","deal ct":2,"geo_precision":"city","state":"NC"},"type":"Feature","geometry":{"type":"Point","coordinates":[-82.293464,36.034279]}},{"properties":{"city":"Florham Park","geo_score":0.714,"deal revenue":133.09,"id":"acd7syha094e","deal ct":3,"geo_precision":"city","state":"NJ"},"type":"Feature","geometry":{"type":"Point","coordinates":[-74.397996,40.7735]}},{"properties":{"city":"Ridgewood","geo_score":0.714,"deal revenue":2.5,"id":"acd7syion9ou","deal ct":1,"geo_precision":"city","state":"NJ"},"type":"Feature","geometry":{"type":"Point","coordinates":[-74.11207,40.982247]}},{"properties":{"city":"Roseland","geo_score":0.714,"deal revenue":10.75,"id":"acd7syrl4nvj","deal ct":2,"geo_precision":"city","state":"NJ"},"type":"Feature","geometry":{"type":"Point","coordinates":[-74.306093,40.820499]}},{"properties":{"city":"Short Hills","geo_score":0.714,"deal revenue":24.35,"id":"acd7sympk18e","deal ct":2,"geo_precision":"city","state":"NJ"},"type":"Feature","geometry":{"type":"Point","coordinates":[-74.334443,40.74055]}},{"properties":{"city":"Albany","geo_score":0.714,"deal revenue":33.81,"id":"acd7sygvd4gq","deal ct":1,"geo_precision":"city","state":"NY"},"type":"Feature","geometry":{"type":"Point","coordinates":[-73.970812,42.614852]}},{"properties":{"city":"Buffalo","geo_score":0.714,"deal revenue":3.5,"id":"acd7syp1z5ei","deal ct":1,"geo_precision":"city","state":"NY"},"type":"Feature","geometry":{"type":"Point","coordinates":[-78.832706,42.929303]}},{"properties":{"city":"Jericho","geo_score":0.714,"deal revenue":3.65,"id":"acd7syuwu2gu","deal ct":1,"geo_precision":"city","state":"NY"},"type":"Feature","geometry":{"type":"Point","coordinates":[-73.601772,40.754757]}},{"properties":{"city":"Mineola","geo_score":0.714,"deal revenue":9.5,"id":"acd7syhf141m","deal ct":1,"geo_precision":"city","state":"NY"},"type":"Feature","geometry":{"type":"Point","coordinates":[-79.440048,42.175057]}},{"properties":{"city":"Mount Kisco","geo_score":0.714,"deal revenue":2.66,"id":"acd7sypykph0","deal ct":1,"geo_precision":"city","state":"NY"},"type":"Feature","geometry":{"type":"Point","coordinates":[-73.72286,41.197329]}},{"properties":{"city":"New York","geo_score":0.714,"deal revenue":21512.79,"id":"acd7syskfbp5","deal ct":451,"geo_precision":"city","state":"NY"},"type":"Feature","geometry":{"type":"Point","coordinates":[-74.005973,40.714269]}},{"properties":{"city":"Rochester","geo_score":0.714,"deal revenue":80.5,"id":"acd7sylo8u3q","deal ct":3,"geo_precision":"city","state":"NY"},"type":"Feature","geometry":{"type":"Point","coordinates":[-77.684264,43.286024]}},{"properties":{"city":"Rye","geo_score":0.714,"deal revenue":28.9,"id":"acd7syffaxbg","deal ct":1,"geo_precision":"city","state":"NY"},"type":"Feature","geometry":{"type":"Point","coordinates":[-73.744725,40.955237]}},{"properties":{"city":"Syosset","geo_score":0.714,"deal revenue":10.9,"id":"acd7sykssj6b","deal ct":1,"geo_precision":"city","state":"NY"},"type":"Feature","geometry":{"type":"Point","coordinates":[-73.601772,40.754757]}},{"properties":{"city":"Uniondale","geo_score":0.714,"deal revenue":37.19,"id":"acd7sykulc4d","deal ct":3,"geo_precision":"city","state":"NY"},"type":"Feature","geometry":{"type":"Point","coordinates":[-73.591421,40.705868]}},{"properties":{"city":"White Plains","geo_score":0.714,"deal revenue":6.25,"id":"acd7sygp7jjf","deal ct":2,"geo_precision":"city","state":"NY"},"type":"Feature","geometry":{"type":"Point","coordinates":[-73.769626,41.031397]}},{"properties":{"city":"Cincinnati","geo_score":0.714,"deal revenue":259.69,"id":"acd7syruig8l","deal ct":10,"geo_precision":"city","state":"OH"},"type":"Feature","geometry":{"type":"Point","coordinates":[-84.53822,39.166759]}},{"properties":{"city":"Cleveland","geo_score":0.714,"deal revenue":412.93,"id":"acd7syki862r","deal ct":15,"geo_precision":"city","state":"OH"},"type":"Feature","geometry":{"type":"Point","coordinates":[-81.599648,41.523401]}},{"properties":{"city":"Columbus","geo_score":0.714,"deal revenue":40.31,"id":"acd7syl1kkk4","deal ct":3,"geo_precision":"city","state":"OH"},"type":"Feature","geometry":{"type":"Point","coordinates":[-84.15053,40.97793]}},{"properties":{"city":"Dayton","geo_score":0.714,"deal revenue":65.47,"id":"acd7syh195gy","deal ct":4,"geo_precision":"city","state":"OH"},"type":"Feature","geometry":{"type":"Point","coordinates":[-84.268593,39.750471]}},{"properties":{"city":"Mason","geo_score":0.714,"deal revenue":49.5,"id":"acd7syeoahbm","deal ct":2,"geo_precision":"city","state":"OH"},"type":"Feature","geometry":{"type":"Point","coordinates":[-84.180906,39.397999]}},{"properties":{"city":"Tulsa","geo_score":0.714,"deal revenue":15.73,"id":"acd7syndb5ye","deal ct":2,"geo_precision":"city","state":"OK"},"type":"Feature","geometry":{"type":"Point","coordinates":[-95.868667,36.039147]}},{"properties":{"city":"Malvern","geo_score":0.714,"deal revenue":12.67,"id":"acd7syug9rvc","deal ct":2,"geo_precision":"city","state":"PA"},"type":"Feature","geometry":{"type":"Point","coordinates":[-75.713599,40.02951]}},{"properties":{"city":"Philadelphia","geo_score":0.714,"deal revenue":780.71,"id":"acd7syv1xz1n","deal ct":19,"geo_precision":"city","state":"PA"},"type":"Feature","geometry":{"type":"Point","coordinates":[-75.11787,40.001811]}},{"properties":{"city":"Pittsburgh","geo_score":0.714,"deal revenue":226.13,"id":"acd7syrp1w71","deal ct":11,"geo_precision":"city","state":"PA"},"type":"Feature","geometry":{"type":"Point","coordinates":[-80.024817,40.434436]}},{"properties":{"city":"West Conshohocken","geo_score":0.714,"deal revenue":1052.21,"id":"acd7syhaunpk","deal ct":8,"geo_precision":"city","state":"PA"},"type":"Feature","geometry":{"type":"Point","coordinates":[-75.316295,40.069832]}},{"properties":{"city":"Providence","geo_score":0.714,"deal revenue":35.0,"id":"acd7syg220ps","deal ct":1,"geo_precision":"city","state":"RI"},"type":"Feature","geometry":{"type":"Point","coordinates":[-71.414451,41.82275]}},{"properties":{"city":"Columbia","geo_score":0.714,"deal revenue":36.75,"id":"acd7sygda1ol","deal ct":2,"geo_precision":"city","state":"SC"},"type":"Feature","geometry":{"type":"Point","coordinates":[-81.024864,33.987454]}},{"properties":{"city":"Nashville","geo_score":0.714,"deal revenue":182.25,"id":"acd7sysyoj2t","deal ct":13,"geo_precision":"city","state":"TN"},"type":"Feature","geometry":{"type":"Point","coordinates":[-86.778098,36.165688]}},{"properties":{"city":"Austin","geo_score":0.714,"deal revenue":543.35,"id":"acd7syrac6lc","deal ct":20,"geo_precision":"city","state":"TX"},"type":"Feature","geometry":{"type":"Point","coordinates":[-97.771258,30.326374]}},{"properties":{"city":"Dallas","geo_score":0.714,"deal revenue":2203.53,"id":"acd7syemetdf","deal ct":69,"geo_precision":"city","state":"TX"},"type":"Feature","geometry":{"type":"Point","coordinates":[-96.240533,32.370699]}},{"properties":{"city":"Fort Worth","geo_score":0.714,"deal revenue":225.39,"id":"acd7syh2p43t","deal ct":5,"geo_precision":"city","state":"TX"},"type":"Feature","geometry":{"type":"Point","coordinates":[-98.399458,29.049969]}},{"properties":{"city":"Houston","geo_score":0.714,"deal revenue":7532.91,"id":"acd7sykljxre","deal ct":89,"geo_precision":"city","state":"TX"},"type":"Feature","geometry":{"type":"Point","coordinates":[-96.919704,29.845783]}},{"properties":{"city":"Southlake","geo_score":0.714,"deal revenue":15.97,"id":"acd7sysmpwbx","deal ct":4,"geo_precision":"city","state":"TX"},"type":"Feature","geometry":{"type":"Point","coordinates":[-97.152368,32.948474]}},{"properties":{"city":"The Woodlands","geo_score":0.714,"deal revenue":2.5,"id":"acd7sykyudpy","deal ct":1,"geo_precision":"city","state":"TX"},"type":"Feature","geometry":{"type":"Point","coordinates":[-95.489385,30.157994]}},{"properties":{"city":"Arlington","geo_score":0.714,"deal revenue":14.5,"id":"acd7syrrqekm","deal ct":1,"geo_precision":"city","state":"VA"},"type":"Feature","geometry":{"type":"Point","coordinates":[-77.099113,38.885484]}},{"properties":{"city":"Charlottesville","geo_score":0.714,"deal revenue":5.05,"id":"acd7synyz2oo","deal ct":1,"geo_precision":"city","state":"VA"},"type":"Feature","geometry":{"type":"Point","coordinates":[-78.476678,38.029306]}},{"properties":{"city":"McLean","geo_score":0.714,"deal revenue":201.16,"id":"acd7syewtjoh","deal ct":7,"geo_precision":"city","state":"VA"},"type":"Feature","geometry":{"type":"Point","coordinates":[-77.18672,38.935202]}},{"properties":{"city":"Richmond","geo_score":0.714,"deal revenue":62.02,"id":"acd7syey8mpa","deal ct":2,"geo_precision":"city","state":"VA"},"type":"Feature","geometry":{"type":"Point","coordinates":[-76.83774,37.914858]}},{"properties":{"city":"Tysons Corner","geo_score":0.714,"deal revenue":45.26,"id":"acd7syilj5g5","deal ct":3,"geo_precision":"city","state":"VA"},"type":"Feature","geometry":{"type":"Point","coordinates":[-77.249426,38.921778]}},{"properties":{"city":"Virginia Beach","geo_score":0.714,"deal revenue":49.0,"id":"acd7syqwbpz2","deal ct":1,"geo_precision":"city","state":"VA"},"type":"Feature","geometry":{"type":"Point","coordinates":[-76.12036,36.844004]}},{"properties":{"city":"Weybridge","geo_score":0.714,"deal revenue":10.51,"id":"acd7sys0tig8","deal ct":2,"geo_precision":"city","state":"VT"},"type":"Feature","geometry":{"type":"Point","coordinates":[-73.215675,44.066446]}},{"properties":{"city":"Seattle","geo_score":0.714,"deal revenue":14.04,"id":"acd7syf97ojk","deal ct":3,"geo_precision":"city","state":"WA"},"type":"Feature","geometry":{"type":"Point","coordinates":[-121.803388,47.432251]}},{"properties":{"city":"Madison","geo_score":0.714,"deal revenue":8.1,"id":"acd7symbihmq","deal ct":2,"geo_precision":"city","state":"WI"},"type":"Feature","geometry":{"type":"Point","coordinates":[-89.423861,43.06956]}},{"properties":{"city":"Milwaukee","geo_score":0.714,"deal revenue":826.23,"id":"acd7syhystin","deal ct":15,"geo_precision":"city","state":"WI"},"type":"Feature","geometry":{"type":"Point","coordinates":[-87.958409,43.011264]}},{"properties":{"city":"Charleston","geo_score":0.714,"deal revenue":7.53,"id":"acd7syfjy1f2","deal ct":1,"geo_precision":"city","state":"WV"},"type":"Feature","geometry":{"type":"Point","coordinates":[-77.860278,39.313538]}}],"is_temporal":false,"author":{"url":"","metadata":"","contact_name":"","contact_address":"","source":"","contact_phone":""},"source":"","pagination":{"sort":null,"start":0,"total":97,"limit":1000000},"state":"complete","tags":"","published":"2014-08-16T17:14:33-04:00","id":323587}