{"type":"FeatureCollection","data_type":"Dataset","url_type":null,"permissions":[{"permissions":{"download":true,"view":true},"group_id":"everyone"}],"classification":null,"title":"citystateref2","count":56,"stream_id":323725,"contributor":{"url":"http://geocommons.com/users/61676","name":"daniel.m.levin@jpmorgan.com"},"data_attributes":null,"calculation_params":null,"icon_link":null,"link":"http://geocommons.com/overlays/323725.json","extent":[-121.803,25.7743,-70.2624,47.4323],"geometry_types":["point"],"unique_name":null,"name":"citystateref2","feature_count":56,"description":"","next_feature":null,"is_raster":false,"short_classification":"Y","stats":{"deal revenue":{"max":21782.53,"variance":9774292.13500091,"mean":965.1125,"stdev":3126.38643404825,"min":3.33,"median":83.9},"deal ct":{"max":469,"variance":4492.51915584416,"mean":25.0892857142857,"stdev":67.0262572119625,"min":1,"median":5}},"features":[{"properties":{"city":"Birmingham","column_5":null,"geo_score":0.714,"deal revenue":5.04,"id":"acdh7u14wvqx","deal ct":2,"geo_precision":"city","state":"AL"},"type":"Feature","geometry":{"type":"Point","coordinates":[-86.801904,33.456412]}},{"properties":{"city":"Glendale","column_5":null,"geo_score":0.714,"deal revenue":49.22,"id":"acdh7u0zem8f","deal ct":4,"geo_precision":"city","state":"AZ"},"type":"Feature","geometry":{"type":"Point","coordinates":[-112.18717,33.276539]}},{"properties":{"city":"Los Angeles","column_5":null,"geo_score":0.714,"deal revenue":1255.0,"id":"acdh7to8i1lt","deal ct":55,"geo_precision":"city","state":"CA"},"type":"Feature","geometry":{"type":"Point","coordinates":[-120.618608,38.052816]}},{"properties":{"city":"San Diego","column_5":null,"geo_score":0.714,"deal revenue":54.46,"id":"acdh7tzp2eat","deal ct":6,"geo_precision":"city","state":"CA"},"type":"Feature","geometry":{"type":"Point","coordinates":[-117.174366,32.7211]}},{"properties":{"city":"San Francisco","column_5":null,"geo_score":0.714,"deal revenue":3968.79,"id":"acdh7tluyxn9","deal ct":75,"geo_precision":"city","state":"CA"},"type":"Feature","geometry":{"type":"Point","coordinates":[-118.298662,33.786594]}},{"properties":{"city":"Denver","column_5":null,"geo_score":0.714,"deal revenue":200.92,"id":"acdh7tym7wls","deal ct":10,"geo_precision":"city","state":"CO"},"type":"Feature","geometry":{"type":"Point","coordinates":[-104.856808,39.726303]}},{"properties":{"city":"Hartford","column_5":null,"geo_score":0.714,"deal revenue":18.5,"id":"acdh7tud5iwp","deal ct":1,"geo_precision":"city","state":"CT"},"type":"Feature","geometry":{"type":"Point","coordinates":[-72.677099,41.78007]}},{"properties":{"city":"Bridgeport","column_5":null,"geo_score":0.714,"deal revenue":3.33,"id":"acdh7tqh8gih","deal ct":1,"geo_precision":"city","state":"CT"},"type":"Feature","geometry":{"type":"Point","coordinates":[-73.363661,41.308873]}},{"properties":{"city":"Stamford","column_5":null,"geo_score":0.714,"deal revenue":182.29,"id":"acdh7tomqhry","deal ct":17,"geo_precision":"city","state":"CT"},"type":"Feature","geometry":{"type":"Point","coordinates":[-73.536216,41.054082]}},{"properties":{"city":"Washington","column_5":null,"geo_score":0.714,"deal revenue":2195.98,"id":"acdh7tp0rfuj","deal ct":62,"geo_precision":"city","state":"DC"},"type":"Feature","geometry":{"type":"Point","coordinates":[-77.036366,38.895112]}},{"properties":{"city":"Dover","column_5":null,"geo_score":0.714,"deal revenue":3.9,"id":"acdh7tut28tc","deal ct":1,"geo_precision":"city","state":"DE"},"type":"Feature","geometry":{"type":"Point","coordinates":[-75.49549,39.156376]}},{"properties":{"city":"Miami","column_5":null,"geo_score":0.714,"deal revenue":516.38,"id":"acdh7tqtc68p","deal ct":29,"geo_precision":"city","state":"FL"},"type":"Feature","geometry":{"type":"Point","coordinates":[-80.193659,25.774266]}},{"properties":{"city":"Saint Petersburg","column_5":null,"geo_score":0.714,"deal revenue":6.75,"id":"acdh7tpp8swo","deal ct":2,"geo_precision":"city","state":"FL"},"type":"Feature","geometry":{"type":"Point","coordinates":[-82.115644,27.273659]}},{"properties":{"city":"Tampa","column_5":null,"geo_score":0.714,"deal revenue":147.3,"id":"acdh7tqbfxhg","deal ct":4,"geo_precision":"city","state":"FL"},"type":"Feature","geometry":{"type":"Point","coordinates":[-82.582035,27.996097]}},{"properties":{"city":"Atlanta","column_5":null,"geo_score":0.714,"deal revenue":768.67,"id":"acdh7u0xkaov","deal ct":36,"geo_precision":"city","state":"GA"},"type":"Feature","geometry":{"type":"Point","coordinates":[-84.47405,33.844371]}},{"properties":{"city":"Chicago","column_5":null,"geo_score":0.714,"deal revenue":4582.5,"id":"acdh7tsi5tld","deal ct":160,"geo_precision":"city","state":"IL"},"type":"Feature","geometry":{"type":"Point","coordinates":[-87.68732,41.811929]}},{"properties":{"city":"Indianapolis","column_5":null,"geo_score":0.714,"deal revenue":260.59,"id":"acdh7tut35e6","deal ct":21,"geo_precision":"city","state":"IN"},"type":"Feature","geometry":{"type":"Point","coordinates":[-86.13216,39.775092]}},{"properties":{"city":"Winchester","column_5":null,"geo_score":0.714,"deal revenue":6.5,"id":"acdh7tw25c37","deal ct":1,"geo_precision":"city","state":"KY"},"type":"Feature","geometry":{"type":"Point","coordinates":[-84.160724,37.964922]}},{"properties":{"city":"Louisville","column_5":null,"geo_score":0.714,"deal revenue":11.17,"id":"acdh7txkqw3i","deal ct":2,"geo_precision":"city","state":"KY"},"type":"Feature","geometry":{"type":"Point","coordinates":[-85.676819,38.188962]}},{"properties":{"city":"New Orleans","column_5":null,"geo_score":0.714,"deal revenue":6.59,"id":"acdh7to04ccz","deal ct":2,"geo_precision":"city","state":"LA"},"type":"Feature","geometry":{"type":"Point","coordinates":[-89.930956,30.068812]}},{"properties":{"city":"Boston","column_5":null,"geo_score":0.714,"deal revenue":2086.31,"id":"acdh7tu1mh97","deal ct":70,"geo_precision":"city","state":"MA"},"type":"Feature","geometry":{"type":"Point","coordinates":[-71.026964,42.370567]}},{"properties":{"city":"Baltimore","column_5":null,"geo_score":0.714,"deal revenue":41.51,"id":"acdh7tmswxia","deal ct":5,"geo_precision":"city","state":"MD"},"type":"Feature","geometry":{"type":"Point","coordinates":[-75.844658,39.058168]}},{"properties":{"city":"Portland","column_5":null,"geo_score":0.714,"deal revenue":36.45,"id":"acdh7tvrwqhl","deal ct":2,"geo_precision":"city","state":"ME"},"type":"Feature","geometry":{"type":"Point","coordinates":[-70.262393,43.658784]}},{"properties":{"city":"Detroit","column_5":null,"geo_score":0.714,"deal revenue":235.79,"id":"acdh7tsqq3r2","deal ct":17,"geo_precision":"city","state":"MI"},"type":"Feature","geometry":{"type":"Point","coordinates":[-83.150823,42.239933]}},{"properties":{"city":"Grand Rapids","column_5":null,"geo_score":0.714,"deal revenue":183.38,"id":"acdh7tr63y4h","deal ct":5,"geo_precision":"city","state":"MI"},"type":"Feature","geometry":{"type":"Point","coordinates":[-85.306756,46.158336]}},{"properties":{"city":"Lansing","column_5":null,"geo_score":0.714,"deal revenue":60.04,"id":"acdh7tz5qubm","deal ct":4,"geo_precision":"city","state":"MI"},"type":"Feature","geometry":{"type":"Point","coordinates":[-84.555535,42.732535]}},{"properties":{"city":"Kansas City","column_5":null,"geo_score":0.714,"deal revenue":128.67,"id":"acdh7tv2lix7","deal ct":3,"geo_precision":"city","state":"MO"},"type":"Feature","geometry":{"type":"Point","coordinates":[-94.598583,39.102404]}},{"properties":{"city":"Saint Louis","column_5":null,"geo_score":0.714,"deal revenue":83.9,"id":"acdh7tqch7nz","deal ct":8,"geo_precision":"city","state":"MO"},"type":"Feature","geometry":{"type":"Point","coordinates":[-92.254481,38.251613]}},{"properties":{"city":"Charlotte","column_5":null,"geo_score":0.714,"deal revenue":151.96,"id":"acdh7trss7u2","deal ct":10,"geo_precision":"city","state":"NC"},"type":"Feature","geometry":{"type":"Point","coordinates":[-80.804151,35.26002]}},{"properties":{"city":"Raleigh","column_5":null,"geo_score":0.714,"deal revenue":17.43,"id":"acdh7ts6j6tk","deal ct":2,"geo_precision":"city","state":"NC"},"type":"Feature","geometry":{"type":"Point","coordinates":[-82.293464,36.034279]}},{"properties":{"city":"Albany","column_5":null,"geo_score":0.714,"deal revenue":33.81,"id":"acdh7tq1hr3c","deal ct":1,"geo_precision":"city","state":"NY"},"type":"Feature","geometry":{"type":"Point","coordinates":[-73.970812,42.614852]}},{"properties":{"city":"Buffalo","column_5":null,"geo_score":0.714,"deal revenue":3.5,"id":"acdh7tq9m7ka","deal ct":1,"geo_precision":"city","state":"NY"},"type":"Feature","geometry":{"type":"Point","coordinates":[-78.832706,42.929303]}},{"properties":{"city":"Rochester","column_5":null,"geo_score":0.714,"deal revenue":80.5,"id":"acdh7tt5effa","deal ct":3,"geo_precision":"city","state":"NY"},"type":"Feature","geometry":{"type":"Point","coordinates":[-77.684264,43.286024]}},{"properties":{"city":"New York","column_5":null,"geo_score":0.714,"deal revenue":21782.53,"id":"acdh7tz4iuly","deal ct":469,"geo_precision":"city","state":"NY"},"type":"Feature","geometry":{"type":"Point","coordinates":[-74.005973,40.714269]}},{"properties":{"city":"Cleveland","column_5":null,"geo_score":0.714,"deal revenue":412.93,"id":"acdh7u0a9ode","deal ct":15,"geo_precision":"city","state":"OH"},"type":"Feature","geometry":{"type":"Point","coordinates":[-81.599648,41.523401]}},{"properties":{"city":"Columbus","column_5":null,"geo_score":0.714,"deal revenue":40.31,"id":"acdh7triyu9n","deal ct":3,"geo_precision":"city","state":"OH"},"type":"Feature","geometry":{"type":"Point","coordinates":[-84.15053,40.97793]}},{"properties":{"city":"Cincinnati","column_5":null,"geo_score":0.714,"deal revenue":374.66,"id":"acdh7tzuu7j3","deal ct":16,"geo_precision":"city","state":"OH"},"type":"Feature","geometry":{"type":"Point","coordinates":[-84.53822,39.166759]}},{"properties":{"city":"Tulsa","column_5":null,"geo_score":0.714,"deal revenue":15.73,"id":"acdh7tzw8qhj","deal ct":2,"geo_precision":"city","state":"OK"},"type":"Feature","geometry":{"type":"Point","coordinates":[-95.868667,36.039147]}},{"properties":{"city":"Philadelphia","column_5":null,"geo_score":0.714,"deal revenue":1845.59,"id":"acdh7txdm68p","deal ct":29,"geo_precision":"city","state":"PA"},"type":"Feature","geometry":{"type":"Point","coordinates":[-75.11787,40.001811]}},{"properties":{"city":"Pittsburgh","column_5":null,"geo_score":0.714,"deal revenue":226.13,"id":"acdh7tr69jb4","deal ct":11,"geo_precision":"city","state":"PA"},"type":"Feature","geometry":{"type":"Point","coordinates":[-80.024817,40.434436]}},{"properties":{"city":"Providence","column_5":null,"geo_score":0.714,"deal revenue":35.0,"id":"acdh7u1itii2","deal ct":1,"geo_precision":"city","state":"RI"},"type":"Feature","geometry":{"type":"Point","coordinates":[-71.414451,41.82275]}},{"properties":{"city":"Columbia","column_5":null,"geo_score":0.714,"deal revenue":36.75,"id":"acdh7tyah2gw","deal ct":2,"geo_precision":"city","state":"SC"},"type":"Feature","geometry":{"type":"Point","coordinates":[-81.024864,33.987454]}},{"properties":{"city":"Nashville","column_5":null,"geo_score":0.714,"deal revenue":182.25,"id":"acdh7truufoo","deal ct":13,"geo_precision":"city","state":"TN"},"type":"Feature","geometry":{"type":"Point","coordinates":[-86.778098,36.165688]}},{"properties":{"city":"Austin","column_5":null,"geo_score":0.714,"deal revenue":543.35,"id":"acdh7u04igmf","deal ct":20,"geo_precision":"city","state":"TX"},"type":"Feature","geometry":{"type":"Point","coordinates":[-97.771258,30.326374]}},{"properties":{"city":"Dallas","column_5":null,"geo_score":0.714,"deal revenue":2219.5,"id":"acdh7tub2gnf","deal ct":73,"geo_precision":"city","state":"TX"},"type":"Feature","geometry":{"type":"Point","coordinates":[-96.240533,32.370699]}},{"properties":{"city":"Fort Worth","column_5":null,"geo_score":0.714,"deal revenue":225.39,"id":"acdh7trg87td","deal ct":5,"geo_precision":"city","state":"TX"},"type":"Feature","geometry":{"type":"Point","coordinates":[-98.399458,29.049969]}},{"properties":{"city":"Houston","column_5":null,"geo_score":0.714,"deal revenue":7535.41,"id":"acdh7tq54igp","deal ct":90,"geo_precision":"city","state":"TX"},"type":"Feature","geometry":{"type":"Point","coordinates":[-96.919704,29.845783]}},{"properties":{"city":"Charlottesville","column_5":null,"geo_score":0.714,"deal revenue":5.05,"id":"acdh7togvdju","deal ct":1,"geo_precision":"city","state":"VA"},"type":"Feature","geometry":{"type":"Point","coordinates":[-78.476678,38.029306]}},{"properties":{"city":"McLean","column_5":null,"geo_score":0.714,"deal revenue":201.16,"id":"acdh7tx7y9i9","deal ct":7,"geo_precision":"city","state":"VA"},"type":"Feature","geometry":{"type":"Point","coordinates":[-77.18672,38.935202]}},{"properties":{"city":"Richmond","column_5":null,"geo_score":0.714,"deal revenue":62.02,"id":"acdh7tnj20zg","deal ct":2,"geo_precision":"city","state":"VA"},"type":"Feature","geometry":{"type":"Point","coordinates":[-76.83774,37.914858]}},{"properties":{"city":"Virginia Beach","column_5":null,"geo_score":0.714,"deal revenue":49.0,"id":"acdh7tty71mw","deal ct":1,"geo_precision":"city","state":"VA"},"type":"Feature","geometry":{"type":"Point","coordinates":[-76.12036,36.844004]}},{"properties":{"city":"Weybridge","column_5":null,"geo_score":0.714,"deal revenue":10.51,"id":"acdh7tutti12","deal ct":2,"geo_precision":"city","state":"VT"},"type":"Feature","geometry":{"type":"Point","coordinates":[-73.215675,44.066446]}},{"properties":{"city":"Seattle","column_5":null,"geo_score":0.714,"deal revenue":14.04,"id":"acdh7txd4ub1","deal ct":3,"geo_precision":"city","state":"WA"},"type":"Feature","geometry":{"type":"Point","coordinates":[-121.803388,47.432251]}},{"properties":{"city":"Madison","column_5":null,"geo_score":0.714,"deal revenue":8.1,"id":"acdh7tp0cfcg","deal ct":2,"geo_precision":"city","state":"WI"},"type":"Feature","geometry":{"type":"Point","coordinates":[-89.423861,43.06956]}},{"properties":{"city":"Milwaukee","column_5":null,"geo_score":0.714,"deal revenue":826.23,"id":"acdh7tt8tzi0","deal ct":15,"geo_precision":"city","state":"WI"},"type":"Feature","geometry":{"type":"Point","coordinates":[-87.958409,43.011264]}},{"properties":{"city":"Charleston","column_5":null,"geo_score":0.714,"deal revenue":7.53,"id":"acdh7to5yc54","deal ct":1,"geo_precision":"city","state":"WV"},"type":"Feature","geometry":{"type":"Point","coordinates":[-77.860278,39.313538]}}],"is_temporal":false,"author":{"url":"","metadata":"","contact_name":"","contact_address":"","source":"","contact_phone":""},"source":"","pagination":{"sort":null,"start":0,"total":56,"limit":1000000},"state":"complete","tags":"","published":"2014-08-16T17:24:42-04:00","id":323725}