{"type":"FeatureCollection","data_type":"Dataset","url_type":null,"permissions":[{"permissions":{"download":true,"view":true},"group_id":"everyone"}],"classification":null,"title":"HAR0460 022113","count":62,"stream_id":323920,"contributor":{"url":"http://geocommons.com/users/62475","name":"newsandsentinel"},"data_attributes":null,"calculation_params":null,"icon_link":null,"link":"http://geocommons.com/overlays/323920.json","extent":[-81.6748,38.9324,-80.0256,39.6908],"geometry_types":["point"],"unique_name":null,"name":"HAR0460 022113","feature_count":62,"description":"","next_feature":null,"is_raster":false,"short_classification":"Y","stats":{},"features":[{"properties":{"city":"Smithville","zipcode":"26178","geo_score":0.585,"id":"acdo4486knmf","address":"973 Fongo Rd","geo_precision":"zip","state":"WV"},"type":"Feature","geometry":{"type":"Point","coordinates":[-81.139835,39.08397]}},{"properties":{"city":"Smithville","zipcode":"26178","geo_score":0.585,"id":"acdo44et5ads","address":"711 Hazelgreen Rd","geo_precision":"zip","state":"WV"},"type":"Feature","geometry":{"type":"Point","coordinates":[-81.139835,39.08397]}},{"properties":{"city":"Smithville","zipcode":"26178","geo_score":0.585,"id":"acdo44d4d2wq","address":"851 Hazelgreen Rd","geo_precision":"zip","state":"WV"},"type":"Feature","geometry":{"type":"Point","coordinates":[-81.139835,39.08397]}},{"properties":{"city":"Smithville","zipcode":"26178","geo_score":0.585,"id":"acdo44659iz7","address":"983 Hazelgreen Rd","geo_precision":"zip","state":"WV"},"type":"Feature","geometry":{"type":"Point","coordinates":[-81.139835,39.08397]}},{"properties":{"city":"Smithville","zipcode":"26178","geo_score":0.585,"id":"acdo44a0jm5q","address":"990 Hazelgreen Rd","geo_precision":"zip","state":"WV"},"type":"Feature","geometry":{"type":"Point","coordinates":[-81.139835,39.08397]}},{"properties":{"city":"Smithville","zipcode":"26178","geo_score":0.585,"id":"acdo445h48b5","address":"841 Hazlegreen Rd","geo_precision":"zip","state":"WV"},"type":"Feature","geometry":{"type":"Point","coordinates":[-81.139835,39.08397]}},{"properties":{"city":"Smithville","zipcode":"26178","geo_score":0.434,"id":"acdo44d7njqz","address":"288 Owl Run Ln","geo_precision":"street","state":"WV"},"type":"Feature","geometry":{"type":"Point","coordinates":[-80.852767,39.690841]}},{"properties":{"city":"Smithville","zipcode":"26178","geo_score":0.476,"id":"acdo44d8o9kj","address":"PO Box 67","geo_precision":"street","state":"WV"},"type":"Feature","geometry":{"type":"Point","coordinates":[-81.674782,39.052585]}},{"properties":{"city":"Smithville","zipcode":"26178","geo_score":0.522,"id":"acdo44gqd5z3","address":"57 St Rt 16","geo_precision":"street","state":"WV"},"type":"Feature","geometry":{"type":"Point","coordinates":[-81.438946,39.324738]}},{"properties":{"city":"Auburn","zipcode":"26325","geo_score":0.585,"id":"acdo443ohl0q","address":"305 Alum Fork Rd","geo_precision":"zip","state":"WV"},"type":"Feature","geometry":{"type":"Point","coordinates":[-81.068913,39.198501]}},{"properties":{"city":"Auburn","zipcode":"26325","geo_score":0.585,"id":"acdo4473w8tv","address":"11403 Auburn Rd","geo_precision":"zip","state":"WV"},"type":"Feature","geometry":{"type":"Point","coordinates":[-81.068913,39.198501]}},{"properties":{"city":"Auburn","zipcode":"26325","geo_score":0.857,"id":"acdo448xwqfa","address":"PO Box 43","geo_precision":"zip","state":"WV"},"type":"Feature","geometry":{"type":"Point","coordinates":[-81.068913,39.198501]}},{"properties":{"city":"Auburn","zipcode":"26325","geo_score":0.299,"id":"acdo44bqu99z","address":"RR 1 Box 42","geo_precision":"street","state":"WV"},"type":"Feature","geometry":{"type":"Point","coordinates":[-80.285849,39.231989]}},{"properties":{"city":"Auburn","zipcode":"26325","geo_score":0.454,"id":"acdo449bly20","address":"2895 Spruce Creek Rd","geo_precision":"street","state":"WV"},"type":"Feature","geometry":{"type":"Point","coordinates":[-80.025646,39.335515]}},{"properties":{"city":"Auburn","zipcode":"26325","geo_score":0.437,"id":"acdo448g7fze","address":"Star Rt 74 Box 51","geo_precision":"street","state":"WV"},"type":"Feature","geometry":{"type":"Point","coordinates":[-81.043058,39.202487]}},{"properties":{"city":"Auburn","zipcode":"26325","geo_score":0.575,"id":"acdo44doy68z","address":"504 Wright Holw Rd","geo_precision":"range","state":"WV"},"type":"Feature","geometry":{"type":"Point","coordinates":[-80.260432,39.293552]}},{"properties":{"city":"Berea","zipcode":"26327","geo_score":0.585,"id":"acdo4458jq4w","address":"5127 Auburn Rd","geo_precision":"zip","state":"WV"},"type":"Feature","geometry":{"type":"Point","coordinates":[-81.068913,39.198501]}},{"properties":{"city":"Berea","zipcode":"26327","geo_score":0.585,"id":"acdo44926x03","address":"5628 Auburn Rd","geo_precision":"zip","state":"WV"},"type":"Feature","geometry":{"type":"Point","coordinates":[-81.068913,39.198501]}},{"properties":{"city":"Berea","zipcode":"26327","geo_score":0.585,"id":"acdo448q2mww","address":"1336 Otter Slide Rd","geo_precision":"zip","state":"WV"},"type":"Feature","geometry":{"type":"Point","coordinates":[-81.068913,39.198501]}},{"properties":{"city":"Berea","zipcode":"26327","geo_score":0.585,"id":"acdo44enlvwc","address":"11061 Prunty Rd","geo_precision":"zip","state":"WV"},"type":"Feature","geometry":{"type":"Point","coordinates":[-81.068913,39.198501]}},{"properties":{"city":"Cairo","zipcode":"26337","geo_score":0.378,"id":"acdo442u48as","address":"RR 1 Box C 129","geo_precision":"street","state":"WV"},"type":"Feature","geometry":{"type":"Point","coordinates":[-80.365348,39.294855]}},{"properties":{"city":"Harrisville","zipcode":"26362","geo_score":0.574,"id":"acdo4416oxbg","address":"200 Chevaux De Frise Rd","geo_precision":"range","state":"WV"},"type":"Feature","geometry":{"type":"Point","coordinates":[-80.261354,39.286166]}},{"properties":{"city":"Harrisville","zipcode":"26362","geo_score":0.574,"id":"acdo44csno4r","address":"610 Chevaux De Frise Rd","geo_precision":"range","state":"WV"},"type":"Feature","geometry":{"type":"Point","coordinates":[-80.261658,39.287155]}},{"properties":{"city":"Harrisville","zipcode":"26362","geo_score":0.585,"id":"acdo44g6oa6t","address":"5502 Chevauxdefrise Rd","geo_precision":"zip","state":"WV"},"type":"Feature","geometry":{"type":"Point","coordinates":[-80.978442,39.176471]}},{"properties":{"city":"Harrisville","zipcode":"26362","geo_score":0.522,"id":"acdo445xrg3v","address":"1001 Fowler Rd","geo_precision":"street","state":"WV"},"type":"Feature","geometry":{"type":"Point","coordinates":[-80.318263,39.269705]}},{"properties":{"city":"Harrisville","zipcode":"26362","geo_score":0.522,"id":"acdo449jcxwr","address":"1228 Fowler Rd","geo_precision":"street","state":"WV"},"type":"Feature","geometry":{"type":"Point","coordinates":[-80.318263,39.269705]}},{"properties":{"city":"Harrisville","zipcode":"26362","geo_score":0.585,"id":"acdo4421efnl","address":"314 Goffs Rd","geo_precision":"zip","state":"WV"},"type":"Feature","geometry":{"type":"Point","coordinates":[-80.978442,39.176471]}},{"properties":{"city":"Harrisville","zipcode":"26362","geo_score":0.585,"id":"acdo44cjjyvo","address":"2494 Goffs Rd","geo_precision":"zip","state":"WV"},"type":"Feature","geometry":{"type":"Point","coordinates":[-80.978442,39.176471]}},{"properties":{"city":"Harrisville","zipcode":"26362","geo_score":0.44,"id":"acdo44anigko","address":"13 Grant Lipscomb Rd","geo_precision":"street","state":"WV"},"type":"Feature","geometry":{"type":"Point","coordinates":[-80.33401,39.281659]}},{"properties":{"city":"Harrisville","zipcode":"26362","geo_score":0.585,"id":"acdo449z36c8","address":"216 Hazelgreen Rd","geo_precision":"zip","state":"WV"},"type":"Feature","geometry":{"type":"Point","coordinates":[-80.978442,39.176471]}},{"properties":{"city":"Harrisville","zipcode":"26362","geo_score":0.585,"id":"acdo44bros1o","address":"250 Hazelgreen Rd","geo_precision":"zip","state":"WV"},"type":"Feature","geometry":{"type":"Point","coordinates":[-80.978442,39.176471]}},{"properties":{"city":"Harrisville","zipcode":"26362","geo_score":0.585,"id":"acdo44derj1v","address":"416 Hazelgreen Rd","geo_precision":"zip","state":"WV"},"type":"Feature","geometry":{"type":"Point","coordinates":[-80.978442,39.176471]}},{"properties":{"city":"Harrisville","zipcode":"26362","geo_score":0.585,"id":"acdo4470uriu","address":"1661 Hazelgreen Rd","geo_precision":"zip","state":"WV"},"type":"Feature","geometry":{"type":"Point","coordinates":[-80.978442,39.176471]}},{"properties":{"city":"Harrisville","zipcode":"26362","geo_score":0.598,"id":"acdo44c1zaqd","address":"HC 80 Box 2","geo_precision":"street","state":"WV"},"type":"Feature","geometry":{"type":"Point","coordinates":[-81.060186,39.210059]}},{"properties":{"city":"Harrisville","zipcode":"26362","geo_score":0.715,"id":"acdo44ghuswo","address":"HC 80 Box 5","geo_precision":"street","state":"WV"},"type":"Feature","geometry":{"type":"Point","coordinates":[-81.051298,39.209585]}},{"properties":{"city":"Harrisville","zipcode":"26362","geo_score":0.857,"id":"acdo44gpxxdr","address":"HC 80 Box 10","geo_precision":"zip","state":"WV"},"type":"Feature","geometry":{"type":"Point","coordinates":[-80.978442,39.176471]}},{"properties":{"city":"Harrisville","zipcode":"26362","geo_score":0.857,"id":"acdo4466t7b6","address":"HC 80 Box 54","geo_precision":"zip","state":"WV"},"type":"Feature","geometry":{"type":"Point","coordinates":[-80.978442,39.176471]}},{"properties":{"city":"Harrisville","zipcode":"26362","geo_score":0.418,"id":"acdo444435hd","address":"HC 80 Box 33A","geo_precision":"street","state":"WV"},"type":"Feature","geometry":{"type":"Point","coordinates":[-80.841099,38.932383]}},{"properties":{"city":"Harrisville","zipcode":"26362","geo_score":0.702,"id":"acdo442opxwv","address":"HC 80 Box 5C","geo_precision":"street","state":"WV"},"type":"Feature","geometry":{"type":"Point","coordinates":[-81.051298,39.209585]}},{"properties":{"city":"Harrisville","zipcode":"26362","geo_score":0.442,"id":"acdo44e3q9x9","address":"HC 80 Bx 40","geo_precision":"street","state":"WV"},"type":"Feature","geometry":{"type":"Point","coordinates":[-80.025703,39.339024]}},{"properties":{"city":"Harrisville","zipcode":"26362","geo_score":0.715,"id":"acdo446pkovi","address":"HC 80 Bx 56","geo_precision":"street","state":"WV"},"type":"Feature","geometry":{"type":"Point","coordinates":[-81.052298,39.21165]}},{"properties":{"city":"Harrisville","zipcode":"26362","geo_score":0.683,"id":"acdo447gzyhu","address":"400 Indian Creek","geo_precision":"range","state":"WV"},"type":"Feature","geometry":{"type":"Point","coordinates":[-80.318811,39.261959]}},{"properties":{"city":"Harrisville","zipcode":"26362","geo_score":0.376,"id":"acdo44agawts","address":"823 Moyers Run","geo_precision":"street","state":"WV"},"type":"Feature","geometry":{"type":"Point","coordinates":[-80.365917,39.296033]}},{"properties":{"city":"Harrisville","zipcode":"26362","geo_score":0.857,"id":"acdo44gxel2k","address":"PO Box 156","geo_precision":"zip","state":"WV"},"type":"Feature","geometry":{"type":"Point","coordinates":[-80.978442,39.176471]}},{"properties":{"city":"Harrisville","zipcode":"26362","geo_score":0.857,"id":"acdo443c89q9","address":"PO Box 217","geo_precision":"zip","state":"WV"},"type":"Feature","geometry":{"type":"Point","coordinates":[-80.978442,39.176471]}},{"properties":{"city":"Harrisville","zipcode":"26362","geo_score":0.585,"id":"acdo44dz2t1y","address":"2002 Prunty Rd","geo_precision":"zip","state":"WV"},"type":"Feature","geometry":{"type":"Point","coordinates":[-80.978442,39.176471]}},{"properties":{"city":"Harrisville","zipcode":"26362","geo_score":0.585,"id":"acdo44662f76","address":"2204 Prunty Rd","geo_precision":"zip","state":"WV"},"type":"Feature","geometry":{"type":"Point","coordinates":[-80.978442,39.176471]}},{"properties":{"city":"Harrisville","zipcode":"26362","geo_score":0.637,"id":"acdo448i5kmn","address":"RR 2 Box 38","geo_precision":"street","state":"WV"},"type":"Feature","geometry":{"type":"Point","coordinates":[-81.060186,39.210059]}},{"properties":{"city":"Harrisville","zipcode":"26362","geo_score":0.631,"id":"acdo44a7etq6","address":"RR 2 Box 87E","geo_precision":"street","state":"WV"},"type":"Feature","geometry":{"type":"Point","coordinates":[-81.060186,39.210059]}},{"properties":{"city":"Harrisville","zipcode":"26362","geo_score":0.585,"id":"acdo44f3m0gy","address":"192 Ruger Dr","geo_precision":"zip","state":"WV"},"type":"Feature","geometry":{"type":"Point","coordinates":[-80.978442,39.176471]}},{"properties":{"city":"Harrisville","zipcode":"26362","geo_score":0.42,"id":"acdo445y22ui","address":"2172 Smithville Rd","geo_precision":"street","state":"WV"},"type":"Feature","geometry":{"type":"Point","coordinates":[-80.289163,39.257242]}},{"properties":{"city":"Harrisville","zipcode":"26362","geo_score":0.542,"id":"acdo449ztull","address":"5285 Smithville Rd","geo_precision":"street","state":"WV"},"type":"Feature","geometry":{"type":"Point","coordinates":[-80.289163,39.257242]}},{"properties":{"city":"Harrisville","zipcode":"26362","geo_score":0.542,"id":"acdo44cfl8km","address":"7585 Smithville Rd","geo_precision":"street","state":"WV"},"type":"Feature","geometry":{"type":"Point","coordinates":[-80.289163,39.257242]}},{"properties":{"city":"Harrisville","zipcode":"26362","geo_score":0.542,"id":"acdo447b1dqt","address":"10137 Smithville Rd","geo_precision":"street","state":"WV"},"type":"Feature","geometry":{"type":"Point","coordinates":[-80.289163,39.257242]}},{"properties":{"city":"Harrisville","zipcode":"26362","geo_score":0.711,"id":"acdo44ec3ldw","address":"Star Rt 80 Box 19","geo_precision":"street","state":"WV"},"type":"Feature","geometry":{"type":"Point","coordinates":[-81.043058,39.202487]}},{"properties":{"city":"Harrisville","zipcode":"26362","geo_score":0.702,"id":"acdo44963iut","address":"Star Rt 80 Box 24a","geo_precision":"street","state":"WV"},"type":"Feature","geometry":{"type":"Point","coordinates":[-81.043058,39.202487]}},{"properties":{"city":"Harrisville","zipcode":"26362","geo_score":0.829,"id":"acdo443wehsb","address":"1295 S Spring St","geo_precision":"street","state":"WV"},"type":"Feature","geometry":{"type":"Point","coordinates":[-81.045313,39.200759]}},{"properties":{"city":"Pullman","zipcode":"26421","geo_score":0.585,"id":"acdo44az1i0e","address":"36 Auburn Rd","geo_precision":"zip","state":"WV"},"type":"Feature","geometry":{"type":"Point","coordinates":[-81.068913,39.198501]}},{"properties":{"city":"Pullman","zipcode":"26421","geo_score":0.585,"id":"acdo447yh8cd","address":"1776 Auburn Rd","geo_precision":"zip","state":"WV"},"type":"Feature","geometry":{"type":"Point","coordinates":[-81.068913,39.198501]}},{"properties":{"city":"Pullman","zipcode":"26421","geo_score":0.585,"id":"acdo44craj3i","address":"2354 Auburn Rd","geo_precision":"zip","state":"WV"},"type":"Feature","geometry":{"type":"Point","coordinates":[-81.068913,39.198501]}},{"properties":{"city":"Pullman","zipcode":"26421","geo_score":0.414,"id":"acdo44dm0lls","address":"RR 1 Box 3","geo_precision":"street","state":"WV"},"type":"Feature","geometry":{"type":"Point","coordinates":[-80.304532,39.39664]}},{"properties":{"city":"Pullman","zipcode":"26421","geo_score":0.585,"id":"acdo4479kqk2","address":"3449 Auburn Road","geo_precision":"zip","state":"WV"},"type":"Feature","geometry":{"type":"Point","coordinates":[-81.068913,39.198501]}}],"is_temporal":false,"author":{"url":"","metadata":"","contact_name":"","contact_address":"","source":"","contact_phone":""},"source":"","pagination":{"sort":null,"start":0,"total":62,"limit":1000000},"state":"complete","tags":"","published":"2014-08-16T17:45:04-04:00","id":323920}