{"type":"FeatureCollection","data_type":"Dataset","url_type":null,"permissions":[{"permissions":{"download":true,"view":true},"group_id":"everyone"}],"classification":null,"title":"Client_CSV","count":19,"stream_id":325241,"contributor":{"url":"http://geocommons.com/users/62925","name":"jseamans"},"data_attributes":null,"calculation_params":null,"icon_link":null,"link":"http://geocommons.com/overlays/325241.json","extent":[-97.6158,32.7176,-95.9758,36.0607],"geometry_types":["point"],"unique_name":null,"name":"Client_CSV","feature_count":19,"description":"","next_feature":null,"is_raster":false,"short_classification":"Y","stats":{},"features":[{"properties":{"city":"Dallas","name":"Bravo Technical Resources","zipcode":"75244","geo_score":0.909,"id":"achsoc24of3y","address":"4835 Lyndon B Johnson Fwy Ste 1000","geo_precision":"range","state":"TX"},"type":"Feature","geometry":{"type":"Point","coordinates":[-96.827808,32.92651]}},{"properties":{"city":"Irving","name":"MMC Group Inc.","zipcode":"75062","geo_score":0.434,"id":"achsoc8rml7g","address":"105 Decker Ct.","geo_precision":"street","state":"TX"},"type":"Feature","geometry":{"type":"Point","coordinates":[-96.788466,33.044579]}},{"properties":{"city":"Irving","name":"Arthur Marshall Inc.","zipcode":"75039","geo_score":0.902,"id":"achsoc7swibb","address":"600 Las Colinas Blvd E Ste 1750","geo_precision":"range","state":"TX"},"type":"Feature","geometry":{"type":"Point","coordinates":[-96.932469,32.860679]}},{"properties":{"city":"Dallas","name":"Ntelicor Incorporated","zipcode":"75202","geo_score":0.877,"id":"achsocecrrll","address":"302 N Market St Ste 250","geo_precision":"range","state":"TX"},"type":"Feature","geometry":{"type":"Point","coordinates":[-96.806623,32.781415]}},{"properties":{"city":"Dallas","name":"VIP Search Group","zipcode":"75254","geo_score":1.0,"id":"achsoc3e3obb","address":"14900 Landmark Blvd","geo_precision":"range","state":"TX"},"type":"Feature","geometry":{"type":"Point","coordinates":[-96.828015,32.948453]}},{"properties":{"city":"Irving","name":"Adea Solutions (Valtech)","zipcode":"75062","geo_score":0.916,"id":"achsocasx7g9","address":"545 E John Carpenter Fwy Ste 800","geo_precision":"range","state":"TX"},"type":"Feature","geometry":{"type":"Point","coordinates":[-96.932942,32.858727]}},{"properties":{"city":"Tulsa","name":"Premier Staffing OK","zipcode":"74136","geo_score":0.916,"id":"achsoc4wrrth","address":"7131 Riverside Pkwy","geo_precision":"range","state":"OK"},"type":"Feature","geometry":{"type":"Point","coordinates":[-95.975817,36.06068]}},{"properties":{"city":"Frisco","name":"Timberhorn","zipcode":"75034","geo_score":0.805,"id":"achsocb5xfu7","address":"3000 Internet Blvd.","geo_precision":"street","state":"TX"},"type":"Feature","geometry":{"type":"Point","coordinates":[-96.829445,33.106678]}},{"properties":{"city":"Richardson","name":"Info Vision","zipcode":"75081","geo_score":0.604,"id":"achsocgarv8d","address":"800 E. Campbell Road Suite 388","geo_precision":"street","state":"TX"},"type":"Feature","geometry":{"type":"Point","coordinates":[-96.715424,32.975353]}},{"properties":{"city":"Dallas","name":"Delta Dallas Staffing","zipcode":"75240","geo_score":0.674,"id":"achsoc7wohez","address":"14001 Dallas Pkwy Ste 1200","geo_precision":"street","state":"TX"},"type":"Feature","geometry":{"type":"Point","coordinates":[-96.820951,32.929398]}},{"properties":{"city":"Dallas","name":"Dallas Employment Services, Inc.","zipcode":"75201","geo_score":0.625,"id":"achsoc2uawwq","address":"750 N Saint Paul St. Ste 1180","geo_precision":"street","state":"TX"},"type":"Feature","geometry":{"type":"Point","coordinates":[-96.798473,32.792511]}},{"properties":{"city":"Norman","name":"Xyant Technology, Inc.","zipcode":"73069","geo_score":0.474,"id":"achsoc4fr7p8","address":"1218 West Rock Creek Road","geo_precision":"street","state":"OK"},"type":"Feature","geometry":{"type":"Point","coordinates":[-97.615839,34.833706]}},{"properties":{"city":"Dallas","name":"Rightstaff Incorporated","zipcode":"75205","geo_score":0.39,"id":"achsoc39rvl8","address":"4919 Mckinney Ave","geo_precision":"street","state":"TX"},"type":"Feature","geometry":{"type":"Point","coordinates":[-96.892826,32.788178]}},{"properties":{"city":"Frisco","name":"WorldLink, Inc.","zipcode":"75034","geo_score":0.805,"id":"achsoc7rquqc","address":"3880 Parkwood Blvd","geo_precision":"street","state":"TX"},"type":"Feature","geometry":{"type":"Point","coordinates":[-96.816177,33.123691]}},{"properties":{"city":"Dallas","name":"Unity Search Incorporated","zipcode":"75240","geo_score":0.585,"id":"achsocc18f1u","address":"5420 LBJ Freeway","geo_precision":"zip","state":"TX"},"type":"Feature","geometry":{"type":"Point","coordinates":[-96.789191,32.910185]}},{"properties":{"city":"Fort Worth","name":"JSfirm, LLC","zipcode":"76116","geo_score":0.688,"id":"achsocemv8lw","address":"8205 Camp Bowie West Blvd Ste 214","geo_precision":"street","state":"TX"},"type":"Feature","geometry":{"type":"Point","coordinates":[-97.441295,32.71761]}},{"properties":{"city":"Dallas","name":"Maxsys Solutions LLC","zipcode":"75248","geo_score":0.854,"id":"achsoc4ysoa8","address":"15400 Knoll Trail Dr Ste 225","geo_precision":"range","state":"TX"},"type":"Feature","geometry":{"type":"Point","coordinates":[-96.818856,32.962942]}},{"properties":{"city":"Carrollton","name":"IT Services 2","zipcode":"75006","geo_score":0.789,"id":"achsoc755r27","address":"2340 E Trinity Mills Rd","geo_precision":"street","state":"TX"},"type":"Feature","geometry":{"type":"Point","coordinates":[-96.928444,32.982011]}},{"properties":{"city":"Dallas","name":"QuestPro Consultants","zipcode":"75252","geo_score":0.87,"id":"achsoc3v8da3","address":"17300 Preston Rd Ste 120","geo_precision":"range","state":"TX"},"type":"Feature","geometry":{"type":"Point","coordinates":[-96.802566,32.98827]}}],"is_temporal":false,"author":{"url":"","metadata":null,"contact_name":null,"contact_address":null,"source":null,"contact_phone":null},"source":"","pagination":{"sort":null,"start":0,"total":19,"limit":1000000},"state":"complete","tags":"","published":"2014-08-16T19:19:53-04:00","id":325241}