{"type":"FeatureCollection","data_type":"Dataset","url_type":null,"permissions":[{"permissions":{"download":true,"view":true},"group_id":"everyone"}],"classification":null,"title":"Elgin_Elantra_by_Zip","count":38,"stream_id":325340,"contributor":{"url":"http://geocommons.com/users/62916","name":"alexkim"},"data_attributes":null,"calculation_params":null,"icon_link":null,"link":"http://geocommons.com/overlays/325340.json","extent":[-88.9329,41.8074,-87.6873,42.235],"geometry_types":["point"],"unique_name":null,"name":"Elgin_Elantra_by_Zip","feature_count":38,"description":"","next_feature":null,"is_raster":false,"short_classification":"Y","stats":{"# sold":{"max":13,"variance":6.27596017069701,"mean":2.31578947368421,"stdev":2.50518665386374,"min":1,"median":1}},"features":[{"properties":{"zip":"60005","geo_score":0.714,"id":"achz9udd0yw5","geo_precision":"zip","# sold":1},"type":"Feature","geometry":{"type":"Point","coordinates":[-87.883073,42.060928]}},{"properties":{"zip":"60007","geo_score":0.714,"id":"achz9uoa0dtu","geo_precision":"zip","# sold":1},"type":"Feature","geometry":{"type":"Point","coordinates":[-87.905866,42.020278]}},{"properties":{"zip":"60013","geo_score":0.714,"id":"achz9ufhaxbk","geo_precision":"zip","# sold":1},"type":"Feature","geometry":{"type":"Point","coordinates":[-88.244806,42.235024]}},{"properties":{"zip":"60014","geo_score":0.714,"id":"achz9unkh2jg","geo_precision":"zip","# sold":4},"type":"Feature","geometry":{"type":"Point","coordinates":[-88.291751,42.223079]}},{"properties":{"zip":"60018","geo_score":0.714,"id":"achz9uf52tjk","geo_precision":"zip","# sold":1},"type":"Feature","geometry":{"type":"Point","coordinates":[-87.884509,41.995308]}},{"properties":{"zip":"60026","geo_score":0.714,"id":"achz9uo198jc","geo_precision":"zip","# sold":1},"type":"Feature","geometry":{"type":"Point","coordinates":[-87.68732,41.811929]}},{"properties":{"zip":"60056","geo_score":0.714,"id":"achz9ud7fkhe","geo_precision":"zip","# sold":1},"type":"Feature","geometry":{"type":"Point","coordinates":[-87.931797,42.062377]}},{"properties":{"zip":"60067","geo_score":0.714,"id":"achz9uowokao","geo_precision":"zip","# sold":1},"type":"Feature","geometry":{"type":"Point","coordinates":[-88.055908,42.152248]}},{"properties":{"zip":"60069","geo_score":0.714,"id":"achz9ujoqlc7","geo_precision":"zip","# sold":1},"type":"Feature","geometry":{"type":"Point","coordinates":[-87.942294,42.16447]}},{"properties":{"zip":"60089","geo_score":0.714,"id":"achz9ufidjc9","geo_precision":"zip","# sold":1},"type":"Feature","geometry":{"type":"Point","coordinates":[-87.960771,42.180411]}},{"properties":{"zip":"60090","geo_score":0.714,"id":"achz9uojdslp","geo_precision":"zip","# sold":3},"type":"Feature","geometry":{"type":"Point","coordinates":[-87.933819,42.124176]}},{"properties":{"zip":"60102","geo_score":0.714,"id":"achz9uh91otb","geo_precision":"zip","# sold":1},"type":"Feature","geometry":{"type":"Point","coordinates":[-88.260638,42.188913]}},{"properties":{"zip":"60103","geo_score":0.714,"id":"achz9um3lwps","geo_precision":"zip","# sold":9},"type":"Feature","geometry":{"type":"Point","coordinates":[-88.145074,41.999472]}},{"properties":{"zip":"60107","geo_score":0.714,"id":"achz9uk2p03v","geo_precision":"zip","# sold":2},"type":"Feature","geometry":{"type":"Point","coordinates":[-88.178475,42.019093]}},{"properties":{"zip":"60108","geo_score":0.714,"id":"achz9udj9w5d","geo_precision":"zip","# sold":1},"type":"Feature","geometry":{"type":"Point","coordinates":[-88.088716,41.839679]}},{"properties":{"zip":"60110","geo_score":0.714,"id":"achz9uikvn46","geo_precision":"zip","# sold":4},"type":"Feature","geometry":{"type":"Point","coordinates":[-88.297238,42.125008]}},{"properties":{"zip":"60115","geo_score":0.714,"id":"achz9uelxr7k","geo_precision":"zip","# sold":1},"type":"Feature","geometry":{"type":"Point","coordinates":[-88.776197,41.864196]}},{"properties":{"zip":"60118","geo_score":0.714,"id":"achz9uomrbbo","geo_precision":"zip","# sold":1},"type":"Feature","geometry":{"type":"Point","coordinates":[-88.271469,42.098915]}},{"properties":{"zip":"60120","geo_score":0.714,"id":"achz9ump81ea","geo_precision":"zip","# sold":3},"type":"Feature","geometry":{"type":"Point","coordinates":[-88.235354,42.002805]}},{"properties":{"zip":"60123","geo_score":0.714,"id":"achz9ufivivn","geo_precision":"zip","# sold":13},"type":"Feature","geometry":{"type":"Point","coordinates":[-88.371044,42.036325]}},{"properties":{"zip":"60124","geo_score":0.0,"id":"achz9ukbgsdn","geo_precision":"unmatched","# sold":4},"type":"Feature","geometry":null},{"properties":{"zip":"60133","geo_score":0.714,"id":"achz9uojxgs5","geo_precision":"zip","# sold":4},"type":"Feature","geometry":{"type":"Point","coordinates":[-88.086091,41.980753]}},{"properties":{"zip":"60139","geo_score":0.714,"id":"achz9udn5psg","geo_precision":"zip","# sold":1},"type":"Feature","geometry":{"type":"Point","coordinates":[-88.088716,41.839679]}},{"properties":{"zip":"60140","geo_score":0.714,"id":"achz9ukn6j4u","geo_precision":"zip","# sold":1},"type":"Feature","geometry":{"type":"Point","coordinates":[-88.454812,42.027886]}},{"properties":{"zip":"60142","geo_score":0.714,"id":"achz9uknuwa8","geo_precision":"zip","# sold":1},"type":"Feature","geometry":{"type":"Point","coordinates":[-88.450815,42.197379]}},{"properties":{"zip":"60146","geo_score":0.714,"id":"achz9ubqgqm3","geo_precision":"zip","# sold":2},"type":"Feature","geometry":{"type":"Point","coordinates":[-88.932876,42.100025]}},{"properties":{"zip":"60156","geo_score":0.714,"id":"achz9ub6mx95","geo_precision":"zip","# sold":1},"type":"Feature","geometry":{"type":"Point","coordinates":[-88.383794,42.222769]}},{"properties":{"zip":"60169","geo_score":0.0,"id":"achz9ud47dik","geo_precision":"unmatched","# sold":2},"type":"Feature","geometry":null},{"properties":{"zip":"60170","geo_score":0.714,"id":"achz9ug727n2","geo_precision":"zip","# sold":1},"type":"Feature","geometry":{"type":"Point","coordinates":[-88.425931,42.025776]}},{"properties":{"zip":"60172","geo_score":0.714,"id":"achz9uo14701","geo_precision":"zip","# sold":1},"type":"Feature","geometry":{"type":"Point","coordinates":[-88.12035,41.967528]}},{"properties":{"zip":"60174","geo_score":0.714,"id":"achz9uczwerz","geo_precision":"zip","# sold":2},"type":"Feature","geometry":{"type":"Point","coordinates":[-88.309799,41.960027]}},{"properties":{"zip":"60175","geo_score":0.714,"id":"achz9uq1tpom","geo_precision":"zip","# sold":3},"type":"Feature","geometry":{"type":"Point","coordinates":[-88.386905,41.943171]}},{"properties":{"zip":"60177","geo_score":0.714,"id":"achz9ujgr3x2","geo_precision":"zip","# sold":1},"type":"Feature","geometry":{"type":"Point","coordinates":[-88.405895,42.007476]}},{"properties":{"zip":"60188","geo_score":0.714,"id":"achz9uiq1g6e","geo_precision":"zip","# sold":7},"type":"Feature","geometry":{"type":"Point","coordinates":[-88.088716,41.839679]}},{"properties":{"zip":"60192","geo_score":0.714,"id":"achz9umpl7nu","geo_precision":"zip","# sold":2},"type":"Feature","geometry":{"type":"Point","coordinates":[-88.116129,42.092487]}},{"properties":{"zip":"60194","geo_score":0.714,"id":"achz9umisbi1","geo_precision":"zip","# sold":1},"type":"Feature","geometry":{"type":"Point","coordinates":[-88.116655,42.028926]}},{"properties":{"zip":"60542","geo_score":0.714,"id":"achz9uf0tl5u","geo_precision":"zip","# sold":1},"type":"Feature","geometry":{"type":"Point","coordinates":[-88.335182,41.807369]}},{"properties":{"zip":"60714","geo_score":0.714,"id":"achz9ud6nv8j","geo_precision":"zip","# sold":2},"type":"Feature","geometry":{"type":"Point","coordinates":[-87.811163,42.031179]}}],"is_temporal":false,"author":{"url":"","metadata":null,"contact_name":null,"contact_address":null,"source":null,"contact_phone":null},"source":"","pagination":{"sort":null,"start":0,"total":38,"limit":1000000},"state":"complete","tags":"","published":"2014-08-16T19:25:16-04:00","id":325340}