{"type":"FeatureCollection","data_type":"Dataset","url_type":null,"permissions":[{"permissions":{"download":true,"view":true},"group_id":"everyone"}],"classification":null,"title":"Fall 2012 askON Transcripts","count":69,"stream_id":326175,"contributor":{"url":"http://geocommons.com/users/63338","name":"Stacey Boileau"},"data_attributes":null,"calculation_params":null,"icon_link":null,"link":"http://geocommons.com/overlays/326175.json","extent":[-156.356,-32.5833,177.283,69.051],"geometry_types":["point"],"unique_name":null,"name":"Fall 2012 askON Transcripts","feature_count":69,"description":"Transcipts of calls during September, October, November, December 2012 on the askON public and Knowledge Ontario portal","next_feature":null,"is_raster":false,"short_classification":"Y","stats":{"value":{"max":214,"variance":700.891730605285,"mean":8.07246376811594,"stdev":26.4743598714924,"min":1,"median":2}},"features":[{"properties":{"city":"Hamilton","country":"Canada","geo_score":0.857,"value":29,"id":"acjen1v5mws4","province":"Ontario","geo_precision":"zip"},"type":"Feature","geometry":{"type":"Point","coordinates":[177.2166667,19.9166667]}},{"properties":{"city":"Brampton","country":"Canada","geo_score":0.714,"value":214,"id":"acjen1qlv8hq","province":"Ontario","geo_precision":"zip"},"type":"Feature","geometry":{"type":"Point","coordinates":[90.7272222,23.9183333]}},{"properties":{"city":"London","country":"Canada","geo_score":0.714,"value":8,"id":"acjen1hnrgaz","province":"Ontario","geo_precision":"zip"},"type":"Feature","geometry":{"type":"Point","coordinates":[-80.75,8.5833333]}},{"properties":{"city":"Windsor","country":"Canada","geo_score":0.714,"value":5,"id":"acjen1wju0ar","province":"Ontario","geo_precision":"zip"},"type":"Feature","geometry":{"type":"Point","coordinates":[29.1666667,-29.0166667]}},{"properties":{"city":"Ajax","country":"Canada","geo_score":0.714,"value":10,"id":"acjen1lpb70n","province":"Ontario","geo_precision":"zip"},"type":"Feature","geometry":{"type":"Point","coordinates":[4.4152,15.0128]}},{"properties":{"city":"Toronto","country":"Canada","geo_score":0.714,"value":38,"id":"acjen1ph1ybi","province":"Ontario","geo_precision":"zip"},"type":"Feature","geometry":{"type":"Point","coordinates":[119.9252778,-2.8819444]}},{"properties":{"city":"Barrie","country":"Canada","geo_score":0.714,"value":9,"id":"acjen1j27drv","province":"Ontario","geo_precision":"zip"},"type":"Feature","geometry":{"type":"Point","coordinates":[15.8,4.7166667]}},{"properties":{"city":"Burlington","country":"Canada","geo_score":0.857,"value":2,"id":"acjen1uxro7m","province":"Ontario","geo_precision":"zip"},"type":"Feature","geometry":{"type":"Point","coordinates":[-93.5,8.5]}},{"properties":{"city":"Perth","country":"Canada","geo_score":0.714,"value":1,"id":"acjen1jmn603","province":"Ontario","geo_precision":"zip"},"type":"Feature","geometry":{"type":"Point","coordinates":[-3.4333333,56.4]}},{"properties":{"city":"Mississauga","country":"Canada","geo_score":0.714,"value":42,"id":"acjen1pl19oa","province":"Ontario","geo_precision":"zip"},"type":"Feature","geometry":{"type":"Point","coordinates":[32.5,-13.7666667]}},{"properties":{"city":"Waterloo","country":"Canada","geo_score":0.714,"value":2,"id":"acjen1k13ama","province":"Ontario","geo_precision":"zip"},"type":"Feature","geometry":{"type":"Point","coordinates":[18.35,-22.1333333]}},{"properties":{"city":"Kingston","country":"Canada","geo_score":0.857,"value":1,"id":"acjen1llzu0p","province":"Ontario","geo_precision":"zip"},"type":"Feature","geometry":{"type":"Point","coordinates":[-22.0,43.8]}},{"properties":{"city":"Orangeville","country":"Canada","geo_score":0.0,"value":1,"id":"acjen1j01bc7","province":"Ontario","geo_precision":"unmatched"},"type":"Feature","geometry":null},{"properties":{"city":"Milton","country":"Canada","geo_score":0.714,"value":1,"id":"acjen1s1xmnm","province":"Ontario","geo_precision":"zip"},"type":"Feature","geometry":{"type":"Point","coordinates":[13.3166667,42.6166667]}},{"properties":{"city":"Fort Frances","country":"Canada","geo_score":0.857,"value":1,"id":"acjen1ixm3gl","province":"Ontario","geo_precision":"zip"},"type":"Feature","geometry":{"type":"Point","coordinates":[119.25,4.45]}},{"properties":{"city":"Richmond Hill","country":"Canada","geo_score":0.857,"value":11,"id":"acjen1ue610b","province":"Ontario","geo_precision":"zip"},"type":"Feature","geometry":{"type":"Point","coordinates":[112.7166667,5.0833333]}},{"properties":{"city":"Baden","country":"Canada","geo_score":0.714,"value":1,"id":"acjen1nem8f4","province":"Ontario","geo_precision":"zip"},"type":"Feature","geometry":{"type":"Point","coordinates":[-72.9041667,18.1725]}},{"properties":{"city":"Kitchener","country":"Canada","geo_score":0.714,"value":5,"id":"acjen1uvxt0m","province":"Ontario","geo_precision":"zip"},"type":"Feature","geometry":{"type":"Point","coordinates":[100.6686111,42.4222222]}},{"properties":{"city":"Innisfil","country":"Canada","geo_score":0.714,"value":8,"id":"acjen1vc7vc0","province":"Ontario","geo_precision":"zip"},"type":"Feature","geometry":{"type":"Point","coordinates":[-118.5553599,34.038342]}},{"properties":{"city":"Guelph","country":"Canada","geo_score":0.714,"value":7,"id":"acjen1s39f60","province":"Ontario","geo_precision":"zip"},"type":"Feature","geometry":{"type":"Point","coordinates":[22.3,-10.4166667]}},{"properties":{"city":"Gilford","country":"Canada","geo_score":0.714,"value":1,"id":"acjen1hep36s","province":"Ontario","geo_precision":"zip"},"type":"Feature","geometry":{"type":"Point","coordinates":[-83.6085728,43.5100219]}},{"properties":{"city":"Cornwall","country":"Canada","geo_score":0.857,"value":1,"id":"acjen1kngqoy","province":"Ontario","geo_precision":"zip"},"type":"Feature","geometry":{"type":"Point","coordinates":[114.2333333,8.75]}},{"properties":{"city":"Fonthil","country":"Canada","geo_score":0.714,"value":1,"id":"acjen1o0qapi","province":"Ontario","geo_precision":"zip"},"type":"Feature","geometry":{"type":"Point","coordinates":[-79.282885736,43.033416253]}},{"properties":{"city":"Woodbridge","country":"Canada","geo_score":0.714,"value":1,"id":"acjen1w1q2zi","province":"Ontario","geo_precision":"zip"},"type":"Feature","geometry":{"type":"Point","coordinates":[-91.2296055,41.7644641]}},{"properties":{"city":"New Market","country":"Canada","geo_score":0.714,"value":2,"id":"acjen1hyuulc","province":"Ontario","geo_precision":"zip"},"type":"Feature","geometry":{"type":"Point","coordinates":[-47.45972222,-24.28138889]}},{"properties":{"city":"Stouffville","country":"Canada","geo_score":0.714,"value":1,"id":"acjen1rgy3gt","province":"Ontario","geo_precision":"zip"},"type":"Feature","geometry":{"type":"Point","coordinates":[-122.352592862,49.216375548]}},{"properties":{"city":"Markham","country":"Canada","geo_score":0.714,"value":11,"id":"acjen1i0i580","province":"Ontario","geo_precision":"zip"},"type":"Feature","geometry":{"type":"Point","coordinates":[67.8147222,30.7747222]}},{"properties":{"city":"Stittsville","country":"Canada","geo_score":0.714,"value":1,"id":"acjen1orprq3","province":"Ontario","geo_precision":"zip"},"type":"Feature","geometry":{"type":"Point","coordinates":[24.2166667,55.9666667]}},{"properties":{"city":"Ottawa","country":"Canada","geo_score":0.714,"value":12,"id":"acjen1q4lvbz","province":"Ontario","geo_precision":"zip"},"type":"Feature","geometry":{"type":"Point","coordinates":[43.2461111,11.3780556]}},{"properties":{"city":"Peel Region","country":"Canada","geo_score":0.714,"value":3,"id":"acjen1rj93ll","province":"Ontario","geo_precision":"zip"},"type":"Feature","geometry":{"type":"Point","coordinates":[106.0551,-6.1113]}},{"properties":{"city":"Cambridge","country":"Canada","geo_score":0.714,"value":2,"id":"acjen1itnj3k","province":"Ontario","geo_precision":"zip"},"type":"Feature","geometry":{"type":"Point","coordinates":[-105.118736314,69.050987963]}},{"properties":{"city":"Pefferlaw","country":"Canada","geo_score":0.714,"value":1,"id":"acjen1prurqu","province":"Ontario","geo_precision":"zip"},"type":"Feature","geometry":{"type":"Point","coordinates":[7.834625,45.072549]}},{"properties":{"city":"Thunder Bay","country":"Canada","geo_score":0.714,"value":1,"id":"acjen1jp2t2o","province":"Ontario","geo_precision":"zip"},"type":"Feature","geometry":{"type":"Point","coordinates":[148.3166667,-28.4]}},{"properties":{"city":"Caledon","country":"Canada","geo_score":0.714,"value":2,"id":"acjen1h3cp7w","province":"Ontario","geo_precision":"zip"},"type":"Feature","geometry":{"type":"Point","coordinates":[-4.4833333,55.4333333]}},{"properties":{"city":"Oshawa","country":"Canada","geo_score":0.714,"value":26,"id":"acjen1r158hu","province":"Ontario","geo_precision":"zip"},"type":"Feature","geometry":{"type":"Point","coordinates":[-78.849568878,43.900120387]}},{"properties":{"city":"Stratford","country":"Canada","geo_score":0.857,"value":1,"id":"acjen1j08dmc","province":"Ontario","geo_precision":"zip"},"type":"Feature","geometry":{"type":"Point","coordinates":[177.2833333,52.1333333]}},{"properties":{"city":"Peterborough","country":"Canada","geo_score":0.714,"value":1,"id":"acjen1ry4cdg","province":"Ontario","geo_precision":"zip"},"type":"Feature","geometry":{"type":"Point","coordinates":[-71.9517459,42.8706392]}},{"properties":{"city":"Warkworth","country":"Canada","geo_score":0.714,"value":1,"id":"acjen1lx9li0","province":"Ontario","geo_precision":"zip"},"type":"Feature","geometry":{"type":"Point","coordinates":[151.0333333,-32.5833333]}},{"properties":{"city":"Sarnia","country":"Canada","geo_score":0.714,"value":1,"id":"acjen1p1mm2c","province":"Ontario","geo_precision":"zip"},"type":"Feature","geometry":{"type":"Point","coordinates":[-0.8868,14.3077]}},{"properties":{"city":"Perry Sound","country":"Canada","geo_score":0.714,"value":1,"id":"acjen1rhpxtt","province":"Ontario","geo_precision":"zip"},"type":"Feature","geometry":{"type":"Point","coordinates":[42.6888889,11.5883333]}},{"properties":{"city":"Rosseau","country":"Canada","geo_score":0.714,"value":1,"id":"acjen1oxmy75","province":"Ontario","geo_precision":"zip"},"type":"Feature","geometry":{"type":"Point","coordinates":[25.2333333,5.8333333]}},{"properties":{"city":"Whitby","country":"Canada","geo_score":0.714,"value":5,"id":"acjen1nj6haz","province":"Ontario","geo_precision":"zip"},"type":"Feature","geometry":{"type":"Point","coordinates":[-156.3555556,57.3661111]}},{"properties":{"city":"Brockville","country":"Canada","geo_score":0.714,"value":1,"id":"acjen1i19uh8","province":"Ontario","geo_precision":"zip"},"type":"Feature","geometry":{"type":"Point","coordinates":[27.15,-27.9]}},{"properties":{"city":"Port Perry","country":"Canada","geo_score":0.714,"value":9,"id":"acjen1oe6u9t","province":"Ontario","geo_precision":"zip"},"type":"Feature","geometry":{"type":"Point","coordinates":[-2.0666667,11.6333333]}},{"properties":{"city":"Pickering","country":"Canada","geo_score":0.714,"value":2,"id":"acjen1tw8oy8","province":"Ontario","geo_precision":"zip"},"type":"Feature","geometry":{"type":"Point","coordinates":[104.7833333,-4.9333333]}},{"properties":{"city":"Uxbridge","country":"Canada","geo_score":0.714,"value":1,"id":"acjen1pmt1m7","province":"Ontario","geo_precision":"zip"},"type":"Feature","geometry":{"type":"Point","coordinates":[127.9919444,26.3011111]}},{"properties":{"city":"Thornhill","country":"Canada","geo_score":0.714,"value":4,"id":"acjen1w53t8h","province":"Ontario","geo_precision":"zip"},"type":"Feature","geometry":{"type":"Point","coordinates":[143.7333333,-20.9333333]}},{"properties":{"city":"Maple","country":"Canada","geo_score":0.714,"value":1,"id":"acjen1ojok7k","province":"Ontario","geo_precision":"zip"},"type":"Feature","geometry":{"type":"Point","coordinates":[24.4833333,-14.95]}},{"properties":{"city":"Acton","country":"Canada","geo_score":0.714,"value":1,"id":"acjen1l79hai","province":"Ontario","geo_precision":"zip"},"type":"Feature","geometry":{"type":"Point","coordinates":[-1.2333333,40.6666667]}},{"properties":{"city":"Nepean","country":"Canada","geo_score":0.714,"value":3,"id":"acjen1x6lcrj","province":"Ontario","geo_precision":"zip"},"type":"Feature","geometry":{"type":"Point","coordinates":[-2.5833333,12.7166667]}},{"properties":{"city":"Bracebridge","country":"Canada","geo_score":0.714,"value":3,"id":"acjen1jqcpgb","province":"Ontario","geo_precision":"zip"},"type":"Feature","geometry":{"type":"Point","coordinates":[-79.316325245,45.033409927]}},{"properties":{"city":"Kingston","country":"Canada","geo_score":0.857,"value":3,"id":"acjen1hdnnkq","province":"Ontario","geo_precision":"zip"},"type":"Feature","geometry":{"type":"Point","coordinates":[-22.0,43.8]}},{"properties":{"city":"Angus Glen","country":"Canada","geo_score":0.857,"value":4,"id":"acjen1o4klxi","province":"Ontario","geo_precision":"zip"},"type":"Feature","geometry":{"type":"Point","coordinates":[0.0,24.3555555333333]}},{"properties":{"city":"Pembroke","country":"Canada","geo_score":0.714,"value":1,"id":"acjen1iekmq3","province":"Ontario","geo_precision":"zip"},"type":"Feature","geometry":{"type":"Point","coordinates":[80.5166667,7.65]}},{"properties":{"city":"Saint Thomas","country":"Canada","geo_score":0.714,"value":2,"id":"acjen1rytnp6","province":"Ontario","geo_precision":"zip"},"type":"Feature","geometry":{"type":"Point","coordinates":[10.1088,14.3227]}},{"properties":{"city":"Kanata","country":"Canada","geo_score":0.714,"value":1,"id":"acjen1vyuos8","province":"Ontario","geo_precision":"zip"},"type":"Feature","geometry":{"type":"Point","coordinates":[80.2333333,8.7666667]}},{"properties":{"city":"Milton","country":"Canada","geo_score":0.714,"value":1,"id":"acjen1wr7efa","province":"Ontario","geo_precision":"zip"},"type":"Feature","geometry":{"type":"Point","coordinates":[13.3166667,42.6166667]}},{"properties":{"city":"Oakville","country":"Canada","geo_score":0.714,"value":1,"id":"acjen1w3istw","province":"Ontario","geo_precision":"zip"},"type":"Feature","geometry":{"type":"Point","coordinates":[28.7666667,-27.6333333]}},{"properties":{"city":"Sudbury","country":"Canada","geo_score":0.714,"value":6,"id":"acjen1h3e3cf","province":"Ontario","geo_precision":"zip"},"type":"Feature","geometry":{"type":"Point","coordinates":[13.983333,49.666667]}},{"properties":{"city":"Saint Catherines","country":"Canada","geo_score":0.714,"value":2,"id":"acjen1i5crdd","province":"Ontario","geo_precision":"zip"},"type":"Feature","geometry":{"type":"Point","coordinates":[10.1088,14.3227]}},{"properties":{"city":"Niagara Falls","country":"Canada","geo_score":0.714,"value":2,"id":"acjen1r3whml","province":"Ontario","geo_precision":"zip"},"type":"Feature","geometry":{"type":"Point","coordinates":[34.025,35.425]}},{"properties":{"city":"Scarborough","country":"Canada","geo_score":0.714,"value":1,"id":"acjen1s3iaio","province":"Ontario","geo_precision":"zip"},"type":"Feature","geometry":{"type":"Point","coordinates":[-101.0568146,44.6058148]}},{"properties":{"city":"Vaughn","country":"Canada","geo_score":0.714,"value":3,"id":"acjen1rjli8b","province":"Ontario","geo_precision":"zip"},"type":"Feature","geometry":{"type":"Point","coordinates":[27.6727778,59.4097222]}},{"properties":{"city":"Sault St. Marie","country":"Canada","geo_score":0.714,"value":5,"id":"acjen1n2dmo9","province":"Ontario","geo_precision":"zip"},"type":"Feature","geometry":{"type":"Point","coordinates":[21.2,49.333333]}},{"properties":{"city":"Woodbridge","country":"Canada","geo_score":0.714,"value":23,"id":"acjen1lewtps","province":"Ontario","geo_precision":"zip"},"type":"Feature","geometry":{"type":"Point","coordinates":[-91.2296055,41.7644641]}},{"properties":{"city":"Bratford","country":"Canada","geo_score":0.714,"value":1,"id":"acjen1m4i474","province":"Ontario","geo_precision":"zip"},"type":"Feature","geometry":{"type":"Point","coordinates":[-115.935422738,49.966616862]}},{"properties":{"city":"Exeter","country":"Canada","geo_score":0.0,"value":1,"id":"acjen1lsobz2","province":"Ontario","geo_precision":"unmatched"},"type":"Feature","geometry":null},{"properties":{"city":"Kinburn","country":"Canada","geo_score":0.714,"value":1,"id":"acjen1oij2gw","province":"Ontario","geo_precision":"zip"},"type":"Feature","geometry":{"type":"Point","coordinates":[116.5666667,-29.2]}},{"properties":{"city":"Lasalle","country":"Canada","geo_score":0.714,"value":1,"id":"acjen1pohubv","province":"Quebec","geo_precision":"zip"},"type":"Feature","geometry":{"type":"Point","coordinates":[42.0833333,42.6666667]}}],"is_temporal":false,"author":{"url":"","metadata":"","contact_name":"","contact_address":"","source":"","contact_phone":""},"source":"","pagination":{"sort":null,"start":0,"total":69,"limit":1000000},"state":"complete","tags":"","published":"2013-02-28T17:00:00Z","id":326175}