{"type":"FeatureCollection","data_type":"Dataset","url_type":null,"permissions":[{"permissions":{"download":true,"view":true},"group_id":"everyone"}],"classification":null,"title":"KY_VOL","count":23,"stream_id":326384,"contributor":{"url":"http://geocommons.com/users/37170","name":"lfuentes"},"data_attributes":null,"calculation_params":null,"icon_link":null,"link":"http://geocommons.com/overlays/326384.json","extent":[-87.8168,37.393,-86.8552,38.0165],"geometry_types":["point"],"unique_name":null,"name":"KY_VOL","feature_count":23,"description":"","next_feature":null,"is_raster":false,"short_classification":"Y","stats":{},"features":[{"properties":{"name":"Laurie Chivara","city":"Henderson","county":"Henderson","phone #1":"270-844-0650","geo_score":0.979,"phone #2":"270-853-7042","street address":"2393 CobblestoneDr.","zip code":"42420","id":"acjqb95ulody","geo_precision":"range","state":"KY"},"type":"Feature","geometry":{"type":"Point","coordinates":[-87.550744,37.856494]}},{"properties":{"name":"Justin Bruce","city":"Henderson","county":"Henderson","phone #1":"270-724-3154","geo_score":1.0,"phone #2":null,"street address":"2008 Brenda Dr","zip code":"42420","id":"acjqb99d7tsq","geo_precision":"range","state":"KY"},"type":"Feature","geometry":{"type":"Point","coordinates":[-87.591057,37.80387]}},{"properties":{"name":"Susan Rice","city":"Henderson","county":"Henderson","phone #1":"270-831-7622","geo_score":1.0,"phone #2":"270-830-7473","street address":"127 Carlisle St.","zip code":"42420","id":"acjqb8zw2v5v","geo_precision":"range","state":"KY"},"type":"Feature","geometry":{"type":"Point","coordinates":[-87.579659,37.835551]}},{"properties":{"name":"Lisa Watson","city":"Clay","county":"Union","phone #1":"270-871-3884","geo_score":0.512,"phone #2":null,"street address":"10167 ST. RT. 758","zip code":"42404","id":"acjqb91q4fgx","geo_precision":"range","state":"KY"},"type":"Feature","geometry":{"type":"Point","coordinates":[-87.444278,37.403875]}},{"properties":{"name":"Carol Smith","city":"Dixon","county":"Webster","phone #1":"270-875-7021","geo_score":0.512,"phone #2":"270-639-9336","street address":"1251 ST. RT. 630","zip code":"42409","id":"acjqb97mgpqi","geo_precision":"range","state":"KY"},"type":"Feature","geometry":{"type":"Point","coordinates":[-87.447056,37.393042]}},{"properties":{"name":"Leslie Thompson","city":"Clay","county":"Webster","phone #1":"270-635-2705","geo_score":1.0,"phone #2":null,"street address":"27 Nelson st","zip code":"42404","id":"acjqb9495zlb","geo_precision":"range","state":"KY"},"type":"Feature","geometry":{"type":"Point","coordinates":[-87.816851,37.482755]}},{"properties":{"name":"Nicole Watson","city":"Dixon","county":"Webster","phone #1":"270-339-1108","geo_score":0.89,"phone #2":"270-639-6077","street address":"3709 Catesville-Providence Rd.","zip code":"42409","id":"acjqb8zpr2d7","geo_precision":"street","state":"KY"},"type":"Feature","geometry":{"type":"Point","coordinates":[-87.646924,37.470409]}},{"properties":{"name":"Doug Sauls","city":"Sebree","county":"Webster","phone #1":"270-835-7807","geo_score":1.0,"phone #2":"270-635-9111","street address":"86 E Webster St","zip code":"42455","id":"acjqb97xcvpr","geo_precision":"range","state":"KY"},"type":"Feature","geometry":{"type":"Point","coordinates":[-87.52972,37.607692]}},{"properties":{"name":"Ken &amp; Esther Dunlavy","city":"Owensboro","county":"Daviess","phone #1":"270-903-9392","geo_score":0.99,"phone #2":"270-315-9931","street address":"2411 Calhoun Road","zip code":"42301","id":"acjqb9ao8193","geo_precision":"range","state":"KY"},"type":"Feature","geometry":{"type":"Point","coordinates":[-87.178175,37.735642]}},{"properties":{"name":"Marilu Goodsell &amp; Evonne Harl","city":"Owensboro","county":"Daviess","phone #1":"270-903-3193","geo_score":0.585,"phone #2":null,"street address":"1425 Jackson St","zip code":"42303","id":"acjqb8xhd8fz","geo_precision":"zip","state":"KY"},"type":"Feature","geometry":{"type":"Point","coordinates":[-87.042939,37.779387]}},{"properties":{"name":"Martina Temple","city":"Owensboro","county":"Daviess","phone #1":"270-929-4601","geo_score":0.585,"phone #2":null,"street address":"2215 N Straford  Drive","zip code":"42301","id":"acjqb92t3k6f","geo_precision":"zip","state":"KY"},"type":"Feature","geometry":{"type":"Point","coordinates":[-87.295281,37.83699]}},{"properties":{"name":"Dolores Kiesler","city":"Maceo","county":"Daviess","phone #1":null,"geo_score":0.468,"phone #2":null,"street address":"1024 Pleasure Pt. East","zip code":null,"id":"acjqb91007fa","geo_precision":"street","state":"KY"},"type":"Feature","geometry":{"type":"Point","coordinates":[-86.974966,37.856038]}},{"properties":{"name":"Kathy Cummings","city":"Owensboro","county":"Daviess","phone #1":"270-993-4978","geo_score":0.99,"phone #2":null,"street address":"2115 Bradford Court","zip code":"42301","id":"acjqb984gap1","geo_precision":"range","state":"KY"},"type":"Feature","geometry":{"type":"Point","coordinates":[-87.139286,37.733576]}},{"properties":{"name":"Jim Edelen","city":"Owensboro","county":"Daviess","phone #1":"270-764-1603","geo_score":0.88,"phone #2":null,"street address":"216 Ky 279 S.","zip code":"42301","id":"acjqb9a3gki8","geo_precision":"range","state":"KY"},"type":"Feature","geometry":{"type":"Point","coordinates":[-87.223326,37.797292]}},{"properties":{"name":"Scott Ling &amp; Zoe Strain","city":"Owensboro","county":"Daviess","phone #1":"270-993-8397","geo_score":0.99,"phone #2":"270-684-3678","street address":"4502 FAWN DR","zip code":"42303","id":"acjqb93ph33s","geo_precision":"range","state":"KY"},"type":"Feature","geometry":{"type":"Point","coordinates":[-87.082847,37.723642]}},{"properties":{"name":"Lowell Westerfield","city":"Owensboro","county":"Daviess","phone #1":"270-929-1933","geo_score":0.99,"phone #2":null,"street address":"3912 Veach Rd","zip code":"42303","id":"acjqb8xy4s9g","geo_precision":"range","state":"KY"},"type":"Feature","geometry":{"type":"Point","coordinates":[-87.105399,37.731552]}},{"properties":{"name":"Derrick &amp; Beverly Patterson","city":"Owensboro","county":"Daviess","phone #1":"270-240-4971","geo_score":0.917,"phone #2":null,"street address":"2713 W 8TH ST","zip code":"42301","id":"acjqb99h6w34","geo_precision":"range","state":"KY"},"type":"Feature","geometry":{"type":"Point","coordinates":[-87.141993,37.767146]}},{"properties":{"name":"Trish Baggerly","city":"Owensboro","county":"Daviess","phone #1":"270-240-5188","geo_score":0.99,"phone #2":null,"street address":"3108 Brent Gray Trace","zip code":"42303","id":"acjqb912td7f","geo_precision":"range","state":"KY"},"type":"Feature","geometry":{"type":"Point","coordinates":[-87.03149,37.767564]}},{"properties":{"name":"Lisa Tompkins","city":"Owensboro","county":"Daviess","phone #1":"270-929-4180","geo_score":0.893,"phone #2":null,"street address":"3300 Bryant Court","zip code":null,"id":"acjqb96edkc3","geo_precision":"range","state":"KY"},"type":"Feature","geometry":{"type":"Point","coordinates":[-87.097904,37.735602]}},{"properties":{"name":"Todd Edgell","city":"Hawesville","county":"Hancock","phone #1":"270-363-6394","geo_score":0.937,"phone #2":"270-363-3765","street address":"8661 State Route 1389","zip code":"42348","id":"acjqb99qcwl8","geo_precision":"range","state":"KY"},"type":"Feature","geometry":{"type":"Point","coordinates":[-86.855179,37.851057]}},{"properties":{"name":"Dwain Carlton","city":"Lewisport","county":"Hancock","phone #1":"270-264-1701","geo_score":0.932,"phone #2":"270-993-7229","street address":"5837 State Route 657","zip code":"42351","id":"acjqb8vw1r8y","geo_precision":"range","state":"KY"},"type":"Feature","geometry":{"type":"Point","coordinates":[-86.895013,37.851392]}},{"properties":{"name":"Cyrilla Green","city":"Utica","county":"McLean","phone #1":"270-929-3286","geo_score":0.696,"phone #2":null,"street address":"12800 BRIARFIELD SCHOOLHOUSE RD","zip code":null,"id":"acjqb9a7ks87","geo_precision":"street","state":"KY"},"type":"Feature","geometry":{"type":"Point","coordinates":[-87.066763,37.547173]}},{"properties":{"name":"Pam Crasher","city":"Chrisney","county":"Spencer","phone #1":"812-362-7126","geo_score":0.989,"phone #2":null,"street address":"36 E Locust St","zip code":"47611","id":"acjqb913z07d","geo_precision":"range","state":"IN"},"type":"Feature","geometry":{"type":"Point","coordinates":[-87.036581,38.01649]}}],"is_temporal":false,"author":{"url":"","metadata":null,"contact_name":null,"contact_address":null,"source":null,"contact_phone":null},"source":"","pagination":{"sort":null,"start":0,"total":23,"limit":1000000},"state":"complete","tags":"","published":"2014-08-16T20:41:40-04:00","id":326384}