{"type":"FeatureCollection","data_type":"Dataset","url_type":null,"permissions":[{"permissions":{"download":true,"view":true},"group_id":"everyone"}],"classification":null,"title":"combinedLessThan50000","count":507,"stream_id":326417,"contributor":{"url":"http://geocommons.com/users/62693","name":"StudentDIT"},"data_attributes":null,"calculation_params":null,"icon_link":null,"link":"http://geocommons.com/overlays/326417.json","extent":[-10.2689,51.5534,-6.04329,55.2942],"geometry_types":["point"],"unique_name":null,"name":"combinedLessThan50000","feature_count":507,"description":"","next_feature":null,"is_raster":false,"short_classification":"Y","stats":{"latitude":{"max":55.294165,"variance":0.671159601528068,"mean":53.2130455153846,"stdev":0.819243310334645,"min":51.55339,"median":53.275925},"longitude":{"max":-6.043294,"variance":0.977491515020852,"mean":-7.87743035108482,"stdev":0.988681705616551,"min":-10.268889,"median":-8.064566}},"features":[{"properties":{"latitude":52.59139,"county":"Wexford","bin":"50,000 or less","description of property":"Second-Hand","longitude":-6.275929,"id":"acjsfkkfxqvx","property type":"House","province":"Leinster"},"type":"Feature","geometry":{"type":"Point","coordinates":[-6.275929,52.59139]}},{"properties":{"latitude":52.678815,"county":"Tipperary","bin":"50,000 or less","description of property":"Second-Hand","longitude":-7.813419,"id":"acjsfkozw9m6","property type":"House","province":"Munster"},"type":"Feature","geometry":{"type":"Point","coordinates":[-7.813419,52.678815]}},{"properties":{"latitude":53.203481,"county":"Wicklow","bin":"50,000 or less","description of property":"Second-Hand","longitude":-6.107528,"id":"acjsfkl4x14c","property type":"House","province":"Leinster"},"type":"Feature","geometry":{"type":"Point","coordinates":[-6.107528,53.203481]}},{"properties":{"latitude":53.203481,"county":"Wicklow","bin":"50,000 or less","description of property":"Second-Hand","longitude":-6.107528,"id":"acjsfkti6yud","property type":"House","province":"Leinster"},"type":"Feature","geometry":{"type":"Point","coordinates":[-6.107528,53.203481]}},{"properties":{"latitude":53.76797,"county":"Roscommon","bin":"50,000 or less","description of property":"Second-Hand","longitude":-8.490604,"id":"acjsfkxcnojo","property type":"House","province":"Connacht"},"type":"Feature","geometry":{"type":"Point","coordinates":[-8.490604,53.76797]}},{"properties":{"latitude":52.678815,"county":"Tipperary","bin":"50,000 or less","description of property":"Second-Hand","longitude":-7.813419,"id":"acjsfksz1zt7","property type":"House","province":"Munster"},"type":"Feature","geometry":{"type":"Point","coordinates":[-7.813419,52.678815]}},{"properties":{"latitude":53.465592,"county":"Clare","bin":"50,000 or less","description of property":"Second-Hand","longitude":-7.649442,"id":"acjsfkrem6qh","property type":"House","province":"Munster"},"type":"Feature","geometry":{"type":"Point","coordinates":[-7.649442,53.465592]}},{"properties":{"latitude":51.802202,"county":"Cork","bin":"50,000 or less","description of property":"Second-Hand","longitude":-8.2959,"id":"acjsfkhoo21a","property type":"House","province":"Munster"},"type":"Feature","geometry":{"type":"Point","coordinates":[-8.2959,51.802202]}},{"properties":{"latitude":53.630098,"county":"Roscommon","bin":"50,000 or less","description of property":"Second-Hand","longitude":-8.189912,"id":"acjsfkqmfpol","property type":"House","province":"Connacht"},"type":"Feature","geometry":{"type":"Point","coordinates":[-8.189912,53.630098]}},{"properties":{"latitude":52.837045,"county":"Carlow","bin":"50,000 or less","description of property":"Second-Hand","longitude":-6.931726,"id":"acjsfko9mzsk","property type":"House","province":"Leinster"},"type":"Feature","geometry":{"type":"Point","coordinates":[-6.931726,52.837045]}},{"properties":{"latitude":52.262,"county":"Waterford","bin":"50,000 or less","description of property":"Second-Hand","longitude":-7.110869,"id":"acjsfkn5pjvc","property type":"House","province":"Munster"},"type":"Feature","geometry":{"type":"Point","coordinates":[-7.110869,52.262]}},{"properties":{"latitude":52.44603,"county":"Wexford","bin":"50,000 or less","description of property":"New","longitude":-6.795629,"id":"acjsfkua422f","property type":"House","province":"Leinster"},"type":"Feature","geometry":{"type":"Point","coordinates":[-6.795629,52.44603]}},{"properties":{"latitude":54.24985,"county":"Monaghan","bin":"50,000 or less","description of property":"Second-Hand","longitude":-6.910714,"id":"acjsfkj99kuj","property type":"House","province":"Ulster"},"type":"Feature","geometry":{"type":"Point","coordinates":[-6.910714,54.24985]}},{"properties":{"latitude":52.660985,"county":"Limerick","bin":"50,000 or less","description of property":"Second-Hand","longitude":-8.632589,"id":"acjsfkqeou1a","property type":"House","province":"Munster"},"type":"Feature","geometry":{"type":"Point","coordinates":[-8.632589,52.660985]}},{"properties":{"latitude":52.660985,"county":"Limerick","bin":"50,000 or less","description of property":"Second-Hand","longitude":-8.632589,"id":"acjsfkswyzgl","property type":"House","province":"Munster"},"type":"Feature","geometry":{"type":"Point","coordinates":[-8.632589,52.660985]}},{"properties":{"latitude":54.654305,"county":"Donegal","bin":"50,000 or less","description of property":"Second-Hand","longitude":-8.110624,"id":"acjsfkoock6j","property type":"House","province":"Ulster"},"type":"Feature","geometry":{"type":"Point","coordinates":[-8.110624,54.654305]}},{"properties":{"latitude":54.211812,"county":"Mayo","bin":"50,000 or less","description of property":"Second-Hand","longitude":-9.219544,"id":"acjsfkpg4ixa","property type":"House","province":"Connacht"},"type":"Feature","geometry":{"type":"Point","coordinates":[-9.219544,54.211812]}},{"properties":{"latitude":54.654305,"county":"Donegal","bin":"50,000 or less","description of property":"Second-Hand","longitude":-8.110624,"id":"acjsfklpnbvz","property type":"House","province":"Ulster"},"type":"Feature","geometry":{"type":"Point","coordinates":[-8.110624,54.654305]}},{"properties":{"latitude":52.531116,"county":"Kilkenny","bin":"50,000 or less","description of property":"Second-Hand","longitude":-7.136533,"id":"acjsfkrk5h3d","property type":"House","province":"Leinster"},"type":"Feature","geometry":{"type":"Point","coordinates":[-7.136533,52.531116]}},{"properties":{"latitude":51.89834,"county":"Cork","bin":"50,000 or less","description of property":"Second-Hand","longitude":-8.472774,"id":"acjsfknsm8hb","property type":"House","province":"Munster"},"type":"Feature","geometry":{"type":"Point","coordinates":[-8.472774,51.89834]}},{"properties":{"latitude":53.372845,"county":"Dublin","bin":"50,000 or less","description of property":"New","longitude":-6.362664,"id":"acjsfkkytk4f","property type":"House","province":"Leinster"},"type":"Feature","geometry":{"type":"Point","coordinates":[-6.362664,53.372845]}},{"properties":{"latitude":52.863343,"county":"Tipperary","bin":"50,000 or less","description of property":"Second-Hand","longitude":-8.200259,"id":"acjsfklrx52a","property type":"House","province":"Munster"},"type":"Feature","geometry":{"type":"Point","coordinates":[-8.200259,52.863343]}},{"properties":{"latitude":52.131897,"county":"Cork","bin":"50,000 or less","description of property":"Second-Hand","longitude":-8.641248,"id":"acjsfkr2y7rg","property type":"House","province":"Munster"},"type":"Feature","geometry":{"type":"Point","coordinates":[-8.641248,52.131897]}},{"properties":{"latitude":53.423267,"county":"Roscommon","bin":"50,000 or less","description of property":"Second-Hand","longitude":-7.937107,"id":"acjsfkl2bq6d","property type":"House","province":"Connacht"},"type":"Feature","geometry":{"type":"Point","coordinates":[-7.937107,53.423267]}},{"properties":{"latitude":51.663267,"county":"Cork","bin":"50,000 or less","description of property":"Second-Hand","longitude":-9.491897,"id":"acjsfktqz9ap","property type":"House","province":"Munster"},"type":"Feature","geometry":{"type":"Point","coordinates":[-9.491897,51.663267]}},{"properties":{"latitude":53.278743,"county":"Dublin","bin":"50,000 or less","description of property":"Second-Hand","longitude":-6.105983,"id":"acjsfkoxpobw","property type":"House","province":"Leinster"},"type":"Feature","geometry":{"type":"Point","coordinates":[-6.105983,53.278743]}},{"properties":{"latitude":51.55339,"county":"Cork","bin":"50,000 or less","description of property":"Second-Hand","longitude":-9.390484,"id":"acjsfkvbvxqo","property type":"House","province":"Munster"},"type":"Feature","geometry":{"type":"Point","coordinates":[-9.390484,51.55339]}},{"properties":{"latitude":53.391835,"county":"Dublin","bin":"50,000 or less","description of property":"Second-Hand","longitude":-6.376569,"id":"acjsfkv5rrbq","property type":"House","province":"Leinster"},"type":"Feature","geometry":{"type":"Point","coordinates":[-6.376569,53.391835]}},{"properties":{"latitude":53.34807,"county":"Dublin","bin":"50,000 or less","description of property":"New","longitude":-6.248274,"id":"acjsfkvh4o5u","property type":"House","province":"Leinster"},"type":"Feature","geometry":{"type":"Point","coordinates":[-6.248274,53.34807]}},{"properties":{"latitude":53.434352,"county":"Westmeath","bin":"50,000 or less","description of property":"Second-Hand","longitude":-7.897284,"id":"acjsfkqgz01j","property type":"House","province":"Leinster"},"type":"Feature","geometry":{"type":"Point","coordinates":[-7.897284,53.434352]}},{"properties":{"latitude":54.100108,"county":"Mayo","bin":"50,000 or less","description of property":"Second-Hand","longitude":-9.319675,"id":"acjsfkio6z7a","property type":"House","province":"Connacht"},"type":"Feature","geometry":{"type":"Point","coordinates":[-9.319675,54.100108]}},{"properties":{"latitude":52.517494,"county":"Tipperary","bin":"50,000 or less","description of property":"Second-Hand","longitude":-7.583669,"id":"acjsfkk5o0u8","property type":"House","province":"Munster"},"type":"Feature","geometry":{"type":"Point","coordinates":[-7.583669,52.517494]}},{"properties":{"latitude":54.654305,"county":"Donegal","bin":"50,000 or less","description of property":"Second-Hand","longitude":-8.110624,"id":"acjsfkkjhbnj","property type":"House","province":"Ulster"},"type":"Feature","geometry":{"type":"Point","coordinates":[-8.110624,54.654305]}},{"properties":{"latitude":52.399076,"county":"Kerry","bin":"50,000 or less","description of property":"Second-Hand","longitude":-9.655301,"id":"acjsfkncselz","property type":"House","province":"Munster"},"type":"Feature","geometry":{"type":"Point","coordinates":[-9.655301,52.399076]}},{"properties":{"latitude":53.160778,"county":"Laois","bin":"50,000 or less","description of property":"Second-Hand","longitude":-7.189404,"id":"acjsfkqpa0nd","property type":"House","province":"Leinster"},"type":"Feature","geometry":{"type":"Point","coordinates":[-7.189404,53.160778]}},{"properties":{"latitude":52.262,"county":"Waterford","bin":"50,000 or less","description of property":"Second-Hand","longitude":-7.110869,"id":"acjsfkuvraf8","property type":"House","province":"Munster"},"type":"Feature","geometry":{"type":"Point","coordinates":[-7.110869,52.262]}},{"properties":{"latitude":51.921735,"county":"Kerry","bin":"50,000 or less","description of property":"Second-Hand","longitude":-10.239424,"id":"acjsfkurisdv","property type":"House","province":"Munster"},"type":"Feature","geometry":{"type":"Point","coordinates":[-10.239424,51.921735]}},{"properties":{"latitude":53.8895,"county":"Mayo","bin":"50,000 or less","description of property":"Second-Hand","longitude":-8.688264,"id":"acjsfkrv47d2","property type":"House","province":"Connacht"},"type":"Feature","geometry":{"type":"Point","coordinates":[-8.688264,53.8895]}},{"properties":{"latitude":51.911844,"county":"Cork","bin":"50,000 or less","description of property":"Second-Hand","longitude":-8.054347,"id":"acjsfkxhv6pc","property type":"House","province":"Munster"},"type":"Feature","geometry":{"type":"Point","coordinates":[-8.054347,51.911844]}},{"properties":{"latitude":51.852709,"county":"Cork","bin":"50,000 or less","description of property":"Second-Hand","longitude":-8.3063,"id":"acjsfkoxmzc2","property type":"House","province":"Munster"},"type":"Feature","geometry":{"type":"Point","coordinates":[-8.3063,51.852709]}},{"properties":{"latitude":53.540938,"county":"Dublin","bin":"50,000 or less","description of property":"Second-Hand","longitude":-6.323133,"id":"acjsfkjmort7","property type":"House","province":"Leinster"},"type":"Feature","geometry":{"type":"Point","coordinates":[-6.323133,53.540938]}},{"properties":{"latitude":53.540938,"county":"Dublin","bin":"50,000 or less","description of property":"Second-Hand","longitude":-6.323133,"id":"acjsfkwuvim8","property type":"House","province":"Leinster"},"type":"Feature","geometry":{"type":"Point","coordinates":[-6.323133,53.540938]}},{"properties":{"latitude":53.540938,"county":"Dublin","bin":"50,000 or less","description of property":"Second-Hand","longitude":-6.323133,"id":"acjsfkkzugu2","property type":"House","province":"Leinster"},"type":"Feature","geometry":{"type":"Point","coordinates":[-6.323133,53.540938]}},{"properties":{"latitude":52.660985,"county":"Limerick","bin":"50,000 or less","description of property":"New","longitude":-8.632589,"id":"acjsfkx6cxj8","property type":"House","province":"Munster"},"type":"Feature","geometry":{"type":"Point","coordinates":[-8.632589,52.660985]}},{"properties":{"latitude":52.678815,"county":"Tipperary","bin":"50,000 or less","description of property":"Second-Hand","longitude":-7.813419,"id":"acjsfkt2k34u","property type":"House","province":"Munster"},"type":"Feature","geometry":{"type":"Point","coordinates":[-7.813419,52.678815]}},{"properties":{"latitude":52.361749,"county":"Wexford","bin":"50,000 or less","description of property":"Second-Hand","longitude":-6.886851,"id":"acjsfkin93cm","property type":"House","province":"Leinster"},"type":"Feature","geometry":{"type":"Point","coordinates":[-6.886851,52.361749]}},{"properties":{"latitude":53.157221,"county":"Galway","bin":"50,000 or less","description of property":"Second-Hand","longitude":-8.45417,"id":"acjsfkvo47xk","property type":"House","province":"Connacht"},"type":"Feature","geometry":{"type":"Point","coordinates":[-8.45417,53.157221]}},{"properties":{"latitude":53.389168,"county":"Dublin","bin":"50,000 or less","description of property":"Second-Hand","longitude":-6.28883,"id":"acjsfkqsq7ib","property type":"House","province":"Leinster"},"type":"Feature","geometry":{"type":"Point","coordinates":[-6.28883,53.389168]}},{"properties":{"latitude":52.660985,"county":"Limerick","bin":"50,000 or less","description of property":"Second-Hand","longitude":-8.632589,"id":"acjsfkkj7570","property type":"House","province":"Munster"},"type":"Feature","geometry":{"type":"Point","coordinates":[-8.632589,52.660985]}},{"properties":{"latitude":53.301389,"county":"Cork","bin":"50,000 or less","description of property":"New","longitude":-6.17747,"id":"acjsfkv698os","property type":"House","province":"Munster"},"type":"Feature","geometry":{"type":"Point","coordinates":[-6.17747,53.301389]}},{"properties":{"latitude":53.89921,"county":"Louth","bin":"50,000 or less","description of property":"New","longitude":-6.399076,"id":"acjsfkxnesvl","property type":"Apartment","province":"Leinster"},"type":"Feature","geometry":{"type":"Point","coordinates":[-6.399076,53.89921]}},{"properties":{"latitude":53.988534,"county":"Cavan","bin":"50,000 or less","description of property":"Second-Hand","longitude":-7.362157,"id":"acjsfkim9ypb","property type":"House","province":"Ulster"},"type":"Feature","geometry":{"type":"Point","coordinates":[-7.362157,53.988534]}},{"properties":{"latitude":52.262,"county":"Waterford","bin":"50,000 or less","description of property":"New","longitude":-7.110869,"id":"acjsfkovh6bt","property type":"House","province":"Munster"},"type":"Feature","geometry":{"type":"Point","coordinates":[-7.110869,52.262]}},{"properties":{"latitude":53.257715,"county":"Galway","bin":"50,000 or less","description of property":"Second-Hand","longitude":-9.07449,"id":"acjsfkrmf50f","property type":"House","province":"Connacht"},"type":"Feature","geometry":{"type":"Point","coordinates":[-9.07449,53.257715]}},{"properties":{"latitude":53.630098,"county":"Roscommon","bin":"50,000 or less","description of property":"Second-Hand","longitude":-8.189912,"id":"acjsfkumyhpq","property type":"House","province":"Connacht"},"type":"Feature","geometry":{"type":"Point","coordinates":[-8.189912,53.630098]}},{"properties":{"latitude":53.763179,"county":"Mayo","bin":"50,000 or less","description of property":"Second-Hand","longitude":-8.765018,"id":"acjsfkjdtnq7","property type":"House","province":"Connacht"},"type":"Feature","geometry":{"type":"Point","coordinates":[-8.765018,53.763179]}},{"properties":{"latitude":52.660985,"county":"Limerick","bin":"50,000 or less","description of property":"Second-Hand","longitude":-8.632589,"id":"acjsfkqgsvkr","property type":"House","province":"Munster"},"type":"Feature","geometry":{"type":"Point","coordinates":[-8.632589,52.660985]}},{"properties":{"latitude":53.002675,"county":"Laois","bin":"50,000 or less","description of property":"Second-Hand","longitude":-7.475104,"id":"acjsfkn52y4e","property type":"House","province":"Leinster"},"type":"Feature","geometry":{"type":"Point","coordinates":[-7.475104,53.002675]}},{"properties":{"latitude":52.140653,"county":"Kerry","bin":"50,000 or less","description of property":"Second-Hand","longitude":-10.267264,"id":"acjsfkw1qcto","property type":"House","province":"Munster"},"type":"Feature","geometry":{"type":"Point","coordinates":[-10.267264,52.140653]}},{"properties":{"latitude":53.331316,"county":"Dublin","bin":"50,000 or less","description of property":"Second-Hand","longitude":-6.255578,"id":"acjsfks74dnu","property type":"House","province":"Leinster"},"type":"Feature","geometry":{"type":"Point","coordinates":[-6.255578,53.331316]}},{"properties":{"latitude":53.410052,"county":"Limerick","bin":"50,000 or less","description of property":"Second-Hand","longitude":-8.331074,"id":"acjsfkr3g6n9","property type":"House","province":"Munster"},"type":"Feature","geometry":{"type":"Point","coordinates":[-8.331074,53.410052]}},{"properties":{"latitude":53.988534,"county":"Cavan","bin":"50,000 or less","description of property":"Second-Hand","longitude":-7.362157,"id":"acjsfkpbc0kd","property type":"House","province":"Ulster"},"type":"Feature","geometry":{"type":"Point","coordinates":[-7.362157,53.988534]}},{"properties":{"latitude":52.402758,"county":"Dublin","bin":"50,000 or less","description of property":"New","longitude":-7.294664,"id":"acjsfkiaccm7","property type":"Apartment","province":"Leinster"},"type":"Feature","geometry":{"type":"Point","coordinates":[-7.294664,52.402758]}},{"properties":{"latitude":52.137805,"county":"Cork","bin":"50,000 or less","description of property":"Second-Hand","longitude":-8.275414,"id":"acjsfkuisgma","property type":"House","province":"Munster"},"type":"Feature","geometry":{"type":"Point","coordinates":[-8.275414,52.137805]}},{"properties":{"latitude":53.120194,"county":"Laois","bin":"50,000 or less","description of property":"Second-Hand","longitude":-7.330051,"id":"acjsfks1xk3e","property type":"House","province":"Leinster"},"type":"Feature","geometry":{"type":"Point","coordinates":[-7.330051,53.120194]}},{"properties":{"latitude":53.34807,"county":"Dublin","bin":"50,000 or less","description of property":"Second-Hand","longitude":-6.248274,"id":"acjsfklmz0hs","property type":"House","province":"Leinster"},"type":"Feature","geometry":{"type":"Point","coordinates":[-6.248274,53.34807]}},{"properties":{"latitude":52.354164,"county":"Limerick","bin":"50,000 or less","description of property":"Second-Hand","longitude":-8.682404,"id":"acjsfkilrcrv","property type":"House","province":"Munster"},"type":"Feature","geometry":{"type":"Point","coordinates":[-8.682404,52.354164]}},{"properties":{"latitude":52.637635,"county":"Clare","bin":"50,000 or less","description of property":"Second-Hand","longitude":-9.482909,"id":"acjsfkmnwe2r","property type":"House","province":"Munster"},"type":"Feature","geometry":{"type":"Point","coordinates":[-9.482909,52.637635]}},{"properties":{"latitude":53.988534,"county":"Cavan","bin":"50,000 or less","description of property":"Second-Hand","longitude":-7.362157,"id":"acjsfkio5f8v","property type":"House","province":"Ulster"},"type":"Feature","geometry":{"type":"Point","coordinates":[-7.362157,53.988534]}},{"properties":{"latitude":53.847342,"county":"Cork","bin":"50,000 or less","description of property":"Second-Hand","longitude":-6.257221,"id":"acjsfkn4x6nq","property type":"House","province":"Munster"},"type":"Feature","geometry":{"type":"Point","coordinates":[-6.257221,53.847342]}},{"properties":{"latitude":52.470775,"county":"Cork","bin":"50,000 or less","description of property":"Second-Hand","longitude":-7.263839,"id":"acjsfkm3gowe","property type":"House","province":"Munster"},"type":"Feature","geometry":{"type":"Point","coordinates":[-7.263839,52.470775]}},{"properties":{"latitude":51.89834,"county":"Cork","bin":"50,000 or less","description of property":"Second-Hand","longitude":-8.472774,"id":"acjsfkqqd0l0","property type":"House","province":"Munster"},"type":"Feature","geometry":{"type":"Point","coordinates":[-8.472774,51.89834]}},{"properties":{"latitude":53.515425,"county":"Galway","bin":"50,000 or less","description of property":"Second-Hand","longitude":-8.850034,"id":"acjsfkrgudjh","property type":"House","province":"Connacht"},"type":"Feature","geometry":{"type":"Point","coordinates":[-8.850034,53.515425]}},{"properties":{"latitude":52.503561,"county":"Wexford","bin":"50,000 or less","description of property":"Second-Hand","longitude":-6.568843,"id":"acjsfks5rb4l","property type":"House","province":"Leinster"},"type":"Feature","geometry":{"type":"Point","coordinates":[-6.568843,52.503561]}},{"properties":{"latitude":53.170095,"county":"Offaly","bin":"50,000 or less","description of property":"Second-Hand","longitude":-7.87397,"id":"acjsfkscraap","property type":"House","province":"Leinster"},"type":"Feature","geometry":{"type":"Point","coordinates":[-7.87397,53.170095]}},{"properties":{"latitude":52.678815,"county":"Tipperary","bin":"50,000 or less","description of property":"Second-Hand","longitude":-7.813419,"id":"acjsfkhqhuwk","property type":"House","province":"Munster"},"type":"Feature","geometry":{"type":"Point","coordinates":[-7.813419,52.678815]}},{"properties":{"latitude":54.655575,"county":"Donegal","bin":"50,000 or less","description of property":"Second-Hand","longitude":-8.127229,"id":"acjsfkqddswr","property type":"House","province":"Ulster"},"type":"Feature","geometry":{"type":"Point","coordinates":[-8.127229,54.655575]}},{"properties":{"latitude":54.654305,"county":"Donegal","bin":"50,000 or less","description of property":"Second-Hand","longitude":-8.110624,"id":"acjsfkljmtdf","property type":"House","province":"Ulster"},"type":"Feature","geometry":{"type":"Point","coordinates":[-8.110624,54.654305]}},{"properties":{"latitude":52.660985,"county":"Limerick","bin":"50,000 or less","description of property":"New","longitude":-8.632589,"id":"acjsfkwuje6l","property type":"House","province":"Munster"},"type":"Feature","geometry":{"type":"Point","coordinates":[-8.632589,52.660985]}},{"properties":{"latitude":54.272235,"county":"Sligo","bin":"50,000 or less","description of property":"Second-Hand","longitude":-8.475984,"id":"acjsfklgup3w","property type":"House","province":"Connacht"},"type":"Feature","geometry":{"type":"Point","coordinates":[-8.475984,54.272235]}},{"properties":{"latitude":52.67611,"county":"Wexford","bin":"50,000 or less","description of property":"Second-Hand","longitude":-6.292914,"id":"acjsfkjrce8z","property type":"House","province":"Leinster"},"type":"Feature","geometry":{"type":"Point","coordinates":[-6.292914,52.67611]}},{"properties":{"latitude":54.654305,"county":"Donegal","bin":"50,000 or less","description of property":"New","longitude":-8.110624,"id":"acjsfkihyj2e","property type":"House","province":"Ulster"},"type":"Feature","geometry":{"type":"Point","coordinates":[-8.110624,54.654305]}},{"properties":{"latitude":52.660985,"county":"Limerick","bin":"50,000 or less","description of property":"Second-Hand","longitude":-8.632589,"id":"acjsfknanvis","property type":"House","province":"Munster"},"type":"Feature","geometry":{"type":"Point","coordinates":[-8.632589,52.660985]}},{"properties":{"latitude":53.25145,"county":"Mayo","bin":"50,000 or less","description of property":"Second-Hand","longitude":-7.831909,"id":"acjsfkvzkw15","property type":"House","province":"Connacht"},"type":"Feature","geometry":{"type":"Point","coordinates":[-7.831909,53.25145]}},{"properties":{"latitude":52.863343,"county":"Tipperary","bin":"50,000 or less","description of property":"Second-Hand","longitude":-8.200259,"id":"acjsfktldegy","property type":"House","province":"Munster"},"type":"Feature","geometry":{"type":"Point","coordinates":[-8.200259,52.863343]}},{"properties":{"latitude":53.616669,"county":"Westmeath","bin":"50,000 or less","description of property":"Second-Hand","longitude":-7.38333,"id":"acjsfkw2nfsm","property type":"House","province":"Leinster"},"type":"Feature","geometry":{"type":"Point","coordinates":[-7.38333,53.616669]}},{"properties":{"latitude":52.797422,"county":"Carlow","bin":"50,000 or less","description of property":"Second-Hand","longitude":-6.733713,"id":"acjsfkr4o5sr","property type":"House","province":"Leinster"},"type":"Feature","geometry":{"type":"Point","coordinates":[-6.733713,52.797422]}},{"properties":{"latitude":51.680154,"county":"Cork","bin":"50,000 or less","description of property":"Second-Hand","longitude":-9.450668,"id":"acjsfkl9waeu","property type":"House","province":"Munster"},"type":"Feature","geometry":{"type":"Point","coordinates":[-9.450668,51.680154]}},{"properties":{"latitude":53.388288,"county":"Dublin","bin":"50,000 or less","description of property":"New","longitude":-6.29814,"id":"acjsfksh3pu3","property type":"Apartment","province":"Leinster"},"type":"Feature","geometry":{"type":"Point","coordinates":[-6.29814,53.388288]}},{"properties":{"latitude":51.89834,"county":"Cork","bin":"50,000 or less","description of property":"New","longitude":-8.472774,"id":"acjsfksj4iaj","property type":"House","province":"Munster"},"type":"Feature","geometry":{"type":"Point","coordinates":[-8.472774,51.89834]}},{"properties":{"latitude":53.33704,"county":"Dublin","bin":"50,000 or less","description of property":"Second-Hand","longitude":-6.286879,"id":"acjsfkmem10q","property type":"House","province":"Leinster"},"type":"Feature","geometry":{"type":"Point","coordinates":[-6.286879,53.33704]}},{"properties":{"latitude":53.138409,"county":"Kildare","bin":"50,000 or less","description of property":"New","longitude":-7.061712,"id":"acjsfkp5a0ms","property type":"House","province":"Leinster"},"type":"Feature","geometry":{"type":"Point","coordinates":[-7.061712,53.138409]}},{"properties":{"latitude":53.988534,"county":"Cavan","bin":"50,000 or less","description of property":"Second-Hand","longitude":-7.362157,"id":"acjsfkx5d6x4","property type":"House","province":"Ulster"},"type":"Feature","geometry":{"type":"Point","coordinates":[-7.362157,53.988534]}},{"properties":{"latitude":53.98942,"county":"Leitrim","bin":"50,000 or less","description of property":"Second-Hand","longitude":-8.064566,"id":"acjsfkx53mui","property type":"House","province":"Connacht"},"type":"Feature","geometry":{"type":"Point","coordinates":[-8.064566,53.98942]}},{"properties":{"latitude":54.117665,"county":"Cavan","bin":"50,000 or less","description of property":"Second-Hand","longitude":-7.588274,"id":"acjsfktnnpxy","property type":"House","province":"Ulster"},"type":"Feature","geometry":{"type":"Point","coordinates":[-7.588274,54.117665]}},{"properties":{"latitude":52.143325,"county":"Cork","bin":"50,000 or less","description of property":"Second-Hand","longitude":-8.276324,"id":"acjsfkj2wkts","property type":"House","province":"Munster"},"type":"Feature","geometry":{"type":"Point","coordinates":[-8.276324,52.143325]}},{"properties":{"latitude":53.273885,"county":"Galway","bin":"50,000 or less","description of property":"Second-Hand","longitude":-9.048349,"id":"acjsfks7t78s","property type":"House","province":"Connacht"},"type":"Feature","geometry":{"type":"Point","coordinates":[-9.048349,53.273885]}},{"properties":{"latitude":51.89834,"county":"Cork","bin":"50,000 or less","description of property":"Second-Hand","longitude":-8.472774,"id":"acjsfkl6cawv","property type":"House","province":"Munster"},"type":"Feature","geometry":{"type":"Point","coordinates":[-8.472774,51.89834]}},{"properties":{"latitude":52.843853,"county":"Clare","bin":"50,000 or less","description of property":"Second-Hand","longitude":-8.985395,"id":"acjsfku3iy3p","property type":"House","province":"Munster"},"type":"Feature","geometry":{"type":"Point","coordinates":[-8.985395,52.843853]}},{"properties":{"latitude":52.205344,"county":"Cork","bin":"50,000 or less","description of property":"Second-Hand","longitude":-9.122474,"id":"acjsfkk1zfpg","property type":"House","province":"Munster"},"type":"Feature","geometry":{"type":"Point","coordinates":[-9.122474,52.205344]}},{"properties":{"latitude":54.792274,"county":"Donegal","bin":"50,000 or less","description of property":"Second-Hand","longitude":-8.425097,"id":"acjsfkw512yd","property type":"House","province":"Ulster"},"type":"Feature","geometry":{"type":"Point","coordinates":[-8.425097,54.792274]}},{"properties":{"latitude":52.845843,"county":"Clare","bin":"50,000 or less","description of property":"Second-Hand","longitude":-8.996631,"id":"acjsfkuoub99","property type":"House","province":"Munster"},"type":"Feature","geometry":{"type":"Point","coordinates":[-8.996631,52.845843]}},{"properties":{"latitude":52.651194,"county":"Kilkenny","bin":"50,000 or less","description of property":"Second-Hand","longitude":-7.251514,"id":"acjsfkv8ceyf","property type":"House","province":"Leinster"},"type":"Feature","geometry":{"type":"Point","coordinates":[-7.251514,52.651194]}},{"properties":{"latitude":52.288509,"county":"Cork","bin":"50,000 or less","description of property":"Second-Hand","longitude":-9.146462,"id":"acjsfkpcftez","property type":"House","province":"Munster"},"type":"Feature","geometry":{"type":"Point","coordinates":[-9.146462,52.288509]}},{"properties":{"latitude":52.337347,"county":"Wexford","bin":"50,000 or less","description of property":"Second-Hand","longitude":-6.458934,"id":"acjsfkhrvwgo","property type":"House","province":"Leinster"},"type":"Feature","geometry":{"type":"Point","coordinates":[-6.458934,52.337347]}},{"properties":{"latitude":54.269923,"county":"Sligo","bin":"50,000 or less","description of property":"Second-Hand","longitude":-8.480048,"id":"acjsfkvzk19w","property type":"House","province":"Connacht"},"type":"Feature","geometry":{"type":"Point","coordinates":[-8.480048,54.269923]}},{"properties":{"latitude":54.269923,"county":"Sligo","bin":"50,000 or less","description of property":"Second-Hand","longitude":-8.480048,"id":"acjsfktz7m2j","property type":"House","province":"Connacht"},"type":"Feature","geometry":{"type":"Point","coordinates":[-8.480048,54.269923]}},{"properties":{"latitude":53.632075,"county":"Longford","bin":"50,000 or less","description of property":"Second-Hand","longitude":-7.628389,"id":"acjsfktefdph","property type":"House","province":"Leinster"},"type":"Feature","geometry":{"type":"Point","coordinates":[-7.628389,53.632075]}},{"properties":{"latitude":53.711681,"county":"Longford","bin":"50,000 or less","description of property":"Second-Hand","longitude":-7.671124,"id":"acjsfkha8tgs","property type":"House","province":"Leinster"},"type":"Feature","geometry":{"type":"Point","coordinates":[-7.671124,53.711681]}},{"properties":{"latitude":51.913581,"county":"Cork","bin":"50,000 or less","description of property":"Second-Hand","longitude":-8.172135,"id":"acjsfksfj9tz","property type":"House","province":"Munster"},"type":"Feature","geometry":{"type":"Point","coordinates":[-8.172135,51.913581]}},{"properties":{"latitude":52.160648,"county":"Waterford","bin":"50,000 or less","description of property":"Second-Hand","longitude":-7.149952,"id":"acjsfku8c4zh","property type":"House","province":"Munster"},"type":"Feature","geometry":{"type":"Point","coordinates":[-7.149952,52.160648]}},{"properties":{"latitude":52.160648,"county":"Waterford","bin":"50,000 or less","description of property":"Second-Hand","longitude":-7.149952,"id":"acjsfkntgne2","property type":"House","province":"Munster"},"type":"Feature","geometry":{"type":"Point","coordinates":[-7.149952,52.160648]}},{"properties":{"latitude":51.901078,"county":"Cork","bin":"50,000 or less","description of property":"Second-Hand","longitude":-8.495703,"id":"acjsfksq2ytd","property type":"House","province":"Munster"},"type":"Feature","geometry":{"type":"Point","coordinates":[-8.495703,51.901078]}},{"properties":{"latitude":52.205192,"county":"Waterford","bin":"50,000 or less","description of property":"Second-Hand","longitude":-7.426811,"id":"acjsfkm17v5w","property type":"House","province":"Munster"},"type":"Feature","geometry":{"type":"Point","coordinates":[-7.426811,52.205192]}},{"properties":{"latitude":52.755864,"county":"Kilkenny","bin":"50,000 or less","description of property":"New","longitude":-7.411473,"id":"acjsfkto4thq","property type":"House","province":"Leinster"},"type":"Feature","geometry":{"type":"Point","coordinates":[-7.411473,52.755864]}},{"properties":{"latitude":51.89834,"county":"Cork","bin":"50,000 or less","description of property":"Second-Hand","longitude":-8.472774,"id":"acjsfkooorgm","property type":"House","province":"Munster"},"type":"Feature","geometry":{"type":"Point","coordinates":[-8.472774,51.89834]}},{"properties":{"latitude":53.465592,"county":"Clare","bin":"50,000 or less","description of property":"Second-Hand","longitude":-7.649442,"id":"acjsfkshd8uc","property type":"House","province":"Munster"},"type":"Feature","geometry":{"type":"Point","coordinates":[-7.649442,53.465592]}},{"properties":{"latitude":54.247205,"county":"Monaghan","bin":"50,000 or less","description of property":"Second-Hand","longitude":-6.970981,"id":"acjsfkllgd9h","property type":"House","province":"Ulster"},"type":"Feature","geometry":{"type":"Point","coordinates":[-6.970981,54.247205]}},{"properties":{"latitude":54.481025,"county":"Donegal","bin":"50,000 or less","description of property":"Second-Hand","longitude":-8.275899,"id":"acjsfkpv5uu4","property type":"House","province":"Ulster"},"type":"Feature","geometry":{"type":"Point","coordinates":[-8.275899,54.481025]}},{"properties":{"latitude":53.56345,"county":"Longford","bin":"50,000 or less","description of property":"Second-Hand","longitude":-7.76399,"id":"acjsfklvhx9w","property type":"House","province":"Leinster"},"type":"Feature","geometry":{"type":"Point","coordinates":[-7.76399,53.56345]}},{"properties":{"latitude":54.654305,"county":"Donegal","bin":"50,000 or less","description of property":"New","longitude":-8.110624,"id":"acjsfknbytk7","property type":"House","province":"Ulster"},"type":"Feature","geometry":{"type":"Point","coordinates":[-8.110624,54.654305]}},{"properties":{"latitude":53.718444,"county":"Louth","bin":"50,000 or less","description of property":"Second-Hand","longitude":-6.356394,"id":"acjsfkrkws4e","property type":"House","province":"Leinster"},"type":"Feature","geometry":{"type":"Point","coordinates":[-6.356394,53.718444]}},{"properties":{"latitude":51.89834,"county":"Cork","bin":"50,000 or less","description of property":"Second-Hand","longitude":-8.472774,"id":"acjsfkxa1ha1","property type":"House","province":"Munster"},"type":"Feature","geometry":{"type":"Point","coordinates":[-8.472774,51.89834]}},{"properties":{"latitude":52.660855,"county":"Clare","bin":"50,000 or less","description of property":"Second-Hand","longitude":-9.418777,"id":"acjsfkqlnsvp","property type":"House","province":"Munster"},"type":"Feature","geometry":{"type":"Point","coordinates":[-9.418777,52.660855]}},{"properties":{"latitude":53.901462,"county":"Mayo","bin":"50,000 or less","description of property":"Second-Hand","longitude":-8.579966,"id":"acjsfkvbthrq","property type":"House","province":"Connacht"},"type":"Feature","geometry":{"type":"Point","coordinates":[-8.579966,53.901462]}},{"properties":{"latitude":51.802202,"county":"Cork","bin":"50,000 or less","description of property":"Second-Hand","longitude":-8.2959,"id":"acjsfkod33xu","property type":"House","province":"Munster"},"type":"Feature","geometry":{"type":"Point","coordinates":[-8.2959,51.802202]}},{"properties":{"latitude":53.287495,"county":"Dublin","bin":"50,000 or less","description of property":"Second-Hand","longitude":-9.085793,"id":"acjsfkoqrus1","property type":"House","province":"Leinster"},"type":"Feature","geometry":{"type":"Point","coordinates":[-9.085793,53.287495]}},{"properties":{"latitude":53.34807,"county":"Dublin","bin":"50,000 or less","description of property":"Second-Hand","longitude":-6.248274,"id":"acjsfkhehih5","property type":"House","province":"Leinster"},"type":"Feature","geometry":{"type":"Point","coordinates":[-6.248274,53.34807]}},{"properties":{"latitude":53.589091,"county":"Roscommon","bin":"50,000 or less","description of property":"Second-Hand","longitude":-10.001863,"id":"acjsfkm74rk5","property type":"House","province":"Connacht"},"type":"Feature","geometry":{"type":"Point","coordinates":[-10.001863,53.589091]}},{"properties":{"latitude":53.353369,"county":"Dublin","bin":"50,000 or less","description of property":"Second-Hand","longitude":-6.292326,"id":"acjsfkuj9ge7","property type":"House","province":"Leinster"},"type":"Feature","geometry":{"type":"Point","coordinates":[-6.292326,53.353369]}},{"properties":{"latitude":53.353369,"county":"Dublin","bin":"50,000 or less","description of property":"Second-Hand","longitude":-6.292326,"id":"acjsfktxp7vb","property type":"House","province":"Leinster"},"type":"Feature","geometry":{"type":"Point","coordinates":[-6.292326,53.353369]}},{"properties":{"latitude":53.423267,"county":"Roscommon","bin":"50,000 or less","description of property":"Second-Hand","longitude":-7.937107,"id":"acjsfkqif740","property type":"House","province":"Connacht"},"type":"Feature","geometry":{"type":"Point","coordinates":[-7.937107,53.423267]}},{"properties":{"latitude":52.660985,"county":"Limerick","bin":"50,000 or less","description of property":"Second-Hand","longitude":-8.632589,"id":"acjsfkqxq7ui","property type":"House","province":"Munster"},"type":"Feature","geometry":{"type":"Point","coordinates":[-8.632589,52.660985]}},{"properties":{"latitude":53.72681,"county":"Longford","bin":"50,000 or less","description of property":"Second-Hand","longitude":-7.795689,"id":"acjsfkp14omx","property type":"House","province":"Leinster"},"type":"Feature","geometry":{"type":"Point","coordinates":[-7.795689,53.72681]}},{"properties":{"latitude":54.654305,"county":"Donegal","bin":"50,000 or less","description of property":"Second-Hand","longitude":-8.110624,"id":"acjsfkv85kzb","property type":"House","province":"Ulster"},"type":"Feature","geometry":{"type":"Point","coordinates":[-8.110624,54.654305]}},{"properties":{"latitude":53.831475,"county":"Louth","bin":"50,000 or less","description of property":"Second-Hand","longitude":-6.39489,"id":"acjsfkjn2t6j","property type":"House","province":"Leinster"},"type":"Feature","geometry":{"type":"Point","coordinates":[-6.39489,53.831475]}},{"properties":{"latitude":53.521481,"county":"Dublin","bin":"50,000 or less","description of property":"Second-Hand","longitude":-6.171011,"id":"acjsfkp6ryia","property type":"House","province":"Leinster"},"type":"Feature","geometry":{"type":"Point","coordinates":[-6.171011,53.521481]}},{"properties":{"latitude":52.395528,"county":"Wexford","bin":"50,000 or less","description of property":"Second-Hand","longitude":-6.945604,"id":"acjsfko0uhgw","property type":"House","province":"Leinster"},"type":"Feature","geometry":{"type":"Point","coordinates":[-6.945604,52.395528]}},{"properties":{"latitude":53.33704,"county":"Dublin","bin":"50,000 or less","description of property":"Second-Hand","longitude":-6.286879,"id":"acjsfkvna8od","property type":"House","province":"Leinster"},"type":"Feature","geometry":{"type":"Point","coordinates":[-6.286879,53.33704]}},{"properties":{"latitude":52.137805,"county":"Cork","bin":"50,000 or less","description of property":"Second-Hand","longitude":-8.275414,"id":"acjsfktyzsv4","property type":"House","province":"Munster"},"type":"Feature","geometry":{"type":"Point","coordinates":[-8.275414,52.137805]}},{"properties":{"latitude":54.05689,"county":"Leitrim","bin":"50,000 or less","description of property":"New","longitude":-7.794684,"id":"acjsfkxs83j6","property type":"House","province":"Connacht"},"type":"Feature","geometry":{"type":"Point","coordinates":[-7.794684,54.05689]}},{"properties":{"latitude":53.72681,"county":"Longford","bin":"50,000 or less","description of property":"Second-Hand","longitude":-7.795689,"id":"acjsfkt1k9r9","property type":"House","province":"Leinster"},"type":"Feature","geometry":{"type":"Point","coordinates":[-7.795689,53.72681]}},{"properties":{"latitude":53.176425,"county":"Offaly","bin":"50,000 or less","description of property":"Second-Hand","longitude":-7.727099,"id":"acjsfkpoh83h","property type":"House","province":"Leinster"},"type":"Feature","geometry":{"type":"Point","coordinates":[-7.727099,53.176425]}},{"properties":{"latitude":52.98063,"county":"Wicklow","bin":"50,000 or less","description of property":"Second-Hand","longitude":-6.043294,"id":"acjsfkxmclr8","property type":"House","province":"Leinster"},"type":"Feature","geometry":{"type":"Point","coordinates":[-6.043294,52.98063]}},{"properties":{"latitude":54.654305,"county":"Donegal","bin":"50,000 or less","description of property":"Second-Hand","longitude":-8.110624,"id":"acjsfkhdcwqc","property type":"House","province":"Ulster"},"type":"Feature","geometry":{"type":"Point","coordinates":[-8.110624,54.654305]}},{"properties":{"latitude":52.445845,"county":"Wicklow","bin":"50,000 or less","description of property":"Second-Hand","longitude":-6.814597,"id":"acjsfku2yg38","property type":"House","province":"Leinster"},"type":"Feature","geometry":{"type":"Point","coordinates":[-6.814597,52.445845]}},{"properties":{"latitude":54.272235,"county":"Sligo","bin":"50,000 or less","description of property":"Second-Hand","longitude":-8.475984,"id":"acjsfkqx9co1","property type":"House","province":"Connacht"},"type":"Feature","geometry":{"type":"Point","coordinates":[-8.475984,54.272235]}},{"properties":{"latitude":51.89834,"county":"Cork","bin":"50,000 or less","description of property":"Second-Hand","longitude":-8.472774,"id":"acjsfkkvglxx","property type":"House","province":"Munster"},"type":"Feature","geometry":{"type":"Point","coordinates":[-8.472774,51.89834]}},{"properties":{"latitude":51.89834,"county":"Cork","bin":"50,000 or less","description of property":"Second-Hand","longitude":-8.472774,"id":"acjsfkqr21ig","property type":"House","province":"Munster"},"type":"Feature","geometry":{"type":"Point","coordinates":[-8.472774,51.89834]}},{"properties":{"latitude":53.78447,"county":"Mayo","bin":"50,000 or less","description of property":"Second-Hand","longitude":-8.765575,"id":"acjsfki9r134","property type":"House","province":"Connacht"},"type":"Feature","geometry":{"type":"Point","coordinates":[-8.765575,53.78447]}},{"properties":{"latitude":53.398119,"county":"Dublin","bin":"50,000 or less","description of property":"Second-Hand","longitude":-6.25268,"id":"acjsfkhhthy5","property type":"Apartment","province":"Leinster"},"type":"Feature","geometry":{"type":"Point","coordinates":[-6.25268,53.398119]}},{"properties":{"latitude":54.114264,"county":"Mayo","bin":"50,000 or less","description of property":"Second-Hand","longitude":-9.154042,"id":"acjsfkugf2sd","property type":"House","province":"Connacht"},"type":"Feature","geometry":{"type":"Point","coordinates":[-9.154042,54.114264]}},{"properties":{"latitude":53.78052,"county":"Roscommon","bin":"50,000 or less","description of property":"Second-Hand","longitude":-8.104034,"id":"acjsfkvx396h","property type":"House","province":"Connacht"},"type":"Feature","geometry":{"type":"Point","coordinates":[-8.104034,53.78052]}},{"properties":{"latitude":52.46072,"county":"Limerick","bin":"50,000 or less","description of property":"Second-Hand","longitude":-9.286534,"id":"acjsfkmemlng","property type":"House","province":"Munster"},"type":"Feature","geometry":{"type":"Point","coordinates":[-9.286534,52.46072]}},{"properties":{"latitude":53.630098,"county":"Roscommon","bin":"50,000 or less","description of property":"Second-Hand","longitude":-8.189912,"id":"acjsfkqkg3zf","property type":"House","province":"Connacht"},"type":"Feature","geometry":{"type":"Point","coordinates":[-8.189912,53.630098]}},{"properties":{"latitude":53.57521,"county":"Galway","bin":"50,000 or less","description of property":"Second-Hand","longitude":-8.784604,"id":"acjsfkipr6r2","property type":"House","province":"Connacht"},"type":"Feature","geometry":{"type":"Point","coordinates":[-8.784604,53.57521]}},{"properties":{"latitude":54.951939,"county":"Donegal","bin":"50,000 or less","description of property":"Second-Hand","longitude":-7.730824,"id":"acjsfkihx60k","property type":"House","province":"Ulster"},"type":"Feature","geometry":{"type":"Point","coordinates":[-7.730824,54.951939]}},{"properties":{"latitude":54.116623,"county":"Mayo","bin":"50,000 or less","description of property":"Second-Hand","longitude":-9.154029,"id":"acjsfklk8s8f","property type":"House","province":"Connacht"},"type":"Feature","geometry":{"type":"Point","coordinates":[-9.154029,54.116623]}},{"properties":{"latitude":52.660985,"county":"Limerick","bin":"50,000 or less","description of property":"Second-Hand","longitude":-8.632589,"id":"acjsfknvqvhv","property type":"House","province":"Munster"},"type":"Feature","geometry":{"type":"Point","coordinates":[-8.632589,52.660985]}},{"properties":{"latitude":53.791453,"county":"Louth","bin":"50,000 or less","description of property":"Second-Hand","longitude":-6.238872,"id":"acjsfkmgcmon","property type":"House","province":"Leinster"},"type":"Feature","geometry":{"type":"Point","coordinates":[-6.238872,53.791453]}},{"properties":{"latitude":53.751815,"county":"Meath","bin":"50,000 or less","description of property":"Second-Hand","longitude":-7.057784,"id":"acjsfkurskd8","property type":"House","province":"Leinster"},"type":"Feature","geometry":{"type":"Point","coordinates":[-7.057784,53.751815]}},{"properties":{"latitude":53.72681,"county":"Longford","bin":"50,000 or less","description of property":"Second-Hand","longitude":-7.795689,"id":"acjsfkvljb52","property type":"House","province":"Leinster"},"type":"Feature","geometry":{"type":"Point","coordinates":[-7.795689,53.72681]}},{"properties":{"latitude":53.331776,"county":"Dublin","bin":"50,000 or less","description of property":"Second-Hand","longitude":-6.27635,"id":"acjsfkok4dsj","property type":"House","province":"Leinster"},"type":"Feature","geometry":{"type":"Point","coordinates":[-6.27635,53.331776]}},{"properties":{"latitude":53.698485,"county":"Meath","bin":"50,000 or less","description of property":"Second-Hand","longitude":-6.244344,"id":"acjsfkhav4ln","property type":"House","province":"Leinster"},"type":"Feature","geometry":{"type":"Point","coordinates":[-6.244344,53.698485]}},{"properties":{"latitude":54.47654,"county":"Donegal","bin":"50,000 or less","description of property":"Second-Hand","longitude":-8.286519,"id":"acjsfksmsj20","property type":"House","province":"Ulster"},"type":"Feature","geometry":{"type":"Point","coordinates":[-8.286519,54.47654]}},{"properties":{"latitude":52.140653,"county":"Kerry","bin":"50,000 or less","description of property":"Second-Hand","longitude":-10.267264,"id":"acjsfkx77nw9","property type":"House","province":"Munster"},"type":"Feature","geometry":{"type":"Point","coordinates":[-10.267264,52.140653]}},{"properties":{"latitude":54.278138,"county":"Kerry","bin":"50,000 or less","description of property":"Second-Hand","longitude":-9.211055,"id":"acjsfkq4hu3o","property type":"House","province":"Munster"},"type":"Feature","geometry":{"type":"Point","coordinates":[-9.211055,54.278138]}},{"properties":{"latitude":52.174595,"county":"Cork","bin":"50,000 or less","description of property":"Second-Hand","longitude":-8.903445,"id":"acjsfkxpiu45","property type":"House","province":"Munster"},"type":"Feature","geometry":{"type":"Point","coordinates":[-8.903445,52.174595]}},{"properties":{"latitude":54.285631,"county":"Sligo","bin":"50,000 or less","description of property":"Second-Hand","longitude":-8.46878,"id":"acjsfku7g67i","property type":"House","province":"Connacht"},"type":"Feature","geometry":{"type":"Point","coordinates":[-8.46878,54.285631]}},{"properties":{"latitude":52.637193,"county":"Clare","bin":"50,000 or less","description of property":"Second-Hand","longitude":-9.494267,"id":"acjsfkp5sqxk","property type":"House","province":"Munster"},"type":"Feature","geometry":{"type":"Point","coordinates":[-9.494267,52.637193]}},{"properties":{"latitude":52.63906,"county":"Clare","bin":"50,000 or less","description of property":"Second-Hand","longitude":-9.481089,"id":"acjsfkkijg64","property type":"House","province":"Munster"},"type":"Feature","geometry":{"type":"Point","coordinates":[-9.481089,52.63906]}},{"properties":{"latitude":52.660985,"county":"Limerick","bin":"50,000 or less","description of property":"Second-Hand","longitude":-8.632589,"id":"acjsfkjt20ve","property type":"House","province":"Munster"},"type":"Feature","geometry":{"type":"Point","coordinates":[-8.632589,52.660985]}},{"properties":{"latitude":53.24214,"county":"Kildare","bin":"50,000 or less","description of property":"New","longitude":-6.669619,"id":"acjsfklrwfa1","property type":"House","province":"Leinster"},"type":"Feature","geometry":{"type":"Point","coordinates":[-6.669619,53.24214]}},{"properties":{"latitude":53.630098,"county":"Roscommon","bin":"50,000 or less","description of property":"Second-Hand","longitude":-8.189912,"id":"acjsfkjbu0jb","property type":"House","province":"Connacht"},"type":"Feature","geometry":{"type":"Point","coordinates":[-8.189912,53.630098]}},{"properties":{"latitude":52.660985,"county":"Limerick","bin":"50,000 or less","description of property":"Second-Hand","longitude":-8.632589,"id":"acjsfklbm1qg","property type":"House","province":"Munster"},"type":"Feature","geometry":{"type":"Point","coordinates":[-8.632589,52.660985]}},{"properties":{"latitude":52.427708,"county":"Limerick","bin":"50,000 or less","description of property":"Second-Hand","longitude":-8.691472,"id":"acjsfkkcamy2","property type":"House","province":"Munster"},"type":"Feature","geometry":{"type":"Point","coordinates":[-8.691472,52.427708]}},{"properties":{"latitude":53.653888,"county":"Meath","bin":"50,000 or less","description of property":"New","longitude":-6.682406,"id":"acjsfkj4z73g","property type":"House","province":"Leinster"},"type":"Feature","geometry":{"type":"Point","coordinates":[-6.682406,53.653888]}},{"properties":{"latitude":54.130882,"county":"Kerry","bin":"50,000 or less","description of property":"Second-Hand","longitude":-9.367607,"id":"acjsfkqw1wqr","property type":"House","province":"Munster"},"type":"Feature","geometry":{"type":"Point","coordinates":[-9.367607,54.130882]}},{"properties":{"latitude":53.34807,"county":"Dublin","bin":"50,000 or less","description of property":"Second-Hand","longitude":-6.248274,"id":"acjsfkuav2bt","property type":"House","province":"Leinster"},"type":"Feature","geometry":{"type":"Point","coordinates":[-6.248274,53.34807]}},{"properties":{"latitude":54.114264,"county":"Mayo","bin":"50,000 or less","description of property":"Second-Hand","longitude":-9.154042,"id":"acjsfkom72qv","property type":"House","province":"Connacht"},"type":"Feature","geometry":{"type":"Point","coordinates":[-9.154042,54.114264]}},{"properties":{"latitude":53.58266,"county":"Westmeath","bin":"50,000 or less","description of property":"Second-Hand","longitude":-7.538704,"id":"acjsfkvsob42","property type":"House","province":"Leinster"},"type":"Feature","geometry":{"type":"Point","coordinates":[-7.538704,53.58266]}},{"properties":{"latitude":55.183165,"county":"Donegal","bin":"50,000 or less","description of property":"Second-Hand","longitude":-7.971764,"id":"acjsfkqklwtc","property type":"House","province":"Ulster"},"type":"Feature","geometry":{"type":"Point","coordinates":[-7.971764,55.183165]}},{"properties":{"latitude":55.183165,"county":"Donegal","bin":"50,000 or less","description of property":"Second-Hand","longitude":-7.971764,"id":"acjsfkm4bpfd","property type":"House","province":"Ulster"},"type":"Feature","geometry":{"type":"Point","coordinates":[-7.971764,55.183165]}},{"properties":{"latitude":53.905841,"county":"Roscommon","bin":"50,000 or less","description of property":"Second-Hand","longitude":-8.084619,"id":"acjsfkuq04uf","property type":"House","province":"Connacht"},"type":"Feature","geometry":{"type":"Point","coordinates":[-8.084619,53.905841]}},{"properties":{"latitude":52.131485,"county":"Waterford","bin":"50,000 or less","description of property":"Second-Hand","longitude":-7.462467,"id":"acjsfkkiv020","property type":"House","province":"Munster"},"type":"Feature","geometry":{"type":"Point","coordinates":[-7.462467,52.131485]}},{"properties":{"latitude":51.892845,"county":"Cork","bin":"50,000 or less","description of property":"Second-Hand","longitude":-8.46376,"id":"acjsfkhan2zc","property type":"House","province":"Munster"},"type":"Feature","geometry":{"type":"Point","coordinates":[-8.46376,51.892845]}},{"properties":{"latitude":53.465592,"county":"Clare","bin":"50,000 or less","description of property":"Second-Hand","longitude":-7.649442,"id":"acjsfkv4h03u","property type":"House","province":"Munster"},"type":"Feature","geometry":{"type":"Point","coordinates":[-7.649442,53.465592]}},{"properties":{"latitude":53.632075,"county":"Longford","bin":"50,000 or less","description of property":"Second-Hand","longitude":-7.628389,"id":"acjsfkppdibg","property type":"House","province":"Leinster"},"type":"Feature","geometry":{"type":"Point","coordinates":[-7.628389,53.632075]}},{"properties":{"latitude":52.997765,"county":"Laois","bin":"50,000 or less","description of property":"Second-Hand","longitude":-7.33284,"id":"acjsfkmlmfmk","property type":"House","province":"Leinster"},"type":"Feature","geometry":{"type":"Point","coordinates":[-7.33284,52.997765]}},{"properties":{"latitude":54.005335,"county":"Donegal","bin":"50,000 or less","description of property":"Second-Hand","longitude":-6.350174,"id":"acjsfkmwivu6","property type":"House","province":"Ulster"},"type":"Feature","geometry":{"type":"Point","coordinates":[-6.350174,54.005335]}},{"properties":{"latitude":53.510215,"county":"Waterford","bin":"50,000 or less","description of property":"Second-Hand","longitude":-6.217699,"id":"acjsfkmq4tig","property type":"House","province":"Munster"},"type":"Feature","geometry":{"type":"Point","coordinates":[-6.217699,53.510215]}},{"properties":{"latitude":52.175705,"county":"Cork","bin":"50,000 or less","description of property":"Second-Hand","longitude":-8.904184,"id":"acjsfkt5ddjn","property type":"House","province":"Munster"},"type":"Feature","geometry":{"type":"Point","coordinates":[-8.904184,52.175705]}},{"properties":{"latitude":53.970943,"county":"Monaghan","bin":"50,000 or less","description of property":"New","longitude":-6.724996,"id":"acjsfkqluc3v","property type":"Apartment","province":"Ulster"},"type":"Feature","geometry":{"type":"Point","coordinates":[-6.724996,53.970943]}},{"properties":{"latitude":54.001871,"county":"Louth","bin":"50,000 or less","description of property":"New","longitude":-6.404311,"id":"acjsfkslapg3","property type":"House","province":"Leinster"},"type":"Feature","geometry":{"type":"Point","coordinates":[-6.404311,54.001871]}},{"properties":{"latitude":53.72681,"county":"Longford","bin":"50,000 or less","description of property":"Second-Hand","longitude":-7.795689,"id":"acjsfksmacvv","property type":"House","province":"Leinster"},"type":"Feature","geometry":{"type":"Point","coordinates":[-7.795689,53.72681]}},{"properties":{"latitude":53.558035,"county":"Westmeath","bin":"50,000 or less","description of property":"Second-Hand","longitude":-7.46394,"id":"acjsfkwprf5a","property type":"House","province":"Leinster"},"type":"Feature","geometry":{"type":"Point","coordinates":[-7.46394,53.558035]}},{"properties":{"latitude":52.67611,"county":"Wexford","bin":"50,000 or less","description of property":"Second-Hand","longitude":-6.292914,"id":"acjsfknhvcgx","property type":"House","province":"Leinster"},"type":"Feature","geometry":{"type":"Point","coordinates":[-6.292914,52.67611]}},{"properties":{"latitude":51.892845,"county":"Cork","bin":"50,000 or less","description of property":"Second-Hand","longitude":-8.46376,"id":"acjsfkuyl9g0","property type":"House","province":"Munster"},"type":"Feature","geometry":{"type":"Point","coordinates":[-8.46376,51.892845]}},{"properties":{"latitude":53.630098,"county":"Roscommon","bin":"50,000 or less","description of property":"Second-Hand","longitude":-8.189912,"id":"acjsfkpwjjap","property type":"House","province":"Connacht"},"type":"Feature","geometry":{"type":"Point","coordinates":[-8.189912,53.630098]}},{"properties":{"latitude":53.838099,"county":"Limerick","bin":"50,000 or less","description of property":"Second-Hand","longitude":-8.859086,"id":"acjsfknb9mlb","property type":"House","province":"Munster"},"type":"Feature","geometry":{"type":"Point","coordinates":[-8.859086,53.838099]}},{"properties":{"latitude":52.660985,"county":"Limerick","bin":"50,000 or less","description of property":"Second-Hand","longitude":-8.632589,"id":"acjsfkrrks3b","property type":"House","province":"Munster"},"type":"Feature","geometry":{"type":"Point","coordinates":[-8.632589,52.660985]}},{"properties":{"latitude":54.247205,"county":"Monaghan","bin":"50,000 or less","description of property":"Second-Hand","longitude":-6.970981,"id":"acjsfkjxbjn8","property type":"House","province":"Ulster"},"type":"Feature","geometry":{"type":"Point","coordinates":[-6.970981,54.247205]}},{"properties":{"latitude":52.261862,"county":"Waterford","bin":"50,000 or less","description of property":"Second-Hand","longitude":-7.117586,"id":"acjsfkmfd6mh","property type":"House","province":"Munster"},"type":"Feature","geometry":{"type":"Point","coordinates":[-7.117586,52.261862]}},{"properties":{"latitude":52.658235,"county":"Limerick","bin":"50,000 or less","description of property":"Second-Hand","longitude":-8.625088,"id":"acjsfksiljw3","property type":"House","province":"Munster"},"type":"Feature","geometry":{"type":"Point","coordinates":[-8.625088,52.658235]}},{"properties":{"latitude":52.658235,"county":"Limerick","bin":"50,000 or less","description of property":"Second-Hand","longitude":-8.625088,"id":"acjsfkpoikq1","property type":"House","province":"Munster"},"type":"Feature","geometry":{"type":"Point","coordinates":[-8.625088,52.658235]}},{"properties":{"latitude":52.658235,"county":"Limerick","bin":"50,000 or less","description of property":"Second-Hand","longitude":-8.625088,"id":"acjsfkl3uu09","property type":"House","province":"Munster"},"type":"Feature","geometry":{"type":"Point","coordinates":[-8.625088,52.658235]}},{"properties":{"latitude":53.838099,"county":"Limerick","bin":"50,000 or less","description of property":"Second-Hand","longitude":-8.859086,"id":"acjsfkp1jggf","property type":"House","province":"Munster"},"type":"Feature","geometry":{"type":"Point","coordinates":[-8.859086,53.838099]}},{"properties":{"latitude":53.156469,"county":"Kildare","bin":"50,000 or less","description of property":"Second-Hand","longitude":-6.90914,"id":"acjsfki58g4w","property type":"House","province":"Leinster"},"type":"Feature","geometry":{"type":"Point","coordinates":[-6.90914,53.156469]}},{"properties":{"latitude":54.481025,"county":"Donegal","bin":"50,000 or less","description of property":"Second-Hand","longitude":-8.275899,"id":"acjsfko5rsty","property type":"House","province":"Ulster"},"type":"Feature","geometry":{"type":"Point","coordinates":[-8.275899,54.481025]}},{"properties":{"latitude":53.344827,"county":"Dublin","bin":"50,000 or less","description of property":"New","longitude":-6.259215,"id":"acjsfki0zsx4","property type":"Apartment","province":"Leinster"},"type":"Feature","geometry":{"type":"Point","coordinates":[-6.259215,53.344827]}},{"properties":{"latitude":52.351298,"county":"Cork","bin":"50,000 or less","description of property":"Second-Hand","longitude":-8.680512,"id":"acjsfki6mwhe","property type":"House","province":"Munster"},"type":"Feature","geometry":{"type":"Point","coordinates":[-8.680512,52.351298]}},{"properties":{"latitude":54.272235,"county":"Sligo","bin":"50,000 or less","description of property":"Second-Hand","longitude":-8.475984,"id":"acjsfkm8h9xb","property type":"House","province":"Connacht"},"type":"Feature","geometry":{"type":"Point","coordinates":[-8.475984,54.272235]}},{"properties":{"latitude":52.180384,"county":"Cork","bin":"50,000 or less","description of property":"Second-Hand","longitude":-8.811189,"id":"acjsfkt846to","property type":"House","province":"Munster"},"type":"Feature","geometry":{"type":"Point","coordinates":[-8.811189,52.180384]}},{"properties":{"latitude":53.988534,"county":"Cavan","bin":"50,000 or less","description of property":"Second-Hand","longitude":-7.362157,"id":"acjsfkq55cu8","property type":"House","province":"Ulster"},"type":"Feature","geometry":{"type":"Point","coordinates":[-7.362157,53.988534]}},{"properties":{"latitude":53.979571,"county":"Monaghan","bin":"50,000 or less","description of property":"Second-Hand","longitude":-6.717305,"id":"acjsfkvc9af3","property type":"House","province":"Ulster"},"type":"Feature","geometry":{"type":"Point","coordinates":[-6.717305,53.979571]}},{"properties":{"latitude":54.109815,"county":"Mayo","bin":"50,000 or less","description of property":"Second-Hand","longitude":-9.023922,"id":"acjsfkp5robb","property type":"House","province":"Connacht"},"type":"Feature","geometry":{"type":"Point","coordinates":[-9.023922,54.109815]}},{"properties":{"latitude":52.846766,"county":"Clare","bin":"50,000 or less","description of property":"Second-Hand","longitude":-8.987578,"id":"acjsfktghnyi","property type":"House","province":"Munster"},"type":"Feature","geometry":{"type":"Point","coordinates":[-8.987578,52.846766]}},{"properties":{"latitude":52.187565,"county":"Cork","bin":"50,000 or less","description of property":"Second-Hand","longitude":-8.353994,"id":"acjsfkpjnr6z","property type":"House","province":"Munster"},"type":"Feature","geometry":{"type":"Point","coordinates":[-8.353994,52.187565]}},{"properties":{"latitude":52.67611,"county":"Wicklow","bin":"50,000 or less","description of property":"New","longitude":-6.292914,"id":"acjsfkm4f5r2","property type":"House","province":"Leinster"},"type":"Feature","geometry":{"type":"Point","coordinates":[-6.292914,52.67611]}},{"properties":{"latitude":52.938742,"county":"Clare","bin":"50,000 or less","description of property":"Second-Hand","longitude":-9.288868,"id":"acjsfkoj3y2g","property type":"House","province":"Munster"},"type":"Feature","geometry":{"type":"Point","coordinates":[-9.288868,52.938742]}},{"properties":{"latitude":53.465592,"county":"Clare","bin":"50,000 or less","description of property":"Second-Hand","longitude":-7.649442,"id":"acjsfkxbb6pg","property type":"House","province":"Munster"},"type":"Feature","geometry":{"type":"Point","coordinates":[-7.649442,53.465592]}},{"properties":{"latitude":53.98942,"county":"Leitrim","bin":"50,000 or less","description of property":"Second-Hand","longitude":-8.064566,"id":"acjsfktr753c","property type":"House","province":"Connacht"},"type":"Feature","geometry":{"type":"Point","coordinates":[-8.064566,53.98942]}},{"properties":{"latitude":53.98942,"county":"Leitrim","bin":"50,000 or less","description of property":"Second-Hand","longitude":-8.064566,"id":"acjsfkwjoh11","property type":"House","province":"Connacht"},"type":"Feature","geometry":{"type":"Point","coordinates":[-8.064566,53.98942]}},{"properties":{"latitude":54.116745,"county":"Mayo","bin":"50,000 or less","description of property":"Second-Hand","longitude":-9.166434,"id":"acjsfkp41azd","property type":"House","province":"Connacht"},"type":"Feature","geometry":{"type":"Point","coordinates":[-9.166434,54.116745]}},{"properties":{"latitude":53.033014,"county":"Laois","bin":"50,000 or less","description of property":"New","longitude":-7.295512,"id":"acjsfkigzjud","property type":"House","province":"Leinster"},"type":"Feature","geometry":{"type":"Point","coordinates":[-7.295512,53.033014]}},{"properties":{"latitude":52.385005,"county":"Limerick","bin":"50,000 or less","description of property":"Second-Hand","longitude":-9.301392,"id":"acjsfkp3yfe0","property type":"House","province":"Munster"},"type":"Feature","geometry":{"type":"Point","coordinates":[-9.301392,52.385005]}},{"properties":{"latitude":52.67611,"county":"Wexford","bin":"50,000 or less","description of property":"New","longitude":-6.292914,"id":"acjsfknpj8nv","property type":"House","province":"Leinster"},"type":"Feature","geometry":{"type":"Point","coordinates":[-6.292914,52.67611]}},{"properties":{"latitude":55.134986,"county":"Donegal","bin":"50,000 or less","description of property":"Second-Hand","longitude":-8.108072,"id":"acjsfkvkrffo","property type":"House","province":"Ulster"},"type":"Feature","geometry":{"type":"Point","coordinates":[-8.108072,55.134986]}},{"properties":{"latitude":54.130882,"county":"Kerry","bin":"50,000 or less","description of property":"Second-Hand","longitude":-9.367607,"id":"acjsfkvr6lsz","property type":"House","province":"Munster"},"type":"Feature","geometry":{"type":"Point","coordinates":[-9.367607,54.130882]}},{"properties":{"latitude":52.337347,"county":"Wexford","bin":"50,000 or less","description of property":"Second-Hand","longitude":-6.458934,"id":"acjsfkjuvfpq","property type":"House","province":"Leinster"},"type":"Feature","geometry":{"type":"Point","coordinates":[-6.458934,52.337347]}},{"properties":{"latitude":53.6667,"county":"Westmeath","bin":"50,000 or less","description of property":"Second-Hand","longitude":-7.4833,"id":"acjsfkkp06vc","property type":"House","province":"Leinster"},"type":"Feature","geometry":{"type":"Point","coordinates":[-7.4833,53.6667]}},{"properties":{"latitude":52.321535,"county":"Limerick","bin":"50,000 or less","description of property":"Second-Hand","longitude":-8.266684,"id":"acjsfkkzw1mt","property type":"House","province":"Munster"},"type":"Feature","geometry":{"type":"Point","coordinates":[-8.266684,52.321535]}},{"properties":{"latitude":53.630098,"county":"Roscommon","bin":"50,000 or less","description of property":"Second-Hand","longitude":-8.189912,"id":"acjsfkkdbrqu","property type":"House","province":"Connacht"},"type":"Feature","geometry":{"type":"Point","coordinates":[-8.189912,53.630098]}},{"properties":{"latitude":52.516315,"county":"Tipperary","bin":"50,000 or less","description of property":"Second-Hand","longitude":-7.888824,"id":"acjsfknbv8jk","property type":"House","province":"Munster"},"type":"Feature","geometry":{"type":"Point","coordinates":[-7.888824,52.516315]}},{"properties":{"latitude":52.177091,"county":"Cork","bin":"50,000 or less","description of property":"Second-Hand","longitude":-8.905886,"id":"acjsfkupvnhv","property type":"House","province":"Munster"},"type":"Feature","geometry":{"type":"Point","coordinates":[-8.905886,52.177091]}},{"properties":{"latitude":53.22441,"county":"Kildare","bin":"50,000 or less","description of property":"Second-Hand","longitude":-6.655185,"id":"acjsfkqzankf","property type":"House","province":"Leinster"},"type":"Feature","geometry":{"type":"Point","coordinates":[-6.655185,53.22441]}},{"properties":{"latitude":52.405324,"county":"Kerry","bin":"50,000 or less","description of property":"Second-Hand","longitude":-9.61746,"id":"acjsfkq4854w","property type":"House","province":"Munster"},"type":"Feature","geometry":{"type":"Point","coordinates":[-9.61746,52.405324]}},{"properties":{"latitude":53.733104,"county":"Meath","bin":"50,000 or less","description of property":"Second-Hand","longitude":-6.874163,"id":"acjsfklq8yvf","property type":"House","province":"Leinster"},"type":"Feature","geometry":{"type":"Point","coordinates":[-6.874163,53.733104]}},{"properties":{"latitude":52.84557,"county":"Mayo","bin":"50,000 or less","description of property":"Second-Hand","longitude":-7.089134,"id":"acjsfkvgz86r","property type":"House","province":"Connacht"},"type":"Feature","geometry":{"type":"Point","coordinates":[-7.089134,52.84557]}},{"properties":{"latitude":51.893993,"county":"Cork","bin":"50,000 or less","description of property":"Second-Hand","longitude":-7.944406,"id":"acjsfkm21khb","property type":"House","province":"Munster"},"type":"Feature","geometry":{"type":"Point","coordinates":[-7.944406,51.893993]}},{"properties":{"latitude":53.745925,"county":"Waterford","bin":"50,000 or less","description of property":"Second-Hand","longitude":-7.831438,"id":"acjsfkulxvs0","property type":"House","province":"Munster"},"type":"Feature","geometry":{"type":"Point","coordinates":[-7.831438,53.745925]}},{"properties":{"latitude":53.49414,"county":"Leitrim","bin":"50,000 or less","description of property":"Second-Hand","longitude":-9.103369,"id":"acjsfkwypln1","property type":"House","province":"Connacht"},"type":"Feature","geometry":{"type":"Point","coordinates":[-9.103369,53.49414]}},{"properties":{"latitude":52.651194,"county":"Kilkenny","bin":"50,000 or less","description of property":"Second-Hand","longitude":-7.251514,"id":"acjsfku27zux","property type":"House","province":"Leinster"},"type":"Feature","geometry":{"type":"Point","coordinates":[-7.251514,52.651194]}},{"properties":{"latitude":54.05689,"county":"Leitrim","bin":"50,000 or less","description of property":"Second-Hand","longitude":-7.794684,"id":"acjsfkq7a2uo","property type":"House","province":"Connacht"},"type":"Feature","geometry":{"type":"Point","coordinates":[-7.794684,54.05689]}},{"properties":{"latitude":53.541146,"county":"Monaghan","bin":"50,000 or less","description of property":"Second-Hand","longitude":-9.21796,"id":"acjsfkj2ush2","property type":"House","province":"Ulster"},"type":"Feature","geometry":{"type":"Point","coordinates":[-9.21796,53.541146]}},{"properties":{"latitude":52.655424,"county":"Kilkenny","bin":"50,000 or less","description of property":"Second-Hand","longitude":-7.24421,"id":"acjsfkpvkdf8","property type":"House","province":"Leinster"},"type":"Feature","geometry":{"type":"Point","coordinates":[-7.24421,52.655424]}},{"properties":{"latitude":52.660985,"county":"Limerick","bin":"50,000 or less","description of property":"Second-Hand","longitude":-8.632589,"id":"acjsfknpajia","property type":"House","province":"Munster"},"type":"Feature","geometry":{"type":"Point","coordinates":[-8.632589,52.660985]}},{"properties":{"latitude":52.348781,"county":"Tipperary","bin":"50,000 or less","description of property":"Second-Hand","longitude":-7.39429,"id":"acjsfkrazyth","property type":"House","province":"Munster"},"type":"Feature","geometry":{"type":"Point","coordinates":[-7.39429,52.348781]}},{"properties":{"latitude":52.478475,"county":"Westmeath","bin":"50,000 or less","description of property":"Second-Hand","longitude":-8.548129,"id":"acjsfkn0z70s","property type":"House","province":"Leinster"},"type":"Feature","geometry":{"type":"Point","coordinates":[-8.548129,52.478475]}},{"properties":{"latitude":52.637635,"county":"Clare","bin":"50,000 or less","description of property":"Second-Hand","longitude":-9.482909,"id":"acjsfkin02vo","property type":"House","province":"Munster"},"type":"Feature","geometry":{"type":"Point","coordinates":[-9.482909,52.637635]}},{"properties":{"latitude":54.951939,"county":"Donegal","bin":"50,000 or less","description of property":"New","longitude":-7.730824,"id":"acjsfkqlumza","property type":"House","province":"Ulster"},"type":"Feature","geometry":{"type":"Point","coordinates":[-7.730824,54.951939]}},{"properties":{"latitude":52.79705,"county":"Tipperary","bin":"50,000 or less","description of property":"Second-Hand","longitude":-7.832229,"id":"acjsfkjdac0n","property type":"House","province":"Munster"},"type":"Feature","geometry":{"type":"Point","coordinates":[-7.832229,52.79705]}},{"properties":{"latitude":51.89834,"county":"Cork","bin":"50,000 or less","description of property":"Second-Hand","longitude":-8.472774,"id":"acjsfkn5tcz9","property type":"House","province":"Munster"},"type":"Feature","geometry":{"type":"Point","coordinates":[-8.472774,51.89834]}},{"properties":{"latitude":53.45216,"county":"Galway","bin":"50,000 or less","description of property":"Second-Hand","longitude":-8.474279,"id":"acjsfkse5ymc","property type":"House","province":"Connacht"},"type":"Feature","geometry":{"type":"Point","coordinates":[-8.474279,53.45216]}},{"properties":{"latitude":51.89834,"county":"Cork","bin":"50,000 or less","description of property":"Second-Hand","longitude":-8.472774,"id":"acjsfklzqhls","property type":"House","province":"Munster"},"type":"Feature","geometry":{"type":"Point","coordinates":[-8.472774,51.89834]}},{"properties":{"latitude":51.89834,"county":"Cork","bin":"50,000 or less","description of property":"Second-Hand","longitude":-8.472774,"id":"acjsfkwns14c","property type":"House","province":"Munster"},"type":"Feature","geometry":{"type":"Point","coordinates":[-8.472774,51.89834]}},{"properties":{"latitude":52.337142,"county":"Wexford","bin":"50,000 or less","description of property":"Second-Hand","longitude":-6.461499,"id":"acjsfknta2x3","property type":"House","province":"Leinster"},"type":"Feature","geometry":{"type":"Point","coordinates":[-6.461499,52.337142]}},{"properties":{"latitude":53.648742,"county":"Meath","bin":"50,000 or less","description of property":"Second-Hand","longitude":-6.68743,"id":"acjsfkwi3ifu","property type":"House","province":"Leinster"},"type":"Feature","geometry":{"type":"Point","coordinates":[-6.68743,53.648742]}},{"properties":{"latitude":54.175302,"county":"Sligo","bin":"50,000 or less","description of property":"New","longitude":-8.601522,"id":"acjsfkwdgzoq","property type":"Apartment","province":"Connacht"},"type":"Feature","geometry":{"type":"Point","coordinates":[-8.601522,54.175302]}},{"properties":{"latitude":53.65771,"county":"Galway","bin":"50,000 or less","description of property":"Second-Hand","longitude":-8.649539,"id":"acjsfknp009o","property type":"House","province":"Connacht"},"type":"Feature","geometry":{"type":"Point","coordinates":[-8.649539,53.65771]}},{"properties":{"latitude":52.176148,"county":"Cork","bin":"50,000 or less","description of property":"Second-Hand","longitude":-8.901906,"id":"acjsfkjrwgew","property type":"House","province":"Munster"},"type":"Feature","geometry":{"type":"Point","coordinates":[-8.901906,52.176148]}},{"properties":{"latitude":53.465592,"county":"Clare","bin":"50,000 or less","description of property":"Second-Hand","longitude":-7.649442,"id":"acjsfkuop96e","property type":"House","province":"Munster"},"type":"Feature","geometry":{"type":"Point","coordinates":[-7.649442,53.465592]}},{"properties":{"latitude":54.654305,"county":"Donegal","bin":"50,000 or less","description of property":"Second-Hand","longitude":-8.110624,"id":"acjsfkok3p4k","property type":"House","province":"Ulster"},"type":"Feature","geometry":{"type":"Point","coordinates":[-8.110624,54.654305]}},{"properties":{"latitude":52.637635,"county":"Clare","bin":"50,000 or less","description of property":"Second-Hand","longitude":-9.482909,"id":"acjsfkq0sud1","property type":"House","province":"Munster"},"type":"Feature","geometry":{"type":"Point","coordinates":[-9.482909,52.637635]}},{"properties":{"latitude":54.654465,"county":"Donegal","bin":"50,000 or less","description of property":"Second-Hand","longitude":-8.10711,"id":"acjsfkjaaw1j","property type":"House","province":"Ulster"},"type":"Feature","geometry":{"type":"Point","coordinates":[-8.10711,54.654465]}},{"properties":{"latitude":52.262,"county":"Waterford","bin":"50,000 or less","description of property":"New","longitude":-7.110869,"id":"acjsfkv7c9vi","property type":"House","province":"Munster"},"type":"Feature","geometry":{"type":"Point","coordinates":[-7.110869,52.262]}},{"properties":{"latitude":52.283034,"county":"Kerry","bin":"50,000 or less","description of property":"Second-Hand","longitude":-9.692362,"id":"acjsfkr9xpcl","property type":"House","province":"Munster"},"type":"Feature","geometry":{"type":"Point","coordinates":[-9.692362,52.283034]}},{"properties":{"latitude":52.230065,"county":"Kerry","bin":"50,000 or less","description of property":"Second-Hand","longitude":-9.465884,"id":"acjsfkqhviog","property type":"House","province":"Munster"},"type":"Feature","geometry":{"type":"Point","coordinates":[-9.465884,52.230065]}},{"properties":{"latitude":53.622634,"county":"Mayo","bin":"50,000 or less","description of property":"Second-Hand","longitude":-9.220735,"id":"acjsfkiejc1e","property type":"House","province":"Connacht"},"type":"Feature","geometry":{"type":"Point","coordinates":[-9.220735,53.622634]}},{"properties":{"latitude":53.992859,"county":"Sligo","bin":"50,000 or less","description of property":"Second-Hand","longitude":-8.51519,"id":"acjsfklbnde3","property type":"House","province":"Connacht"},"type":"Feature","geometry":{"type":"Point","coordinates":[-8.51519,53.992859]}},{"properties":{"latitude":53.523625,"county":"Westmeath","bin":"50,000 or less","description of property":"New","longitude":-7.339362,"id":"acjsfkwqswju","property type":"House","province":"Leinster"},"type":"Feature","geometry":{"type":"Point","coordinates":[-7.339362,53.523625]}},{"properties":{"latitude":52.806864,"county":"Clare","bin":"50,000 or less","description of property":"Second-Hand","longitude":-8.442085,"id":"acjsfkkuhq6c","property type":"House","province":"Munster"},"type":"Feature","geometry":{"type":"Point","coordinates":[-8.442085,52.806864]}},{"properties":{"latitude":53.144615,"county":"Laois","bin":"50,000 or less","description of property":"Second-Hand","longitude":-7.270029,"id":"acjsfkuqlrkh","property type":"House","province":"Leinster"},"type":"Feature","geometry":{"type":"Point","coordinates":[-7.270029,53.144615]}},{"properties":{"latitude":53.763179,"county":"Mayo","bin":"50,000 or less","description of property":"Second-Hand","longitude":-8.765018,"id":"acjsfkn8zpds","property type":"House","province":"Connacht"},"type":"Feature","geometry":{"type":"Point","coordinates":[-8.765018,53.763179]}},{"properties":{"latitude":52.651194,"county":"Kilkenny","bin":"50,000 or less","description of property":"Second-Hand","longitude":-7.251514,"id":"acjsfkknp87f","property type":"House","province":"Leinster"},"type":"Feature","geometry":{"type":"Point","coordinates":[-7.251514,52.651194]}},{"properties":{"latitude":53.79331,"county":"Louth","bin":"50,000 or less","description of property":"Second-Hand","longitude":-6.239055,"id":"acjsfkohroah","property type":"House","province":"Leinster"},"type":"Feature","geometry":{"type":"Point","coordinates":[-6.239055,53.79331]}},{"properties":{"latitude":54.114264,"county":"Mayo","bin":"50,000 or less","description of property":"Second-Hand","longitude":-9.154042,"id":"acjsfkl00pnz","property type":"House","province":"Connacht"},"type":"Feature","geometry":{"type":"Point","coordinates":[-9.154042,54.114264]}},{"properties":{"latitude":53.273885,"county":"Galway","bin":"50,000 or less","description of property":"Second-Hand","longitude":-9.048349,"id":"acjsfkm8jode","property type":"House","province":"Connacht"},"type":"Feature","geometry":{"type":"Point","coordinates":[-9.048349,53.273885]}},{"properties":{"latitude":53.503825,"county":"Meath","bin":"50,000 or less","description of property":"Second-Hand","longitude":-6.455059,"id":"acjsfkm8ao5f","property type":"House","province":"Leinster"},"type":"Feature","geometry":{"type":"Point","coordinates":[-6.455059,53.503825]}},{"properties":{"latitude":53.388288,"county":"Dublin","bin":"50,000 or less","description of property":"Second-Hand","longitude":-6.29814,"id":"acjsfkldvcda","property type":"House","province":"Leinster"},"type":"Feature","geometry":{"type":"Point","coordinates":[-6.29814,53.388288]}},{"properties":{"latitude":52.590341,"county":"Wexford","bin":"50,000 or less","description of property":"Second-Hand","longitude":-6.493059,"id":"acjsfkxds8ut","property type":"House","province":"Leinster"},"type":"Feature","geometry":{"type":"Point","coordinates":[-6.493059,52.590341]}},{"properties":{"latitude":54.47654,"county":"Donegal","bin":"50,000 or less","description of property":"Second-Hand","longitude":-8.286519,"id":"acjsfkt4546r","property type":"House","province":"Ulster"},"type":"Feature","geometry":{"type":"Point","coordinates":[-8.286519,54.47654]}},{"properties":{"latitude":52.589378,"county":"Wexford","bin":"50,000 or less","description of property":"New","longitude":-6.500883,"id":"acjsfkpzeqyn","property type":"House","province":"Leinster"},"type":"Feature","geometry":{"type":"Point","coordinates":[-6.500883,52.589378]}},{"properties":{"latitude":55.294165,"county":"Donegal","bin":"50,000 or less","description of property":"Second-Hand","longitude":-7.243184,"id":"acjsfksb41vw","property type":"House","province":"Ulster"},"type":"Feature","geometry":{"type":"Point","coordinates":[-7.243184,55.294165]}},{"properties":{"latitude":53.040374,"county":"Laois","bin":"50,000 or less","description of property":"Second-Hand","longitude":-7.293131,"id":"acjsfku6fzas","property type":"House","province":"Leinster"},"type":"Feature","geometry":{"type":"Point","coordinates":[-7.293131,53.040374]}},{"properties":{"latitude":53.887798,"county":"Mayo","bin":"50,000 or less","description of property":"Second-Hand","longitude":-9.544984,"id":"acjsfkmkzo5y","property type":"House","province":"Connacht"},"type":"Feature","geometry":{"type":"Point","coordinates":[-9.544984,53.887798]}},{"properties":{"latitude":53.514069,"county":"Meath","bin":"50,000 or less","description of property":"New","longitude":-6.541138,"id":"acjsfkwm2ssz","property type":"House","province":"Leinster"},"type":"Feature","geometry":{"type":"Point","coordinates":[-6.541138,53.514069]}},{"properties":{"latitude":54.212521,"county":"Sligo","bin":"50,000 or less","description of property":"Second-Hand","longitude":-8.519019,"id":"acjsfkqoauu4","property type":"House","province":"Connacht"},"type":"Feature","geometry":{"type":"Point","coordinates":[-8.519019,54.212521]}},{"properties":{"latitude":53.32817,"county":"Dublin","bin":"50,000 or less","description of property":"Second-Hand","longitude":-6.422089,"id":"acjsfkora12i","property type":"House","province":"Leinster"},"type":"Feature","geometry":{"type":"Point","coordinates":[-6.422089,53.32817]}},{"properties":{"latitude":52.405324,"county":"Kerry","bin":"50,000 or less","description of property":"Second-Hand","longitude":-9.61746,"id":"acjsfkw3mct6","property type":"House","province":"Munster"},"type":"Feature","geometry":{"type":"Point","coordinates":[-9.61746,52.405324]}},{"properties":{"latitude":52.867539,"county":"Laois","bin":"50,000 or less","description of property":"Second-Hand","longitude":-7.041822,"id":"acjsfkvtk2pd","property type":"House","province":"Leinster"},"type":"Feature","geometry":{"type":"Point","coordinates":[-7.041822,52.867539]}},{"properties":{"latitude":53.988534,"county":"Cavan","bin":"50,000 or less","description of property":"Second-Hand","longitude":-7.362157,"id":"acjsfkuwkz34","property type":"House","province":"Ulster"},"type":"Feature","geometry":{"type":"Point","coordinates":[-7.362157,53.988534]}},{"properties":{"latitude":53.514304,"county":"Westmeath","bin":"50,000 or less","description of property":"Second-Hand","longitude":-7.142314,"id":"acjsfkq4o5i2","property type":"House","province":"Leinster"},"type":"Feature","geometry":{"type":"Point","coordinates":[-7.142314,53.514304]}},{"properties":{"latitude":52.258429,"county":"Waterford","bin":"50,000 or less","description of property":"Second-Hand","longitude":-7.11463,"id":"acjsfkm5ayrg","property type":"House","province":"Munster"},"type":"Feature","geometry":{"type":"Point","coordinates":[-7.11463,52.258429]}},{"properties":{"latitude":52.660985,"county":"Limerick","bin":"50,000 or less","description of property":"Second-Hand","longitude":-8.632589,"id":"acjsfkj0ixqr","property type":"House","province":"Munster"},"type":"Feature","geometry":{"type":"Point","coordinates":[-8.632589,52.660985]}},{"properties":{"latitude":54.93993,"county":"Donegal","bin":"50,000 or less","description of property":"Second-Hand","longitude":-7.707664,"id":"acjsfko9auht","property type":"House","province":"Ulster"},"type":"Feature","geometry":{"type":"Point","coordinates":[-7.707664,54.93993]}},{"properties":{"latitude":52.473782,"county":"Tipperary","bin":"50,000 or less","description of property":"Second-Hand","longitude":-8.161023,"id":"acjsfkino427","property type":"House","province":"Munster"},"type":"Feature","geometry":{"type":"Point","coordinates":[-8.161023,52.473782]}},{"properties":{"latitude":52.337347,"county":"Wexford","bin":"50,000 or less","description of property":"Second-Hand","longitude":-6.458934,"id":"acjsfkx2pg07","property type":"House","province":"Leinster"},"type":"Feature","geometry":{"type":"Point","coordinates":[-6.458934,52.337347]}},{"properties":{"latitude":54.230445,"county":"Leitrim","bin":"50,000 or less","description of property":"Second-Hand","longitude":-8.302494,"id":"acjsfkm3ub8y","property type":"House","province":"Connacht"},"type":"Feature","geometry":{"type":"Point","coordinates":[-8.302494,54.230445]}},{"properties":{"latitude":53.005941,"county":"Donegal","bin":"50,000 or less","description of property":"Second-Hand","longitude":-9.216416,"id":"acjsfkjsrwoa","property type":"House","province":"Ulster"},"type":"Feature","geometry":{"type":"Point","coordinates":[-9.216416,53.005941]}},{"properties":{"latitude":53.280676,"county":"Dublin","bin":"50,000 or less","description of property":"New","longitude":-6.344425,"id":"acjsfkpauj6p","property type":"House","province":"Leinster"},"type":"Feature","geometry":{"type":"Point","coordinates":[-6.344425,53.280676]}},{"properties":{"latitude":51.89834,"county":"Cork","bin":"50,000 or less","description of property":"Second-Hand","longitude":-8.472774,"id":"acjsfkqcfq5h","property type":"House","province":"Munster"},"type":"Feature","geometry":{"type":"Point","coordinates":[-8.472774,51.89834]}},{"properties":{"latitude":52.939448,"county":"Laois","bin":"50,000 or less","description of property":"Second-Hand","longitude":-7.62841,"id":"acjsfkijq53p","property type":"House","province":"Leinster"},"type":"Feature","geometry":{"type":"Point","coordinates":[-7.62841,52.939448]}},{"properties":{"latitude":54.188362,"county":"Cavan","bin":"50,000 or less","description of property":"Second-Hand","longitude":-8.020384,"id":"acjsfktpms6h","property type":"House","province":"Ulster"},"type":"Feature","geometry":{"type":"Point","coordinates":[-8.020384,54.188362]}},{"properties":{"latitude":52.236782,"county":"Kerry","bin":"50,000 or less","description of property":"Second-Hand","longitude":-10.18065,"id":"acjsfkotnkch","property type":"House","province":"Munster"},"type":"Feature","geometry":{"type":"Point","coordinates":[-10.18065,52.236782]}},{"properties":{"latitude":53.163113,"county":"Laois","bin":"50,000 or less","description of property":"Second-Hand","longitude":-7.184644,"id":"acjsfkp67fpn","property type":"House","province":"Leinster"},"type":"Feature","geometry":{"type":"Point","coordinates":[-7.184644,53.163113]}},{"properties":{"latitude":53.163113,"county":"Laois","bin":"50,000 or less","description of property":"Second-Hand","longitude":-7.184644,"id":"acjsfkiynlfw","property type":"House","province":"Leinster"},"type":"Feature","geometry":{"type":"Point","coordinates":[-7.184644,53.163113]}},{"properties":{"latitude":51.89834,"county":"Cork","bin":"50,000 or less","description of property":"Second-Hand","longitude":-8.472774,"id":"acjsfktfp8h0","property type":"House","province":"Munster"},"type":"Feature","geometry":{"type":"Point","coordinates":[-8.472774,51.89834]}},{"properties":{"latitude":54.175302,"county":"Sligo","bin":"50,000 or less","description of property":"New","longitude":-8.601522,"id":"acjsfki4xe0r","property type":"Apartment","province":"Connacht"},"type":"Feature","geometry":{"type":"Point","coordinates":[-8.601522,54.175302]}},{"properties":{"latitude":53.273885,"county":"Galway","bin":"50,000 or less","description of property":"Second-Hand","longitude":-9.048349,"id":"acjsfkj7b4fg","property type":"House","province":"Connacht"},"type":"Feature","geometry":{"type":"Point","coordinates":[-9.048349,53.273885]}},{"properties":{"latitude":52.711971,"county":"Mayo","bin":"50,000 or less","description of property":"Second-Hand","longitude":-8.411357,"id":"acjsfkonf342","property type":"House","province":"Connacht"},"type":"Feature","geometry":{"type":"Point","coordinates":[-8.411357,52.711971]}},{"properties":{"latitude":52.931905,"county":"Clare","bin":"50,000 or less","description of property":"Second-Hand","longitude":-9.345854,"id":"acjsfkiur38t","property type":"House","province":"Munster"},"type":"Feature","geometry":{"type":"Point","coordinates":[-9.345854,52.931905]}},{"properties":{"latitude":52.957138,"county":"Clare","bin":"50,000 or less","description of property":"Second-Hand","longitude":-9.213277,"id":"acjsfkvzgbyt","property type":"House","province":"Munster"},"type":"Feature","geometry":{"type":"Point","coordinates":[-9.213277,52.957138]}},{"properties":{"latitude":53.099376,"county":"Offaly","bin":"50,000 or less","description of property":"Second-Hand","longitude":-7.908963,"id":"acjsfksqazeo","property type":"House","province":"Leinster"},"type":"Feature","geometry":{"type":"Point","coordinates":[-7.908963,53.099376]}},{"properties":{"latitude":52.337347,"county":"Wexford","bin":"50,000 or less","description of property":"Second-Hand","longitude":-6.458934,"id":"acjsfkkhwj1r","property type":"House","province":"Leinster"},"type":"Feature","geometry":{"type":"Point","coordinates":[-6.458934,52.337347]}},{"properties":{"latitude":54.272235,"county":"Sligo","bin":"50,000 or less","description of property":"Second-Hand","longitude":-8.475984,"id":"acjsfkoj4egi","property type":"House","province":"Connacht"},"type":"Feature","geometry":{"type":"Point","coordinates":[-8.475984,54.272235]}},{"properties":{"latitude":53.33704,"county":"Dublin","bin":"50,000 or less","description of property":"Second-Hand","longitude":-6.286879,"id":"acjsfktxigck","property type":"House","province":"Leinster"},"type":"Feature","geometry":{"type":"Point","coordinates":[-6.286879,53.33704]}},{"properties":{"latitude":54.175302,"county":"Sligo","bin":"50,000 or less","description of property":"New","longitude":-8.601522,"id":"acjsfkix7wtg","property type":"Apartment","province":"Connacht"},"type":"Feature","geometry":{"type":"Point","coordinates":[-8.601522,54.175302]}},{"properties":{"latitude":54.654305,"county":"Donegal","bin":"50,000 or less","description of property":"Second-Hand","longitude":-8.110624,"id":"acjsfkhl6q7k","property type":"House","province":"Ulster"},"type":"Feature","geometry":{"type":"Point","coordinates":[-8.110624,54.654305]}},{"properties":{"latitude":54.175302,"county":"Sligo","bin":"50,000 or less","description of property":"New","longitude":-8.601522,"id":"acjsfkhb8krq","property type":"Apartment","province":"Connacht"},"type":"Feature","geometry":{"type":"Point","coordinates":[-8.601522,54.175302]}},{"properties":{"latitude":52.354164,"county":"Cork","bin":"50,000 or less","description of property":"Second-Hand","longitude":-8.682404,"id":"acjsfktwfhgq","property type":"House","province":"Munster"},"type":"Feature","geometry":{"type":"Point","coordinates":[-8.682404,52.354164]}},{"properties":{"latitude":53.257989,"county":"Meath","bin":"50,000 or less","description of property":"Second-Hand","longitude":-8.6662,"id":"acjsfkmwmysi","property type":"House","province":"Leinster"},"type":"Feature","geometry":{"type":"Point","coordinates":[-8.6662,53.257989]}},{"properties":{"latitude":53.523625,"county":"Westmeath","bin":"50,000 or less","description of property":"Second-Hand","longitude":-7.339362,"id":"acjsfkmq4tct","property type":"House","province":"Leinster"},"type":"Feature","geometry":{"type":"Point","coordinates":[-7.339362,53.523625]}},{"properties":{"latitude":53.275925,"county":"Offaly","bin":"50,000 or less","description of property":"Second-Hand","longitude":-7.492104,"id":"acjsfkifmzhp","property type":"House","province":"Leinster"},"type":"Feature","geometry":{"type":"Point","coordinates":[-7.492104,53.275925]}},{"properties":{"latitude":52.427708,"county":"Longford","bin":"50,000 or less","description of property":"Second-Hand","longitude":-8.691472,"id":"acjsfkheii7j","property type":"House","province":"Leinster"},"type":"Feature","geometry":{"type":"Point","coordinates":[-8.691472,52.427708]}},{"properties":{"latitude":52.169325,"county":"Kerry","bin":"50,000 or less","description of property":"Second-Hand","longitude":-9.705569,"id":"acjsfks30sv6","property type":"House","province":"Munster"},"type":"Feature","geometry":{"type":"Point","coordinates":[-9.705569,52.169325]}},{"properties":{"latitude":52.337347,"county":"Wexford","bin":"50,000 or less","description of property":"Second-Hand","longitude":-6.458934,"id":"acjsfkwclh83","property type":"House","province":"Leinster"},"type":"Feature","geometry":{"type":"Point","coordinates":[-6.458934,52.337347]}},{"properties":{"latitude":53.779976,"county":"Cavan","bin":"50,000 or less","description of property":"Second-Hand","longitude":-7.388685,"id":"acjsfkxd3odg","property type":"House","province":"Ulster"},"type":"Feature","geometry":{"type":"Point","coordinates":[-7.388685,53.779976]}},{"properties":{"latitude":52.13779,"county":"Cork","bin":"50,000 or less","description of property":"Second-Hand","longitude":-8.64871,"id":"acjsfkqo9mhu","property type":"House","province":"Munster"},"type":"Feature","geometry":{"type":"Point","coordinates":[-8.64871,52.13779]}},{"properties":{"latitude":53.901459,"county":"Roscommon","bin":"50,000 or less","description of property":"Second-Hand","longitude":-8.57996,"id":"acjsfknyc5kx","property type":"House","province":"Connacht"},"type":"Feature","geometry":{"type":"Point","coordinates":[-8.57996,53.901459]}},{"properties":{"latitude":51.90496,"county":"Cork","bin":"50,000 or less","description of property":"Second-Hand","longitude":-8.960034,"id":"acjsfkhfkkes","property type":"House","province":"Munster"},"type":"Feature","geometry":{"type":"Point","coordinates":[-8.960034,51.90496]}},{"properties":{"latitude":53.72681,"county":"Longford","bin":"50,000 or less","description of property":"Second-Hand","longitude":-7.795689,"id":"acjsfktznbyb","property type":"House","province":"Leinster"},"type":"Feature","geometry":{"type":"Point","coordinates":[-7.795689,53.72681]}},{"properties":{"latitude":53.44969,"county":"Dublin","bin":"50,000 or less","description of property":"Second-Hand","longitude":-6.160429,"id":"acjsfkwcwiei","property type":"House","province":"Leinster"},"type":"Feature","geometry":{"type":"Point","coordinates":[-6.160429,53.44969]}},{"properties":{"latitude":53.178961,"county":"Offaly","bin":"50,000 or less","description of property":"Second-Hand","longitude":-7.73237,"id":"acjsfkqge4q4","property type":"House","province":"Leinster"},"type":"Feature","geometry":{"type":"Point","coordinates":[-7.73237,53.178961]}},{"properties":{"latitude":52.05883,"county":"Kerry","bin":"50,000 or less","description of property":"Second-Hand","longitude":-9.509259,"id":"acjsfkqgnq2i","property type":"House","province":"Munster"},"type":"Feature","geometry":{"type":"Point","coordinates":[-9.509259,52.05883]}},{"properties":{"latitude":54.955554,"county":"Donegal","bin":"50,000 or less","description of property":"Second-Hand","longitude":-7.701427,"id":"acjsfklr9z8g","property type":"House","province":"Ulster"},"type":"Feature","geometry":{"type":"Point","coordinates":[-7.701427,54.955554]}},{"properties":{"latitude":53.465592,"county":"Clare","bin":"50,000 or less","description of property":"Second-Hand","longitude":-7.649442,"id":"acjsfklu4n3w","property type":"House","province":"Munster"},"type":"Feature","geometry":{"type":"Point","coordinates":[-7.649442,53.465592]}},{"properties":{"latitude":54.247205,"county":"Monaghan","bin":"50,000 or less","description of property":"Second-Hand","longitude":-6.970981,"id":"acjsfkxqny03","property type":"House","province":"Ulster"},"type":"Feature","geometry":{"type":"Point","coordinates":[-6.970981,54.247205]}},{"properties":{"latitude":52.179816,"county":"Kerry","bin":"50,000 or less","description of property":"Second-Hand","longitude":-9.40523,"id":"acjsfkprqliv","property type":"House","province":"Munster"},"type":"Feature","geometry":{"type":"Point","coordinates":[-9.40523,52.179816]}},{"properties":{"latitude":54.114264,"county":"Mayo","bin":"50,000 or less","description of property":"Second-Hand","longitude":-9.154042,"id":"acjsfknifmy6","property type":"House","province":"Connacht"},"type":"Feature","geometry":{"type":"Point","coordinates":[-9.154042,54.114264]}},{"properties":{"latitude":53.20257,"county":"Limerick","bin":"50,000 or less","description of property":"Second-Hand","longitude":-8.543824,"id":"acjsfkkk95s9","property type":"House","province":"Munster"},"type":"Feature","geometry":{"type":"Point","coordinates":[-8.543824,53.20257]}},{"properties":{"latitude":52.94409,"county":"Laois","bin":"50,000 or less","description of property":"Second-Hand","longitude":-7.04752,"id":"acjsfkjwh4k9","property type":"House","province":"Leinster"},"type":"Feature","geometry":{"type":"Point","coordinates":[-7.04752,52.94409]}},{"properties":{"latitude":53.236647,"county":"Offaly","bin":"50,000 or less","description of property":"Second-Hand","longitude":-7.390433,"id":"acjsfkjhvi96","property type":"House","province":"Leinster"},"type":"Feature","geometry":{"type":"Point","coordinates":[-7.390433,53.236647]}},{"properties":{"latitude":52.467746,"county":"Tipperary","bin":"50,000 or less","description of property":"Second-Hand","longitude":-7.691259,"id":"acjsfkth4sw8","property type":"House","province":"Munster"},"type":"Feature","geometry":{"type":"Point","coordinates":[-7.691259,52.467746]}},{"properties":{"latitude":52.467746,"county":"Tipperary","bin":"50,000 or less","description of property":"Second-Hand","longitude":-7.691259,"id":"acjsfkrnjrn8","property type":"House","province":"Munster"},"type":"Feature","geometry":{"type":"Point","coordinates":[-7.691259,52.467746]}},{"properties":{"latitude":53.34807,"county":"Dublin","bin":"50,000 or less","description of property":"Second-Hand","longitude":-6.248274,"id":"acjsfkrtizls","property type":"House","province":"Leinster"},"type":"Feature","geometry":{"type":"Point","coordinates":[-6.248274,53.34807]}},{"properties":{"latitude":51.89834,"county":"Cork","bin":"50,000 or less","description of property":"Second-Hand","longitude":-8.472774,"id":"acjsfkirn3m5","property type":"House","province":"Munster"},"type":"Feature","geometry":{"type":"Point","coordinates":[-8.472774,51.89834]}},{"properties":{"latitude":52.884369,"county":"Limerick","bin":"50,000 or less","description of property":"Second-Hand","longitude":-6.679261,"id":"acjsfkkj9r3n","property type":"House","province":"Munster"},"type":"Feature","geometry":{"type":"Point","coordinates":[-6.679261,52.884369]}},{"properties":{"latitude":52.660985,"county":"Limerick","bin":"50,000 or less","description of property":"Second-Hand","longitude":-8.632589,"id":"acjsfkr38t5s","property type":"House","province":"Munster"},"type":"Feature","geometry":{"type":"Point","coordinates":[-8.632589,52.660985]}},{"properties":{"latitude":52.95614,"county":"Tipperary","bin":"50,000 or less","description of property":"Second-Hand","longitude":-7.794219,"id":"acjsfkjw48jy","property type":"House","province":"Munster"},"type":"Feature","geometry":{"type":"Point","coordinates":[-7.794219,52.95614]}},{"properties":{"latitude":52.14194,"county":"Kerry","bin":"50,000 or less","description of property":"Second-Hand","longitude":-10.268889,"id":"acjsfkrxqsoh","property type":"House","province":"Munster"},"type":"Feature","geometry":{"type":"Point","coordinates":[-10.268889,52.14194]}},{"properties":{"latitude":53.34807,"county":"Dublin","bin":"50,000 or less","description of property":"New","longitude":-6.248274,"id":"acjsfkvr5yos","property type":"House","province":"Leinster"},"type":"Feature","geometry":{"type":"Point","coordinates":[-6.248274,53.34807]}},{"properties":{"latitude":52.299999,"county":"Kilkenny","bin":"50,000 or less","description of property":"Second-Hand","longitude":-7.1667,"id":"acjsfkx27my4","property type":"House","province":"Leinster"},"type":"Feature","geometry":{"type":"Point","coordinates":[-7.1667,52.299999]}},{"properties":{"latitude":53.774315,"county":"Donegal","bin":"50,000 or less","description of property":"Second-Hand","longitude":-8.799979,"id":"acjsfkivw1er","property type":"House","province":"Ulster"},"type":"Feature","geometry":{"type":"Point","coordinates":[-8.799979,53.774315]}},{"properties":{"latitude":52.262,"county":"Waterford","bin":"50,000 or less","description of property":"Second-Hand","longitude":-7.110869,"id":"acjsfklmuq3f","property type":"House","province":"Munster"},"type":"Feature","geometry":{"type":"Point","coordinates":[-7.110869,52.262]}},{"properties":{"latitude":52.473782,"county":"Tipperary","bin":"50,000 or less","description of property":"Second-Hand","longitude":-8.161023,"id":"acjsfkq6rd0h","property type":"House","province":"Munster"},"type":"Feature","geometry":{"type":"Point","coordinates":[-8.161023,52.473782]}},{"properties":{"latitude":51.888048,"county":"Cork","bin":"50,000 or less","description of property":"Second-Hand","longitude":-8.588148,"id":"acjsfkqjb16b","property type":"House","province":"Munster"},"type":"Feature","geometry":{"type":"Point","coordinates":[-8.588148,51.888048]}},{"properties":{"latitude":53.273885,"county":"Galway","bin":"50,000 or less","description of property":"Second-Hand","longitude":-9.048349,"id":"acjsfkli26qm","property type":"House","province":"Connacht"},"type":"Feature","geometry":{"type":"Point","coordinates":[-9.048349,53.273885]}},{"properties":{"latitude":52.459301,"county":"Kilkenny","bin":"50,000 or less","description of property":"Second-Hand","longitude":-7.39376,"id":"acjsfklewdlc","property type":"House","province":"Leinster"},"type":"Feature","geometry":{"type":"Point","coordinates":[-7.39376,52.459301]}},{"properties":{"latitude":54.632395,"county":"Kildare","bin":"50,000 or less","description of property":"Second-Hand","longitude":-8.593621,"id":"acjsfku2kuvw","property type":"House","province":"Leinster"},"type":"Feature","geometry":{"type":"Point","coordinates":[-8.593621,54.632395]}},{"properties":{"latitude":52.681431,"county":"Clare","bin":"50,000 or less","description of property":"Second-Hand","longitude":-9.643303,"id":"acjsfkrcgo3o","property type":"House","province":"Munster"},"type":"Feature","geometry":{"type":"Point","coordinates":[-9.643303,52.681431]}},{"properties":{"latitude":53.039239,"county":"Laois","bin":"50,000 or less","description of property":"Second-Hand","longitude":-7.313051,"id":"acjsfkqymgiw","property type":"House","province":"Leinster"},"type":"Feature","geometry":{"type":"Point","coordinates":[-7.313051,53.039239]}},{"properties":{"latitude":51.623348,"county":"Cork","bin":"50,000 or less","description of property":"New","longitude":-8.884636,"id":"acjsfkwi2dva","property type":"House","province":"Munster"},"type":"Feature","geometry":{"type":"Point","coordinates":[-8.884636,51.623348]}},{"properties":{"latitude":53.944435,"county":"Mayo","bin":"50,000 or less","description of property":"Second-Hand","longitude":-8.949154,"id":"acjsfkqio3ee","property type":"House","province":"Connacht"},"type":"Feature","geometry":{"type":"Point","coordinates":[-8.949154,53.944435]}},{"properties":{"latitude":53.273885,"county":"Galway","bin":"50,000 or less","description of property":"Second-Hand","longitude":-9.048349,"id":"acjsfkpldre9","property type":"House","province":"Connacht"},"type":"Feature","geometry":{"type":"Point","coordinates":[-9.048349,53.273885]}},{"properties":{"latitude":54.951939,"county":"Donegal","bin":"50,000 or less","description of property":"Second-Hand","longitude":-7.730824,"id":"acjsfkmc5s6a","property type":"House","province":"Ulster"},"type":"Feature","geometry":{"type":"Point","coordinates":[-7.730824,54.951939]}},{"properties":{"latitude":52.132262,"county":"Kerry","bin":"50,000 or less","description of property":"Second-Hand","longitude":-10.14935,"id":"acjsfkxjpdvs","property type":"House","province":"Munster"},"type":"Feature","geometry":{"type":"Point","coordinates":[-10.14935,52.132262]}},{"properties":{"latitude":53.277195,"county":"Dublin","bin":"50,000 or less","description of property":"Second-Hand","longitude":-6.290392,"id":"acjsfkpaqk00","property type":"House","province":"Leinster"},"type":"Feature","geometry":{"type":"Point","coordinates":[-6.290392,53.277195]}},{"properties":{"latitude":52.239984,"county":"Waterford","bin":"50,000 or less","description of property":"Second-Hand","longitude":-7.260104,"id":"acjsfkrninmz","property type":"House","province":"Munster"},"type":"Feature","geometry":{"type":"Point","coordinates":[-7.260104,52.239984]}},{"properties":{"latitude":53.328475,"county":"Offaly","bin":"50,000 or less","description of property":"Second-Hand","longitude":-7.078899,"id":"acjsfkq32ost","property type":"House","province":"Leinster"},"type":"Feature","geometry":{"type":"Point","coordinates":[-7.078899,53.328475]}},{"properties":{"latitude":53.950001,"county":"Louth","bin":"50,000 or less","description of property":"Second-Hand","longitude":-6.535145,"id":"acjsfkx2hvwk","property type":"House","province":"Leinster"},"type":"Feature","geometry":{"type":"Point","coordinates":[-6.535145,53.950001]}},{"properties":{"latitude":53.292324,"county":"Dublin","bin":"50,000 or less","description of property":"Second-Hand","longitude":-6.287391,"id":"acjsfko9nllh","property type":"House","province":"Leinster"},"type":"Feature","geometry":{"type":"Point","coordinates":[-6.287391,53.292324]}},{"properties":{"latitude":53.292324,"county":"Dublin","bin":"50,000 or less","description of property":"Second-Hand","longitude":-6.287391,"id":"acjsfkmrat4z","property type":"House","province":"Leinster"},"type":"Feature","geometry":{"type":"Point","coordinates":[-6.287391,53.292324]}},{"properties":{"latitude":52.473782,"county":"Tipperary","bin":"50,000 or less","description of property":"Second-Hand","longitude":-8.161023,"id":"acjsfkusywh4","property type":"House","province":"Munster"},"type":"Feature","geometry":{"type":"Point","coordinates":[-8.161023,52.473782]}},{"properties":{"latitude":54.654305,"county":"Donegal","bin":"50,000 or less","description of property":"Second-Hand","longitude":-8.110624,"id":"acjsfktkexg0","property type":"House","province":"Ulster"},"type":"Feature","geometry":{"type":"Point","coordinates":[-8.110624,54.654305]}},{"properties":{"latitude":54.07283,"county":"Cavan","bin":"50,000 or less","description of property":"Second-Hand","longitude":-7.083059,"id":"acjsfkw98ksl","property type":"House","province":"Ulster"},"type":"Feature","geometry":{"type":"Point","coordinates":[-7.083059,54.07283]}},{"properties":{"latitude":53.630098,"county":"Roscommon","bin":"50,000 or less","description of property":"Second-Hand","longitude":-8.189912,"id":"acjsfkr2injg","property type":"House","province":"Connacht"},"type":"Feature","geometry":{"type":"Point","coordinates":[-8.189912,53.630098]}},{"properties":{"latitude":52.973545,"county":"Laois","bin":"50,000 or less","description of property":"Second-Hand","longitude":-7.399089,"id":"acjsfkktxbe9","property type":"House","province":"Leinster"},"type":"Feature","geometry":{"type":"Point","coordinates":[-7.399089,52.973545]}},{"properties":{"latitude":53.100906,"county":"Tipperary","bin":"50,000 or less","description of property":"Second-Hand","longitude":-8.146401,"id":"acjsfkl3aloo","property type":"House","province":"Munster"},"type":"Feature","geometry":{"type":"Point","coordinates":[-8.146401,53.100906]}},{"properties":{"latitude":52.863343,"county":"Tipperary","bin":"50,000 or less","description of property":"Second-Hand","longitude":-8.200259,"id":"acjsfknghxa2","property type":"House","province":"Munster"},"type":"Feature","geometry":{"type":"Point","coordinates":[-8.200259,52.863343]}},{"properties":{"latitude":52.177091,"county":"Cork","bin":"50,000 or less","description of property":"Second-Hand","longitude":-8.905886,"id":"acjsfkundvpe","property type":"House","province":"Munster"},"type":"Feature","geometry":{"type":"Point","coordinates":[-8.905886,52.177091]}},{"properties":{"latitude":53.33704,"county":"Dublin","bin":"50,000 or less","description of property":"New","longitude":-6.286879,"id":"acjsfkq20u17","property type":"Apartment","province":"Leinster"},"type":"Feature","geometry":{"type":"Point","coordinates":[-6.286879,53.33704]}},{"properties":{"latitude":54.951939,"county":"Donegal","bin":"50,000 or less","description of property":"Second-Hand","longitude":-7.730824,"id":"acjsfki6ev7l","property type":"House","province":"Ulster"},"type":"Feature","geometry":{"type":"Point","coordinates":[-7.730824,54.951939]}},{"properties":{"latitude":53.988534,"county":"Cavan","bin":"50,000 or less","description of property":"Second-Hand","longitude":-7.362157,"id":"acjsfknuifk9","property type":"House","province":"Ulster"},"type":"Feature","geometry":{"type":"Point","coordinates":[-7.362157,53.988534]}},{"properties":{"latitude":52.94587,"county":"Tipperary","bin":"50,000 or less","description of property":"Second-Hand","longitude":-7.785224,"id":"acjsfkn7sx2h","property type":"House","province":"Munster"},"type":"Feature","geometry":{"type":"Point","coordinates":[-7.785224,52.94587]}},{"properties":{"latitude":53.198521,"county":"Galway","bin":"50,000 or less","description of property":"Second-Hand","longitude":-8.569314,"id":"acjsfkqft5zj","property type":"House","province":"Connacht"},"type":"Feature","geometry":{"type":"Point","coordinates":[-8.569314,53.198521]}},{"properties":{"latitude":53.465592,"county":"Clare","bin":"50,000 or less","description of property":"Second-Hand","longitude":-7.649442,"id":"acjsfkihbmx3","property type":"House","province":"Munster"},"type":"Feature","geometry":{"type":"Point","coordinates":[-7.649442,53.465592]}},{"properties":{"latitude":53.976523,"county":"Monaghan","bin":"50,000 or less","description of property":"Second-Hand","longitude":-6.721344,"id":"acjsfksh8k2j","property type":"House","province":"Ulster"},"type":"Feature","geometry":{"type":"Point","coordinates":[-6.721344,53.976523]}},{"properties":{"latitude":55.128495,"county":"Donegal","bin":"50,000 or less","description of property":"Second-Hand","longitude":-8.222994,"id":"acjsfkshzj8y","property type":"House","province":"Ulster"},"type":"Feature","geometry":{"type":"Point","coordinates":[-8.222994,55.128495]}},{"properties":{"latitude":52.71116,"county":"Clare","bin":"50,000 or less","description of property":"Second-Hand","longitude":-8.876949,"id":"acjsfkppm1fd","property type":"House","province":"Munster"},"type":"Feature","geometry":{"type":"Point","coordinates":[-8.876949,52.71116]}},{"properties":{"latitude":54.272235,"county":"Sligo","bin":"50,000 or less","description of property":"Second-Hand","longitude":-8.475984,"id":"acjsfkoffox6","property type":"House","province":"Connacht"},"type":"Feature","geometry":{"type":"Point","coordinates":[-8.475984,54.272235]}},{"properties":{"latitude":53.40555,"county":"Dublin","bin":"50,000 or less","description of property":"Second-Hand","longitude":-6.40625,"id":"acjsfknv6mqa","property type":"Apartment","province":"Leinster"},"type":"Feature","geometry":{"type":"Point","coordinates":[-6.40625,53.40555]}},{"properties":{"latitude":53.523625,"county":"Westmeath","bin":"50,000 or less","description of property":"New","longitude":-7.339362,"id":"acjsfkhma9h9","property type":"House","province":"Leinster"},"type":"Feature","geometry":{"type":"Point","coordinates":[-7.339362,53.523625]}},{"properties":{"latitude":53.423267,"county":"Roscommon","bin":"50,000 or less","description of property":"Second-Hand","longitude":-7.937107,"id":"acjsfkk7uold","property type":"House","province":"Connacht"},"type":"Feature","geometry":{"type":"Point","coordinates":[-7.937107,53.423267]}},{"properties":{"latitude":51.89834,"county":"Cork","bin":"50,000 or less","description of property":"Second-Hand","longitude":-8.472774,"id":"acjsfkulsvs4","property type":"House","province":"Munster"},"type":"Feature","geometry":{"type":"Point","coordinates":[-8.472774,51.89834]}},{"properties":{"latitude":51.893285,"county":"Cork","bin":"50,000 or less","description of property":"Second-Hand","longitude":-8.461759,"id":"acjsfknijqkn","property type":"House","province":"Munster"},"type":"Feature","geometry":{"type":"Point","coordinates":[-8.461759,51.893285]}},{"properties":{"latitude":51.893285,"county":"Cork","bin":"50,000 or less","description of property":"Second-Hand","longitude":-8.461759,"id":"acjsfkmn3bm3","property type":"House","province":"Munster"},"type":"Feature","geometry":{"type":"Point","coordinates":[-8.461759,51.893285]}},{"properties":{"latitude":53.331776,"county":"Dublin","bin":"50,000 or less","description of property":"Second-Hand","longitude":-6.27635,"id":"acjsfkhir6xa","property type":"House","province":"Leinster"},"type":"Feature","geometry":{"type":"Point","coordinates":[-6.27635,53.331776]}},{"properties":{"latitude":52.572085,"county":"Kerry","bin":"50,000 or less","description of property":"Second-Hand","longitude":-9.372369,"id":"acjsfksrr7s2","property type":"House","province":"Munster"},"type":"Feature","geometry":{"type":"Point","coordinates":[-9.372369,52.572085]}},{"properties":{"latitude":53.763179,"county":"Mayo","bin":"50,000 or less","description of property":"Second-Hand","longitude":-8.765018,"id":"acjsfkru4q10","property type":"House","province":"Connacht"},"type":"Feature","geometry":{"type":"Point","coordinates":[-8.765018,53.763179]}},{"properties":{"latitude":52.515496,"county":"Tipperary","bin":"50,000 or less","description of property":"Second-Hand","longitude":-7.888913,"id":"acjsfkqk2dd7","property type":"House","province":"Munster"},"type":"Feature","geometry":{"type":"Point","coordinates":[-7.888913,52.515496]}},{"properties":{"latitude":53.465592,"county":"Clare","bin":"50,000 or less","description of property":"Second-Hand","longitude":-7.649442,"id":"acjsfktt2yrm","property type":"House","province":"Munster"},"type":"Feature","geometry":{"type":"Point","coordinates":[-7.649442,53.465592]}},{"properties":{"latitude":52.996531,"county":"Kildare","bin":"50,000 or less","description of property":"Second-Hand","longitude":-6.993139,"id":"acjsfkmu5f21","property type":"House","province":"Leinster"},"type":"Feature","geometry":{"type":"Point","coordinates":[-6.993139,52.996531]}},{"properties":{"latitude":53.465592,"county":"Clare","bin":"50,000 or less","description of property":"Second-Hand","longitude":-7.649442,"id":"acjsfkl4n12r","property type":"House","province":"Munster"},"type":"Feature","geometry":{"type":"Point","coordinates":[-7.649442,53.465592]}},{"properties":{"latitude":53.988534,"county":"Cavan","bin":"50,000 or less","description of property":"Second-Hand","longitude":-7.362157,"id":"acjsfkmh5p8i","property type":"House","province":"Ulster"},"type":"Feature","geometry":{"type":"Point","coordinates":[-7.362157,53.988534]}},{"properties":{"latitude":52.863343,"county":"Tipperary","bin":"50,000 or less","description of property":"Second-Hand","longitude":-8.200259,"id":"acjsfkrb8w4u","property type":"House","province":"Munster"},"type":"Feature","geometry":{"type":"Point","coordinates":[-8.200259,52.863343]}},{"properties":{"latitude":53.29902,"county":"Dublin","bin":"50,000 or less","description of property":"Second-Hand","longitude":-6.180008,"id":"acjsfkmqbkid","property type":"House","province":"Leinster"},"type":"Feature","geometry":{"type":"Point","coordinates":[-6.180008,53.29902]}},{"properties":{"latitude":53.733132,"county":"Mayo","bin":"50,000 or less","description of property":"Second-Hand","longitude":-8.987527,"id":"acjsfkjf6c3b","property type":"House","province":"Connacht"},"type":"Feature","geometry":{"type":"Point","coordinates":[-8.987527,53.733132]}},{"properties":{"latitude":54.654305,"county":"Donegal","bin":"50,000 or less","description of property":"Second-Hand","longitude":-8.110624,"id":"acjsfkteqd10","property type":"House","province":"Ulster"},"type":"Feature","geometry":{"type":"Point","coordinates":[-8.110624,54.654305]}},{"properties":{"latitude":53.156469,"county":"Kildare","bin":"50,000 or less","description of property":"Second-Hand","longitude":-6.90914,"id":"acjsfkur89e5","property type":"House","province":"Leinster"},"type":"Feature","geometry":{"type":"Point","coordinates":[-6.90914,53.156469]}},{"properties":{"latitude":54.503358,"county":"Donegal","bin":"50,000 or less","description of property":"Second-Hand","longitude":-8.182196,"id":"acjsfkmz16w7","property type":"House","province":"Ulster"},"type":"Feature","geometry":{"type":"Point","coordinates":[-8.182196,54.503358]}},{"properties":{"latitude":52.651194,"county":"Kilkenny","bin":"50,000 or less","description of property":"Second-Hand","longitude":-7.251514,"id":"acjsfkir75qy","property type":"House","province":"Leinster"},"type":"Feature","geometry":{"type":"Point","coordinates":[-7.251514,52.651194]}},{"properties":{"latitude":52.349627,"county":"Cork","bin":"50,000 or less","description of property":"Second-Hand","longitude":-8.680055,"id":"acjsfkryqwgj","property type":"House","province":"Munster"},"type":"Feature","geometry":{"type":"Point","coordinates":[-8.680055,52.349627]}},{"properties":{"latitude":53.78024,"county":"Roscommon","bin":"50,000 or less","description of property":"Second-Hand","longitude":-8.042829,"id":"acjsfklhxmfy","property type":"House","province":"Connacht"},"type":"Feature","geometry":{"type":"Point","coordinates":[-8.042829,53.78024]}},{"properties":{"latitude":52.846766,"county":"Clare","bin":"50,000 or less","description of property":"Second-Hand","longitude":-8.987578,"id":"acjsfkpevz4h","property type":"House","province":"Munster"},"type":"Feature","geometry":{"type":"Point","coordinates":[-8.987578,52.846766]}},{"properties":{"latitude":53.76797,"county":"Roscommon","bin":"50,000 or less","description of property":"Second-Hand","longitude":-8.490604,"id":"acjsfkt3o0ez","property type":"House","province":"Connacht"},"type":"Feature","geometry":{"type":"Point","coordinates":[-8.490604,53.76797]}},{"properties":{"latitude":53.64992,"county":"Meath","bin":"50,000 or less","description of property":"Second-Hand","longitude":-6.80205,"id":"acjsfkvvwl48","property type":"House","province":"Leinster"},"type":"Feature","geometry":{"type":"Point","coordinates":[-6.80205,53.64992]}},{"properties":{"latitude":51.89834,"county":"Cork","bin":"50,000 or less","description of property":"Second-Hand","longitude":-8.472774,"id":"acjsfkklw1uf","property type":"House","province":"Munster"},"type":"Feature","geometry":{"type":"Point","coordinates":[-8.472774,51.89834]}},{"properties":{"latitude":53.847342,"county":"Cork","bin":"50,000 or less","description of property":"Second-Hand","longitude":-6.257221,"id":"acjsfkwf3q2n","property type":"House","province":"Munster"},"type":"Feature","geometry":{"type":"Point","coordinates":[-6.257221,53.847342]}},{"properties":{"latitude":52.719995,"county":"Clare","bin":"50,000 or less","description of property":"Second-Hand","longitude":-9.320309,"id":"acjsfkv2wtca","property type":"House","province":"Munster"},"type":"Feature","geometry":{"type":"Point","coordinates":[-9.320309,52.719995]}},{"properties":{"latitude":53.527129,"county":"Westmeath","bin":"50,000 or less","description of property":"Second-Hand","longitude":-7.352648,"id":"acjsfko3yrvx","property type":"House","province":"Leinster"},"type":"Feature","geometry":{"type":"Point","coordinates":[-7.352648,53.527129]}},{"properties":{"latitude":54.175302,"county":"Sligo","bin":"50,000 or less","description of property":"New","longitude":-8.601522,"id":"acjsfkwczrq5","property type":"House","province":"Connacht"},"type":"Feature","geometry":{"type":"Point","coordinates":[-8.601522,54.175302]}},{"properties":{"latitude":54.272235,"county":"Sligo","bin":"50,000 or less","description of property":"Second-Hand","longitude":-8.475984,"id":"acjsfkhg6kg0","property type":"House","province":"Connacht"},"type":"Feature","geometry":{"type":"Point","coordinates":[-8.475984,54.272235]}},{"properties":{"latitude":53.98942,"county":"Leitrim","bin":"50,000 or less","description of property":"Second-Hand","longitude":-8.064566,"id":"acjsfkitl3ac","property type":"House","province":"Connacht"},"type":"Feature","geometry":{"type":"Point","coordinates":[-8.064566,53.98942]}},{"properties":{"latitude":53.76797,"county":"Roscommon","bin":"50,000 or less","description of property":"Second-Hand","longitude":-8.490604,"id":"acjsfkrs313r","property type":"House","province":"Connacht"},"type":"Feature","geometry":{"type":"Point","coordinates":[-8.490604,53.76797]}},{"properties":{"latitude":52.352891,"county":"Tipperary","bin":"50,000 or less","description of property":"Second-Hand","longitude":-7.701886,"id":"acjsfkv39lu4","property type":"House","province":"Munster"},"type":"Feature","geometry":{"type":"Point","coordinates":[-7.701886,52.352891]}},{"properties":{"latitude":52.84557,"county":"Mayo","bin":"50,000 or less","description of property":"Second-Hand","longitude":-7.089134,"id":"acjsfkutdwq2","property type":"House","province":"Connacht"},"type":"Feature","geometry":{"type":"Point","coordinates":[-7.089134,52.84557]}},{"properties":{"latitude":52.337347,"county":"Wexford","bin":"50,000 or less","description of property":"Second-Hand","longitude":-6.458934,"id":"acjsfknzqzw5","property type":"House","province":"Leinster"},"type":"Feature","geometry":{"type":"Point","coordinates":[-6.458934,52.337347]}},{"properties":{"latitude":53.99714,"county":"Mayo","bin":"50,000 or less","description of property":"Second-Hand","longitude":-8.667411,"id":"acjsfksoowsc","property type":"House","province":"Connacht"},"type":"Feature","geometry":{"type":"Point","coordinates":[-8.667411,53.99714]}},{"properties":{"latitude":53.330576,"county":"Galway","bin":"50,000 or less","description of property":"Second-Hand","longitude":-8.223346,"id":"acjsfkkvqfkm","property type":"House","province":"Connacht"},"type":"Feature","geometry":{"type":"Point","coordinates":[-8.223346,53.330576]}},{"properties":{"latitude":53.344114,"county":"Offaly","bin":"50,000 or less","description of property":"Second-Hand","longitude":-7.610092,"id":"acjsfkntg6nn","property type":"House","province":"Leinster"},"type":"Feature","geometry":{"type":"Point","coordinates":[-7.610092,53.344114]}},{"properties":{"latitude":52.863343,"county":"Tipperary","bin":"50,000 or less","description of property":"Second-Hand","longitude":-8.200259,"id":"acjsfkombcte","property type":"House","province":"Munster"},"type":"Feature","geometry":{"type":"Point","coordinates":[-8.200259,52.863343]}},{"properties":{"latitude":52.473782,"county":"Tipperary","bin":"50,000 or less","description of property":"Second-Hand","longitude":-8.161023,"id":"acjsfkubg7d2","property type":"House","province":"Munster"},"type":"Feature","geometry":{"type":"Point","coordinates":[-8.161023,52.473782]}},{"properties":{"latitude":52.177091,"county":"Cork","bin":"50,000 or less","description of property":"Second-Hand","longitude":-8.905886,"id":"acjsfkspzfbc","property type":"House","province":"Munster"},"type":"Feature","geometry":{"type":"Point","coordinates":[-8.905886,52.177091]}},{"properties":{"latitude":54.080936,"county":"Monaghan","bin":"50,000 or less","description of property":"Second-Hand","longitude":-6.682453,"id":"acjsfkjzrh6h","property type":"House","province":"Ulster"},"type":"Feature","geometry":{"type":"Point","coordinates":[-6.682453,54.080936]}},{"properties":{"latitude":53.80697,"county":"Mayo","bin":"50,000 or less","description of property":"Second-Hand","longitude":-9.131594,"id":"acjsfkkbvpwf","property type":"House","province":"Connacht"},"type":"Feature","geometry":{"type":"Point","coordinates":[-9.131594,53.80697]}},{"properties":{"latitude":53.698485,"county":"Meath","bin":"50,000 or less","description of property":"Second-Hand","longitude":-6.244344,"id":"acjsfkt9z035","property type":"House","province":"Leinster"},"type":"Feature","geometry":{"type":"Point","coordinates":[-6.244344,53.698485]}},{"properties":{"latitude":52.674075,"county":"Limerick","bin":"50,000 or less","description of property":"Second-Hand","longitude":-8.638405,"id":"acjsfkuudyoy","property type":"House","province":"Munster"},"type":"Feature","geometry":{"type":"Point","coordinates":[-8.638405,52.674075]}},{"properties":{"latitude":53.427591,"county":"Westmeath","bin":"50,000 or less","description of property":"Second-Hand","longitude":-7.27883,"id":"acjsfkrrlbm6","property type":"House","province":"Leinster"},"type":"Feature","geometry":{"type":"Point","coordinates":[-7.27883,53.427591]}},{"properties":{"latitude":54.654305,"county":"Donegal","bin":"50,000 or less","description of property":"Second-Hand","longitude":-8.110624,"id":"acjsfkvx5vbt","property type":"House","province":"Ulster"},"type":"Feature","geometry":{"type":"Point","coordinates":[-8.110624,54.654305]}},{"properties":{"latitude":52.863343,"county":"Tipperary","bin":"50,000 or less","description of property":"Second-Hand","longitude":-8.200259,"id":"acjsfkp6735y","property type":"House","province":"Munster"},"type":"Feature","geometry":{"type":"Point","coordinates":[-8.200259,52.863343]}},{"properties":{"latitude":53.70597,"county":"Roscommon","bin":"50,000 or less","description of property":"Second-Hand","longitude":-8.199614,"id":"acjsfkjaxpvk","property type":"House","province":"Connacht"},"type":"Feature","geometry":{"type":"Point","coordinates":[-8.199614,53.70597]}},{"properties":{"latitude":53.70597,"county":"Roscommon","bin":"50,000 or less","description of property":"Second-Hand","longitude":-8.199614,"id":"acjsfkwvatob","property type":"House","province":"Connacht"},"type":"Feature","geometry":{"type":"Point","coordinates":[-8.199614,53.70597]}},{"properties":{"latitude":52.501475,"county":"Wexford","bin":"50,000 or less","description of property":"Second-Hand","longitude":-6.567829,"id":"acjsfkpoxcsm","property type":"House","province":"Leinster"},"type":"Feature","geometry":{"type":"Point","coordinates":[-6.567829,52.501475]}},{"properties":{"latitude":53.327878,"county":"Galway","bin":"50,000 or less","description of property":"Second-Hand","longitude":-8.223288,"id":"acjsfklwu6r3","property type":"House","province":"Connacht"},"type":"Feature","geometry":{"type":"Point","coordinates":[-8.223288,53.327878]}},{"properties":{"latitude":53.341954,"county":"Dublin","bin":"50,000 or less","description of property":"Second-Hand","longitude":-6.30102,"id":"acjsfkk6jaul","property type":"Apartment","province":"Leinster"},"type":"Feature","geometry":{"type":"Point","coordinates":[-6.30102,53.341954]}},{"properties":{"latitude":52.84557,"county":"Mayo","bin":"50,000 or less","description of property":"Second-Hand","longitude":-7.089134,"id":"acjsfkxln5y2","property type":"House","province":"Connacht"},"type":"Feature","geometry":{"type":"Point","coordinates":[-7.089134,52.84557]}},{"properties":{"latitude":52.473782,"county":"Tipperary","bin":"50,000 or less","description of property":"Second-Hand","longitude":-8.161023,"id":"acjsfktqvacc","property type":"House","province":"Munster"},"type":"Feature","geometry":{"type":"Point","coordinates":[-8.161023,52.473782]}},{"properties":{"latitude":54.272235,"county":"Sligo","bin":"50,000 or less","description of property":"Second-Hand","longitude":-8.475984,"id":"acjsfklq8kh2","property type":"House","province":"Connacht"},"type":"Feature","geometry":{"type":"Point","coordinates":[-8.475984,54.272235]}},{"properties":{"latitude":52.401832,"county":"Limerick","bin":"50,000 or less","description of property":"Second-Hand","longitude":-8.529033,"id":"acjsfkut952p","property type":"House","province":"Munster"},"type":"Feature","geometry":{"type":"Point","coordinates":[-8.529033,52.401832]}},{"properties":{"latitude":52.565217,"county":"Wexford","bin":"50,000 or less","description of property":"Second-Hand","longitude":-6.745951,"id":"acjsfkv8olgy","property type":"House","province":"Leinster"},"type":"Feature","geometry":{"type":"Point","coordinates":[-6.745951,52.565217]}},{"properties":{"latitude":53.630098,"county":"Roscommon","bin":"50,000 or less","description of property":"Second-Hand","longitude":-8.189912,"id":"acjsfkl1lif9","property type":"House","province":"Connacht"},"type":"Feature","geometry":{"type":"Point","coordinates":[-8.189912,53.630098]}},{"properties":{"latitude":52.473782,"county":"Tipperary","bin":"50,000 or less","description of property":"Second-Hand","longitude":-8.161023,"id":"acjsfki48979","property type":"House","province":"Munster"},"type":"Feature","geometry":{"type":"Point","coordinates":[-8.161023,52.473782]}},{"properties":{"latitude":54.126061,"county":"Monaghan","bin":"50,000 or less","description of property":"Second-Hand","longitude":-6.900786,"id":"acjsfkv3jpz4","property type":"House","province":"Ulster"},"type":"Feature","geometry":{"type":"Point","coordinates":[-6.900786,54.126061]}},{"properties":{"latitude":54.089144,"county":"Sligo","bin":"50,000 or less","description of property":"Second-Hand","longitude":-8.516075,"id":"acjsfkldtmu6","property type":"House","province":"Connacht"},"type":"Feature","geometry":{"type":"Point","coordinates":[-8.516075,54.089144]}},{"properties":{"latitude":53.834103,"county":"Cavan","bin":"50,000 or less","description of property":"Second-Hand","longitude":-7.078655,"id":"acjsfkjbatzt","property type":"House","province":"Ulster"},"type":"Feature","geometry":{"type":"Point","coordinates":[-7.078655,53.834103]}},{"properties":{"latitude":53.46027,"county":"Dublin","bin":"50,000 or less","description of property":"Second-Hand","longitude":-6.225054,"id":"acjsfkhkl4t0","property type":"House","province":"Leinster"},"type":"Feature","geometry":{"type":"Point","coordinates":[-6.225054,53.46027]}},{"properties":{"latitude":52.95734,"county":"Laois","bin":"50,000 or less","description of property":"Second-Hand","longitude":-7.678015,"id":"acjsfkn602vc","property type":"House","province":"Leinster"},"type":"Feature","geometry":{"type":"Point","coordinates":[-7.678015,52.95734]}},{"properties":{"latitude":53.34807,"county":"Dublin","bin":"50,000 or less","description of property":"Second-Hand","longitude":-6.248274,"id":"acjsfkviwcfi","property type":"House","province":"Leinster"},"type":"Feature","geometry":{"type":"Point","coordinates":[-6.248274,53.34807]}},{"properties":{"latitude":53.630098,"county":"Roscommon","bin":"50,000 or less","description of property":"Second-Hand","longitude":-8.189912,"id":"acjsfklppb2h","property type":"House","province":"Connacht"},"type":"Feature","geometry":{"type":"Point","coordinates":[-8.189912,53.630098]}},{"properties":{"latitude":53.584182,"county":"Dublin","bin":"50,000 or less","description of property":"Second-Hand","longitude":-6.288426,"id":"acjsfkllsajd","property type":"House","province":"Leinster"},"type":"Feature","geometry":{"type":"Point","coordinates":[-6.288426,53.584182]}},{"properties":{"latitude":53.584182,"county":"Dublin","bin":"50,000 or less","description of property":"Second-Hand","longitude":-6.288426,"id":"acjsfkuizxtw","property type":"House","province":"Leinster"},"type":"Feature","geometry":{"type":"Point","coordinates":[-6.288426,53.584182]}},{"properties":{"latitude":54.654465,"county":"Donegal","bin":"50,000 or less","description of property":"Second-Hand","longitude":-8.10711,"id":"acjsfktzn1t2","property type":"House","province":"Ulster"},"type":"Feature","geometry":{"type":"Point","coordinates":[-8.10711,54.654465]}},{"properties":{"latitude":51.89834,"county":"Cork","bin":"50,000 or less","description of property":"Second-Hand","longitude":-8.472774,"id":"acjsfkuwhv59","property type":"House","province":"Munster"},"type":"Feature","geometry":{"type":"Point","coordinates":[-8.472774,51.89834]}},{"properties":{"latitude":54.873853,"county":"Donegal","bin":"50,000 or less","description of property":"Second-Hand","longitude":-7.599372,"id":"acjsfkrhq8oe","property type":"House","province":"Ulster"},"type":"Feature","geometry":{"type":"Point","coordinates":[-7.599372,54.873853]}},{"properties":{"latitude":54.247205,"county":"Monaghan","bin":"50,000 or less","description of property":"Second-Hand","longitude":-6.970981,"id":"acjsfkr2fvmx","property type":"House","province":"Ulster"},"type":"Feature","geometry":{"type":"Point","coordinates":[-6.970981,54.247205]}},{"properties":{"latitude":53.969905,"county":"Roscommon","bin":"50,000 or less","description of property":"Second-Hand","longitude":-8.383429,"id":"acjsfkrwu48n","property type":"House","province":"Connacht"},"type":"Feature","geometry":{"type":"Point","coordinates":[-8.383429,53.969905]}},{"properties":{"latitude":52.262,"county":"Waterford","bin":"50,000 or less","description of property":"Second-Hand","longitude":-7.110869,"id":"acjsfkmcg6ls","property type":"House","province":"Munster"},"type":"Feature","geometry":{"type":"Point","coordinates":[-7.110869,52.262]}},{"properties":{"latitude":51.89834,"county":"Cork","bin":"50,000 or less","description of property":"Second-Hand","longitude":-8.472774,"id":"acjsfkmzxrq7","property type":"House","province":"Munster"},"type":"Feature","geometry":{"type":"Point","coordinates":[-8.472774,51.89834]}},{"properties":{"latitude":54.654305,"county":"Donegal","bin":"50,000 or less","description of property":"Second-Hand","longitude":-8.110624,"id":"acjsfktg2og9","property type":"House","province":"Ulster"},"type":"Feature","geometry":{"type":"Point","coordinates":[-8.110624,54.654305]}},{"properties":{"latitude":52.833206,"county":"Dublin","bin":"50,000 or less","description of property":"Second-Hand","longitude":-7.632381,"id":"acjsfktrvsck","property type":"House","province":"Leinster"},"type":"Feature","geometry":{"type":"Point","coordinates":[-7.632381,52.833206]}},{"properties":{"latitude":53.727841,"county":"Meath","bin":"50,000 or less","description of property":"Second-Hand","longitude":-6.878897,"id":"acjsfktjn99z","property type":"House","province":"Leinster"},"type":"Feature","geometry":{"type":"Point","coordinates":[-6.878897,53.727841]}},{"properties":{"latitude":53.988534,"county":"Cavan","bin":"50,000 or less","description of property":"Second-Hand","longitude":-7.362157,"id":"acjsfki64pdi","property type":"House","province":"Ulster"},"type":"Feature","geometry":{"type":"Point","coordinates":[-7.362157,53.988534]}},{"properties":{"latitude":53.159769,"county":"Laois","bin":"50,000 or less","description of property":"Second-Hand","longitude":-7.188908,"id":"acjsfkwhbeof","property type":"House","province":"Leinster"},"type":"Feature","geometry":{"type":"Point","coordinates":[-7.188908,53.159769]}},{"properties":{"latitude":53.120694,"county":"Laois","bin":"50,000 or less","description of property":"Second-Hand","longitude":-7.333359,"id":"acjsfkpm34rv","property type":"House","province":"Leinster"},"type":"Feature","geometry":{"type":"Point","coordinates":[-7.333359,53.120694]}},{"properties":{"latitude":53.465592,"county":"Clare","bin":"50,000 or less","description of property":"Second-Hand","longitude":-7.649442,"id":"acjsfktppgq1","property type":"House","province":"Munster"},"type":"Feature","geometry":{"type":"Point","coordinates":[-7.649442,53.465592]}},{"properties":{"latitude":52.239155,"county":"Waterford","bin":"50,000 or less","description of property":"Second-Hand","longitude":-6.973249,"id":"acjsfkvo7aes","property type":"House","province":"Munster"},"type":"Feature","geometry":{"type":"Point","coordinates":[-6.973249,52.239155]}},{"properties":{"latitude":51.902462,"county":"Cork","bin":"50,000 or less","description of property":"Second-Hand","longitude":-8.469891,"id":"acjsfkqvt2wz","property type":"House","province":"Munster"},"type":"Feature","geometry":{"type":"Point","coordinates":[-8.469891,51.902462]}},{"properties":{"latitude":52.863343,"county":"Tipperary","bin":"50,000 or less","description of property":"Second-Hand","longitude":-8.200259,"id":"acjsfkxeo9a4","property type":"House","province":"Munster"},"type":"Feature","geometry":{"type":"Point","coordinates":[-8.200259,52.863343]}},{"properties":{"latitude":54.113942,"county":"Mayo","bin":"50,000 or less","description of property":"Second-Hand","longitude":-9.170037,"id":"acjsfknld0dg","property type":"House","province":"Connacht"},"type":"Feature","geometry":{"type":"Point","coordinates":[-9.170037,54.113942]}},{"properties":{"latitude":52.660985,"county":"Limerick","bin":"50,000 or less","description of property":"Second-Hand","longitude":-8.632589,"id":"acjsfkux9dye","property type":"House","province":"Munster"},"type":"Feature","geometry":{"type":"Point","coordinates":[-8.632589,52.660985]}},{"properties":{"latitude":54.1864343,"county":"Cavan","bin":"50,000 or less","description of property":"Second-Hand","longitude":-7.79117,"id":"acjsfkkuh8v8","property type":"House","province":"Ulster"},"type":"Feature","geometry":{"type":"Point","coordinates":[-7.79117,54.1864343]}},{"properties":{"latitude":54.012691,"county":"Louth","bin":"50,000 or less","description of property":"Second-Hand","longitude":-6.408342,"id":"acjsfks40clj","property type":"House","province":"Leinster"},"type":"Feature","geometry":{"type":"Point","coordinates":[-6.408342,54.012691]}},{"properties":{"latitude":54.176138,"county":"Monaghan","bin":"50,000 or less","description of property":"Second-Hand","longitude":-7.157964,"id":"acjsfkmo0x1q","property type":"House","province":"Ulster"},"type":"Feature","geometry":{"type":"Point","coordinates":[-7.157964,54.176138]}},{"properties":{"latitude":54.130882,"county":"Kerry","bin":"50,000 or less","description of property":"Second-Hand","longitude":-9.367607,"id":"acjsfkpa87n8","property type":"House","province":"Munster"},"type":"Feature","geometry":{"type":"Point","coordinates":[-9.367607,54.130882]}},{"properties":{"latitude":54.272235,"county":"Sligo","bin":"50,000 or less","description of property":"Second-Hand","longitude":-8.475984,"id":"acjsfkxikwsv","property type":"House","province":"Connacht"},"type":"Feature","geometry":{"type":"Point","coordinates":[-8.475984,54.272235]}},{"properties":{"latitude":53.160975,"county":"Offaly","bin":"50,000 or less","description of property":"Second-Hand","longitude":-7.198282,"id":"acjsfkkh70av","property type":"House","province":"Leinster"},"type":"Feature","geometry":{"type":"Point","coordinates":[-7.198282,53.160975]}},{"properties":{"latitude":53.138409,"county":"Kildare","bin":"50,000 or less","description of property":"New","longitude":-7.061712,"id":"acjsfkx3nt7y","property type":"House","province":"Leinster"},"type":"Feature","geometry":{"type":"Point","coordinates":[-7.061712,53.138409]}},{"properties":{"latitude":52.337347,"county":"Wexford","bin":"50,000 or less","description of property":"Second-Hand","longitude":-6.458934,"id":"acjsfkk3mbdn","property type":"Apartment","province":"Leinster"},"type":"Feature","geometry":{"type":"Point","coordinates":[-6.458934,52.337347]}},{"properties":{"latitude":52.337347,"county":"Wexford","bin":"50,000 or less","description of property":"Second-Hand","longitude":-6.458934,"id":"acjsfkq3iv2i","property type":"Apartment","province":"Leinster"},"type":"Feature","geometry":{"type":"Point","coordinates":[-6.458934,52.337347]}},{"properties":{"latitude":53.662295,"county":"Roscommon","bin":"50,000 or less","description of property":"Second-Hand","longitude":-8.285214,"id":"acjsfkhzcype","property type":"House","province":"Connacht"},"type":"Feature","geometry":{"type":"Point","coordinates":[-8.285214,53.662295]}},{"properties":{"latitude":53.197935,"county":"Meath","bin":"50,000 or less","description of property":"Second-Hand","longitude":-7.924049,"id":"acjsfkj550ga","property type":"House","province":"Leinster"},"type":"Feature","geometry":{"type":"Point","coordinates":[-7.924049,53.197935]}},{"properties":{"latitude":53.904629,"county":"Cavan","bin":"50,000 or less","description of property":"Second-Hand","longitude":-6.80577,"id":"acjsfklynfa6","property type":"House","province":"Ulster"},"type":"Feature","geometry":{"type":"Point","coordinates":[-6.80577,53.904629]}},{"properties":{"latitude":52.337347,"county":"Wexford","bin":"50,000 or less","description of property":"Second-Hand","longitude":-6.458934,"id":"acjsfkm7jzfw","property type":"House","province":"Leinster"},"type":"Feature","geometry":{"type":"Point","coordinates":[-6.458934,52.337347]}},{"properties":{"latitude":52.660985,"county":"Limerick","bin":"50,000 or less","description of property":"Second-Hand","longitude":-8.632589,"id":"acjsfkl5b7is","property type":"House","province":"Munster"},"type":"Feature","geometry":{"type":"Point","coordinates":[-8.632589,52.660985]}},{"properties":{"latitude":52.269385,"county":"Kerry","bin":"50,000 or less","description of property":"Second-Hand","longitude":-9.704768,"id":"acjsfkv978pm","property type":"House","province":"Munster"},"type":"Feature","geometry":{"type":"Point","coordinates":[-9.704768,52.269385]}},{"properties":{"latitude":54.115959,"county":"Mayo","bin":"50,000 or less","description of property":"Second-Hand","longitude":-9.168722,"id":"acjsfkw4cul3","property type":"House","province":"Connacht"},"type":"Feature","geometry":{"type":"Point","coordinates":[-9.168722,54.115959]}},{"properties":{"latitude":51.89834,"county":"Cork","bin":"50,000 or less","description of property":"Second-Hand","longitude":-8.472774,"id":"acjsfkonhhol","property type":"House","province":"Munster"},"type":"Feature","geometry":{"type":"Point","coordinates":[-8.472774,51.89834]}},{"properties":{"latitude":52.450592,"county":"Kerry","bin":"50,000 or less","description of property":"Second-Hand","longitude":-9.477112,"id":"acjsfkpfhbt1","property type":"House","province":"Munster"},"type":"Feature","geometry":{"type":"Point","coordinates":[-9.477112,52.450592]}},{"properties":{"latitude":52.350672,"county":"Kilkenny","bin":"50,000 or less","description of property":"Second-Hand","longitude":-7.324952,"id":"acjsfkw6ozqo","property type":"House","province":"Leinster"},"type":"Feature","geometry":{"type":"Point","coordinates":[-7.324952,52.350672]}},{"properties":{"latitude":54.051022,"county":"Sligo","bin":"50,000 or less","description of property":"Second-Hand","longitude":-8.735039,"id":"acjsfko4r8j8","property type":"House","province":"Connacht"},"type":"Feature","geometry":{"type":"Point","coordinates":[-8.735039,54.051022]}},{"properties":{"latitude":52.379577,"county":"Limerick","bin":"50,000 or less","description of property":"Second-Hand","longitude":-8.865027,"id":"acjsfkjw4yo1","property type":"House","province":"Munster"},"type":"Feature","geometry":{"type":"Point","coordinates":[-8.865027,52.379577]}},{"properties":{"latitude":54.089144,"county":"Sligo","bin":"50,000 or less","description of property":"Second-Hand","longitude":-8.516075,"id":"acjsfkoiarc8","property type":"House","province":"Connacht"},"type":"Feature","geometry":{"type":"Point","coordinates":[-8.516075,54.089144]}},{"properties":{"latitude":54.05689,"county":"Leitrim","bin":"50,000 or less","description of property":"Second-Hand","longitude":-7.794684,"id":"acjsfkoru90h","property type":"House","province":"Connacht"},"type":"Feature","geometry":{"type":"Point","coordinates":[-7.794684,54.05689]}},{"properties":{"latitude":52.31355,"county":"Wexford","bin":"50,000 or less","description of property":"New","longitude":-6.749624,"id":"acjsfkq4b5kp","property type":"House","province":"Leinster"},"type":"Feature","geometry":{"type":"Point","coordinates":[-6.749624,52.31355]}},{"properties":{"latitude":52.689802,"county":"Kilkenny","bin":"50,000 or less","description of property":"Second-Hand","longitude":-7.103413,"id":"acjsfkkg9xo3","property type":"House","province":"Leinster"},"type":"Feature","geometry":{"type":"Point","coordinates":[-7.103413,52.689802]}},{"properties":{"latitude":55.047559,"county":"Kerry","bin":"50,000 or less","description of property":"Second-Hand","longitude":-7.769076,"id":"acjsfki3l2xj","property type":"House","province":"Munster"},"type":"Feature","geometry":{"type":"Point","coordinates":[-7.769076,55.047559]}}],"is_temporal":false,"author":{"url":"","metadata":"","contact_name":"","contact_address":"","source":"","contact_phone":""},"source":"","pagination":{"sort":null,"start":0,"total":507,"limit":1000000},"state":"complete","tags":"","published":"2014-08-16T20:52:20-04:00","id":326417}