{"type":"FeatureCollection","data_type":"Dataset","url_type":null,"permissions":[{"permissions":{"download":true,"view":true},"group_id":"everyone"}],"classification":null,"title":"MA Austism Schools","count":23,"stream_id":328814,"contributor":{"url":"http://geocommons.com/users/64114","name":"shuse"},"data_attributes":null,"calculation_params":null,"icon_link":null,"link":"http://geocommons.com/overlays/328814.json","extent":[-73.2937,41.7357,-70.4215,42.6678],"geometry_types":["point"],"unique_name":null,"name":"MA Austism Schools","feature_count":23,"description":"","next_feature":null,"is_raster":false,"short_classification":"Y","stats":{"# of beds":{"max":181,"variance":2132.79446640316,"mean":60.3913043478261,"stdev":46.1821877611181,"min":3,"median":51}},"features":[{"properties":{"city":"Randolph","zip":"02368","geo_score":1.0,"program":"May Institute-Randolph Residential Program","# of beds":80,"id":"acno9gv6odi0","address":"41 Pacella Park Drive","geo_precision":"range","state":"MA"},"type":"Feature","geometry":{"type":"Point","coordinates":[-71.05055,42.20231]}},{"properties":{"city":"Randolph","zip":"02368","geo_score":1.0,"program":"May Institute-Randolph Day Program","# of beds":139,"id":"acno9h2webbg","address":"41 Pacella Park Drive","geo_precision":"range","state":"MA"},"type":"Feature","geometry":{"type":"Point","coordinates":[-71.05055,42.20231]}},{"properties":{"city":"W.Springfield","zip":"01089","geo_score":0.976,"program":"May Institute-Springfield School","# of beds":25,"id":"acno9h5nm57q","address":"511 Main Street","geo_precision":"range","state":"MA"},"type":"Feature","geometry":{"type":"Point","coordinates":[-72.608648,42.10186]}},{"properties":{"city":"Brockton","zip":"02302","geo_score":1.0,"program":"May Institute-Brockton Day School","# of beds":24,"id":"acno9gwx4aik","address":"596 Summer Street","geo_precision":"range","state":"MA"},"type":"Feature","geometry":{"type":"Point","coordinates":[-71.004295,42.062013]}},{"properties":{"city":"Brockton","zip":"02302","geo_score":0.679,"program":"May Institute-Brockton Residential Program","# of beds":51,"id":"acno9gtbybxh","address":"596 Summer Street Brockton, MA 02302","geo_precision":"street","state":"MA"},"type":"Feature","geometry":{"type":"Point","coordinates":[-70.980476,42.079889]}},{"properties":{"city":"Andover","zip":"01810","geo_score":0.609,"program":"Melmark-Residential","# of beds":40,"id":"acno9h1peg38","address":"461 River Rd Andover, MA  01810","geo_precision":"street","state":"MA"},"type":"Feature","geometry":{"type":"Point","coordinates":[-71.172352,42.667792]}},{"properties":{"city":"Andover","zip":"01810","geo_score":0.609,"program":"Melmark-Day","# of beds":67,"id":"acno9gx1618a","address":"461 River Rd Andover, MA  01810","geo_precision":"street","state":"MA"},"type":"Feature","geometry":{"type":"Point","coordinates":[-71.172352,42.667792]}},{"properties":{"city":"Randolph","zip":"02368","geo_score":1.0,"program":"Boston Higashi School-Day","# of beds":37,"id":"acno9gzociq0","address":"800 North Main Street","geo_precision":"range","state":"MA"},"type":"Feature","geometry":{"type":"Point","coordinates":[-71.053863,42.183676]}},{"properties":{"city":"Randolph","zip":"02368","geo_score":1.0,"program":"Boston Higashi School-Residential","# of beds":54,"id":"acno9gpvn1fi","address":"800 North Main Street","geo_precision":"range","state":"MA"},"type":"Feature","geometry":{"type":"Point","coordinates":[-71.053863,42.183676]}},{"properties":{"city":"Randolph","zip":"02368","geo_score":1.0,"program":"Boston Higashi School-365 Day Program","# of beds":39,"id":"acno9h3d658r","address":"800 North Main Street","geo_precision":"range","state":"MA"},"type":"Feature","geometry":{"type":"Point","coordinates":[-71.053863,42.183676]}},{"properties":{"city":"Randolph","zip":"02368","geo_score":1.0,"program":"Boston Higashi School-Vacation Program","# of beds":26,"id":"acno9h52eqf7","address":"800 North Main Street","geo_precision":"range","state":"MA"},"type":"Feature","geometry":{"type":"Point","coordinates":[-71.053863,42.183676]}},{"properties":{"city":"GreatBarrington","zip":"01230","geo_score":0.797,"program":"Eagleton School","# of beds":68,"id":"acno9guwgb4k","address":"446 Montery Rd","geo_precision":"street","state":"MA"},"type":"Feature","geometry":{"type":"Point","coordinates":[-73.293654,42.184433]}},{"properties":{"city":"Southborough","zip":"01772","geo_score":0.894,"program":"New England Center for Children-Day Education and Treatment","# of beds":3,"id":"acno9gwqbi12","address":"31 Turnpike Road","geo_precision":"range","state":"MA"},"type":"Feature","geometry":{"type":"Point","coordinates":[-71.501529,42.295475]}},{"properties":{"city":"Southborough","zip":"01772","geo_score":0.894,"program":"New England Center for Children-Residential Education and Treatment","# of beds":30,"id":"acno9gwilxtu","address":"31 Turnpike Road","geo_precision":"range","state":"MA"},"type":"Feature","geometry":{"type":"Point","coordinates":[-71.501529,42.295475]}},{"properties":{"city":"Southborough","zip":"01772","geo_score":0.894,"program":"New England Center for Children-Severe Unit","# of beds":76,"id":"acno9h4gzxf4","address":"31 Turnpike Road","geo_precision":"range","state":"MA"},"type":"Feature","geometry":{"type":"Point","coordinates":[-71.501529,42.295475]}},{"properties":{"city":"Southborough","zip":"01772","geo_score":0.894,"program":"New England Center for Children-Intensive Instruction Program","# of beds":102,"id":"acno9h37qp19","address":"31 Turnpike Road","geo_precision":"range","state":"MA"},"type":"Feature","geometry":{"type":"Point","coordinates":[-71.501529,42.295475]}},{"properties":{"city":"Southborough","zip":"01772","geo_score":0.894,"program":"New England Center for Children-Intermediate Program","# of beds":102,"id":"acno9gzx2na4","address":"31 Turnpike Road","geo_precision":"range","state":"MA"},"type":"Feature","geometry":{"type":"Point","coordinates":[-71.501529,42.295475]}},{"properties":{"city":"Sandwich","zip":"02537","geo_score":0.767,"program":"Riverview School-Secondary School","# of beds":181,"id":"acno9gtt2xo8","address":"551 Route 6A East","geo_precision":"range","state":"MA"},"type":"Feature","geometry":{"type":"Point","coordinates":[-70.421517,41.735713]}},{"properties":{"city":"Sandwich","zip":"02537","geo_score":0.767,"program":"Riverview School-Bridgeview","# of beds":4,"id":"acno9h4uicx2","address":"551 Route 6A East","geo_precision":"range","state":"MA"},"type":"Feature","geometry":{"type":"Point","coordinates":[-70.421517,41.735713]}},{"properties":{"city":"Sandwich","zip":"02537","geo_score":0.767,"program":"Riverview School-Secondary Day School","# of beds":21,"id":"acno9h22pinq","address":"551 Route 6A East","geo_precision":"range","state":"MA"},"type":"Feature","geometry":{"type":"Point","coordinates":[-70.421517,41.735713]}},{"properties":{"city":"Sandwich","zip":"02537","geo_score":0.767,"program":"Riverview School-Summer School","# of beds":136,"id":"acno9gxaq394","address":"551 Route 6A East","geo_precision":"range","state":"MA"},"type":"Feature","geometry":{"type":"Point","coordinates":[-70.421517,41.735713]}},{"properties":{"city":"Walpole","zip":"2032","geo_score":0.752,"program":"League School-Day Treatment and Education","# of beds":68,"id":"acno9h3zxin5","address":"300 Boston Providence Turnpike","geo_precision":"street","state":"MA"},"type":"Feature","geometry":{"type":"Point","coordinates":[-71.20557,42.15409]}},{"properties":{"city":"Walpole","zip":"2032","geo_score":0.752,"program":"League School-Residential Housing and Education","# of beds":16,"id":"acno9h4r3y2u","address":"300 Boston Providence Turnpike","geo_precision":"street","state":"MA"},"type":"Feature","geometry":{"type":"Point","coordinates":[-71.20557,42.15409]}}],"is_temporal":false,"author":{"url":"","metadata":"","contact_name":"","contact_address":"","source":"","contact_phone":""},"source":"","pagination":{"sort":null,"start":0,"total":23,"limit":1000000},"state":"complete","tags":"","published":"2014-08-16T23:54:40-04:00","id":328814}