{"type":"FeatureCollection","data_type":"Dataset","url_type":null,"permissions":[{"permissions":{"download":true,"view":true},"group_id":"everyone"}],"classification":null,"title":"Food Lex restaurants-edited","count":417,"stream_id":329549,"contributor":{"url":"http://geocommons.com/users/63325","name":"drbe222"},"data_attributes":null,"calculation_params":null,"icon_link":null,"link":"http://geocommons.com/overlays/329549.json","extent":[-84.6351,37.9248,-84.3582,38.1959],"geometry_types":["point"],"unique_name":null,"name":"Food Lex restaurants-edited","feature_count":417,"description":"","next_feature":null,"is_raster":false,"short_classification":"Y","stats":{"primsic":{"max":874130,"variance":696612956.836894,"mean":567820.48441247,"stdev":26393.4263944054,"min":422503,"median":581208}},"features":[{"properties":{"city":"Lexington","zip":"40503-1929","sicdesc":"Bakers-Retail","store_name":"TJ Cinnamons","secdesc1":"Foods-Carry Out","geo_score":1.0,"dateprod":"Jun 14 2011","secdesc2":"Coffee &amp; Tea","dateobs":"Dec 14 2011","primsic":546102,"id":"acorz55k748a","source":"infoUSA","address":"212 Southland Dr","geo_precision":"range","state":"KY"},"type":"Feature","geometry":{"type":"Point","coordinates":[-84.519989,38.012633]}},{"properties":{"city":"Lexington","zip":"40504-1151","sicdesc":"Car Washing &amp; Polishing","store_name":"Muscat Inc","secdesc1":"Convenience Stores","geo_score":1.0,"dateprod":"Jun 14 2011","secdesc2":"Service Stations-Gasoline &amp; Oil","dateobs":"Dec 14 2011","primsic":754201,"id":"acorz4xzi9uc","source":"infoUSA","address":"641 Red Mile Rd","geo_precision":"range","state":"KY"},"type":"Feature","geometry":{"type":"Point","coordinates":[-84.523401,38.047513]}},{"properties":{"city":"Lexington","zip":"40505-2116","sicdesc":"Convenience Stores","store_name":"Circle K","secdesc1":"Convenience Stores","geo_score":0.941,"dateprod":"Jun 14 2011","secdesc2":"Grocers-Retail","dateobs":"Dec 14 2011","primsic":541103,"id":"acorz4y2hy7b","source":"infoUSA","address":"285 E New Circle Rd","geo_precision":"range","state":"KY"},"type":"Feature","geometry":{"type":"Point","coordinates":[-84.465963,38.061594]}},{"properties":{"city":"Lexington","zip":"40517-4007","sicdesc":"Convenience Stores","store_name":"Circle K","secdesc1":"Convenience Stores","geo_score":0.512,"dateprod":"Jun 14 2011","secdesc2":"Grocers-Retail","dateobs":"Dec 14 2011","primsic":541103,"id":"acorz5c5kozv","source":"infoUSA","address":"3140 Pimlico Pkwy # 121","geo_precision":"street","state":"KY"},"type":"Feature","geometry":{"type":"Point","coordinates":[-84.460664,37.986157]}},{"properties":{"city":"Lexington","zip":"40515 0000","sicdesc":"Convenience Stores","store_name":"Circle K","secdesc1":"Convenience Stores","geo_score":0.585,"dateprod":"Jun 14 2011","secdesc2":"Grocers-Retail","dateobs":"Dec 14 2011","primsic":541103,"id":"acorz4wnj873","source":"infoUSA","address":"3449 Buckhorn Dr","geo_precision":"zip","state":"KY"},"type":"Feature","geometry":{"type":"Point","coordinates":[-84.437207,37.924774]}},{"properties":{"city":"Lexington","zip":"40509-1815","sicdesc":"Convenience Stores","store_name":"Circle K","secdesc1":"Convenience Stores","geo_score":1.0,"dateprod":"Jun 14 2011","secdesc2":"Grocers-Retail","dateobs":"Dec 14 2011","primsic":541103,"id":"acorz4xwtwyn","source":"infoUSA","address":"3470 Richmond Rd","geo_precision":"range","state":"KY"},"type":"Feature","geometry":{"type":"Point","coordinates":[-84.441585,37.997249]}},{"properties":{"city":"Lexington","zip":"40504-2601","sicdesc":"Convenience Stores","store_name":"Clark's Pump &amp; Shop","secdesc1":"Convenience Stores","geo_score":0.932,"dateprod":"Jun 14 2011","secdesc2":null,"dateobs":"Dec 14 2011","primsic":541103,"id":"acorz51kcu6o","source":"infoUSA","address":"867 S Broadway","geo_precision":"range","state":"KY"},"type":"Feature","geometry":{"type":"Point","coordinates":[-84.513163,38.040249]}},{"properties":{"city":"Lexington","zip":"40509 0000","sicdesc":"Convenience Stores","store_name":"Clark's Pump 'N' Shop Inc","secdesc1":"Convenience Stores","geo_score":1.0,"dateprod":"Jun 14 2011","secdesc2":"Service Stations-Gasoline &amp; Oil","dateobs":"Dec 14 2011","primsic":541103,"id":"acorz5054qrm","source":"infoUSA","address":"3096 Richmond Rd","geo_precision":"range","state":"KY"},"type":"Feature","geometry":{"type":"Point","coordinates":[-84.449372,38.004608]}},{"properties":{"city":"Lexington","zip":"40505-3729","sicdesc":"Convenience Stores","store_name":"Clarks Pump N Shop","secdesc1":"Convenience Stores","geo_score":1.0,"dateprod":"Jun 14 2011","secdesc2":"Service Stations-Gasoline &amp; Oil","dateobs":"Dec 14 2011","primsic":541103,"id":"acorz4x5afur","source":"infoUSA","address":"768 Winchester Rd","geo_precision":"range","state":"KY"},"type":"Feature","geometry":{"type":"Point","coordinates":[-84.479704,38.041314]}},{"properties":{"city":"Lexington","zip":"40517-4036","sicdesc":"Convenience Stores","store_name":"Convenient Store","secdesc1":"Convenience Stores","geo_score":1.0,"dateprod":"Jun 14 2011","secdesc2":null,"dateobs":"Dec 14 2011","primsic":541103,"id":"acorz57r4w9o","source":"infoUSA","address":"3130 Pimlico Pkwy","geo_precision":"range","state":"KY"},"type":"Feature","geometry":{"type":"Point","coordinates":[-84.46007,37.985808]}},{"properties":{"city":"Lexington","zip":"40508-1217","sicdesc":"Convenience Stores","store_name":"Cornermart Grill","secdesc1":"Convenience Stores","geo_score":1.0,"dateprod":"Jun 14 2011","secdesc2":null,"dateobs":"Dec 14 2011","primsic":541103,"id":"acorz54oobth","source":"infoUSA","address":"268 Jefferson St","geo_precision":"range","state":"KY"},"type":"Feature","geometry":{"type":"Point","coordinates":[-84.499091,38.054538]}},{"properties":{"city":"Lexington","zip":"40505-2955","sicdesc":"Convenience Stores","store_name":"Eastland Foodmart","secdesc1":"Convenience Stores","geo_score":1.0,"dateprod":"Jun 14 2011","secdesc2":"Grocers-Retail","dateobs":"Dec 14 2011","primsic":541103,"id":"acorz5b5cp48","source":"infoUSA","address":"1541 Eastland Pkwy","geo_precision":"range","state":"KY"},"type":"Feature","geometry":{"type":"Point","coordinates":[-84.448175,38.048901]}},{"properties":{"city":"Lexington","zip":"40511-1854","sicdesc":"Convenience Stores","store_name":"Fast Stop","secdesc1":"Convenience Stores","geo_score":1.0,"dateprod":"Jun 14 2011","secdesc2":null,"dateobs":"Dec 14 2011","primsic":541103,"id":"acorz4wckdyv","source":"infoUSA","address":"771 Newtown Pike","geo_precision":"range","state":"KY"},"type":"Feature","geometry":{"type":"Point","coordinates":[-84.497597,38.069071]}},{"properties":{"city":"Lexington","zip":"40511-8407","sicdesc":"Convenience Stores","store_name":"Good Friends Food Mart","secdesc1":"Convenience Stores","geo_score":0.805,"dateprod":"Jun 14 2011","secdesc2":null,"dateobs":"Dec 14 2011","primsic":541103,"id":"acorz52ke4n6","source":"infoUSA","address":"1033 Iron Works Pike","geo_precision":"street","state":"KY"},"type":"Feature","geometry":{"type":"Point","coordinates":[-84.538328,38.150653]}},{"properties":{"city":"Lexington","zip":"40505-3242","sicdesc":"Convenience Stores","store_name":"H &amp; M Market","secdesc1":"Convenience Stores","geo_score":0.937,"dateprod":"Jun 14 2011","secdesc2":"Grocers-Retail","dateobs":"Dec 14 2011","primsic":541103,"id":"acorz4ww390p","source":"infoUSA","address":"1220 N Limestone","geo_precision":"range","state":"KY"},"type":"Feature","geometry":{"type":"Point","coordinates":[-84.474975,38.061783]}},{"properties":{"city":"Lexington","zip":"40508-1024","sicdesc":"Convenience Stores","store_name":"Monmon LLC","secdesc1":"Convenience Stores","geo_score":0.955,"dateprod":"Jun 14 2011","secdesc2":null,"dateobs":"Dec 14 2011","primsic":541103,"id":"acorz4x52t1h","source":"infoUSA","address":"833 Georgetown St","geo_precision":"range","state":"KY"},"type":"Feature","geometry":{"type":"Point","coordinates":[-84.504087,38.068809]}},{"properties":{"city":"Lexington","zip":"40505-2700","sicdesc":"Convenience Stores","store_name":"Multi Servicio Latino","secdesc1":"Convenience Stores","geo_score":0.941,"dateprod":"Jun 14 2011","secdesc2":null,"dateobs":"Dec 14 2011","primsic":541103,"id":"acorz546wdop","source":"infoUSA","address":"501 E New Circle Rd","geo_precision":"range","state":"KY"},"type":"Feature","geometry":{"type":"Point","coordinates":[-84.459983,38.055446]}},{"properties":{"city":"Lexington","zip":"40509-2477","sicdesc":"Convenience Stores","store_name":"Murphy USA","secdesc1":"Convenience Stores","geo_score":0.415,"dateprod":"Jun 14 2011","secdesc2":"Alternative Fuels","dateobs":"Dec 14 2011","primsic":541103,"id":"acorz55pqxb8","source":"infoUSA","address":"2353 Grey Lag Way","geo_precision":"street","state":"KY"},"type":"Feature","geometry":{"type":"Point","coordinates":[-84.568508,37.992882]}},{"properties":{"city":"Lexington","zip":"40515-5609","sicdesc":"Convenience Stores","store_name":"Pantry","secdesc1":"Convenience Stores","geo_score":1.0,"dateprod":"Jun 14 2011","secdesc2":"Grocers-Retail","dateobs":"Dec 14 2011","primsic":541103,"id":"acorz50qn41r","source":"infoUSA","address":"464 Squires Rd","geo_precision":"range","state":"KY"},"type":"Feature","geometry":{"type":"Point","coordinates":[-84.448476,37.990939]}},{"properties":{"city":"Lexington","zip":"40505-4055","sicdesc":"Convenience Stores","store_name":"Pantry","secdesc1":"Convenience Stores","geo_score":1.0,"dateprod":"Jun 14 2011","secdesc2":"Grocers-Retail","dateobs":"Dec 14 2011","primsic":541103,"id":"acorz57c10si","source":"infoUSA","address":"720 Henry Clay Blvd","geo_precision":"range","state":"KY"},"type":"Feature","geometry":{"type":"Point","coordinates":[-84.464988,38.038207]}},{"properties":{"city":"Lexington","zip":"40505-2649","sicdesc":"Convenience Stores","store_name":"PDQ Market","secdesc1":"Convenience Stores","geo_score":0.941,"dateprod":"Jun 14 2011","secdesc2":"Grocers-Retail","dateobs":"Dec 14 2011","primsic":541103,"id":"acorz4zcbj39","source":"infoUSA","address":"460 E New Circle Rd","geo_precision":"range","state":"KY"},"type":"Feature","geometry":{"type":"Point","coordinates":[-84.456904,38.051693]}},{"properties":{"city":"Lexington","zip":"40504-1606","sicdesc":"Convenience Stores","store_name":"Speedy Mart","secdesc1":"Convenience Stores","geo_score":1.0,"dateprod":"Jun 14 2011","secdesc2":"Service Stations-Gasoline &amp; Oil","dateobs":"Dec 14 2011","primsic":541103,"id":"acorz4xp026j","source":"infoUSA","address":"2312 Versailles Rd","geo_precision":"range","state":"KY"},"type":"Feature","geometry":{"type":"Point","coordinates":[-84.55425,38.046548]}},{"properties":{"city":"Lexington","zip":"40508-2823","sicdesc":"Convenience Stores","store_name":"Stop &amp; Shop","secdesc1":"Convenience Stores","geo_score":0.585,"dateprod":"Jun 14 2011","secdesc2":null,"dateobs":"Dec 14 2011","primsic":541103,"id":"acorz4yu4zuf","source":"infoUSA","address":"930 W High St","geo_precision":"zip","state":"KY"},"type":"Feature","geometry":{"type":"Point","coordinates":[-84.498954,38.051285]}},{"properties":{"city":"Lexington","zip":"40502-1527","sicdesc":"Convenience Stores","store_name":"Thriftway Food Market","secdesc1":"Convenience Stores","geo_score":1.0,"dateprod":"Jun 14 2011","secdesc2":null,"dateobs":"Dec 14 2011","primsic":541103,"id":"acorz4we5p9c","source":"infoUSA","address":"201 Owsley Ave","geo_precision":"range","state":"KY"},"type":"Feature","geometry":{"type":"Point","coordinates":[-84.479765,38.031911]}},{"properties":{"city":"Lexington","zip":"40507-1745","sicdesc":"Convenience Stores","store_name":"Traxx Co","secdesc1":"Convenience Stores","geo_score":0.415,"dateprod":"Jun 14 2011","secdesc2":"Gas-Liquefied Petro-Bttld/Bulk (Whls)","dateobs":"Dec 14 2011","primsic":541103,"id":"acorz55zdgyo","source":"infoUSA","address":"250 W Main St # 3030","geo_precision":"street","state":"KY"},"type":"Feature","geometry":{"type":"Point","coordinates":[-84.502712,38.051462]}},{"properties":{"city":"Lexington","zip":"40511-1404","sicdesc":"Convenience Stores","store_name":"Winburn Convenience Store","secdesc1":"Convenience Stores","geo_score":1.0,"dateprod":"Jun 14 2011","secdesc2":"Grocers-Retail","dateobs":"Dec 14 2011","primsic":541103,"id":"acorz4vpn7i5","source":"infoUSA","address":"1116 Winburn Dr","geo_precision":"range","state":"KY"},"type":"Feature","geometry":{"type":"Point","coordinates":[-84.475011,38.089266]}},{"properties":{"city":"Lexington","zip":"40509-1052","sicdesc":"Convenience Stores","store_name":"Woodhill Mart Store","secdesc1":"Convenience Stores","geo_score":1.0,"dateprod":"Jun 14 2011","secdesc2":"Grocers-Retail","dateobs":"Dec 14 2011","primsic":541103,"id":"acorz58rqwbr","source":"infoUSA","address":"2350 Woodhill Dr","geo_precision":"range","state":"KY"},"type":"Feature","geometry":{"type":"Point","coordinates":[-84.455859,38.017596]}},{"properties":{"city":"Lexington","zip":"40513-1845","sicdesc":"Delicatessens","store_name":"Babs' Deli","secdesc1":"Delicatessens","geo_score":1.0,"dateprod":"Jun 14 2011","secdesc2":null,"dateobs":"Dec 14 2011","primsic":581209,"id":"acorz58gltxv","source":"infoUSA","address":"3191 Beaumont Centre Cir","geo_precision":"range","state":"KY"},"type":"Feature","geometry":{"type":"Point","coordinates":[-84.556683,38.020655]}},{"properties":{"city":"Lexington","zip":"40515-1718","sicdesc":"Delicatessens","store_name":"Buckhorn Deli","secdesc1":"Delicatessens","geo_score":0.585,"dateprod":"Jun 14 2011","secdesc2":null,"dateobs":"Dec 14 2011","primsic":581209,"id":"acorz5ahrxdo","source":"infoUSA","address":"3459 Buckhorn Dr","geo_precision":"zip","state":"KY"},"type":"Feature","geometry":{"type":"Point","coordinates":[-84.437207,37.924774]}},{"properties":{"city":"Lexington","zip":"40508-2451","sicdesc":"Delicatessens","store_name":"Gourmet Etc","secdesc1":"Delicatessens","geo_score":0.585,"dateprod":"Jun 14 2011","secdesc2":null,"dateobs":"Dec 14 2011","primsic":581209,"id":"acorz5bdxq30","source":"infoUSA","address":"722 W High St","geo_precision":"zip","state":"KY"},"type":"Feature","geometry":{"type":"Point","coordinates":[-84.498954,38.051285]}},{"properties":{"city":"Lexington","zip":"40507-1601","sicdesc":"Delicatessens","store_name":"Main Street Deli","secdesc1":"Delicatessens","geo_score":0.902,"dateprod":"Jun 14 2011","secdesc2":null,"dateobs":"Dec 14 2011","primsic":581209,"id":"acorz5135wh0","source":"infoUSA","address":"380 W Main St","geo_precision":"range","state":"KY"},"type":"Feature","geometry":{"type":"Point","coordinates":[-84.499326,38.048208]}},{"properties":{"city":"Lexington","zip":"40509-9601","sicdesc":"Delicatessens","store_name":"R J's Cycle &amp; Deli","secdesc1":"Delicatessens","geo_score":1.0,"dateprod":"Jun 14 2011","secdesc2":null,"dateobs":"Dec 14 2011","primsic":581209,"id":"acorz575a8ad","source":"infoUSA","address":"6421 Athens Boonesboro Rd","geo_precision":"range","state":"KY"},"type":"Feature","geometry":{"type":"Point","coordinates":[-84.366257,37.950572]}},{"properties":{"city":"Lexington","zip":"40503-2772","sicdesc":"Delicatessens","store_name":"Stanley J's Ny Style Dlctssn","secdesc1":"Delicatessens","geo_score":0.512,"dateprod":"Jun 14 2011","secdesc2":null,"dateobs":"Dec 14 2011","primsic":581209,"id":"acorz4yhocdl","source":"infoUSA","address":"3101 Clays Mill Rd # 300","geo_precision":"street","state":"KY"},"type":"Feature","geometry":{"type":"Point","coordinates":[-84.528894,38.029893]}},{"properties":{"city":"Lexington","zip":"40511-1251","sicdesc":"Delicatessens","store_name":"Subway Development Of Kentucky","secdesc1":"Delicatessens","geo_score":1.0,"dateprod":"Jun 14 2011","secdesc2":"Sandwiches","dateobs":"Dec 14 2011","primsic":581209,"id":"acorz575fzyn","source":"infoUSA","address":"1510 Newtown Pike","geo_precision":"range","state":"KY"},"type":"Feature","geometry":{"type":"Point","coordinates":[-84.489198,38.087957]}},{"properties":{"city":"Lexington","zip":"40511-2321","sicdesc":"Delicatessens","store_name":"Subway Development-Kentucky","secdesc1":"Delicatessens","geo_score":0.945,"dateprod":"Jun 14 2011","secdesc2":"Sandwiches","dateobs":"Dec 14 2011","primsic":581209,"id":"acorz54biku3","source":"infoUSA","address":"1365 Estates Hill Cir","geo_precision":"range","state":"KY"},"type":"Feature","geometry":{"type":"Point","coordinates":[-84.480268,38.084736]}},{"properties":{"city":"Lexington","zip":"40503-4433","sicdesc":"Department Stores","store_name":"Walmart Supercenter","secdesc1":"Grocers-Retail","geo_score":1.0,"dateprod":"Jun 14 2011","secdesc2":"Home Accessories &amp; Furnishings","dateobs":"Dec 14 2011","primsic":531102,"id":"acorz4y3338c","source":"infoUSA","address":"4051 Nicholasville Rd","geo_precision":"range","state":"KY"},"type":"Feature","geometry":{"type":"Point","coordinates":[-84.530036,37.976688]}},{"properties":{"city":"Lexington","zip":"40511-1833","sicdesc":"Department Stores","store_name":"Walmart Supercenter","secdesc1":"Grocers-Retail","geo_score":0.941,"dateprod":"Jun 14 2011","secdesc2":"Home Accessories &amp; Furnishings","dateobs":"Dec 14 2011","primsic":531102,"id":"acorz4wd5e20","source":"infoUSA","address":"500 W New Circle Rd","geo_precision":"range","state":"KY"},"type":"Feature","geometry":{"type":"Point","coordinates":[-84.480134,38.072087]}},{"properties":{"city":"Lexington","zip":"40505-3362","sicdesc":"Food Markets","store_name":"Castlewood Market","secdesc1":"Food Markets","geo_score":1.0,"dateprod":"Jun 14 2011","secdesc2":null,"dateobs":"Dec 14 2011","primsic":541101,"id":"acorz51habr1","source":"infoUSA","address":"1322 Bryan Ave","geo_precision":"range","state":"KY"},"type":"Feature","geometry":{"type":"Point","coordinates":[-84.470303,38.058254]}},{"properties":{"city":"Lexington","zip":"40508-2319","sicdesc":"Food Markets","store_name":"Finderskeepers Market Inc","secdesc1":"Food Markets","geo_score":1.0,"dateprod":"Jun 14 2011","secdesc2":null,"dateobs":"Dec 14 2011","primsic":541101,"id":"acorz5a3a001","source":"infoUSA","address":"109 Walton Ave","geo_precision":"range","state":"KY"},"type":"Feature","geometry":{"type":"Point","coordinates":[-84.485719,38.036748]}},{"properties":{"city":"Lexington","zip":"40507-1649","sicdesc":"Food Markets","store_name":"Kentucky Proud Market","secdesc1":"Food Markets","geo_score":1.0,"dateprod":"Jun 14 2011","secdesc2":null,"dateobs":"Dec 14 2011","primsic":541101,"id":"acorz53k016k","source":"infoUSA","address":"410 W Vine St","geo_precision":"range","state":"KY"},"type":"Feature","geometry":{"type":"Point","coordinates":[-84.501132,38.049032]}},{"properties":{"city":"Lexington","zip":"40508-3716","sicdesc":"Food Markets","store_name":"Lexington Farmers' Market","secdesc1":"Food Markets","geo_score":0.514,"dateprod":"Jun 14 2011","secdesc2":null,"dateobs":"Dec 14 2011","primsic":541101,"id":"acorz59azdx3","source":"infoUSA","address":"628 N Broadway # 5","geo_precision":"street","state":"KY"},"type":"Feature","geometry":{"type":"Point","coordinates":[-84.500729,38.048345]}},{"properties":{"city":"Lexington","zip":"40508-1842","sicdesc":"Food Markets","store_name":"Ohio Street Market","secdesc1":"Food Markets","geo_score":1.0,"dateprod":"Jun 14 2011","secdesc2":null,"dateobs":"Dec 14 2011","primsic":541101,"id":"acorz4zxedfb","source":"infoUSA","address":"368 Ohio St","geo_precision":"range","state":"KY"},"type":"Feature","geometry":{"type":"Point","coordinates":[-84.487311,38.046046]}},{"properties":{"city":"Lexington","zip":"40509-1308","sicdesc":"Food Markets","store_name":"Sagar Indian Market","secdesc1":"Food Markets","geo_score":1.0,"dateprod":"Jun 14 2011","secdesc2":null,"dateobs":"Dec 14 2011","primsic":541101,"id":"acorz4zx6iea","source":"infoUSA","address":"3130 Mapleleaf Dr","geo_precision":"range","state":"KY"},"type":"Feature","geometry":{"type":"Point","coordinates":[-84.424198,38.003178]}},{"properties":{"city":"Lexington","zip":"40505-3715","sicdesc":"Food Markets","store_name":"Subcity Market","secdesc1":"Food Markets","geo_score":0.927,"dateprod":"Jun 14 2011","secdesc2":null,"dateobs":"Dec 14 2011","primsic":541101,"id":"acorz50edsza","source":"infoUSA","address":"500 E Seventh St","geo_precision":"range","state":"KY"},"type":"Feature","geometry":{"type":"Point","coordinates":[-84.476548,38.048912]}},{"properties":{"city":"Lexington","zip":"40516-9629","sicdesc":"Food Markets","store_name":"Windy Corner Market","secdesc1":"Food Markets","geo_score":1.0,"dateprod":"Jun 14 2011","secdesc2":null,"dateobs":"Dec 14 2011","primsic":541101,"id":"acorz4vtec27","source":"infoUSA","address":"4595 Bryan Station Rd","geo_precision":"range","state":"KY"},"type":"Feature","geometry":{"type":"Point","coordinates":[-84.379392,38.102643]}},{"properties":{"city":"Lexington","zip":"40508-1248","sicdesc":"Food Products-Retail","store_name":"Choices Food &amp; Catering LLC","secdesc1":"Food Products-Retail","geo_score":1.0,"dateprod":"Jun 14 2011","secdesc2":null,"dateobs":"Dec 14 2011","primsic":541104,"id":"acorz50sc90q","source":"infoUSA","address":"650 Tower Plz","geo_precision":"range","state":"KY"},"type":"Feature","geometry":{"type":"Point","coordinates":[-84.501728,38.053837]}},{"properties":{"city":"Lexington","zip":"40503-3602","sicdesc":"Food Products-Retail","store_name":"Food Concept Intl","secdesc1":"Food Products-Retail","geo_score":1.0,"dateprod":"Jun 14 2011","secdesc2":null,"dateobs":"Dec 14 2011","primsic":541104,"id":"acorz51z4mqr","source":"infoUSA","address":"3395 Nicholasville Rd","geo_precision":"range","state":"KY"},"type":"Feature","geometry":{"type":"Point","coordinates":[-84.523951,37.991166]}},{"properties":{"city":"Lexington","zip":"40511-6500","sicdesc":"Food Products-Retail","store_name":"Kraft Foods","secdesc1":"Food Products-Retail","geo_score":0.443,"dateprod":"Jun 14 2011","secdesc2":null,"dateobs":"Dec 14 2011","primsic":541104,"id":"acorz4z8s69g","source":"infoUSA","address":"524 Buck Pl","geo_precision":"street","state":"KY"},"type":"Feature","geometry":{"type":"Point","coordinates":[-84.507022,37.952615]}},{"properties":{"city":"Lexington","zip":"40502-1735","sicdesc":"Food Products-Retail","store_name":"Rahul Food &amp; Spices","secdesc1":"Food Products-Retail","geo_score":0.951,"dateprod":"Jun 14 2011","secdesc2":null,"dateobs":"Dec 14 2011","primsic":541104,"id":"acorz4w0go37","source":"infoUSA","address":"505 E Euclid Ave","geo_precision":"range","state":"KY"},"type":"Feature","geometry":{"type":"Point","coordinates":[-84.495337,38.033986]}},{"properties":{"city":"Lexington","zip":"40515-6218","sicdesc":"Food Products-Retail","store_name":"Screamin' Mimi's Salsa","secdesc1":"Food Products-Retail","geo_score":1.0,"dateprod":"Jun 14 2011","secdesc2":null,"dateobs":"Dec 14 2011","primsic":541104,"id":"acorz57595aa","source":"infoUSA","address":"1004 Red Rain Cir","geo_precision":"range","state":"KY"},"type":"Feature","geometry":{"type":"Point","coordinates":[-84.487962,37.95149]}},{"properties":{"city":"Lexington","zip":"40505-4146","sicdesc":"Grocers-Retail","store_name":"African &amp; Caribbean Mkt LLC","secdesc1":"Grocers-Retail","geo_score":0.513,"dateprod":"Jun 14 2011","secdesc2":null,"dateobs":"Dec 14 2011","primsic":541105,"id":"acorz4y4mpto","source":"infoUSA","address":"1315 Winchester Rd # 349","geo_precision":"street","state":"KY"},"type":"Feature","geometry":{"type":"Point","coordinates":[-84.48125,38.042193]}},{"properties":{"city":"Lexington","zip":"40505-3715","sicdesc":"Grocers-Retail","store_name":"Billy's Market","secdesc1":"Grocers-Retail","geo_score":0.927,"dateprod":"Jun 14 2011","secdesc2":null,"dateobs":"Dec 14 2011","primsic":541105,"id":"acorz4wnnxpe","source":"infoUSA","address":"570 E Seventh St","geo_precision":"range","state":"KY"},"type":"Feature","geometry":{"type":"Point","coordinates":[-84.475955,38.048472]}},{"properties":{"city":"Lexington","zip":"40508-2422","sicdesc":"Grocers-Retail","store_name":"C &amp; P Market","secdesc1":"Grocers-Retail","geo_score":1.0,"dateprod":"Jun 14 2011","secdesc2":null,"dateobs":"Dec 14 2011","primsic":541105,"id":"acorz4zfws9t","source":"infoUSA","address":"1000 Manchester St","geo_precision":"range","state":"KY"},"type":"Feature","geometry":{"type":"Point","coordinates":[-84.513365,38.054368]}},{"properties":{"city":"Lexington","zip":"40505-1419","sicdesc":"Grocers-Retail","store_name":"Convenience Store","secdesc1":"Convenience Stores","geo_score":1.0,"dateprod":"Jun 14 2011","secdesc2":null,"dateobs":"Dec 14 2011","primsic":541105,"id":"acorz566zk2b","source":"infoUSA","address":"1511 Russell Cave Rd","geo_precision":"range","state":"KY"},"type":"Feature","geometry":{"type":"Point","coordinates":[-84.475533,38.072149]}},{"properties":{"city":"Lexington","zip":"40508-9002","sicdesc":"Grocers-Retail","store_name":"Country Corner Market","secdesc1":"Grocers-Retail","geo_score":0.927,"dateprod":"Jun 14 2011","secdesc2":null,"dateobs":"Dec 14 2011","primsic":541105,"id":"acorz57s2vy6","source":"infoUSA","address":"535 W Second St","geo_precision":"range","state":"KY"},"type":"Feature","geometry":{"type":"Point","coordinates":[-84.50239,38.055452]}},{"properties":{"city":"Lexington","zip":"40511-8443","sicdesc":"Grocers-Retail","store_name":"D &amp; P Lordell Grocery","secdesc1":"Grocers-Retail","geo_score":1.0,"dateprod":"Jun 14 2011","secdesc2":"Delicatessens","dateobs":"Dec 14 2011","primsic":541105,"id":"acorz4xrqe39","source":"infoUSA","address":"6888 Russell Cave Rd","geo_precision":"range","state":"KY"},"type":"Feature","geometry":{"type":"Point","coordinates":[-84.397379,38.195882]}},{"properties":{"city":"Lexington","zip":"40515-5609","sicdesc":"Grocers-Retail","store_name":"European Gourmet","secdesc1":"Grocers-Retail","geo_score":1.0,"dateprod":"Jun 14 2011","secdesc2":null,"dateobs":"Dec 14 2011","primsic":541105,"id":"acorz4xgil8p","source":"infoUSA","address":"472 Squires Rd","geo_precision":"range","state":"KY"},"type":"Feature","geometry":{"type":"Point","coordinates":[-84.448559,37.99079]}},{"properties":{"city":"Lexington","zip":"40508-1534","sicdesc":"Grocers-Retail","store_name":"F &amp; D Market","secdesc1":"Grocers-Retail","geo_score":1.0,"dateprod":"Jun 14 2011","secdesc2":null,"dateobs":"Dec 14 2011","primsic":541105,"id":"acorz5bdv78a","source":"infoUSA","address":"573 Elm Tree Ln","geo_precision":"range","state":"KY"},"type":"Feature","geometry":{"type":"Point","coordinates":[-84.483683,38.050148]}},{"properties":{"city":"Lexington","zip":"40508-1017","sicdesc":"Grocers-Retail","store_name":"Florence Avenue Market","secdesc1":"Grocers-Retail","geo_score":1.0,"dateprod":"Jun 14 2011","secdesc2":null,"dateobs":"Dec 14 2011","primsic":541105,"id":"acorz4zd9dme","source":"infoUSA","address":"760 Florence Ave","geo_precision":"range","state":"KY"},"type":"Feature","geometry":{"type":"Point","coordinates":[-84.507219,38.06774]}},{"properties":{"city":"Lexington","zip":"40517-4274","sicdesc":"Grocers-Retail","store_name":"Food Land","secdesc1":"Grocers-Retail","geo_score":1.0,"dateprod":"Jun 14 2011","secdesc2":null,"dateobs":"Dec 14 2011","primsic":541105,"id":"acorz51idaky","source":"infoUSA","address":"580 Eureka Springs Dr","geo_precision":"range","state":"KY"},"type":"Feature","geometry":{"type":"Point","coordinates":[-84.457355,37.997476]}},{"properties":{"city":"Lexington","zip":"40504-1197","sicdesc":"Grocers-Retail","store_name":"Foodland Markets","secdesc1":"Grocers-Retail","geo_score":0.512,"dateprod":"Jun 14 2011","secdesc2":null,"dateobs":"Dec 14 2011","primsic":541105,"id":"acorz56ut5l0","source":"infoUSA","address":"1414 Versailles Rd # 120","geo_precision":"street","state":"KY"},"type":"Feature","geometry":{"type":"Point","coordinates":[-84.517513,38.050073]}},{"properties":{"city":"Lexington","zip":"40502-3407","sicdesc":"Grocers-Retail","store_name":"Fresh Market","secdesc1":"Grocers-Retail","geo_score":1.0,"dateprod":"Jun 14 2011","secdesc2":null,"dateobs":"Dec 14 2011","primsic":541105,"id":"acorz52okby6","source":"infoUSA","address":"3387 Tates Creek Rd","geo_precision":"range","state":"KY"},"type":"Feature","geometry":{"type":"Point","coordinates":[-84.495433,37.994078]}},{"properties":{"city":"Lexington","zip":"40507-1122","sicdesc":"Grocers-Retail","store_name":"George's Grocery &amp; Deli","secdesc1":"Grocers-Retail","geo_score":0.937,"dateprod":"Jun 14 2011","secdesc2":null,"dateobs":"Dec 14 2011","primsic":541105,"id":"acorz58jfqwr","source":"infoUSA","address":"161 N Limestone","geo_precision":"range","state":"KY"},"type":"Feature","geometry":{"type":"Point","coordinates":[-84.494776,38.047943]}},{"properties":{"city":"Lexington","zip":"40503-1808","sicdesc":"Grocers-Retail","store_name":"Good Foods Market &amp; Cafe","secdesc1":"Grocers-Retail","geo_score":0.607,"dateprod":"Jun 14 2011","secdesc2":null,"dateobs":"Dec 14 2011","primsic":541105,"id":"acorz4zgmsx5","source":"infoUSA","address":"455 Southland Dr # D","geo_precision":"street","state":"KY"},"type":"Feature","geometry":{"type":"Point","coordinates":[-84.518563,38.01197]}},{"properties":{"city":"Lexington","zip":"40505-1967","sicdesc":"Grocers-Retail","store_name":"Good Friends Food Mart","secdesc1":"Grocers-Retail","geo_score":1.0,"dateprod":"Jun 14 2011","secdesc2":null,"dateobs":"Dec 14 2011","primsic":541105,"id":"acorz4z9f5zp","source":"infoUSA","address":"2353 Paris Pike","geo_precision":"range","state":"KY"},"type":"Feature","geometry":{"type":"Point","coordinates":[-84.446915,38.081099]}},{"properties":{"city":"Lexington","zip":"40508-3619","sicdesc":"Grocers-Retail","store_name":"Griffith's Market","secdesc1":"Grocers-Retail","geo_score":0.927,"dateprod":"Jun 14 2011","secdesc2":null,"dateobs":"Dec 14 2011","primsic":541105,"id":"acorz5ac1tcq","source":"infoUSA","address":"427 E Sixth St","geo_precision":"range","state":"KY"},"type":"Feature","geometry":{"type":"Point","coordinates":[-84.480735,38.048986]}},{"properties":{"city":"Lexington","zip":"40517-2534","sicdesc":"Grocers-Retail","store_name":"Hibarri Market","secdesc1":"Grocers-Retail","geo_score":1.0,"dateprod":"Jun 14 2011","secdesc2":null,"dateobs":"Dec 14 2011","primsic":541105,"id":"acorz55siu5n","source":"infoUSA","address":"435 Redding Rd","geo_precision":"range","state":"KY"},"type":"Feature","geometry":{"type":"Point","coordinates":[-84.495271,37.983161]}},{"properties":{"city":"Lexington","zip":"40511-8903","sicdesc":"Grocers-Retail","store_name":"J &amp; N Grocery","secdesc1":"Grocers-Retail","geo_score":0.811,"dateprod":"Jun 14 2011","secdesc2":null,"dateobs":"Dec 14 2011","primsic":541105,"id":"acorz5a354c2","source":"infoUSA","address":"370 Paynes Depot Rd","geo_precision":"street","state":"KY"},"type":"Feature","geometry":{"type":"Point","coordinates":[-84.623888,38.142057]}},{"properties":{"city":"Lexington","zip":"40511-9546","sicdesc":"Grocers-Retail","store_name":"Jot-Em Down Store","secdesc1":"Grocers-Retail","geo_score":1.0,"dateprod":"Jun 14 2011","secdesc2":null,"dateobs":"Dec 14 2011","primsic":541105,"id":"acorz56gkd8m","source":"infoUSA","address":"3299 Russell Cave Rd","geo_precision":"range","state":"KY"},"type":"Feature","geometry":{"type":"Point","coordinates":[-84.450457,38.11398]}},{"properties":{"city":"Lexington","zip":"40502-6597","sicdesc":"Grocers-Retail","store_name":"Kroger","secdesc1":"Grocers-Retail","geo_score":0.707,"dateprod":"Jun 14 2011","secdesc2":"Department Stores","dateobs":"Dec 14 2011","primsic":541105,"id":"acorz4z41abp","source":"infoUSA","address":"1060 Chinoe Rd # 186","geo_precision":"range","state":"KY"},"type":"Feature","geometry":{"type":"Point","coordinates":[-84.475872,38.025271]}},{"properties":{"city":"Lexington","zip":"40503-3030","sicdesc":"Grocers-Retail","store_name":"Kroger","secdesc1":"Grocers-Retail","geo_score":0.707,"dateprod":"Jun 14 2011","secdesc2":"Department Stores","dateobs":"Dec 14 2011","primsic":541105,"id":"acorz59lr5u3","source":"infoUSA","address":"150 W Lowry Ln # 190","geo_precision":"range","state":"KY"},"type":"Feature","geometry":{"type":"Point","coordinates":[-84.523076,38.007109]}},{"properties":{"city":"Lexington","zip":"40511-2136","sicdesc":"Grocers-Retail","store_name":"Kroger","secdesc1":"Grocers-Retail","geo_score":0.512,"dateprod":"Jun 14 2011","secdesc2":"Department Stores","dateobs":"Dec 14 2011","primsic":541105,"id":"acorz4xgtlud","source":"infoUSA","address":"1600 Leestown Rd # 150","geo_precision":"street","state":"KY"},"type":"Feature","geometry":{"type":"Point","coordinates":[-84.52329,38.065838]}},{"properties":{"city":"Lexington","zip":"40505-2109","sicdesc":"Grocers-Retail","store_name":"Kroger","secdesc1":"Grocers-Retail","geo_score":1.0,"dateprod":"Jun 14 2011","secdesc2":"Department Stores","dateobs":"Dec 14 2011","primsic":541105,"id":"acorz57y4811","source":"infoUSA","address":"1620 Old Paris Rd","geo_precision":"range","state":"KY"},"type":"Feature","geometry":{"type":"Point","coordinates":[-84.468726,38.066026]}},{"properties":{"city":"Lexington","zip":"40505-2139","sicdesc":"Grocers-Retail","store_name":"Kroger","secdesc1":"Grocers-Retail","geo_score":0.513,"dateprod":"Jun 14 2011","secdesc2":"Department Stores","dateobs":"Dec 14 2011","primsic":541105,"id":"acorz57ftou2","source":"infoUSA","address":"1650 Bryan Station Rd # 170","geo_precision":"street","state":"KY"},"type":"Feature","geometry":{"type":"Point","coordinates":[-84.480629,38.056492]}},{"properties":{"city":"Lexington","zip":"40504-3114","sicdesc":"Grocers-Retail","store_name":"Kroger","secdesc1":"Grocers-Retail","geo_score":0.585,"dateprod":"Jun 14 2011","secdesc2":"Department Stores","dateobs":"Dec 14 2011","primsic":541105,"id":"acorz510t1p5","source":"infoUSA","address":"1808 Alexandria Dr","geo_precision":"zip","state":"KY"},"type":"Feature","geometry":{"type":"Point","coordinates":[-84.539422,38.038613]}},{"properties":{"city":"Lexington","zip":"40509-1525","sicdesc":"Grocers-Retail","store_name":"Kroger","secdesc1":"Grocers-Retail","geo_score":0.512,"dateprod":"Jun 14 2011","secdesc2":"Department Stores","dateobs":"Dec 14 2011","primsic":541105,"id":"acorz58oe2pq","source":"infoUSA","address":"3101 Richmond Rd # 204","geo_precision":"street","state":"KY"},"type":"Feature","geometry":{"type":"Point","coordinates":[-84.457788,38.011973]}},{"properties":{"city":"Lexington","zip":"40513 0000","sicdesc":"Grocers-Retail","store_name":"Kroger","secdesc1":"Grocers-Retail","geo_score":1.0,"dateprod":"Jun 14 2011","secdesc2":"Department Stores","dateobs":"Dec 14 2011","primsic":541105,"id":"acorz5amw0p6","source":"infoUSA","address":"3160 Beaumont Centre Cir","geo_precision":"range","state":"KY"},"type":"Feature","geometry":{"type":"Point","coordinates":[-84.559848,38.019131]}},{"properties":{"city":"Lexington","zip":"40513-1957","sicdesc":"Grocers-Retail","store_name":"Kroger","secdesc1":"Grocers-Retail","geo_score":1.0,"dateprod":"Jun 14 2011","secdesc2":"Department Stores","dateobs":"Dec 14 2011","primsic":541105,"id":"acorz52sqi2g","source":"infoUSA","address":"3175 Beaumont Centre Cir","geo_precision":"range","state":"KY"},"type":"Feature","geometry":{"type":"Point","coordinates":[-84.556968,38.020688]}},{"properties":{"city":"Lexington","zip":"40502-2404","sicdesc":"Grocers-Retail","store_name":"Kroger","secdesc1":"Grocers-Retail","geo_score":1.0,"dateprod":"Jun 14 2011","secdesc2":"Department Stores","dateobs":"Dec 14 2011","primsic":541105,"id":"acorz4vx2hat","source":"infoUSA","address":"344 Romany Rd","geo_precision":"range","state":"KY"},"type":"Feature","geometry":{"type":"Point","coordinates":[-84.486186,38.019422]}},{"properties":{"city":"Lexington","zip":"40514-1502","sicdesc":"Grocers-Retail","store_name":"Kroger","secdesc1":"Grocers-Retail","geo_score":0.512,"dateprod":"Jun 14 2011","secdesc2":"Department Stores","dateobs":"Dec 14 2011","primsic":541105,"id":"acorz57zdpff","source":"infoUSA","address":"3650 Boston Rd # 180","geo_precision":"street","state":"KY"},"type":"Feature","geometry":{"type":"Point","coordinates":[-84.550343,37.981943]}},{"properties":{"city":"Lexington","zip":"40517-3099","sicdesc":"Grocers-Retail","store_name":"Kroger","secdesc1":"Grocers-Retail","geo_score":0.524,"dateprod":"Jun 14 2011","secdesc2":"Department Stores","dateobs":"Dec 14 2011","primsic":541105,"id":"acorz51folxm","source":"infoUSA","address":"4101 Tates Creek Centre # 114","geo_precision":"street","state":"KY"},"type":"Feature","geometry":{"type":"Point","coordinates":[-84.497416,37.9801]}},{"properties":{"city":"Lexington","zip":"40515-2010","sicdesc":"Grocers-Retail","store_name":"Kroger","secdesc1":"Grocers-Retail","geo_score":0.512,"dateprod":"Jun 14 2011","secdesc2":"Department Stores","dateobs":"Dec 14 2011","primsic":541105,"id":"acorz575wd94","source":"infoUSA","address":"4750 Hartland Pkwy # 136","geo_precision":"street","state":"KY"},"type":"Feature","geometry":{"type":"Point","coordinates":[-84.481323,37.962306]}},{"properties":{"city":"Lexington","zip":"40502-1740","sicdesc":"Grocers-Retail","store_name":"Kroger","secdesc1":"Grocers-Retail","geo_score":0.951,"dateprod":"Jun 14 2011","secdesc2":"Department Stores","dateobs":"Dec 14 2011","primsic":541105,"id":"acorz52hi9wx","source":"infoUSA","address":"704 E Euclid Ave","geo_precision":"range","state":"KY"},"type":"Feature","geometry":{"type":"Point","coordinates":[-84.49204,38.030862]}},{"properties":{"city":"Lexington","zip":"40505-2928","sicdesc":"Grocers-Retail","store_name":"LA Guadalupana","secdesc1":"Grocers-Retail","geo_score":0.512,"dateprod":"Jun 14 2011","secdesc2":null,"dateobs":"Dec 14 2011","primsic":541105,"id":"acorz59wreqt","source":"infoUSA","address":"1533 Eastland Pkwy # 8","geo_precision":"street","state":"KY"},"type":"Feature","geometry":{"type":"Point","coordinates":[-84.465064,38.045088]}},{"properties":{"city":"Lexington","zip":"40504-1659","sicdesc":"Grocers-Retail","store_name":"LA Unica Mexican Grocery","secdesc1":"Grocers-Retail","geo_score":0.512,"dateprod":"Jun 14 2011","secdesc2":null,"dateobs":"Dec 14 2011","primsic":541105,"id":"acorz520a5cx","source":"infoUSA","address":"1429 Village Dr # 140","geo_precision":"street","state":"KY"},"type":"Feature","geometry":{"type":"Point","coordinates":[-84.550942,38.052095]}},{"properties":{"city":"Lexington","zip":"40504-4108","sicdesc":"Grocers-Retail","store_name":"Lexington Cafe Inc","secdesc1":"Grocers-Retail","geo_score":0.932,"dateprod":"Jun 14 2011","secdesc2":null,"dateobs":"Dec 14 2011","primsic":541105,"id":"acorz53792zd","source":"infoUSA","address":"1080 S Broadway","geo_precision":"range","state":"KY"},"type":"Feature","geometry":{"type":"Point","coordinates":[-84.516854,38.03794]}},{"properties":{"city":"Lexington","zip":"40508-1514","sicdesc":"Grocers-Retail","store_name":"M &amp; M Grocery &amp; Meat Basket","secdesc1":"Grocers-Retail","geo_score":0.927,"dateprod":"Jun 14 2011","secdesc2":null,"dateobs":"Dec 14 2011","primsic":541105,"id":"acorz537su1r","source":"infoUSA","address":"398 E Fifth St","geo_precision":"range","state":"KY"},"type":"Feature","geometry":{"type":"Point","coordinates":[-84.484197,38.048584]}},{"properties":{"city":"Lexington","zip":"40509-1042","sicdesc":"Grocers-Retail","store_name":"Marianas","secdesc1":"Grocers-Retail","geo_score":0.512,"dateprod":"Jun 14 2011","secdesc2":"Restaurants","dateobs":"Dec 14 2011","primsic":541105,"id":"acorz5c5b7b2","source":"infoUSA","address":"2350 Woodhill Dr # 168","geo_precision":"street","state":"KY"},"type":"Feature","geometry":{"type":"Point","coordinates":[-84.454875,38.017387]}},{"properties":{"city":"Lexington","zip":"40508-1842","sicdesc":"Grocers-Retail","store_name":"Mashni Market","secdesc1":"Grocers-Retail","geo_score":1.0,"dateprod":"Jun 14 2011","secdesc2":null,"dateobs":"Dec 14 2011","primsic":541105,"id":"acorz5831y7f","source":"infoUSA","address":"368 Ohio St","geo_precision":"range","state":"KY"},"type":"Feature","geometry":{"type":"Point","coordinates":[-84.487311,38.046046]}},{"properties":{"city":"Lexington","zip":"40509-2220","sicdesc":"Grocers-Retail","store_name":"Meijer","secdesc1":"Grocers-Retail","geo_score":0.512,"dateprod":"Jun 14 2011","secdesc2":"General Merchandise-Retail","dateobs":"Dec 14 2011","primsic":541105,"id":"acorz5907fww","source":"infoUSA","address":"2155 Paul Jones Way # 100","geo_precision":"street","state":"KY"},"type":"Feature","geometry":{"type":"Point","coordinates":[-84.421408,38.021231]}},{"properties":{"city":"Lexington","zip":"40503-3493","sicdesc":"Grocers-Retail","store_name":"Meijer","secdesc1":"Grocers-Retail","geo_score":0.585,"dateprod":"Jun 14 2011","secdesc2":"Pharmacies","dateobs":"Dec 14 2011","primsic":541105,"id":"acorz59zaqvy","source":"infoUSA","address":"351 Meijer Way # 100","geo_precision":"zip","state":"KY"},"type":"Feature","geometry":{"type":"Point","coordinates":[-84.530773,38.019522]}},{"properties":{"city":"Lexington","zip":"40503 0000","sicdesc":"Grocers-Retail","store_name":"Meijer","secdesc1":"Grocers-Retail","geo_score":1.0,"dateprod":"Jun 14 2011","secdesc2":"Pharmacies","dateobs":"Dec 14 2011","primsic":541105,"id":"acorz5ai8dh0","source":"infoUSA","address":"351 W Reynolds Rd","geo_precision":"range","state":"KY"},"type":"Feature","geometry":{"type":"Point","coordinates":[-84.535859,37.995045]}},{"properties":{"city":"Lexington","zip":"40508-1650","sicdesc":"Grocers-Retail","store_name":"Neighborhood Grocery","secdesc1":"Grocers-Retail","geo_score":0.927,"dateprod":"Jun 14 2011","secdesc2":null,"dateobs":"Dec 14 2011","primsic":541105,"id":"acorz4zn99cb","source":"infoUSA","address":"215 E Seventh St","geo_precision":"range","state":"KY"},"type":"Feature","geometry":{"type":"Point","coordinates":[-84.481855,38.053289]}},{"properties":{"city":"Lexington","zip":"40503-3104","sicdesc":"Grocers-Retail","store_name":"Old San Juan","secdesc1":"Grocers-Retail","geo_score":1.0,"dateprod":"Jun 14 2011","secdesc2":null,"dateobs":"Dec 14 2011","primsic":541105,"id":"acorz5bbua9a","source":"infoUSA","address":"247 Surfside Dr","geo_precision":"range","state":"KY"},"type":"Feature","geometry":{"type":"Point","coordinates":[-84.51981,38.002067]}},{"properties":{"city":"Lexington","zip":"40508-1511","sicdesc":"Grocers-Retail","store_name":"Our Market","secdesc1":"Grocers-Retail","geo_score":0.927,"dateprod":"Jun 14 2011","secdesc2":null,"dateobs":"Dec 14 2011","primsic":541105,"id":"acorz4wv5094","source":"infoUSA","address":"201 E Fifth St","geo_precision":"range","state":"KY"},"type":"Feature","geometry":{"type":"Point","coordinates":[-84.486329,38.050508]}},{"properties":{"city":"Lexington","zip":"40508-1612","sicdesc":"Grocers-Retail","store_name":"Pak &amp; Save Supermarkets","secdesc1":"Grocers-Retail","geo_score":0.927,"dateprod":"Jun 14 2011","secdesc2":null,"dateobs":"Dec 14 2011","primsic":541105,"id":"acorz4xeipam","source":"infoUSA","address":"503 E Third St","geo_precision":"range","state":"KY"},"type":"Feature","geometry":{"type":"Point","coordinates":[-84.485266,38.044415]}},{"properties":{"city":"Lexington","zip":"40509-1501","sicdesc":"Grocers-Retail","store_name":"Parisa International Sprmkt","secdesc1":"Grocers-Retail","geo_score":1.0,"dateprod":"Jun 14 2011","secdesc2":null,"dateobs":"Dec 14 2011","primsic":541105,"id":"acorz51mqxem","source":"infoUSA","address":"2626 Richmond Rd","geo_precision":"range","state":"KY"},"type":"Feature","geometry":{"type":"Point","coordinates":[-84.457157,38.011416]}},{"properties":{"city":"Lexington","zip":"40504-1615","sicdesc":"Grocers-Retail","store_name":"Perintesa Supermarket","secdesc1":"Grocers-Retail","geo_score":1.0,"dateprod":"Jun 14 2011","secdesc2":null,"dateobs":"Dec 14 2011","primsic":541105,"id":"acorz5bsyxhz","source":"infoUSA","address":"1430 Village Dr","geo_precision":"range","state":"KY"},"type":"Feature","geometry":{"type":"Point","coordinates":[-84.549029,38.048276]}},{"properties":{"city":"Lexington","zip":"40508-1987","sicdesc":"Grocers-Retail","store_name":"Phillips Market","secdesc1":"Grocers-Retail","geo_score":0.513,"dateprod":"Jun 14 2011","secdesc2":null,"dateobs":"Dec 14 2011","primsic":541105,"id":"acorz55xqj5i","source":"infoUSA","address":"553 S Limestone # 3","geo_precision":"street","state":"KY"},"type":"Feature","geometry":{"type":"Point","coordinates":[-84.499856,38.044405]}},{"properties":{"city":"Lexington","zip":"40508-1678","sicdesc":"Grocers-Retail","store_name":"Progress Market","secdesc1":"Grocers-Retail","geo_score":0.937,"dateprod":"Jun 14 2011","secdesc2":null,"dateobs":"Dec 14 2011","primsic":541105,"id":"acorz511ov4z","source":"infoUSA","address":"600 N Limestone","geo_precision":"range","state":"KY"},"type":"Feature","geometry":{"type":"Point","coordinates":[-84.484867,38.054945]}},{"properties":{"city":"Lexington","zip":"40503-3575","sicdesc":"Grocers-Retail","store_name":"Sagar India Market","secdesc1":"Grocers-Retail","geo_score":0.512,"dateprod":"Jun 14 2011","secdesc2":null,"dateobs":"Dec 14 2011","primsic":541105,"id":"acorz54zlnbe","source":"infoUSA","address":"3330 Partner Pl # 18","geo_precision":"street","state":"KY"},"type":"Feature","geometry":{"type":"Point","coordinates":[-84.54731,37.99478]}},{"properties":{"city":"Lexington","zip":"40503-1827","sicdesc":"Grocers-Retail","store_name":"Sahara Meats Bakery &amp; Grocery","secdesc1":"Grocers-Retail","geo_score":1.0,"dateprod":"Jun 14 2011","secdesc2":null,"dateobs":"Dec 14 2011","primsic":541105,"id":"acorz55xta3n","source":"infoUSA","address":"412 Southland Dr","geo_precision":"range","state":"KY"},"type":"Feature","geometry":{"type":"Point","coordinates":[-84.528269,38.020088]}},{"properties":{"city":"Lexington","zip":"40505 0000","sicdesc":"Grocers-Retail","store_name":"Save-A-Lot","secdesc1":"Grocers-Retail","geo_score":0.932,"dateprod":"Jun 14 2011","secdesc2":null,"dateobs":"Dec 14 2011","primsic":541105,"id":"acorz4wmrylv","source":"infoUSA","address":"1235 N Broadway","geo_precision":"range","state":"KY"},"type":"Feature","geometry":{"type":"Point","coordinates":[-84.479505,38.063151]}},{"properties":{"city":"Lexington","zip":"40505-4152","sicdesc":"Grocers-Retail","store_name":"Save-A-Lot","secdesc1":"Grocers-Retail","geo_score":0.513,"dateprod":"Jun 14 2011","secdesc2":null,"dateobs":"Dec 14 2011","primsic":541105,"id":"acorz5a2zlal","source":"infoUSA","address":"1301 Winchester Rd # 99","geo_precision":"street","state":"KY"},"type":"Feature","geometry":{"type":"Point","coordinates":[-84.48125,38.042193]}},{"properties":{"city":"Lexington","zip":"40504-1601","sicdesc":"Grocers-Retail","store_name":"Save-A-Lot","secdesc1":"Grocers-Retail","geo_score":1.0,"dateprod":"Jun 14 2011","secdesc2":null,"dateobs":"Dec 14 2011","primsic":541105,"id":"acorz4zkz6xb","source":"infoUSA","address":"2183 Versailles Rd","geo_precision":"range","state":"KY"},"type":"Feature","geometry":{"type":"Point","coordinates":[-84.546354,38.047295]}},{"properties":{"city":"Lexington","zip":"40504-1601","sicdesc":"Grocers-Retail","store_name":"Save-A-Lot","secdesc1":"Grocers-Retail","geo_score":1.0,"dateprod":"Jun 14 2011","secdesc2":null,"dateobs":"Dec 14 2011","primsic":541105,"id":"acorz52jkl9g","source":"infoUSA","address":"2189 Versailles Rd","geo_precision":"range","state":"KY"},"type":"Feature","geometry":{"type":"Point","coordinates":[-84.548982,38.047078]}},{"properties":{"city":"Lexington","zip":"40505-4151","sicdesc":"Grocers-Retail","store_name":"Seoul Supermarket","secdesc1":"Grocers-Retail","geo_score":0.514,"dateprod":"Jun 14 2011","secdesc2":null,"dateobs":"Dec 14 2011","primsic":541105,"id":"acorz50srofj","source":"infoUSA","address":"1085 E New Circle Rd # 2","geo_precision":"street","state":"KY"},"type":"Feature","geometry":{"type":"Point","coordinates":[-84.467221,38.062339]}},{"properties":{"city":"Lexington","zip":"40508-1067","sicdesc":"Grocers-Retail","store_name":"Shopper's Choice Market","secdesc1":"Grocers-Retail","geo_score":0.955,"dateprod":"Jun 14 2011","secdesc2":null,"dateobs":"Dec 14 2011","primsic":541105,"id":"acorz4xc90w5","source":"infoUSA","address":"649 Georgetown St","geo_precision":"range","state":"KY"},"type":"Feature","geometry":{"type":"Point","coordinates":[-84.503204,38.066048]}},{"properties":{"city":"Lexington","zip":"40555-5040","sicdesc":"Grocers-Retail","store_name":"Slone's Signature Markets","secdesc1":"Grocers-Retail","geo_score":0.357,"dateprod":"Jun 14 2011","secdesc2":null,"dateobs":"Dec 14 2011","primsic":541105,"id":"acorz4yfj8ht","source":"infoUSA","address":"PO Box 55040","geo_precision":"street","state":"KY"},"type":"Feature","geometry":{"type":"Point","coordinates":[-84.507022,37.952615]}},{"properties":{"city":"Lexington","zip":"40511-1473","sicdesc":"Grocers-Retail","store_name":"Stop-N-Shop Discount Foods","secdesc1":"Grocers-Retail","geo_score":1.0,"dateprod":"Jun 14 2011","secdesc2":null,"dateobs":"Dec 14 2011","primsic":541105,"id":"acorz5a099lf","source":"infoUSA","address":"1198 Winburn Dr","geo_precision":"range","state":"KY"},"type":"Feature","geometry":{"type":"Point","coordinates":[-84.473507,38.088511]}},{"properties":{"city":"Lexington","zip":"40504-1611","sicdesc":"Grocers-Retail","store_name":"Super Mercado Aguascalientes","secdesc1":"Grocers-Retail","geo_score":0.585,"dateprod":"Jun 14 2011","secdesc2":null,"dateobs":"Dec 14 2011","primsic":541105,"id":"acorz571jv4j","source":"infoUSA","address":"1424 Alexandria Dr","geo_precision":"zip","state":"KY"},"type":"Feature","geometry":{"type":"Point","coordinates":[-84.539422,38.038613]}},{"properties":{"city":"Lexington","zip":"40503-2400","sicdesc":"Grocers-Retail","store_name":"Super Mercado Aguascalientes","secdesc1":"Grocers-Retail","geo_score":0.512,"dateprod":"Jun 14 2011","secdesc2":null,"dateobs":"Dec 14 2011","primsic":541105,"id":"acorz56bd790","source":"infoUSA","address":"2220 Nicholasville Rd # 156","geo_precision":"street","state":"KY"},"type":"Feature","geometry":{"type":"Point","coordinates":[-84.50974,38.030735]}},{"properties":{"city":"Lexington","zip":"40504-1611","sicdesc":"Grocers-Retail","store_name":"Supermarket At Aguas Calientes","secdesc1":"Grocers-Retail","geo_score":0.585,"dateprod":"Jun 14 2011","secdesc2":null,"dateobs":"Dec 14 2011","primsic":541105,"id":"acorz50az71v","source":"infoUSA","address":"1424 Alexandria Dr","geo_precision":"zip","state":"KY"},"type":"Feature","geometry":{"type":"Point","coordinates":[-84.539422,38.038613]}},{"properties":{"city":"Lexington","zip":"40502-1555","sicdesc":"Grocers-Retail","store_name":"Thriftway Foodmart","secdesc1":"Convenience Stores","geo_score":1.0,"dateprod":"Jun 14 2011","secdesc2":null,"dateobs":"Dec 14 2011","primsic":541105,"id":"acorz5bgkhkh","source":"infoUSA","address":"299 Sherman Ave","geo_precision":"range","state":"KY"},"type":"Feature","geometry":{"type":"Point","coordinates":[-84.474367,38.031028]}},{"properties":{"city":"Lexington","zip":"40511-1075","sicdesc":"Grocers-Retail","store_name":"Unity Wholesale Grocery","secdesc1":"Grocers-Retail","geo_score":1.0,"dateprod":"Jun 14 2011","secdesc2":null,"dateobs":"Dec 14 2011","primsic":541105,"id":"acorz53mrqdd","source":"infoUSA","address":"500 Horton Ct","geo_precision":"range","state":"KY"},"type":"Feature","geometry":{"type":"Point","coordinates":[-84.53891,38.086556]}},{"properties":{"city":"Lexington","zip":"40513-1168","sicdesc":"Grocers-Retail","store_name":"Walmart Neighborhood Market","secdesc1":"Grocers-Retail","geo_score":0.512,"dateprod":"Jun 14 2011","secdesc2":"Department Stores","dateobs":"Dec 14 2011","primsic":541105,"id":"acorz50ayaqc","source":"infoUSA","address":"3735 Palomar Centre Dr # 75","geo_precision":"street","state":"KY"},"type":"Feature","geometry":{"type":"Point","coordinates":[-84.577908,38.007949]}},{"properties":{"city":"Lexington","zip":"40515-6300","sicdesc":"Grocers-Retail","store_name":"Walmart Neighborhood Market","secdesc1":"Grocers-Retail","geo_score":1.0,"dateprod":"Jun 14 2011","secdesc2":"Department Stores","dateobs":"Dec 14 2011","primsic":541105,"id":"acorz54mxxji","source":"infoUSA","address":"4230 Saron Dr","geo_precision":"range","state":"KY"},"type":"Feature","geometry":{"type":"Point","coordinates":[-84.50215,37.966847]}},{"properties":{"city":"Lexington","zip":"40503-3322","sicdesc":"Grocers-Retail","store_name":"Whole Foods Market","secdesc1":"Grocers-Retail","geo_score":0.339,"dateprod":"Jun 14 2011","secdesc2":"Health &amp; Diet Foods-Retail","dateobs":"Dec 14 2011","primsic":541105,"id":"acorz5bwtld1","source":"infoUSA","address":"161 Lexington Green Cir # A2","geo_precision":"street","state":"KY"},"type":"Feature","geometry":{"type":"Point","coordinates":[-84.635122,38.041198]}},{"properties":{"city":"Lexington","zip":"40502-1418","sicdesc":"Grocers-Retail","store_name":"Wilson's Grocery Meat","secdesc1":"Grocers-Retail","geo_score":1.0,"dateprod":"Jun 14 2011","secdesc2":null,"dateobs":"Dec 14 2011","primsic":541105,"id":"acorz4w5a7ta","source":"infoUSA","address":"1010 Cramer Ave","geo_precision":"range","state":"KY"},"type":"Feature","geometry":{"type":"Point","coordinates":[-84.477328,38.03548]}},{"properties":{"city":"Lexington","zip":"40504-2914","sicdesc":"Grocers-Retail","store_name":"Yu Yu Asian Supermarket","secdesc1":"Grocers-Retail","geo_score":0.513,"dateprod":"Jun 14 2011","secdesc2":null,"dateobs":"Dec 14 2011","primsic":541105,"id":"acorz56nccst","source":"infoUSA","address":"393 Waller Ave # 1","geo_precision":"street","state":"KY"},"type":"Feature","geometry":{"type":"Point","coordinates":[-84.519251,38.03035]}},{"properties":{"city":"Lexington","zip":"40504-3658","sicdesc":"Grocers-Retail","store_name":"Yu Yu Asian Supermarket","secdesc1":"Grocers-Retail","geo_score":0.503,"dateprod":"Jun 14 2011","secdesc2":null,"dateobs":"Dec 14 2011","primsic":541105,"id":"acorz5adg5m5","source":"infoUSA","address":"828 Lane Allen Rd","geo_precision":"street","state":"KY"},"type":"Feature","geometry":{"type":"Point","coordinates":[-84.458554,38.083453]}},{"properties":{"city":"Lexington","zip":"40503-3492","sicdesc":"Ham Specialty Stores","store_name":"Honey Baked Ham","secdesc1":"Delicatessens","geo_score":0.512,"dateprod":"Jun 14 2011","secdesc2":"Meat-Retail","dateobs":"Dec 14 2011","primsic":542106,"id":"acorz59yrcm3","source":"infoUSA","address":"2600 Nicholasville Rd # 110","geo_precision":"street","state":"KY"},"type":"Feature","geometry":{"type":"Point","coordinates":[-84.50974,38.030735]}},{"properties":{"city":"Lexington","zip":"40511-1207","sicdesc":"Management Services","store_name":"Traxx Co","secdesc1":"Convenience Stores","geo_score":1.0,"dateprod":"Jun 14 2011","secdesc2":null,"dateobs":"Dec 14 2011","primsic":874130,"id":"acorz53gingh","source":"infoUSA","address":"1018 Nandino Blvd","geo_precision":"range","state":"KY"},"type":"Feature","geometry":{"type":"Point","coordinates":[-84.506783,38.077738]}},{"properties":{"city":"Lexington","zip":"40509-1043","sicdesc":"Pizza","store_name":"Chuck E Cheese's","secdesc1":"Foods-Carry Out","geo_score":0.82,"dateprod":"Jun 14 2011","secdesc2":"Restaurants","dateobs":"Dec 14 2011","primsic":581222,"id":"acorz582t6b2","source":"infoUSA","address":"1555 E New Circle Rd","geo_precision":"range","state":"KY"},"type":"Feature","geometry":{"type":"Point","coordinates":[-84.456394,38.018697]}},{"properties":{"city":"Lexington","zip":"40505-4129","sicdesc":"Pizza","store_name":"Cici's Pizza","secdesc1":"Foods-Carry Out","geo_score":0.513,"dateprod":"Jun 14 2011","secdesc2":"Restaurants","dateobs":"Dec 14 2011","primsic":581222,"id":"acorz585f6fp","source":"infoUSA","address":"1315 Winchester Rd # 321","geo_precision":"street","state":"KY"},"type":"Feature","geometry":{"type":"Point","coordinates":[-84.48125,38.042193]}},{"properties":{"city":"Lexington","zip":"40504-3503","sicdesc":"Pizza","store_name":"Cici's Pizza","secdesc1":"Foods-Carry Out","geo_score":1.0,"dateprod":"Jun 14 2011","secdesc2":"Restaurants","dateobs":"Dec 14 2011","primsic":581222,"id":"acorz564r17n","source":"infoUSA","address":"2033 Harrodsburg Rd","geo_precision":"range","state":"KY"},"type":"Feature","geometry":{"type":"Point","coordinates":[-84.537396,38.025503]}},{"properties":{"city":"Lexington","zip":"40503-4427","sicdesc":"Pizza","store_name":"Domino's Pizza","secdesc1":"Foods-Carry Out","geo_score":0.707,"dateprod":"Jun 14 2011","secdesc2":"Restaurants","dateobs":"Dec 14 2011","primsic":581222,"id":"acorz52osahr","source":"infoUSA","address":"130 W Tiverton Way # 150","geo_precision":"range","state":"KY"},"type":"Feature","geometry":{"type":"Point","coordinates":[-84.531242,37.980932]}},{"properties":{"city":"Lexington","zip":"40509-2217","sicdesc":"Pizza","store_name":"Domino's Pizza","secdesc1":"Foods-Carry Out","geo_score":0.512,"dateprod":"Jun 14 2011","secdesc2":"Restaurants","dateobs":"Dec 14 2011","primsic":581222,"id":"acorz4wdp7vs","source":"infoUSA","address":"3090 Helmsdale Pl # 300","geo_precision":"street","state":"KY"},"type":"Feature","geometry":{"type":"Point","coordinates":[-84.420688,38.012383]}},{"properties":{"city":"Lexington","zip":"40503-2772","sicdesc":"Pizza","store_name":"Domino's Pizza","secdesc1":"Foods-Carry Out","geo_score":1.0,"dateprod":"Jun 14 2011","secdesc2":"Restaurants","dateobs":"Dec 14 2011","primsic":581222,"id":"acorz58okptz","source":"infoUSA","address":"3101 Clays Mill Rd","geo_precision":"range","state":"KY"},"type":"Feature","geometry":{"type":"Point","coordinates":[-84.545904,38.001186]}},{"properties":{"city":"Lexington","zip":"40517-4036","sicdesc":"Pizza","store_name":"Domino's Pizza","secdesc1":"Foods-Carry Out","geo_score":0.512,"dateprod":"Jun 14 2011","secdesc2":"Restaurants","dateobs":"Dec 14 2011","primsic":581222,"id":"acorz4zs904u","source":"infoUSA","address":"3130 Pimlico Pkwy # 1","geo_precision":"street","state":"KY"},"type":"Feature","geometry":{"type":"Point","coordinates":[-84.460664,37.986157]}},{"properties":{"city":"Lexington","zip":"40511-1864","sicdesc":"Pizza","store_name":"Domino's Pizza","secdesc1":"Foods-Carry Out","geo_score":0.513,"dateprod":"Jun 14 2011","secdesc2":"Restaurants","dateobs":"Dec 14 2011","primsic":581222,"id":"acorz4ww7tfr","source":"infoUSA","address":"524 W New Circle Rd # 180","geo_precision":"street","state":"KY"},"type":"Feature","geometry":{"type":"Point","coordinates":[-84.476965,38.070862]}},{"properties":{"city":"Lexington","zip":"40502-1741","sicdesc":"Pizza","store_name":"Domino's Pizza","secdesc1":"Foods-Carry Out","geo_score":0.951,"dateprod":"Jun 14 2011","secdesc2":"Restaurants","dateobs":"Dec 14 2011","primsic":581222,"id":"acorz51prkz2","source":"infoUSA","address":"801 E Euclid Ave","geo_precision":"range","state":"KY"},"type":"Feature","geometry":{"type":"Point","coordinates":[-84.490242,38.029373]}},{"properties":{"city":"Lexington","zip":"40504-3640","sicdesc":"Pizza","store_name":"Domino's Pizza","secdesc1":"Foods-Carry Out","geo_score":0.317,"dateprod":"Jun 14 2011","secdesc2":"Restaurants","dateobs":"Dec 14 2011","primsic":581222,"id":"acorz52swak0","source":"infoUSA","address":"828 Lane Allen Rd # 100","geo_precision":"street","state":"KY"},"type":"Feature","geometry":{"type":"Point","coordinates":[-84.456519,38.08632]}},{"properties":{"city":"Lexington","zip":"40505-1425","sicdesc":"Pizza","store_name":"Donatos Pizza","secdesc1":"Foods-Carry Out","geo_score":0.941,"dateprod":"Jun 14 2011","secdesc2":"Restaurants","dateobs":"Dec 14 2011","primsic":581222,"id":"acorz5bmu3ko","source":"infoUSA","address":"265 W New Circle Rd","geo_precision":"range","state":"KY"},"type":"Feature","geometry":{"type":"Point","coordinates":[-84.474735,38.069486]}},{"properties":{"city":"Lexington","zip":"40513-1714","sicdesc":"Pizza","store_name":"Donatos Pizza","secdesc1":"Foods-Carry Out","geo_score":0.512,"dateprod":"Jun 14 2011","secdesc2":"Restaurants","dateobs":"Dec 14 2011","primsic":581222,"id":"acorz505ca74","source":"infoUSA","address":"3070 Lakecrest Cir # 100","geo_precision":"street","state":"KY"},"type":"Feature","geometry":{"type":"Point","coordinates":[-84.554159,38.016805]}},{"properties":{"city":"Lexington","zip":"40509-1240","sicdesc":"Pizza","store_name":"Donatos Pizza","secdesc1":"Foods-Carry Out","geo_score":1.0,"dateprod":"Jun 14 2011","secdesc2":"Restaurants","dateobs":"Dec 14 2011","primsic":581222,"id":"acorz4zpkwxt","source":"infoUSA","address":"3120 Mapleleaf Dr","geo_precision":"range","state":"KY"},"type":"Feature","geometry":{"type":"Point","coordinates":[-84.424389,38.002771]}},{"properties":{"city":"Lexington","zip":"40515-1286","sicdesc":"Pizza","store_name":"Donatos Pizza","secdesc1":"Foods-Carry Out","geo_score":0.512,"dateprod":"Jun 14 2011","secdesc2":"Restaurants","dateobs":"Dec 14 2011","primsic":581222,"id":"acorz4zg78xz","source":"infoUSA","address":"3851 Kenesaw Dr # 8","geo_precision":"street","state":"KY"},"type":"Feature","geometry":{"type":"Point","coordinates":[-84.461957,37.974925]}},{"properties":{"city":"Lexington","zip":"40502-1602","sicdesc":"Pizza","store_name":"Donatos Pizza","secdesc1":"Foods-Carry Out","geo_score":1.0,"dateprod":"Jun 14 2011","secdesc2":"Restaurants","dateobs":"Dec 14 2011","primsic":581222,"id":"acorz52dzah5","source":"infoUSA","address":"728 E Main St","geo_precision":"range","state":"KY"},"type":"Feature","geometry":{"type":"Point","coordinates":[-84.484745,38.035417]}},{"properties":{"city":"Lexington","zip":"40503-3306","sicdesc":"Pizza","store_name":"Gatti Town","secdesc1":"Foods-Carry Out","geo_score":1.0,"dateprod":"Jun 14 2011","secdesc2":"Restaurants","dateobs":"Dec 14 2011","primsic":581222,"id":"acorz4zpkq98","source":"infoUSA","address":"2524 Nicholasville Rd","geo_precision":"range","state":"KY"},"type":"Feature","geometry":{"type":"Point","coordinates":[-84.519982,38.001169]}},{"properties":{"city":"Lexington","zip":"40509-1517","sicdesc":"Pizza","store_name":"Little Caesars Pizza","secdesc1":"Foods-Carry Out","geo_score":0.707,"dateprod":"Jun 14 2011","secdesc2":"Restaurants","dateobs":"Dec 14 2011","primsic":581222,"id":"acorz59ig39z","source":"infoUSA","address":"115 N Locust Hill Dr # 104","geo_precision":"range","state":"KY"},"type":"Feature","geometry":{"type":"Point","coordinates":[-84.442542,38.005695]}},{"properties":{"city":"Lexington","zip":"40505-2146","sicdesc":"Pizza","store_name":"Little Caesars Pizza","secdesc1":"Foods-Carry Out","geo_score":0.707,"dateprod":"Jun 14 2011","secdesc2":"Restaurants","dateobs":"Dec 14 2011","primsic":581222,"id":"acorz50emo7n","source":"infoUSA","address":"135 E New Circle Rd # 110","geo_precision":"range","state":"KY"},"type":"Feature","geometry":{"type":"Point","coordinates":[-84.467414,38.062464]}},{"properties":{"city":"Lexington","zip":"40517-2020","sicdesc":"Pizza","store_name":"Little Caesars Pizza","secdesc1":"Foods-Carry Out","geo_score":1.0,"dateprod":"Jun 14 2011","secdesc2":"Restaurants","dateobs":"Dec 14 2011","primsic":581222,"id":"acorz56ujflf","source":"infoUSA","address":"3601 Walden Dr","geo_precision":"range","state":"KY"},"type":"Feature","geometry":{"type":"Point","coordinates":[-84.495791,37.983188]}},{"properties":{"city":"Lexington","zip":"40513-1169","sicdesc":"Pizza","store_name":"Little Caesars Pizza","secdesc1":"Foods-Carry Out","geo_score":0.512,"dateprod":"Jun 14 2011","secdesc2":"Restaurants","dateobs":"Dec 14 2011","primsic":581222,"id":"acorz5bcsv3p","source":"infoUSA","address":"3735 Palomar Centre Dr # 70","geo_precision":"street","state":"KY"},"type":"Feature","geometry":{"type":"Point","coordinates":[-84.577908,38.007949]}},{"properties":{"city":"Lexington","zip":"40508-2919","sicdesc":"Pizza","store_name":"Mellow Mushroom","secdesc1":"Foods-Carry Out","geo_score":1.0,"dateprod":"Jun 14 2011","secdesc2":"Restaurants","dateobs":"Dec 14 2011","primsic":581222,"id":"acorz51cpmxr","source":"infoUSA","address":"503 S Upper St","geo_precision":"range","state":"KY"},"type":"Feature","geometry":{"type":"Point","coordinates":[-84.50418,38.042939]}},{"properties":{"city":"Lexington","zip":"40509-2210","sicdesc":"Pizza","store_name":"Old Chicago","secdesc1":"Foods-Carry Out","geo_score":0.976,"dateprod":"Jun 14 2011","secdesc2":"Restaurants","dateobs":"Dec 14 2011","primsic":581222,"id":"acorz4x3vg6q","source":"infoUSA","address":"1924 Pavillon Way","geo_precision":"range","state":"KY"},"type":"Feature","geometry":{"type":"Point","coordinates":[-84.417283,38.023076]}},{"properties":{"city":"Lexington","zip":"40511-2142","sicdesc":"Pizza","store_name":"Papa John's Pizza","secdesc1":"Foods-Carry Out","geo_score":0.512,"dateprod":"Jun 14 2011","secdesc2":"Restaurants","dateobs":"Dec 14 2011","primsic":581222,"id":"acorz50chg4u","source":"infoUSA","address":"1610 Leestown Rd # 1","geo_precision":"street","state":"KY"},"type":"Feature","geometry":{"type":"Point","coordinates":[-84.52329,38.065838]}},{"properties":{"city":"Lexington","zip":"40505-2138","sicdesc":"Pizza","store_name":"Papa John's Pizza","secdesc1":"Foods-Carry Out","geo_score":0.515,"dateprod":"Jun 14 2011","secdesc2":"Restaurants","dateobs":"Dec 14 2011","primsic":581222,"id":"acorz51ocksm","source":"infoUSA","address":"1650 Bryan Station Rd # 105","geo_precision":"street","state":"KY"},"type":"Feature","geometry":{"type":"Point","coordinates":[-84.466043,38.063086]}},{"properties":{"city":"Lexington","zip":"40503-3166","sicdesc":"Pizza","store_name":"Papa John's Pizza","secdesc1":"Foods-Carry Out","geo_score":1.0,"dateprod":"Jun 14 2011","secdesc2":"Restaurants","dateobs":"Dec 14 2011","primsic":581222,"id":"acorz548qxyv","source":"infoUSA","address":"2467 Nicholasville Rd","geo_precision":"range","state":"KY"},"type":"Feature","geometry":{"type":"Point","coordinates":[-84.519969,38.002331]}},{"properties":{"city":"Lexington","zip":"40508-3089","sicdesc":"Pizza","store_name":"Papa John's Pizza","secdesc1":"Foods-Carry Out","geo_score":0.598,"dateprod":"Jun 14 2011","secdesc2":"Restaurants","dateobs":"Dec 14 2011","primsic":581222,"id":"acorz4zoacui","source":"infoUSA","address":"265 Avenue Of Champions # A","geo_precision":"street","state":"KY"},"type":"Feature","geometry":{"type":"Point","coordinates":[-84.503842,38.04153]}},{"properties":{"city":"Lexington","zip":"40509-1714","sicdesc":"Pizza","store_name":"Papa John's Pizza","secdesc1":"Foods-Carry Out","geo_score":0.878,"dateprod":"Jun 14 2011","secdesc2":"Restaurants","dateobs":"Dec 14 2011","primsic":581222,"id":"acorz550kiqc","source":"infoUSA","address":"2937 Richmond Rd","geo_precision":"range","state":"KY"},"type":"Feature","geometry":{"type":"Point","coordinates":[-84.454586,38.009173]}},{"properties":{"city":"Lexington","zip":"40513-1148","sicdesc":"Pizza","store_name":"Papa John's Pizza","secdesc1":"Foods-Carry Out","geo_score":0.512,"dateprod":"Jun 14 2011","secdesc2":"Restaurants","dateobs":"Dec 14 2011","primsic":581222,"id":"acorz4wvbp6e","source":"infoUSA","address":"3735 Palomar Centre Dr # 240","geo_precision":"street","state":"KY"},"type":"Feature","geometry":{"type":"Point","coordinates":[-84.577908,38.007949]}},{"properties":{"city":"Lexington","zip":"40515-6485","sicdesc":"Pizza","store_name":"Papa John's Pizza","secdesc1":"Foods-Carry Out","geo_score":0.512,"dateprod":"Jun 14 2011","secdesc2":"Restaurants","dateobs":"Dec 14 2011","primsic":581222,"id":"acorz549dozn","source":"infoUSA","address":"4250 Saron Dr # 125","geo_precision":"street","state":"KY"},"type":"Feature","geometry":{"type":"Point","coordinates":[-84.50247,37.968027]}},{"properties":{"city":"Lexington","zip":"40503-3034","sicdesc":"Pizza","store_name":"Papa Murphy's Take 'N' Bake","secdesc1":"Foods-Carry Out","geo_score":1.0,"dateprod":"Jun 14 2011","secdesc2":"Restaurants","dateobs":"Dec 14 2011","primsic":581222,"id":"acorz50pqh30","source":"infoUSA","address":"2348 Nicholasville Rd","geo_precision":"range","state":"KY"},"type":"Feature","geometry":{"type":"Point","coordinates":[-84.51876,38.004573]}},{"properties":{"city":"Lexington","zip":"40503 0000","sicdesc":"Pizza","store_name":"Pizza Hut","secdesc1":"Foods-Carry Out","geo_score":1.0,"dateprod":"Jun 14 2011","secdesc2":"Restaurants","dateobs":"Dec 14 2011","primsic":581222,"id":"acorz4xl3jdm","source":"infoUSA","address":"1919 Harrodsburg Rd","geo_precision":"range","state":"KY"},"type":"Feature","geometry":{"type":"Point","coordinates":[-84.533462,38.027498]}},{"properties":{"city":"Lexington","zip":"40504-1603","sicdesc":"Pizza","store_name":"Pizza Hut","secdesc1":"Foods-Carry Out","geo_score":1.0,"dateprod":"Jun 14 2011","secdesc2":"Restaurants","dateobs":"Dec 14 2011","primsic":581222,"id":"acorz5abui3f","source":"infoUSA","address":"2213 Versailles Rd","geo_precision":"range","state":"KY"},"type":"Feature","geometry":{"type":"Point","coordinates":[-84.55052,38.047044]}},{"properties":{"city":"Lexington","zip":"40509-1538","sicdesc":"Pizza","store_name":"Pizza Hut","secdesc1":"Foods-Carry Out","geo_score":0.512,"dateprod":"Jun 14 2011","secdesc2":"Restaurants","dateobs":"Dec 14 2011","primsic":581222,"id":"acorz56inrj0","source":"infoUSA","address":"3094 Richmond Rd # 140","geo_precision":"street","state":"KY"},"type":"Feature","geometry":{"type":"Point","coordinates":[-84.457788,38.011973]}},{"properties":{"city":"Lexington","zip":"40514-1545","sicdesc":"Pizza","store_name":"Pizza Hut","secdesc1":"Foods-Carry Out","geo_score":1.0,"dateprod":"Jun 14 2011","secdesc2":"Restaurants","dateobs":"Dec 14 2011","primsic":581222,"id":"acorz4yuol57","source":"infoUSA","address":"3630 Boston Rd","geo_precision":"range","state":"KY"},"type":"Feature","geometry":{"type":"Point","coordinates":[-84.550461,37.98152]}},{"properties":{"city":"Lexington","zip":"40505 0000","sicdesc":"Pizza","store_name":"Pizza Hut","secdesc1":"Foods-Carry Out","geo_score":0.941,"dateprod":"Jun 14 2011","secdesc2":"Restaurants","dateobs":"Dec 14 2011","primsic":581222,"id":"acorz59f0f4n","source":"infoUSA","address":"418 E New Circle Rd","geo_precision":"range","state":"KY"},"type":"Feature","geometry":{"type":"Point","coordinates":[-84.463637,38.059058]}},{"properties":{"city":"Lexington","zip":"40515-6300","sicdesc":"Pizza","store_name":"Pizza Hut","secdesc1":"Foods-Carry Out","geo_score":0.512,"dateprod":"Jun 14 2011","secdesc2":"Restaurants","dateobs":"Dec 14 2011","primsic":581222,"id":"acorz55tc6ub","source":"infoUSA","address":"4240 Saron Dr # 7b","geo_precision":"street","state":"KY"},"type":"Feature","geometry":{"type":"Point","coordinates":[-84.50247,37.968027]}},{"properties":{"city":"Lexington","zip":"40508-3219","sicdesc":"Pizza","store_name":"Pizza Hut","secdesc1":"Foods-Carry Out","geo_score":0.937,"dateprod":"Jun 14 2011","secdesc2":"Restaurants","dateobs":"Dec 14 2011","primsic":581222,"id":"acorz5b88hjt","source":"infoUSA","address":"545 S Limestone","geo_precision":"range","state":"KY"},"type":"Feature","geometry":{"type":"Point","coordinates":[-84.507229,38.038224]}},{"properties":{"city":"Lexington","zip":"40517-1961","sicdesc":"Pizza","store_name":"Pizza Hut","secdesc1":"Foods-Carry Out","geo_score":1.0,"dateprod":"Jun 14 2011","secdesc2":"Restaurants","dateobs":"Dec 14 2011","primsic":581222,"id":"acorz57x0s5o","source":"infoUSA","address":"679 Wilson Downing Rd","geo_precision":"range","state":"KY"},"type":"Feature","geometry":{"type":"Point","coordinates":[-84.499284,37.97426]}},{"properties":{"city":"Lexington","zip":"40510-1009","sicdesc":"Potato Chips (Whls)","store_name":"Frito-Lay Inc","secdesc1":"Snack Products","geo_score":0.475,"dateprod":"Jun 14 2011","secdesc2":"Food Products (Whls)","dateobs":"Dec 14 2011","primsic":514504,"id":"acorz4w8on06","source":"infoUSA","address":"2448 Mackinwood Dr","geo_precision":"street","state":"KY"},"type":"Feature","geometry":{"type":"Point","coordinates":[-84.484271,37.998583]}},{"properties":{"city":"Lexington","zip":"40503-3611","sicdesc":"Pretzels-Retail","store_name":"Auntie Anne's Pretzels","secdesc1":"Snack Products","geo_score":0.571,"dateprod":"Jun 14 2011","secdesc2":null,"dateobs":"Dec 14 2011","primsic":546108,"id":"acorz5b5sged","source":"infoUSA","address":"3401 Nicholasville Rd # K17","geo_precision":"street","state":"KY"},"type":"Feature","geometry":{"type":"Point","coordinates":[-84.510905,38.027235]}},{"properties":{"city":"Lexington","zip":"40508-2340","sicdesc":"Restaurants","store_name":"A&amp;W All-American Food","secdesc1":"Foods-Carry Out","geo_score":1.0,"dateprod":"Jun 14 2011","secdesc2":null,"dateobs":"Dec 14 2011","primsic":581208,"id":"acorz54qauf2","source":"infoUSA","address":"652 E Main St","geo_precision":"range","state":"KY"},"type":"Feature","geometry":{"type":"Point","coordinates":[-84.486129,38.036641]}},{"properties":{"city":"Lexington","zip":"40511-2028","sicdesc":"Restaurants","store_name":"Applebee's Neighborhood Grill","secdesc1":"Foods-Carry Out","geo_score":0.585,"dateprod":"Jun 14 2011","secdesc2":null,"dateobs":"Dec 14 2011","primsic":581208,"id":"acorz5bfin8w","source":"infoUSA","address":"1761 Sharkey Way","geo_precision":"zip","state":"KY"},"type":"Feature","geometry":{"type":"Point","coordinates":[-84.492226,38.132747]}},{"properties":{"city":"Lexington","zip":"40502-1306","sicdesc":"Restaurants","store_name":"Applebee's Neighborhood Grill","secdesc1":"Foods-Carry Out","geo_score":1.0,"dateprod":"Jun 14 2011","secdesc2":null,"dateobs":"Dec 14 2011","primsic":581208,"id":"acorz5bpsm3a","source":"infoUSA","address":"2299 Richmond Rd","geo_precision":"range","state":"KY"},"type":"Feature","geometry":{"type":"Point","coordinates":[-84.462564,38.016493]}},{"properties":{"city":"Lexington","zip":"40507-1330","sicdesc":"Restaurants","store_name":"Applebee's Neighborhood Grill","secdesc1":"Foods-Carry Out","geo_score":0.707,"dateprod":"Jun 14 2011","secdesc2":null,"dateobs":"Dec 14 2011","primsic":581208,"id":"acorz4x5y8ng","source":"infoUSA","address":"249 E Main St # 101","geo_precision":"range","state":"KY"},"type":"Feature","geometry":{"type":"Point","coordinates":[-84.497577,38.046865]}},{"properties":{"city":"Lexington","zip":"40503-4487","sicdesc":"Restaurants","store_name":"Applebee's Neighborhood Grill","secdesc1":"Foods-Carry Out","geo_score":0.571,"dateprod":"Jun 14 2011","secdesc2":null,"dateobs":"Dec 14 2011","primsic":581208,"id":"acorz58prshr","source":"infoUSA","address":"4009 Nicholasville Rd # B","geo_precision":"street","state":"KY"},"type":"Feature","geometry":{"type":"Point","coordinates":[-84.510905,38.027235]}},{"properties":{"city":"Lexington","zip":"40513-1700","sicdesc":"Restaurants","store_name":"Applebee's Neighborhood Grill","secdesc1":"Foods-Carry Out","geo_score":1.0,"dateprod":"Jun 14 2011","secdesc2":null,"dateobs":"Dec 14 2011","primsic":581208,"id":"acorz56a2fvo","source":"infoUSA","address":"910 Beaumont Centre Pkwy","geo_precision":"range","state":"KY"},"type":"Feature","geometry":{"type":"Point","coordinates":[-84.555716,38.014032]}},{"properties":{"city":"Lexington","zip":"40504-2738","sicdesc":"Restaurants","store_name":"Arby's","secdesc1":"Foods-Carry Out","geo_score":0.524,"dateprod":"Jun 14 2011","secdesc2":"Coffee &amp; Tea","dateobs":"Dec 14 2011","primsic":581208,"id":"acorz4wollt3","source":"infoUSA","address":"1228 S Broadway # 784","geo_precision":"street","state":"KY"},"type":"Feature","geometry":{"type":"Point","coordinates":[-84.512648,38.040715]}},{"properties":{"city":"Lexington","zip":"40509-2418","sicdesc":"Restaurants","store_name":"Arby's","secdesc1":"Foods-Carry Out","geo_score":1.0,"dateprod":"Jun 14 2011","secdesc2":"Coffee &amp; Tea","dateobs":"Dec 14 2011","primsic":581208,"id":"acorz51hjyd3","source":"infoUSA","address":"1949 Plaudit Pl","geo_precision":"range","state":"KY"},"type":"Feature","geometry":{"type":"Point","coordinates":[-84.415031,38.019415]}},{"properties":{"city":"Lexington","zip":"40505-4803","sicdesc":"Restaurants","store_name":"Arby's","secdesc1":"Foods-Carry Out","geo_score":1.0,"dateprod":"Jun 14 2011","secdesc2":null,"dateobs":"Dec 14 2011","primsic":581208,"id":"acorz53i20ma","source":"infoUSA","address":"2270 Elkhorn Rd","geo_precision":"range","state":"KY"},"type":"Feature","geometry":{"type":"Point","coordinates":[-84.423353,38.04252]}},{"properties":{"city":"Lexington","zip":"40504-1605","sicdesc":"Restaurants","store_name":"Arby's","secdesc1":"Foods-Carry Out","geo_score":1.0,"dateprod":"Jun 14 2011","secdesc2":null,"dateobs":"Dec 14 2011","primsic":581208,"id":"acorz5101j74","source":"infoUSA","address":"2323 Versailles Rd","geo_precision":"range","state":"KY"},"type":"Feature","geometry":{"type":"Point","coordinates":[-84.552817,38.046882]}},{"properties":{"city":"Lexington","zip":"40509-1502","sicdesc":"Restaurants","store_name":"Arby's","secdesc1":"Foods-Carry Out","geo_score":1.0,"dateprod":"Jun 14 2011","secdesc2":null,"dateobs":"Dec 14 2011","primsic":581208,"id":"acorz5bgt1ml","source":"infoUSA","address":"2649 Richmond Rd","geo_precision":"range","state":"KY"},"type":"Feature","geometry":{"type":"Point","coordinates":[-84.454638,38.009575]}},{"properties":{"city":"Lexington","zip":"40517-4028","sicdesc":"Restaurants","store_name":"Arby's","secdesc1":"Foods-Carry Out","geo_score":1.0,"dateprod":"Jun 14 2011","secdesc2":null,"dateobs":"Dec 14 2011","primsic":581208,"id":"acorz567yfn9","source":"infoUSA","address":"3110 Pimlico Pkwy","geo_precision":"range","state":"KY"},"type":"Feature","geometry":{"type":"Point","coordinates":[-84.460534,37.98599]}},{"properties":{"city":"Lexington","zip":"40503-3311","sicdesc":"Restaurants","store_name":"Arby's","secdesc1":"Foods-Carry Out","geo_score":1.0,"dateprod":"Jun 14 2011","secdesc2":null,"dateobs":"Dec 14 2011","primsic":581208,"id":"acorz4zootl8","source":"infoUSA","address":"3261 Nicholasville Rd","geo_precision":"range","state":"KY"},"type":"Feature","geometry":{"type":"Point","coordinates":[-84.523486,37.992149]}},{"properties":{"city":"Lexington","zip":"40502-3407","sicdesc":"Restaurants","store_name":"Arby's","secdesc1":"Foods-Carry Out","geo_score":1.0,"dateprod":"Jun 14 2011","secdesc2":null,"dateobs":"Dec 14 2011","primsic":581208,"id":"acorz5662nwr","source":"infoUSA","address":"3391 Tates Creek Rd","geo_precision":"range","state":"KY"},"type":"Feature","geometry":{"type":"Point","coordinates":[-84.49545,37.994222]}},{"properties":{"city":"Lexington","zip":"40503-3611","sicdesc":"Restaurants","store_name":"Arby's","secdesc1":"Foods-Carry Out","geo_score":0.512,"dateprod":"Jun 14 2011","secdesc2":null,"dateobs":"Dec 14 2011","primsic":581208,"id":"acorz4zqq4uf","source":"infoUSA","address":"3401 Nicholasville Rd # 3","geo_precision":"street","state":"KY"},"type":"Feature","geometry":{"type":"Point","coordinates":[-84.510044,38.029968]}},{"properties":{"city":"Lexington","zip":"40513-1144","sicdesc":"Restaurants","store_name":"Arby's","secdesc1":"Foods-Carry Out","geo_score":1.0,"dateprod":"Jun 14 2011","secdesc2":null,"dateobs":"Dec 14 2011","primsic":581208,"id":"acorz4x2q0mv","source":"infoUSA","address":"3740 Palomar Centre Dr","geo_precision":"range","state":"KY"},"type":"Feature","geometry":{"type":"Point","coordinates":[-84.572876,38.004277]}},{"properties":{"city":"Lexington","zip":"40507-1649","sicdesc":"Restaurants","store_name":"Arby's","secdesc1":"Foods-Carry Out","geo_score":0.619,"dateprod":"Jun 14 2011","secdesc2":null,"dateobs":"Dec 14 2011","primsic":581208,"id":"acorz59p3ncb","source":"infoUSA","address":"410 W Vine St # S115","geo_precision":"street","state":"KY"},"type":"Feature","geometry":{"type":"Point","coordinates":[-84.497979,38.045719]}},{"properties":{"city":"Lexington","zip":"40508-3216","sicdesc":"Restaurants","store_name":"Arby's","secdesc1":"Foods-Carry Out","geo_score":0.937,"dateprod":"Jun 14 2011","secdesc2":null,"dateobs":"Dec 14 2011","primsic":581208,"id":"acorz5btog5b","source":"infoUSA","address":"507 S Limestone","geo_precision":"range","state":"KY"},"type":"Feature","geometry":{"type":"Point","coordinates":[-84.506796,38.039003]}},{"properties":{"city":"Lexington","zip":"40511-1833","sicdesc":"Restaurants","store_name":"Arby's","secdesc1":"Foods-Carry Out","geo_score":0.941,"dateprod":"Jun 14 2011","secdesc2":null,"dateobs":"Dec 14 2011","primsic":581208,"id":"acorz584esrc","source":"infoUSA","address":"540 W New Circle Rd","geo_precision":"range","state":"KY"},"type":"Feature","geometry":{"type":"Point","coordinates":[-84.482374,38.072539]}},{"properties":{"city":"Lexington","zip":"40503-1354","sicdesc":"Restaurants","store_name":"Arby's","secdesc1":"Foods-Carry Out","geo_score":1.0,"dateprod":"Jun 14 2011","secdesc2":null,"dateobs":"Dec 14 2011","primsic":581208,"id":"acorz53pnf2j","source":"infoUSA","address":"612 Hadlow St","geo_precision":"range","state":"KY"},"type":"Feature","geometry":{"type":"Point","coordinates":[-84.542874,37.995277]}},{"properties":{"city":"Lexington","zip":"40504 0000","sicdesc":"Restaurants","store_name":"Atlanta Bread Co","secdesc1":"Foods-Carry Out","geo_score":0.513,"dateprod":"Jun 14 2011","secdesc2":null,"dateobs":"Dec 14 2011","primsic":581208,"id":"acorz4wkxp6m","source":"infoUSA","address":"1088 S Broadway # 301","geo_precision":"street","state":"KY"},"type":"Feature","geometry":{"type":"Point","coordinates":[-84.512648,38.040715]}},{"properties":{"city":"Lexington","zip":"40507-1621","sicdesc":"Restaurants","store_name":"Atlanta Bread Co","secdesc1":"Foods-Carry Out","geo_score":1.0,"dateprod":"Jun 14 2011","secdesc2":null,"dateobs":"Dec 14 2011","primsic":581208,"id":"acorz55frsbt","source":"infoUSA","address":"300 W Vine St","geo_precision":"range","state":"KY"},"type":"Feature","geometry":{"type":"Point","coordinates":[-84.500729,38.048345]}},{"properties":{"city":"Lexington","zip":"40509-2208","sicdesc":"Restaurants","store_name":"Back Yard Burgers","secdesc1":"Foods-Carry Out","geo_score":1.0,"dateprod":"Jun 14 2011","secdesc2":null,"dateobs":"Dec 14 2011","primsic":581208,"id":"acorz56qt3mq","source":"infoUSA","address":"1816 Alysheba Way","geo_precision":"range","state":"KY"},"type":"Feature","geometry":{"type":"Point","coordinates":[-84.41925,38.018805]}},{"properties":{"city":"Lexington","zip":"40504-2910","sicdesc":"Restaurants","store_name":"Back Yard Burgers","secdesc1":"Foods-Carry Out","geo_score":1.0,"dateprod":"Jun 14 2011","secdesc2":null,"dateobs":"Dec 14 2011","primsic":581208,"id":"acorz546gfyu","source":"infoUSA","address":"397 Waller Ave","geo_precision":"range","state":"KY"},"type":"Feature","geometry":{"type":"Point","coordinates":[-84.519519,38.030574]}},{"properties":{"city":"Lexington","zip":"40503-3320","sicdesc":"Restaurants","store_name":"Bar Louie Reataurants","secdesc1":"Foods-Carry Out","geo_score":0.393,"dateprod":"Jun 14 2011","secdesc2":null,"dateobs":"Dec 14 2011","primsic":581208,"id":"acorz57xmv0g","source":"infoUSA","address":"161 Lexington Green Cir # C6","geo_precision":"street","state":"KY"},"type":"Feature","geometry":{"type":"Point","coordinates":[-84.358172,38.033796]}},{"properties":{"city":"Lexington","zip":"40508-3053","sicdesc":"Restaurants","store_name":"Blimpie Subs &amp; Salads","secdesc1":"Foods-Carry Out","geo_score":1.0,"dateprod":"Jun 14 2011","secdesc2":"Delicatessens","dateobs":"Dec 14 2011","primsic":581208,"id":"acorz5aei8hs","source":"infoUSA","address":"389 Rose St","geo_precision":"range","state":"KY"},"type":"Feature","geometry":{"type":"Point","coordinates":[-84.499053,38.038575]}},{"properties":{"city":"Lexington","zip":"40505-4823","sicdesc":"Restaurants","store_name":"Bob Evans Restaurant","secdesc1":"Foods-Carry Out","geo_score":0.958,"dateprod":"Jun 14 2011","secdesc2":null,"dateobs":"Dec 14 2011","primsic":581208,"id":"acorz549c3qf","source":"infoUSA","address":"2341 Buena Vista Rd","geo_precision":"range","state":"KY"},"type":"Feature","geometry":{"type":"Point","coordinates":[-84.421097,38.044699]}},{"properties":{"city":"Lexington","zip":"40509-1527","sicdesc":"Restaurants","store_name":"Bob Evans Restaurant","secdesc1":"Foods-Carry Out","geo_score":1.0,"dateprod":"Jun 14 2011","secdesc2":null,"dateobs":"Dec 14 2011","primsic":581208,"id":"acorz51zo4v5","source":"infoUSA","address":"2566 Richmond Rd","geo_precision":"range","state":"KY"},"type":"Feature","geometry":{"type":"Point","coordinates":[-84.456234,38.010613]}},{"properties":{"city":"Lexington","zip":"40509-2257","sicdesc":"Restaurants","store_name":"Bonefish Grill","secdesc1":"Foods-Carry Out","geo_score":0.824,"dateprod":"Jun 14 2011","secdesc2":null,"dateobs":"Dec 14 2011","primsic":581208,"id":"acorz52reed4","source":"infoUSA","address":"2341 Sir Barton Way","geo_precision":"street","state":"KY"},"type":"Feature","geometry":{"type":"Point","coordinates":[-84.423195,38.024594]}},{"properties":{"city":"Lexington","zip":"40504-4108","sicdesc":"Restaurants","store_name":"Buffalo Wild Wings Grill &amp; Bar","secdesc1":"Foods-Carry Out","geo_score":0.512,"dateprod":"Jun 14 2011","secdesc2":null,"dateobs":"Dec 14 2011","primsic":581208,"id":"acorz5774srx","source":"infoUSA","address":"1080 S Broadway # 104","geo_precision":"street","state":"KY"},"type":"Feature","geometry":{"type":"Point","coordinates":[-84.512648,38.040715]}},{"properties":{"city":"Lexington","zip":"40509-5004","sicdesc":"Restaurants","store_name":"Buffalo Wild Wings Grill &amp; Bar","secdesc1":"Foods-Carry Out","geo_score":0.902,"dateprod":"Jun 14 2011","secdesc2":"Bars","dateobs":"Dec 14 2011","primsic":581208,"id":"acorz530rojx","source":"infoUSA","address":"3090 Old Todds Rd","geo_precision":"range","state":"KY"},"type":"Feature","geometry":{"type":"Point","coordinates":[-84.423077,38.00987]}},{"properties":{"city":"Lexington","zip":"40509-5001","sicdesc":"Restaurants","store_name":"Buffalo Wild Wings Grill &amp; Bar","secdesc1":"Foods-Carry Out","geo_score":0.902,"dateprod":"Jun 14 2011","secdesc2":null,"dateobs":"Dec 14 2011","primsic":581208,"id":"acorz4w4d0jh","source":"infoUSA","address":"3094 Old Todds Rd","geo_precision":"range","state":"KY"},"type":"Feature","geometry":{"type":"Point","coordinates":[-84.423727,38.00952]}},{"properties":{"city":"Lexington","zip":"40503-2417","sicdesc":"Restaurants","store_name":"Burger King","secdesc1":"Foods-Carry Out","geo_score":1.0,"dateprod":"Jun 14 2011","secdesc2":null,"dateobs":"Dec 14 2011","primsic":581208,"id":"acorz526ymss","source":"infoUSA","address":"2217 Nicholasville Rd","geo_precision":"range","state":"KY"},"type":"Feature","geometry":{"type":"Point","coordinates":[-84.518203,38.007378]}},{"properties":{"city":"Lexington","zip":"40509-1521","sicdesc":"Restaurants","store_name":"Burger King","secdesc1":"Foods-Carry Out","geo_score":1.0,"dateprod":"Jun 14 2011","secdesc2":null,"dateobs":"Dec 14 2011","primsic":581208,"id":"acorz569yirr","source":"infoUSA","address":"2548 Richmond Rd","geo_precision":"range","state":"KY"},"type":"Feature","geometry":{"type":"Point","coordinates":[-84.457157,38.011416]}},{"properties":{"city":"Lexington","zip":"40503-3415","sicdesc":"Restaurants","store_name":"Burger King","secdesc1":"Foods-Carry Out","geo_score":1.0,"dateprod":"Jun 14 2011","secdesc2":null,"dateobs":"Dec 14 2011","primsic":581208,"id":"acorz4xvt96n","source":"infoUSA","address":"3348 Clays Mill Rd","geo_precision":"range","state":"KY"},"type":"Feature","geometry":{"type":"Point","coordinates":[-84.547347,37.998615]}},{"properties":{"city":"Lexington","zip":"40515-6300","sicdesc":"Restaurants","store_name":"Burger King","secdesc1":"Foods-Carry Out","geo_score":1.0,"dateprod":"Jun 14 2011","secdesc2":null,"dateobs":"Dec 14 2011","primsic":581208,"id":"acorz507da78","source":"infoUSA","address":"4200 Saron Dr","geo_precision":"range","state":"KY"},"type":"Feature","geometry":{"type":"Point","coordinates":[-84.50247,37.968027]}},{"properties":{"city":"Lexington","zip":"40511-1832","sicdesc":"Restaurants","store_name":"Burger King","secdesc1":"Foods-Carry Out","geo_score":0.941,"dateprod":"Jun 14 2011","secdesc2":null,"dateobs":"Dec 14 2011","primsic":581208,"id":"acorz51smuh0","source":"infoUSA","address":"451 W New Circle Rd","geo_precision":"range","state":"KY"},"type":"Feature","geometry":{"type":"Point","coordinates":[-84.478567,38.071821]}},{"properties":{"city":"Lexington","zip":"40509-1552","sicdesc":"Restaurants","store_name":"Captain D's Seafood","secdesc1":"Foods-Carry Out","geo_score":1.0,"dateprod":"Jun 14 2011","secdesc2":null,"dateobs":"Dec 14 2011","primsic":581208,"id":"acorz4z0g7i8","source":"infoUSA","address":"125 N Mount Tabor Rd","geo_precision":"range","state":"KY"},"type":"Feature","geometry":{"type":"Point","coordinates":[-84.449408,38.006476]}},{"properties":{"city":"Lexington","zip":"40517-1249","sicdesc":"Restaurants","store_name":"Captain D's Seafood","secdesc1":"Foods-Carry Out","geo_score":1.0,"dateprod":"Jun 14 2011","secdesc2":null,"dateobs":"Dec 14 2011","primsic":581208,"id":"acorz59fwd3f","source":"infoUSA","address":"167 E Reynolds Rd","geo_precision":"range","state":"KY"},"type":"Feature","geometry":{"type":"Point","coordinates":[-84.523617,37.991122]}},{"properties":{"city":"Lexington","zip":"40505-1425","sicdesc":"Restaurants","store_name":"Captain D's Seafood","secdesc1":"Foods-Carry Out","geo_score":0.941,"dateprod":"Jun 14 2011","secdesc2":null,"dateobs":"Dec 14 2011","primsic":581208,"id":"acorz4zzap83","source":"infoUSA","address":"245 W New Circle Rd","geo_precision":"range","state":"KY"},"type":"Feature","geometry":{"type":"Point","coordinates":[-84.475041,38.069822]}},{"properties":{"city":"Lexington","zip":"40509-2429","sicdesc":"Restaurants","store_name":"Carrabba's Italian Grill","secdesc1":"Foods-Carry Out","geo_score":1.0,"dateprod":"Jun 14 2011","secdesc2":null,"dateobs":"Dec 14 2011","primsic":581208,"id":"acorz52g61dy","source":"infoUSA","address":"1881 Plaudit Pl","geo_precision":"range","state":"KY"},"type":"Feature","geometry":{"type":"Point","coordinates":[-84.417782,38.016984]}},{"properties":{"city":"Lexington","zip":"40509-2429","sicdesc":"Restaurants","store_name":"Chick-Fil-A","secdesc1":"Foods-Carry Out","geo_score":1.0,"dateprod":"Jun 14 2011","secdesc2":null,"dateobs":"Dec 14 2011","primsic":581208,"id":"acorz52c2inr","source":"infoUSA","address":"1863 Plaudit Pl","geo_precision":"range","state":"KY"},"type":"Feature","geometry":{"type":"Point","coordinates":[-84.416572,38.018118]}},{"properties":{"city":"Lexington","zip":"40504-3503","sicdesc":"Restaurants","store_name":"Chick-Fil-A","secdesc1":"Foods-Carry Out","geo_score":1.0,"dateprod":"Jun 14 2011","secdesc2":null,"dateobs":"Dec 14 2011","primsic":581208,"id":"acorz59wpg8q","source":"infoUSA","address":"2025 Harrodsburg Rd","geo_precision":"range","state":"KY"},"type":"Feature","geometry":{"type":"Point","coordinates":[-84.537617,38.025357]}},{"properties":{"city":"Lexington","zip":"40503-3306","sicdesc":"Restaurants","store_name":"Chick-Fil-A","secdesc1":"Foods-Carry Out","geo_score":1.0,"dateprod":"Jun 14 2011","secdesc2":null,"dateobs":"Dec 14 2011","primsic":581208,"id":"acorz555tvdr","source":"infoUSA","address":"2514 Nicholasville Rd","geo_precision":"range","state":"KY"},"type":"Feature","geometry":{"type":"Point","coordinates":[-84.519939,38.001326]}},{"properties":{"city":"Lexington","zip":"40503-3603","sicdesc":"Restaurants","store_name":"Chick-Fil-A","secdesc1":"Foods-Carry Out","geo_score":1.0,"dateprod":"Jun 14 2011","secdesc2":null,"dateobs":"Dec 14 2011","primsic":581208,"id":"acorz4x6wlb1","source":"infoUSA","address":"3301 Nicholasville Rd","geo_precision":"range","state":"KY"},"type":"Feature","geometry":{"type":"Point","coordinates":[-84.524208,37.990294]}},{"properties":{"city":"Lexington","zip":"40503-4414","sicdesc":"Restaurants","store_name":"Chili's Grill &amp; Bar","secdesc1":"Foods-Carry Out","geo_score":1.0,"dateprod":"Jun 14 2011","secdesc2":null,"dateobs":"Dec 14 2011","primsic":581208,"id":"acorz4zyr013","source":"infoUSA","address":"108 Marketplace Dr","geo_precision":"range","state":"KY"},"type":"Feature","geometry":{"type":"Point","coordinates":[-84.52964,37.97831]}},{"properties":{"city":"Lexington","zip":"40509-1506","sicdesc":"Restaurants","store_name":"Chili's Grill &amp; Bar","secdesc1":"Foods-Carry Out","geo_score":1.0,"dateprod":"Jun 14 2011","secdesc2":null,"dateobs":"Dec 14 2011","primsic":581208,"id":"acorz537yev5","source":"infoUSA","address":"2851 Richmond Rd","geo_precision":"range","state":"KY"},"type":"Feature","geometry":{"type":"Point","coordinates":[-84.451467,38.006727]}},{"properties":{"city":"Lexington","zip":"40504-3632","sicdesc":"Restaurants","store_name":"China Hut","secdesc1":"Foods-Carry Out","geo_score":0.503,"dateprod":"Jun 14 2011","secdesc2":null,"dateobs":"Dec 14 2011","primsic":581208,"id":"acorz4yw8mit","source":"infoUSA","address":"850 Lane Allen Rd","geo_precision":"street","state":"KY"},"type":"Feature","geometry":{"type":"Point","coordinates":[-84.458554,38.083453]}},{"properties":{"city":"Lexington","zip":"40509-2433","sicdesc":"Restaurants","store_name":"Chipotle Mexican Grill","secdesc1":"Foods-Carry Out","geo_score":1.0,"dateprod":"Jun 14 2011","secdesc2":null,"dateobs":"Dec 14 2011","primsic":581208,"id":"acorz54968fr","source":"infoUSA","address":"1869 Plaudit Pl","geo_precision":"range","state":"KY"},"type":"Feature","geometry":{"type":"Point","coordinates":[-84.417121,38.017808]}},{"properties":{"city":"Lexington","zip":"40509-1542","sicdesc":"Restaurants","store_name":"Chipotle Mexican Grill","secdesc1":"Foods-Carry Out","geo_score":1.0,"dateprod":"Jun 14 2011","secdesc2":null,"dateobs":"Dec 14 2011","primsic":581208,"id":"acorz5aqodu9","source":"infoUSA","address":"2692 Richmond Rd","geo_precision":"range","state":"KY"},"type":"Feature","geometry":{"type":"Point","coordinates":[-84.451217,38.006149]}},{"properties":{"city":"Lexington","zip":"40509-1714","sicdesc":"Restaurants","store_name":"Chipotle Mexican Grill","secdesc1":"Foods-Carry Out","geo_score":0.878,"dateprod":"Jun 14 2011","secdesc2":null,"dateobs":"Dec 14 2011","primsic":581208,"id":"acorz50lnl2i","source":"infoUSA","address":"2905 Richmond Rd","geo_precision":"range","state":"KY"},"type":"Feature","geometry":{"type":"Point","coordinates":[-84.454586,38.009173]}},{"properties":{"city":"Lexington","zip":"40508-3054","sicdesc":"Restaurants","store_name":"Chipotle Mexican Grill","secdesc1":"Foods-Carry Out","geo_score":0.937,"dateprod":"Jun 14 2011","secdesc2":null,"dateobs":"Dec 14 2011","primsic":581208,"id":"acorz53uhgoe","source":"infoUSA","address":"345 S Limestone","geo_precision":"range","state":"KY"},"type":"Feature","geometry":{"type":"Point","coordinates":[-84.502524,38.042614]}},{"properties":{"city":"Lexington","zip":"40504-3742","sicdesc":"Restaurants","store_name":"Cosi","secdesc1":"Foods-Carry Out","geo_score":0.415,"dateprod":"Jun 14 2011","secdesc2":null,"dateobs":"Dec 14 2011","primsic":581208,"id":"acorz51sx2pm","source":"infoUSA","address":"1 Saint Joseph Dr","geo_precision":"street","state":"KY"},"type":"Feature","geometry":{"type":"Point","coordinates":[-84.579777,38.003755]}},{"properties":{"city":"Lexington","zip":"40509-4569","sicdesc":"Restaurants","store_name":"Cosi","secdesc1":"Foods-Carry Out","geo_score":0.513,"dateprod":"Jun 14 2011","secdesc2":null,"dateobs":"Dec 14 2011","primsic":581208,"id":"acorz4yil459","source":"infoUSA","address":"1890 Star Shoot Pkwy # 190","geo_precision":"street","state":"KY"},"type":"Feature","geometry":{"type":"Point","coordinates":[-84.429921,38.019864]}},{"properties":{"city":"Lexington","zip":"40507-1630","sicdesc":"Restaurants","store_name":"Cosi","secdesc1":"Foods-Carry Out","geo_score":0.707,"dateprod":"Jun 14 2011","secdesc2":null,"dateobs":"Dec 14 2011","primsic":581208,"id":"acorz508qkmh","source":"infoUSA","address":"401 W Main St # 115","geo_precision":"range","state":"KY"},"type":"Feature","geometry":{"type":"Point","coordinates":[-84.49738,38.046752]}},{"properties":{"city":"Lexington","zip":"40511-1350","sicdesc":"Restaurants","store_name":"Cracker Barrel Old Country Str","secdesc1":"Foods-Carry Out","geo_score":1.0,"dateprod":"Jun 14 2011","secdesc2":"Gift Shops","dateobs":"Dec 14 2011","primsic":581208,"id":"acorz5a9jm7u","source":"infoUSA","address":"1927 Stanton Way","geo_precision":"range","state":"KY"},"type":"Feature","geometry":{"type":"Point","coordinates":[-84.48184,38.1012]}},{"properties":{"city":"Lexington","zip":"40505-4840","sicdesc":"Restaurants","store_name":"Cracker Barrel Old Country Str","secdesc1":"Foods-Carry Out","geo_score":1.0,"dateprod":"Jun 14 2011","secdesc2":"Gift Shops","dateobs":"Dec 14 2011","primsic":581208,"id":"acorz4w2xv11","source":"infoUSA","address":"2220 Elkhorn Rd","geo_precision":"range","state":"KY"},"type":"Feature","geometry":{"type":"Point","coordinates":[-84.422833,38.044814]}},{"properties":{"city":"Lexington","zip":"40509-2220","sicdesc":"Restaurants","store_name":"Culver's","secdesc1":"Foods-Carry Out","geo_score":0.878,"dateprod":"Jun 14 2011","secdesc2":null,"dateobs":"Dec 14 2011","primsic":581208,"id":"acorz56oj3pe","source":"infoUSA","address":"2161 Paul Jones Way","geo_precision":"range","state":"KY"},"type":"Feature","geometry":{"type":"Point","coordinates":[-84.420233,38.02036]}},{"properties":{"city":"Lexington","zip":"40503-3340","sicdesc":"Restaurants","store_name":"Culver's","secdesc1":"Foods-Carry Out","geo_score":0.585,"dateprod":"Jun 14 2011","secdesc2":null,"dateobs":"Dec 14 2011","primsic":581208,"id":"acorz545pxu8","source":"infoUSA","address":"360 Meijer Way","geo_precision":"zip","state":"KY"},"type":"Feature","geometry":{"type":"Point","coordinates":[-84.530773,38.019522]}},{"properties":{"city":"Lexington","zip":"40509-2217","sicdesc":"Restaurants","store_name":"Dagwood's Sandwich Shoppe","secdesc1":"Sandwiches","geo_score":0.512,"dateprod":"Jun 14 2011","secdesc2":null,"dateobs":"Dec 14 2011","primsic":581208,"id":"acorz4zuzq7c","source":"infoUSA","address":"3090 Helmsdale Pl # 265","geo_precision":"street","state":"KY"},"type":"Feature","geometry":{"type":"Point","coordinates":[-84.420688,38.012383]}},{"properties":{"city":"Lexington","zip":"40507-1228","sicdesc":"Restaurants","store_name":"De Sha's Restaurant &amp; Bar","secdesc1":"Foods-Carry Out","geo_score":0.932,"dateprod":"Jun 14 2011","secdesc2":null,"dateobs":"Dec 14 2011","primsic":581208,"id":"acorz50nq3js","source":"infoUSA","address":"101 N Broadway","geo_precision":"range","state":"KY"},"type":"Feature","geometry":{"type":"Point","coordinates":[-84.499123,38.049445]}},{"properties":{"city":"Lexington","zip":"40509-1011","sicdesc":"Restaurants","store_name":"DQ Grill &amp; Chill","secdesc1":"Foods-Carry Out","geo_score":1.0,"dateprod":"Jun 14 2011","secdesc2":"Ice Cream Parlors","dateobs":"Dec 14 2011","primsic":581208,"id":"acorz5637q69","source":"infoUSA","address":"2300 Palumbo Dr","geo_precision":"range","state":"KY"},"type":"Feature","geometry":{"type":"Point","coordinates":[-84.453127,38.022323]}},{"properties":{"city":"Lexington","zip":"40504-2641","sicdesc":"Restaurants","store_name":"DQ Grill &amp; Chill","secdesc1":"Foods-Carry Out","geo_score":1.0,"dateprod":"Jun 14 2011","secdesc2":"Ice Cream Parlors","dateobs":"Dec 14 2011","primsic":581208,"id":"acorz4w29vv3","source":"infoUSA","address":"350 Virginia Ave","geo_precision":"range","state":"KY"},"type":"Feature","geometry":{"type":"Point","coordinates":[-84.51484,38.038311]}},{"properties":{"city":"Lexington","zip":"40517-1401","sicdesc":"Restaurants","store_name":"DQ Grill &amp; Chill","secdesc1":"Foods-Carry Out","geo_score":1.0,"dateprod":"Jun 14 2011","secdesc2":"Ice Cream Parlors","dateobs":"Dec 14 2011","primsic":581208,"id":"acorz577gh68","source":"infoUSA","address":"3509 Lansdowne Dr","geo_precision":"range","state":"KY"},"type":"Feature","geometry":{"type":"Point","coordinates":[-84.515941,37.987365]}},{"properties":{"city":"Lexington","zip":"40511-1831","sicdesc":"Restaurants","store_name":"DQ Grill &amp; Chill","secdesc1":"Foods-Carry Out","geo_score":0.941,"dateprod":"Jun 14 2011","secdesc2":"Ice Cream Parlors","dateobs":"Dec 14 2011","primsic":581208,"id":"acorz5ahwml6","source":"infoUSA","address":"464 W New Circle Rd","geo_precision":"range","state":"KY"},"type":"Feature","geometry":{"type":"Point","coordinates":[-84.478247,38.071429]}},{"properties":{"city":"Lexington","zip":"40513-1706","sicdesc":"Restaurants","store_name":"El Chico Cafe","secdesc1":"Foods-Carry Out","geo_score":1.0,"dateprod":"Jun 14 2011","secdesc2":null,"dateobs":"Dec 14 2011","primsic":581208,"id":"acorz4wkvss3","source":"infoUSA","address":"3010 Lakecrest Cir","geo_precision":"range","state":"KY"},"type":"Feature","geometry":{"type":"Point","coordinates":[-84.555072,38.015052]}},{"properties":{"city":"Lexington","zip":"40502-1306","sicdesc":"Restaurants","store_name":"Famous Dave's","secdesc1":"Foods-Carry Out","geo_score":1.0,"dateprod":"Jun 14 2011","secdesc2":null,"dateobs":"Dec 14 2011","primsic":581208,"id":"acorz4ywbtuc","source":"infoUSA","address":"2299 Richmond Rd","geo_precision":"range","state":"KY"},"type":"Feature","geometry":{"type":"Point","coordinates":[-84.462564,38.016493]}},{"properties":{"city":"Lexington","zip":"40508-3004","sicdesc":"Restaurants","store_name":"Fazoli's","secdesc1":"Foods-Carry Out","geo_score":1.0,"dateprod":"Jun 14 2011","secdesc2":null,"dateobs":"Dec 14 2011","primsic":581208,"id":"acorz4zxi3g9","source":"infoUSA","address":"130 Winslow St","geo_precision":"range","state":"KY"},"type":"Feature","geometry":{"type":"Point","coordinates":[-84.504819,38.042295]}},{"properties":{"city":"Lexington","zip":"40509-2208","sicdesc":"Restaurants","store_name":"Fazoli's","secdesc1":"Foods-Carry Out","geo_score":1.0,"dateprod":"Jun 14 2011","secdesc2":null,"dateobs":"Dec 14 2011","primsic":581208,"id":"acorz55dmjqw","source":"infoUSA","address":"1840 Alysheba Way","geo_precision":"range","state":"KY"},"type":"Feature","geometry":{"type":"Point","coordinates":[-84.420832,38.017508]}},{"properties":{"city":"Lexington","zip":"40505-1540","sicdesc":"Restaurants","store_name":"Fazoli's","secdesc1":"Foods-Carry Out","geo_score":0.932,"dateprod":"Jun 14 2011","secdesc2":null,"dateobs":"Dec 14 2011","primsic":581208,"id":"acorz52kw47i","source":"infoUSA","address":"1951 N Broadway","geo_precision":"range","state":"KY"},"type":"Feature","geometry":{"type":"Point","coordinates":[-84.458331,38.074734]}},{"properties":{"city":"Lexington","zip":"40502-1207","sicdesc":"Restaurants","store_name":"Fazoli's","secdesc1":"Foods-Carry Out","geo_score":0.607,"dateprod":"Jun 14 2011","secdesc2":null,"dateobs":"Dec 14 2011","primsic":581208,"id":"acorz4yy2ta3","source":"infoUSA","address":"2195 Richmond Rd # A","geo_precision":"street","state":"KY"},"type":"Feature","geometry":{"type":"Point","coordinates":[-84.477457,38.035686]}},{"properties":{"city":"Lexington","zip":"40503-2418","sicdesc":"Restaurants","store_name":"Fazoli's","secdesc1":"Foods-Carry Out","geo_score":1.0,"dateprod":"Jun 14 2011","secdesc2":null,"dateobs":"Dec 14 2011","primsic":581208,"id":"acorz589m7hf","source":"infoUSA","address":"2200 Nicholasville Rd","geo_precision":"range","state":"KY"},"type":"Feature","geometry":{"type":"Point","coordinates":[-84.51809,38.006944]}},{"properties":{"city":"Lexington","zip":"40513-1145","sicdesc":"Restaurants","store_name":"Fazoli's","secdesc1":"Foods-Carry Out","geo_score":1.0,"dateprod":"Jun 14 2011","secdesc2":null,"dateobs":"Dec 14 2011","primsic":581208,"id":"acorz53dm54h","source":"infoUSA","address":"3775 Palomar Centre Dr","geo_precision":"range","state":"KY"},"type":"Feature","geometry":{"type":"Point","coordinates":[-84.570382,38.003435]}},{"properties":{"city":"Lexington","zip":"40515-6300","sicdesc":"Restaurants","store_name":"Fazoli's","secdesc1":"Foods-Carry Out","geo_score":1.0,"dateprod":"Jun 14 2011","secdesc2":null,"dateobs":"Dec 14 2011","primsic":581208,"id":"acorz4xq8n5i","source":"infoUSA","address":"4204 Saron Dr","geo_precision":"range","state":"KY"},"type":"Feature","geometry":{"type":"Point","coordinates":[-84.50235,37.967897]}},{"properties":{"city":"Lexington","zip":"40508-2973","sicdesc":"Restaurants","store_name":"Firehouse Subs","secdesc1":"Foods-Carry Out","geo_score":0.707,"dateprod":"Jun 14 2011","secdesc2":"Sandwiches","dateobs":"Dec 14 2011","primsic":581208,"id":"acorz54gsuy9","source":"infoUSA","address":"535 S Upper St # 175","geo_precision":"range","state":"KY"},"type":"Feature","geometry":{"type":"Point","coordinates":[-84.4979,38.047163]}},{"properties":{"city":"Lexington","zip":"40503-3167","sicdesc":"Restaurants","store_name":"Five Guys Burgers &amp; Fries","secdesc1":"Foods-Carry Out","geo_score":0.512,"dateprod":"Jun 14 2011","secdesc2":null,"dateobs":"Dec 14 2011","primsic":581208,"id":"acorz5a1move","source":"infoUSA","address":"2467 Nicholasville Rd # 120","geo_precision":"street","state":"KY"},"type":"Feature","geometry":{"type":"Point","coordinates":[-84.50974,38.030735]}},{"properties":{"city":"Lexington","zip":"40503-1250","sicdesc":"Restaurants","store_name":"Frisch's Big Boy Restaurant","secdesc1":"Foods-Carry Out","geo_score":1.0,"dateprod":"Jun 14 2011","secdesc2":null,"dateobs":"Dec 14 2011","primsic":581208,"id":"acorz5c605gg","source":"infoUSA","address":"1927 Harrodsburg Rd","geo_precision":"range","state":"KY"},"type":"Feature","geometry":{"type":"Point","coordinates":[-84.533335,38.027686]}},{"properties":{"city":"Lexington","zip":"40505-2114","sicdesc":"Restaurants","store_name":"Golden Corral Buffet &amp; Grill","secdesc1":"Foods-Carry Out","geo_score":0.941,"dateprod":"Jun 14 2011","secdesc2":"Caterers","dateobs":"Dec 14 2011","primsic":581208,"id":"acorz58d0cm2","source":"infoUSA","address":"185 E New Circle Rd","geo_precision":"range","state":"KY"},"type":"Feature","geometry":{"type":"Point","coordinates":[-84.469647,38.065211]}},{"properties":{"city":"Lexington","zip":"40505-4028","sicdesc":"Restaurants","store_name":"Hardee's","secdesc1":"Foods-Carry Out","geo_score":1.0,"dateprod":"Jun 14 2011","secdesc2":null,"dateobs":"Dec 14 2011","primsic":581208,"id":"acorz4wdlsvb","source":"infoUSA","address":"1125 Winchester Rd","geo_precision":"range","state":"KY"},"type":"Feature","geometry":{"type":"Point","coordinates":[-84.46132,38.042597]}},{"properties":{"city":"Lexington","zip":"40505 0000","sicdesc":"Restaurants","store_name":"Hardee's","secdesc1":"Foods-Carry Out","geo_score":0.902,"dateprod":"Jun 14 2011","secdesc2":null,"dateobs":"Dec 14 2011","primsic":581208,"id":"acorz538vk7y","source":"infoUSA","address":"206 New Circle Rd","geo_precision":"range","state":"KY"},"type":"Feature","geometry":{"type":"Point","coordinates":[-84.473103,38.067769]}},{"properties":{"city":"Lexington","zip":"40509-1713","sicdesc":"Restaurants","store_name":"Hardee's","secdesc1":"Foods-Carry Out","geo_score":1.0,"dateprod":"Jun 14 2011","secdesc2":null,"dateobs":"Dec 14 2011","primsic":581208,"id":"acorz56t7ddq","source":"infoUSA","address":"2990 Richmond Rd","geo_precision":"range","state":"KY"},"type":"Feature","geometry":{"type":"Point","coordinates":[-84.451217,38.006149]}},{"properties":{"city":"Lexington","zip":"40509-9491","sicdesc":"Restaurants","store_name":"Hardee's","secdesc1":"Foods-Carry Out","geo_score":1.0,"dateprod":"Jun 14 2011","secdesc2":null,"dateobs":"Dec 14 2011","primsic":581208,"id":"acorz54t92fs","source":"infoUSA","address":"5521 Athens Boonesboro Rd","geo_precision":"range","state":"KY"},"type":"Feature","geometry":{"type":"Point","coordinates":[-84.390587,37.963758]}},{"properties":{"city":"Lexington","zip":"40505-1425","sicdesc":"Restaurants","store_name":"Ho-Ho Chinese Express","secdesc1":"Foods-Carry Out","geo_score":0.941,"dateprod":"Jun 14 2011","secdesc2":null,"dateobs":"Dec 14 2011","primsic":581208,"id":"acorz4xejsja","source":"infoUSA","address":"255 W New Circle Rd","geo_precision":"range","state":"KY"},"type":"Feature","geometry":{"type":"Point","coordinates":[-84.474888,38.069654]}},{"properties":{"city":"Lexington","zip":"40509-1526","sicdesc":"Restaurants","store_name":"Hooters","secdesc1":"Foods-Carry Out","geo_score":0.512,"dateprod":"Jun 14 2011","secdesc2":"Caterers","dateobs":"Dec 14 2011","primsic":581208,"id":"acorz4xe1ptf","source":"infoUSA","address":"3101 Richmond Rd # 315","geo_precision":"street","state":"KY"},"type":"Feature","geometry":{"type":"Point","coordinates":[-84.456715,38.011234]}},{"properties":{"city":"Lexington","zip":"40509-1011","sicdesc":"Restaurants","store_name":"IHOP Restaurant","secdesc1":"Foods-Carry Out","geo_score":1.0,"dateprod":"Jun 14 2011","secdesc2":null,"dateobs":"Dec 14 2011","primsic":581208,"id":"acorz504mjgq","source":"infoUSA","address":"2306 Palumbo Dr","geo_precision":"range","state":"KY"},"type":"Feature","geometry":{"type":"Point","coordinates":[-84.453273,38.022288]}},{"properties":{"city":"Lexington","zip":"40503-4417","sicdesc":"Restaurants","store_name":"Jimmy John's","secdesc1":"Foods-Carry Out","geo_score":0.707,"dateprod":"Jun 14 2011","secdesc2":null,"dateobs":"Dec 14 2011","primsic":581208,"id":"acorz58o8y0c","source":"infoUSA","address":"130 W Tiverton Way # 120","geo_precision":"range","state":"KY"},"type":"Feature","geometry":{"type":"Point","coordinates":[-84.529052,37.980329]}},{"properties":{"city":"Lexington","zip":"40509-1308","sicdesc":"Restaurants","store_name":"Jimmy John's","secdesc1":"Foods-Carry Out","geo_score":0.512,"dateprod":"Jun 14 2011","secdesc2":"Sandwiches","dateobs":"Dec 14 2011","primsic":581208,"id":"acorz4xf7dt9","source":"infoUSA","address":"3130 Mapleleaf Dr # 114","geo_precision":"street","state":"KY"},"type":"Feature","geometry":{"type":"Point","coordinates":[-84.427105,38.008451]}},{"properties":{"city":"Lexington","zip":"40507-1743","sicdesc":"Restaurants","store_name":"Jimmy John's","secdesc1":"Foods-Carry Out","geo_score":0.707,"dateprod":"Jun 14 2011","secdesc2":null,"dateobs":"Dec 14 2011","primsic":581208,"id":"acorz533nxsf","source":"infoUSA","address":"333 E Main St # 185","geo_precision":"range","state":"KY"},"type":"Feature","geometry":{"type":"Point","coordinates":[-84.497655,38.046991]}},{"properties":{"city":"Lexington","zip":"40513-1147","sicdesc":"Restaurants","store_name":"Jimmy John's","secdesc1":"Foods-Carry Out","geo_score":1.0,"dateprod":"Jun 14 2011","secdesc2":null,"dateobs":"Dec 14 2011","primsic":581208,"id":"acorz59vpwk1","source":"infoUSA","address":"3735 Palomar Centre Dr","geo_precision":"range","state":"KY"},"type":"Feature","geometry":{"type":"Point","coordinates":[-84.573037,38.004725]}},{"properties":{"city":"Lexington","zip":"40508-3091","sicdesc":"Restaurants","store_name":"Jimmy John's","secdesc1":"Foods-Carry Out","geo_score":0.707,"dateprod":"Jun 14 2011","secdesc2":null,"dateobs":"Dec 14 2011","primsic":581208,"id":"acorz5aga8cm","source":"infoUSA","address":"385 S Limestone # 150","geo_precision":"range","state":"KY"},"type":"Feature","geometry":{"type":"Point","coordinates":[-84.498566,38.045237]}},{"properties":{"city":"Lexington","zip":"40504-2910","sicdesc":"Restaurants","store_name":"Jimmy John's","secdesc1":"Foods-Carry Out","geo_score":1.0,"dateprod":"Jun 14 2011","secdesc2":null,"dateobs":"Dec 14 2011","primsic":581208,"id":"acorz4xw6p0m","source":"infoUSA","address":"399 Waller Ave","geo_precision":"range","state":"KY"},"type":"Feature","geometry":{"type":"Point","coordinates":[-84.519398,38.030493]}},{"properties":{"city":"Lexington","zip":"40502-6597","sicdesc":"Restaurants","store_name":"Jin Jin","secdesc1":"Foods-Carry Out","geo_score":0.707,"dateprod":"Jun 14 2011","secdesc2":null,"dateobs":"Dec 14 2011","primsic":581208,"id":"acorz4xqvmfe","source":"infoUSA","address":"1060 Chinoe Rd # 148","geo_precision":"range","state":"KY"},"type":"Feature","geometry":{"type":"Point","coordinates":[-84.476446,38.024953]}},{"properties":{"city":"Lexington","zip":"40508-2530","sicdesc":"Restaurants","store_name":"Joe Bologna's Restaurant","secdesc1":"Foods-Carry Out","geo_score":0.585,"dateprod":"Jun 14 2011","secdesc2":"Pizza","dateobs":"Dec 14 2011","primsic":581208,"id":"acorz5arz3sq","source":"infoUSA","address":"120 W Maxwell St","geo_precision":"zip","state":"KY"},"type":"Feature","geometry":{"type":"Point","coordinates":[-84.498954,38.051285]}},{"properties":{"city":"Lexington","zip":"40505-3934","sicdesc":"Restaurants","store_name":"KFC","secdesc1":"Foods-Carry Out","geo_score":1.0,"dateprod":"Jun 14 2011","secdesc2":null,"dateobs":"Dec 14 2011","primsic":581208,"id":"acorz59vwxw8","source":"infoUSA","address":"1015 Winchester Rd","geo_precision":"range","state":"KY"},"type":"Feature","geometry":{"type":"Point","coordinates":[-84.466395,38.042141]}},{"properties":{"city":"Lexington","zip":"40511-1802","sicdesc":"Restaurants","store_name":"KFC","secdesc1":"Foods-Carry Out","geo_score":1.0,"dateprod":"Jun 14 2011","secdesc2":null,"dateobs":"Dec 14 2011","primsic":581208,"id":"acorz5068mlf","source":"infoUSA","address":"1494 Boardwalk","geo_precision":"range","state":"KY"},"type":"Feature","geometry":{"type":"Point","coordinates":[-84.48285,38.07163]}},{"properties":{"city":"Lexington","zip":"40509-2418","sicdesc":"Restaurants","store_name":"KFC","secdesc1":"Foods-Carry Out","geo_score":1.0,"dateprod":"Jun 14 2011","secdesc2":null,"dateobs":"Dec 14 2011","primsic":581208,"id":"acorz5bmq0th","source":"infoUSA","address":"1907 Plaudit Pl","geo_precision":"range","state":"KY"},"type":"Feature","geometry":{"type":"Point","coordinates":[-84.41368,38.019536]}},{"properties":{"city":"Lexington","zip":"40504-1603","sicdesc":"Restaurants","store_name":"KFC","secdesc1":"Foods-Carry Out","geo_score":1.0,"dateprod":"Jun 14 2011","secdesc2":"Caterers","dateobs":"Dec 14 2011","primsic":581208,"id":"acorz54il5zr","source":"infoUSA","address":"2205 Versailles Rd","geo_precision":"range","state":"KY"},"type":"Feature","geometry":{"type":"Point","coordinates":[-84.550883,38.047008]}},{"properties":{"city":"Lexington","zip":"40503-3106","sicdesc":"Restaurants","store_name":"KFC","secdesc1":"Foods-Carry Out","geo_score":1.0,"dateprod":"Jun 14 2011","secdesc2":null,"dateobs":"Dec 14 2011","primsic":581208,"id":"acorz4w4aocl","source":"infoUSA","address":"2401 Nicholasville Rd","geo_precision":"range","state":"KY"},"type":"Feature","geometry":{"type":"Point","coordinates":[-84.519804,38.002534]}},{"properties":{"city":"Lexington","zip":"40509-1507","sicdesc":"Restaurants","store_name":"KFC","secdesc1":"Foods-Carry Out","geo_score":1.0,"dateprod":"Jun 14 2011","secdesc2":null,"dateobs":"Dec 14 2011","primsic":581208,"id":"acorz4x4lxkk","source":"infoUSA","address":"3030 Richmond Rd","geo_precision":"range","state":"KY"},"type":"Feature","geometry":{"type":"Point","coordinates":[-84.450466,38.005348]}},{"properties":{"city":"Lexington","zip":"40517-3066","sicdesc":"Restaurants","store_name":"KFC","secdesc1":"Foods-Carry Out","geo_score":1.0,"dateprod":"Jun 14 2011","secdesc2":null,"dateobs":"Dec 14 2011","primsic":581208,"id":"acorz5753oxm","source":"infoUSA","address":"4101 Tates Creek Centre Dr","geo_precision":"range","state":"KY"},"type":"Feature","geometry":{"type":"Point","coordinates":[-84.497559,37.969961]}},{"properties":{"city":"Lexington","zip":"40504-3505","sicdesc":"Restaurants","store_name":"Longhorn Steakhouse","secdesc1":"Foods-Carry Out","geo_score":1.0,"dateprod":"Jun 14 2011","secdesc2":null,"dateobs":"Dec 14 2011","primsic":581208,"id":"acorz584k2vl","source":"infoUSA","address":"2217 Harrodsburg Rd","geo_precision":"range","state":"KY"},"type":"Feature","geometry":{"type":"Point","coordinates":[-84.540785,38.023498]}},{"properties":{"city":"Lexington","zip":"40503-4414","sicdesc":"Restaurants","store_name":"Mc Donald's","secdesc1":"Foods-Carry Out","geo_score":1.0,"dateprod":"Jun 14 2011","secdesc2":null,"dateobs":"Dec 14 2011","primsic":581208,"id":"acorz51ryvu5","source":"infoUSA","address":"100 Marketplace Dr","geo_precision":"range","state":"KY"},"type":"Feature","geometry":{"type":"Point","coordinates":[-84.529305,37.978283]}},{"properties":{"city":"Lexington","zip":"40505-4137","sicdesc":"Restaurants","store_name":"Mc Donald's","secdesc1":"Foods-Carry Out","geo_score":0.941,"dateprod":"Jun 14 2011","secdesc2":null,"dateobs":"Dec 14 2011","primsic":581208,"id":"acorz58y7qvi","source":"infoUSA","address":"1114 E New Circle Rd","geo_precision":"range","state":"KY"},"type":"Feature","geometry":{"type":"Point","coordinates":[-84.452755,38.030712]}},{"properties":{"city":"Lexington","zip":"40505-3115","sicdesc":"Restaurants","store_name":"Mc Donald's","secdesc1":"Foods-Carry Out","geo_score":1.0,"dateprod":"Jun 14 2011","secdesc2":null,"dateobs":"Dec 14 2011","primsic":581208,"id":"acorz51ucn09","source":"infoUSA","address":"1499 Russell Cave Rd","geo_precision":"range","state":"KY"},"type":"Feature","geometry":{"type":"Point","coordinates":[-84.476852,38.070954]}},{"properties":{"city":"Lexington","zip":"40511-2124","sicdesc":"Restaurants","store_name":"Mc Donald's","secdesc1":"Foods-Carry Out","geo_score":1.0,"dateprod":"Jun 14 2011","secdesc2":null,"dateobs":"Dec 14 2011","primsic":581208,"id":"acorz54rij3e","source":"infoUSA","address":"1620 Leestown Rd","geo_precision":"range","state":"KY"},"type":"Feature","geometry":{"type":"Point","coordinates":[-84.527445,38.068032]}},{"properties":{"city":"Lexington","zip":"40509-2418","sicdesc":"Restaurants","store_name":"Mc Donald's","secdesc1":"Foods-Carry Out","geo_score":1.0,"dateprod":"Jun 14 2011","secdesc2":null,"dateobs":"Dec 14 2011","primsic":581208,"id":"acorz55we4pm","source":"infoUSA","address":"1921 Plaudit Pl","geo_precision":"range","state":"KY"},"type":"Feature","geometry":{"type":"Point","coordinates":[-84.414145,38.019744]}},{"properties":{"city":"Lexington","zip":"40511 0000","sicdesc":"Restaurants","store_name":"Mc Donald's","secdesc1":"Foods-Carry Out","geo_score":1.0,"dateprod":"Jun 14 2011","secdesc2":null,"dateobs":"Dec 14 2011","primsic":581208,"id":"acorz53wqrop","source":"infoUSA","address":"1946 Stanton Way","geo_precision":"range","state":"KY"},"type":"Feature","geometry":{"type":"Point","coordinates":[-84.482207,38.101716]}},{"properties":{"city":"Lexington","zip":"40503-1256","sicdesc":"Restaurants","store_name":"Mc Donald's","secdesc1":"Foods-Carry Out","geo_score":1.0,"dateprod":"Jun 14 2011","secdesc2":null,"dateobs":"Dec 14 2011","primsic":581208,"id":"acorz54ljsq3","source":"infoUSA","address":"1962 Harrodsburg Rd","geo_precision":"range","state":"KY"},"type":"Feature","geometry":{"type":"Point","coordinates":[-84.533669,38.027163]}},{"properties":{"city":"Lexington","zip":"40505-4838","sicdesc":"Restaurants","store_name":"Mc Donald's","secdesc1":"Foods-Carry Out","geo_score":1.0,"dateprod":"Jun 14 2011","secdesc2":null,"dateobs":"Dec 14 2011","primsic":581208,"id":"acorz5abiy95","source":"infoUSA","address":"2271 Elkhorn Rd","geo_precision":"range","state":"KY"},"type":"Feature","geometry":{"type":"Point","coordinates":[-84.423484,38.042593]}},{"properties":{"city":"Lexington","zip":"40504-1605","sicdesc":"Restaurants","store_name":"Mc Donald's","secdesc1":"Foods-Carry Out","geo_score":1.0,"dateprod":"Jun 14 2011","secdesc2":null,"dateobs":"Dec 14 2011","primsic":581208,"id":"acorz5a16tzk","source":"infoUSA","address":"2321 Versailles Rd","geo_precision":"range","state":"KY"},"type":"Feature","geometry":{"type":"Point","coordinates":[-84.552948,38.046869]}},{"properties":{"city":"Lexington","zip":"40503-3158","sicdesc":"Restaurants","store_name":"Mc Donald's","secdesc1":"Foods-Carry Out","geo_score":1.0,"dateprod":"Jun 14 2011","secdesc2":null,"dateobs":"Dec 14 2011","primsic":581208,"id":"acorz5325ubp","source":"infoUSA","address":"2483 Nicholasville Rd","geo_precision":"range","state":"KY"},"type":"Feature","geometry":{"type":"Point","coordinates":[-84.519938,38.002442]}},{"properties":{"city":"Lexington","zip":"40509-1527","sicdesc":"Restaurants","store_name":"Mc Donald's","secdesc1":"Foods-Carry Out","geo_score":1.0,"dateprod":"Jun 14 2011","secdesc2":null,"dateobs":"Dec 14 2011","primsic":581208,"id":"acorz50m42sc","source":"infoUSA","address":"2576 Richmond Rd","geo_precision":"range","state":"KY"},"type":"Feature","geometry":{"type":"Point","coordinates":[-84.456234,38.010613]}},{"properties":{"city":"Lexington","zip":"40508-3054","sicdesc":"Restaurants","store_name":"Mc Donald's","secdesc1":"Foods-Carry Out","geo_score":0.937,"dateprod":"Jun 14 2011","secdesc2":null,"dateobs":"Dec 14 2011","primsic":581208,"id":"acorz5bgr85r","source":"infoUSA","address":"355 S Limestone","geo_precision":"range","state":"KY"},"type":"Feature","geometry":{"type":"Point","coordinates":[-84.503818,38.041653]}},{"properties":{"city":"Lexington","zip":"40508 0000","sicdesc":"Restaurants","store_name":"Mc Donald's","secdesc1":"Foods-Carry Out","geo_score":0.937,"dateprod":"Jun 14 2011","secdesc2":null,"dateobs":"Dec 14 2011","primsic":581208,"id":"acorz5a2ep7r","source":"infoUSA","address":"357 S Limestone","geo_precision":"range","state":"KY"},"type":"Feature","geometry":{"type":"Point","coordinates":[-84.503781,38.041687]}},{"properties":{"city":"Lexington","zip":"40513-1145","sicdesc":"Restaurants","store_name":"Mc Donald's","secdesc1":"Foods-Carry Out","geo_score":1.0,"dateprod":"Jun 14 2011","secdesc2":null,"dateobs":"Dec 14 2011","primsic":581208,"id":"acorz54w7fz9","source":"infoUSA","address":"3765 Palomar Centre Dr","geo_precision":"range","state":"KY"},"type":"Feature","geometry":{"type":"Point","coordinates":[-84.571196,38.003472]}},{"properties":{"city":"Lexington","zip":"40517-3059","sicdesc":"Restaurants","store_name":"Mc Donald's","secdesc1":"Foods-Carry Out","geo_score":1.0,"dateprod":"Jun 14 2011","secdesc2":null,"dateobs":"Dec 14 2011","primsic":581208,"id":"acorz5apof2p","source":"infoUSA","address":"4131 Tates Creek Centre Dr","geo_precision":"range","state":"KY"},"type":"Feature","geometry":{"type":"Point","coordinates":[-84.499218,37.96952]}},{"properties":{"city":"Lexington","zip":"40505-3729","sicdesc":"Restaurants","store_name":"Mc Donald's","secdesc1":"Foods-Carry Out","geo_score":1.0,"dateprod":"Jun 14 2011","secdesc2":null,"dateobs":"Dec 14 2011","primsic":581208,"id":"acorz4xpdao8","source":"infoUSA","address":"768 Winchester Rd","geo_precision":"range","state":"KY"},"type":"Feature","geometry":{"type":"Point","coordinates":[-84.479704,38.041314]}},{"properties":{"city":"Lexington","zip":"40505-2908","sicdesc":"Restaurants","store_name":"Mi Mexico","secdesc1":"Foods-Carry Out","geo_score":0.941,"dateprod":"Jun 14 2011","secdesc2":null,"dateobs":"Dec 14 2011","primsic":581208,"id":"acorz58v889v","source":"infoUSA","address":"818 E New Circle Rd","geo_precision":"range","state":"KY"},"type":"Feature","geometry":{"type":"Point","coordinates":[-84.454174,38.045279]}},{"properties":{"city":"Lexington","zip":"40504-3114","sicdesc":"Restaurants","store_name":"Mulligan Gardenside Cafe","secdesc1":"Foods-Carry Out","geo_score":0.585,"dateprod":"Jun 14 2011","secdesc2":null,"dateobs":"Dec 14 2011","primsic":581208,"id":"acorz56jdccs","source":"infoUSA","address":"1804 Alexandria Dr","geo_precision":"zip","state":"KY"},"type":"Feature","geometry":{"type":"Point","coordinates":[-84.539422,38.038613]}},{"properties":{"city":"Lexington","zip":"40503-2418","sicdesc":"Restaurants","store_name":"O'Charley's","secdesc1":"Foods-Carry Out","geo_score":1.0,"dateprod":"Jun 14 2011","secdesc2":null,"dateobs":"Dec 14 2011","primsic":581208,"id":"acorz530o0p9","source":"infoUSA","address":"2270 Nicholasville Rd","geo_precision":"range","state":"KY"},"type":"Feature","geometry":{"type":"Point","coordinates":[-84.518118,38.006864]}},{"properties":{"city":"Lexington","zip":"40509-1506","sicdesc":"Restaurants","store_name":"O'Charley's","secdesc1":"Foods-Carry Out","geo_score":0.878,"dateprod":"Jun 14 2011","secdesc2":null,"dateobs":"Dec 14 2011","primsic":581208,"id":"acorz4z0u5vx","source":"infoUSA","address":"2895 Richmond Rd","geo_precision":"range","state":"KY"},"type":"Feature","geometry":{"type":"Point","coordinates":[-84.454586,38.009173]}},{"properties":{"city":"Lexington","zip":"40503-3601","sicdesc":"Restaurants","store_name":"Olive Garden Italian Rstrnt","secdesc1":"Foods-Carry Out","geo_score":1.0,"dateprod":"Jun 14 2011","secdesc2":null,"dateobs":"Dec 14 2011","primsic":581208,"id":"acorz562jopt","source":"infoUSA","address":"3385 Nicholasville Rd","geo_precision":"range","state":"KY"},"type":"Feature","geometry":{"type":"Point","coordinates":[-84.523985,37.991076]}},{"properties":{"city":"Lexington","zip":"40509-9448","sicdesc":"Restaurants","store_name":"Outback Steakhouse","secdesc1":"Foods-Carry Out","geo_score":1.0,"dateprod":"Jun 14 2011","secdesc2":null,"dateobs":"Dec 14 2011","primsic":581208,"id":"acorz576y3vh","source":"infoUSA","address":"1957 Bryant Rd","geo_precision":"range","state":"KY"},"type":"Feature","geometry":{"type":"Point","coordinates":[-84.411763,38.019037]}},{"properties":{"city":"Lexington","zip":"40503-4487","sicdesc":"Restaurants","store_name":"Outback Steakhouse","secdesc1":"Foods-Carry Out","geo_score":1.0,"dateprod":"Jun 14 2011","secdesc2":null,"dateobs":"Dec 14 2011","primsic":581208,"id":"acorz57fcdnw","source":"infoUSA","address":"4001 Nicholasville Rd","geo_precision":"range","state":"KY"},"type":"Feature","geometry":{"type":"Point","coordinates":[-84.529305,37.978283]}},{"properties":{"city":"Lexington","zip":"40503-3605","sicdesc":"Restaurants","store_name":"P F Chang's China Bistro","secdesc1":"Foods-Carry Out","geo_score":1.0,"dateprod":"Jun 14 2011","secdesc2":null,"dateobs":"Dec 14 2011","primsic":581208,"id":"acorz4xo1r6c","source":"infoUSA","address":"3405 Nicholasville Rd","geo_precision":"range","state":"KY"},"type":"Feature","geometry":{"type":"Point","coordinates":[-84.524363,37.990197]}},{"properties":{"city":"Lexington","zip":"40503-3011","sicdesc":"Restaurants","store_name":"Panera Bread","secdesc1":"Foods-Carry Out","geo_score":0.585,"dateprod":"Jun 14 2011","secdesc2":"Wifi Hotspots","dateobs":"Dec 14 2011","primsic":581208,"id":"acorz56gio69","source":"infoUSA","address":"2380 Norman Ln # 110","geo_precision":"zip","state":"KY"},"type":"Feature","geometry":{"type":"Point","coordinates":[-84.530773,38.019522]}},{"properties":{"city":"Lexington","zip":"40509-1522","sicdesc":"Restaurants","store_name":"Panera Bread","secdesc1":"Foods-Carry Out","geo_score":0.512,"dateprod":"Jun 14 2011","secdesc2":"Wifi Hotspots","dateobs":"Dec 14 2011","primsic":581208,"id":"acorz57yonam","source":"infoUSA","address":"2573 Richmond Rd # 100","geo_precision":"street","state":"KY"},"type":"Feature","geometry":{"type":"Point","coordinates":[-84.457788,38.011973]}},{"properties":{"city":"Lexington","zip":"40502-1309","sicdesc":"Restaurants","store_name":"Perkins Restaurant &amp; Bakery","secdesc1":"Foods-Carry Out","geo_score":1.0,"dateprod":"Jun 14 2011","secdesc2":null,"dateobs":"Dec 14 2011","primsic":581208,"id":"acorz5bwudyk","source":"infoUSA","address":"2401 Richmond Rd","geo_precision":"range","state":"KY"},"type":"Feature","geometry":{"type":"Point","coordinates":[-84.459527,38.013695]}},{"properties":{"city":"Lexington","zip":"40503-3031","sicdesc":"Restaurants","store_name":"Quiznos","secdesc1":"Foods-Carry Out","geo_score":0.707,"dateprod":"Jun 14 2011","secdesc2":"Delicatessens","dateobs":"Dec 14 2011","primsic":581208,"id":"acorz4xcr3rx","source":"infoUSA","address":"150 W Lowry Ln # 118","geo_precision":"range","state":"KY"},"type":"Feature","geometry":{"type":"Point","coordinates":[-84.515821,38.004943]}},{"properties":{"city":"Lexington","zip":"40503 0000","sicdesc":"Restaurants","store_name":"Quiznos","secdesc1":"Foods-Carry Out","geo_score":1.0,"dateprod":"Jun 14 2011","secdesc2":"Delicatessens","dateobs":"Dec 14 2011","primsic":581208,"id":"acorz57k189n","source":"infoUSA","address":"2325 Nicholasville Rd","geo_precision":"range","state":"KY"},"type":"Feature","geometry":{"type":"Point","coordinates":[-84.519387,38.004045]}},{"properties":{"city":"Lexington","zip":"40509-1772","sicdesc":"Restaurants","store_name":"Quiznos","secdesc1":"Foods-Carry Out","geo_score":0.512,"dateprod":"Jun 14 2011","secdesc2":"Delicatessens","dateobs":"Dec 14 2011","primsic":581208,"id":"acorz5bu5jef","source":"infoUSA","address":"2901 Richmond Rd # 110","geo_precision":"street","state":"KY"},"type":"Feature","geometry":{"type":"Point","coordinates":[-84.457788,38.011973]}},{"properties":{"city":"Lexington","zip":"40510-8000","sicdesc":"Restaurants","store_name":"Quiznos","secdesc1":"Foods-Carry Out","geo_score":1.0,"dateprod":"Jun 14 2011","secdesc2":"Delicatessens","dateobs":"Dec 14 2011","primsic":581208,"id":"acorz562ry48","source":"infoUSA","address":"4000 Terminal Dr","geo_precision":"range","state":"KY"},"type":"Feature","geometry":{"type":"Point","coordinates":[-84.596686,38.04012]}},{"properties":{"city":"Lexington","zip":"40504-2702","sicdesc":"Restaurants","store_name":"Rally's Hamburgers","secdesc1":"Foods-Carry Out","geo_score":0.932,"dateprod":"Jun 14 2011","secdesc2":null,"dateobs":"Dec 14 2011","primsic":581208,"id":"acorz59sgm5b","source":"infoUSA","address":"1214 S Broadway","geo_precision":"range","state":"KY"},"type":"Feature","geometry":{"type":"Point","coordinates":[-84.519493,38.036077]}},{"properties":{"city":"Lexington","zip":"40505-2114","sicdesc":"Restaurants","store_name":"Rally's Hamburgers","secdesc1":"Foods-Carry Out","geo_score":0.941,"dateprod":"Jun 14 2011","secdesc2":null,"dateobs":"Dec 14 2011","primsic":581208,"id":"acorz4y02iis","source":"infoUSA","address":"125 E New Circle Rd","geo_precision":"range","state":"KY"},"type":"Feature","geometry":{"type":"Point","coordinates":[-84.469157,38.064614]}},{"properties":{"city":"Lexington","zip":"40509-1714","sicdesc":"Restaurants","store_name":"Rally's Hamburgers","secdesc1":"Foods-Carry Out","geo_score":1.0,"dateprod":"Jun 14 2011","secdesc2":null,"dateobs":"Dec 14 2011","primsic":581208,"id":"acorz53m80jo","source":"infoUSA","address":"2975 Richmond Rd","geo_precision":"range","state":"KY"},"type":"Feature","geometry":{"type":"Point","coordinates":[-84.451914,38.007251]}},{"properties":{"city":"Lexington","zip":"40508-1130","sicdesc":"Restaurants","store_name":"Rally's Hamburgers","secdesc1":"Foods-Carry Out","geo_score":0.955,"dateprod":"Jun 14 2011","secdesc2":null,"dateobs":"Dec 14 2011","primsic":581208,"id":"acorz4vzmi3y","source":"infoUSA","address":"411 Georgetown St","geo_precision":"range","state":"KY"},"type":"Feature","geometry":{"type":"Point","coordinates":[-84.501513,38.060867]}},{"properties":{"city":"Lexington","zip":"40503 0000","sicdesc":"Restaurants","store_name":"Red Lobster","secdesc1":"Foods-Carry Out","geo_score":1.0,"dateprod":"Jun 14 2011","secdesc2":null,"dateobs":"Dec 14 2011","primsic":581208,"id":"acorz541ua5f","source":"infoUSA","address":"2528 Nicholasville Rd","geo_precision":"range","state":"KY"},"type":"Feature","geometry":{"type":"Point","coordinates":[-84.52,38.001107]}},{"properties":{"city":"Lexington","zip":"40509-2208","sicdesc":"Restaurants","store_name":"Ruby Tuesday","secdesc1":"Foods-Carry Out","geo_score":1.0,"dateprod":"Jun 14 2011","secdesc2":null,"dateobs":"Dec 14 2011","primsic":581208,"id":"acorz50oujlb","source":"infoUSA","address":"1808 Alysheba Way","geo_precision":"range","state":"KY"},"type":"Feature","geometry":{"type":"Point","coordinates":[-84.419099,38.019422]}},{"properties":{"city":"Lexington","zip":"40504-3504","sicdesc":"Restaurants","store_name":"Ruby Tuesday","secdesc1":"Foods-Carry Out","geo_score":1.0,"dateprod":"Jun 14 2011","secdesc2":"Caterers","dateobs":"Dec 14 2011","primsic":581208,"id":"acorz5b0sl78","source":"infoUSA","address":"2101 Harrodsburg Rd","geo_precision":"range","state":"KY"},"type":"Feature","geometry":{"type":"Point","coordinates":[-84.539717,38.024152]}},{"properties":{"city":"Lexington","zip":"40503-3633","sicdesc":"Restaurants","store_name":"Sbarro","secdesc1":"Foods-Carry Out","geo_score":0.694,"dateprod":"Jun 14 2011","secdesc2":"Pizza","dateobs":"Dec 14 2011","primsic":581208,"id":"acorz4zstinv","source":"infoUSA","address":"3401 Nicholasville Rd # Fc4","geo_precision":"street","state":"KY"},"type":"Feature","geometry":{"type":"Point","coordinates":[-84.550962,37.988378]}},{"properties":{"city":"Lexington","zip":"40509-1514","sicdesc":"Restaurants","store_name":"Schlotzsky's Deli","secdesc1":"Foods-Carry Out","geo_score":1.0,"dateprod":"Jun 14 2011","secdesc2":"Delicatessens","dateobs":"Dec 14 2011","primsic":581208,"id":"acorz51car6z","source":"infoUSA","address":"110 N Locust Hill Dr","geo_precision":"range","state":"KY"},"type":"Feature","geometry":{"type":"Point","coordinates":[-84.442788,38.005456]}},{"properties":{"city":"Lexington","zip":"40503-4487","sicdesc":"Restaurants","store_name":"Schlotzsky's Deli","secdesc1":"Foods-Carry Out","geo_score":1.0,"dateprod":"Jun 14 2011","secdesc2":"Delicatessens","dateobs":"Dec 14 2011","primsic":581208,"id":"acorz51i48sh","source":"infoUSA","address":"4001 Nicholasville Rd","geo_precision":"range","state":"KY"},"type":"Feature","geometry":{"type":"Point","coordinates":[-84.529305,37.978283]}},{"properties":{"city":"Lexington","zip":"40504-2605","sicdesc":"Restaurants","store_name":"Sonic Drive-In","secdesc1":"Foods-Carry Out","geo_score":0.932,"dateprod":"Jun 14 2011","secdesc2":null,"dateobs":"Dec 14 2011","primsic":581208,"id":"acorz5bbr7yz","source":"infoUSA","address":"1026 S Broadway","geo_precision":"range","state":"KY"},"type":"Feature","geometry":{"type":"Point","coordinates":[-84.515844,38.038394]}},{"properties":{"city":"Lexington","zip":"40505-4042","sicdesc":"Restaurants","store_name":"Sonic Drive-In","secdesc1":"Foods-Carry Out","geo_score":1.0,"dateprod":"Jun 14 2011","secdesc2":null,"dateobs":"Dec 14 2011","primsic":581208,"id":"acorz53uih6p","source":"infoUSA","address":"1134 Winchester Rd","geo_precision":"range","state":"KY"},"type":"Feature","geometry":{"type":"Point","coordinates":[-84.461581,38.042417]}},{"properties":{"city":"Lexington","zip":"40505-2117","sicdesc":"Restaurants","store_name":"Sonic Drive-In","secdesc1":"Foods-Carry Out","geo_score":0.941,"dateprod":"Jun 14 2011","secdesc2":null,"dateobs":"Dec 14 2011","primsic":581208,"id":"acorz5a2rhjt","source":"infoUSA","address":"234 E New Circle Rd","geo_precision":"range","state":"KY"},"type":"Feature","geometry":{"type":"Point","coordinates":[-84.467221,38.062339]}},{"properties":{"city":"Lexington","zip":"40509-1502","sicdesc":"Restaurants","store_name":"Sonic Drive-In","secdesc1":"Foods-Carry Out","geo_score":1.0,"dateprod":"Jun 14 2011","secdesc2":null,"dateobs":"Dec 14 2011","primsic":581208,"id":"acorz51lqr5h","source":"infoUSA","address":"2633 Richmond Rd","geo_precision":"range","state":"KY"},"type":"Feature","geometry":{"type":"Point","coordinates":[-84.454441,38.009356]}},{"properties":{"city":"Lexington","zip":"40503-3611","sicdesc":"Restaurants","store_name":"Sonic Drive-In","secdesc1":"Foods-Carry Out","geo_score":0.512,"dateprod":"Jun 14 2011","secdesc2":null,"dateobs":"Dec 14 2011","primsic":581208,"id":"acorz53k8ots","source":"infoUSA","address":"3401 Nicholasville Rd # 7","geo_precision":"street","state":"KY"},"type":"Feature","geometry":{"type":"Point","coordinates":[-84.510044,38.029968]}},{"properties":{"city":"Lexington","zip":"40502-3103","sicdesc":"Restaurants","store_name":"SUBWAY","secdesc1":"Foods-Carry Out","geo_score":0.707,"dateprod":"Jun 14 2011","secdesc2":"Delicatessens","dateobs":"Dec 14 2011","primsic":581208,"id":"acorz59j8phd","source":"infoUSA","address":"1070 Chinoe Rd # 140","geo_precision":"range","state":"KY"},"type":"Feature","geometry":{"type":"Point","coordinates":[-84.476535,38.024893]}},{"properties":{"city":"Lexington","zip":"40509-1517","sicdesc":"Restaurants","store_name":"SUBWAY","secdesc1":"Foods-Carry Out","geo_score":0.707,"dateprod":"Jun 14 2011","secdesc2":"Delicatessens","dateobs":"Dec 14 2011","primsic":581208,"id":"acorz54q33tn","source":"infoUSA","address":"115 N Locust Hill Dr # 105","geo_precision":"range","state":"KY"},"type":"Feature","geometry":{"type":"Point","coordinates":[-84.442642,38.005807]}},{"properties":{"city":"Lexington","zip":"40508-3118","sicdesc":"Restaurants","store_name":"SUBWAY","secdesc1":"Foods-Carry Out","geo_score":0.805,"dateprod":"Jun 14 2011","secdesc2":"Delicatessens","dateobs":"Dec 14 2011","primsic":581208,"id":"acorz4y7npdh","source":"infoUSA","address":"1202 Versailles Rd","geo_precision":"range","state":"KY"},"type":"Feature","geometry":{"type":"Point","coordinates":[-84.522277,38.049812]}},{"properties":{"city":"Lexington","zip":"40517-9002","sicdesc":"Restaurants","store_name":"SUBWAY","secdesc1":"Foods-Carry Out","geo_score":0.707,"dateprod":"Jun 14 2011","secdesc2":"Delicatessens","dateobs":"Dec 14 2011","primsic":581208,"id":"acorz4z5lmpj","source":"infoUSA","address":"125 E Reynolds Rd # 180","geo_precision":"range","state":"KY"},"type":"Feature","geometry":{"type":"Point","coordinates":[-84.523617,37.991122]}},{"properties":{"city":"Lexington","zip":"40511-2094","sicdesc":"Restaurants","store_name":"SUBWAY","secdesc1":"Foods-Carry Out","geo_score":0.571,"dateprod":"Jun 14 2011","secdesc2":"Delicatessens","dateobs":"Dec 14 2011","primsic":581208,"id":"acorz58zrf91","source":"infoUSA","address":"1423 Leestown Rd # A","geo_precision":"street","state":"KY"},"type":"Feature","geometry":{"type":"Point","coordinates":[-84.520359,38.063853]}},{"properties":{"city":"Lexington","zip":"40507-1364","sicdesc":"Restaurants","store_name":"SUBWAY","secdesc1":"Foods-Carry Out","geo_score":0.707,"dateprod":"Jun 14 2011","secdesc2":"Delicatessens","dateobs":"Dec 14 2011","primsic":581208,"id":"acorz56y97gf","source":"infoUSA","address":"175 E Main St # 100","geo_precision":"range","state":"KY"},"type":"Feature","geometry":{"type":"Point","coordinates":[-84.49556,38.045038]}},{"properties":{"city":"Lexington","zip":"40504 0000","sicdesc":"Restaurants","store_name":"SUBWAY","secdesc1":"Foods-Carry Out","geo_score":0.585,"dateprod":"Jun 14 2011","secdesc2":"Delicatessens","dateobs":"Dec 14 2011","primsic":581208,"id":"acorz52eteyj","source":"infoUSA","address":"1827 Alexandria Dr","geo_precision":"zip","state":"KY"},"type":"Feature","geometry":{"type":"Point","coordinates":[-84.539422,38.038613]}},{"properties":{"city":"Lexington","zip":"40511-1337","sicdesc":"Restaurants","store_name":"SUBWAY","secdesc1":"Foods-Carry Out","geo_score":0.571,"dateprod":"Jun 14 2011","secdesc2":"Delicatessens","dateobs":"Dec 14 2011","primsic":581208,"id":"acorz4y9wlmh","source":"infoUSA","address":"1951 Stanton Way # B","geo_precision":"street","state":"KY"},"type":"Feature","geometry":{"type":"Point","coordinates":[-84.484749,38.102711]}},{"properties":{"city":"Lexington","zip":"40505-1539","sicdesc":"Restaurants","store_name":"SUBWAY","secdesc1":"Foods-Carry Out","geo_score":0.932,"dateprod":"Jun 14 2011","secdesc2":"Delicatessens","dateobs":"Dec 14 2011","primsic":581208,"id":"acorz58f0jog","source":"infoUSA","address":"1971 N Broadway","geo_precision":"range","state":"KY"},"type":"Feature","geometry":{"type":"Point","coordinates":[-84.457581,38.07518]}},{"properties":{"city":"Lexington","zip":"40502-2985","sicdesc":"Restaurants","store_name":"SUBWAY","secdesc1":"Foods-Carry Out","geo_score":0.595,"dateprod":"Jun 14 2011","secdesc2":"Delicatessens","dateobs":"Dec 14 2011","primsic":581208,"id":"acorz5afb6jw","source":"infoUSA","address":"210 Old Mount Tabor Rd # A","geo_precision":"street","state":"KY"},"type":"Feature","geometry":{"type":"Point","coordinates":[-84.487219,38.007165]}},{"properties":{"city":"Lexington","zip":"40509-2218","sicdesc":"Restaurants","store_name":"SUBWAY","secdesc1":"Foods-Carry Out","geo_score":0.512,"dateprod":"Jun 14 2011","secdesc2":"Delicatessens","dateobs":"Dec 14 2011","primsic":581208,"id":"acorz59drwxo","source":"infoUSA","address":"2160 Sir Barton Way # 121","geo_precision":"street","state":"KY"},"type":"Feature","geometry":{"type":"Point","coordinates":[-84.420974,38.021823]}},{"properties":{"city":"Lexington","zip":"40509-1011","sicdesc":"Restaurants","store_name":"SUBWAY","secdesc1":"Foods-Carry Out","geo_score":1.0,"dateprod":"Jun 14 2011","secdesc2":"Delicatessens","dateobs":"Dec 14 2011","primsic":581208,"id":"acorz59l27ct","source":"infoUSA","address":"2312 Palumbo Dr","geo_precision":"range","state":"KY"},"type":"Feature","geometry":{"type":"Point","coordinates":[-84.453398,38.022325]}},{"properties":{"city":"Lexington","zip":"40509-2477","sicdesc":"Restaurants","store_name":"SUBWAY","secdesc1":"Foods-Carry Out","geo_score":0.415,"dateprod":"Jun 14 2011","secdesc2":"Delicatessens","dateobs":"Dec 14 2011","primsic":581208,"id":"acorz4ypnqwu","source":"infoUSA","address":"2350 Grey Lag Way","geo_precision":"street","state":"KY"},"type":"Feature","geometry":{"type":"Point","coordinates":[-84.568508,37.992882]}},{"properties":{"city":"Lexington","zip":"40503-3033","sicdesc":"Restaurants","store_name":"SUBWAY","secdesc1":"Foods-Carry Out","geo_score":0.512,"dateprod":"Jun 14 2011","secdesc2":"Delicatessens","dateobs":"Dec 14 2011","primsic":581208,"id":"acorz5ar2cip","source":"infoUSA","address":"2358 Nicholasville Rd # 140","geo_precision":"street","state":"KY"},"type":"Feature","geometry":{"type":"Point","coordinates":[-84.50974,38.030735]}},{"properties":{"city":"Lexington","zip":"40506-0001","sicdesc":"Restaurants","store_name":"SUBWAY","secdesc1":"Foods-Carry Out","geo_score":0.477,"dateprod":"Jun 14 2011","secdesc2":"Delicatessens","dateobs":"Dec 14 2011","primsic":581208,"id":"acorz53cu8ft","source":"infoUSA","address":"239 Student Ctr","geo_precision":"street","state":"KY"},"type":"Feature","geometry":{"type":"Point","coordinates":[-84.485245,38.050384]}},{"properties":{"city":"Lexington","zip":"40515 0000","sicdesc":"Restaurants","store_name":"SUBWAY","secdesc1":"Foods-Carry Out","geo_score":0.806,"dateprod":"Jun 14 2011","secdesc2":"Delicatessens","dateobs":"Dec 14 2011","primsic":581208,"id":"acorz56y8fq9","source":"infoUSA","address":"3000 Kenesaw Dr","geo_precision":"street","state":"KY"},"type":"Feature","geometry":{"type":"Point","coordinates":[-84.461957,37.974925]}},{"properties":{"city":"Lexington","zip":"40513-1718","sicdesc":"Restaurants","store_name":"SUBWAY","secdesc1":"Foods-Carry Out","geo_score":0.512,"dateprod":"Jun 14 2011","secdesc2":"Delicatessens","dateobs":"Dec 14 2011","primsic":581208,"id":"acorz4zha3l9","source":"infoUSA","address":"3061 Fieldstone Way # 200","geo_precision":"street","state":"KY"},"type":"Feature","geometry":{"type":"Point","coordinates":[-84.555072,38.015052]}},{"properties":{"city":"Lexington","zip":"40517-4009","sicdesc":"Restaurants","store_name":"SUBWAY","secdesc1":"Foods-Carry Out","geo_score":0.512,"dateprod":"Jun 14 2011","secdesc2":"Delicatessens","dateobs":"Dec 14 2011","primsic":581208,"id":"acorz5b3n37k","source":"infoUSA","address":"3120 Pimlico Pkwy # 144","geo_precision":"street","state":"KY"},"type":"Feature","geometry":{"type":"Point","coordinates":[-84.460664,37.986157]}},{"properties":{"city":"Lexington","zip":"40509-1596","sicdesc":"Restaurants","store_name":"SUBWAY","secdesc1":"Foods-Carry Out","geo_score":1.0,"dateprod":"Jun 14 2011","secdesc2":"Delicatessens","dateobs":"Dec 14 2011","primsic":581208,"id":"acorz53l7fgq","source":"infoUSA","address":"3160 Richmond Rd","geo_precision":"range","state":"KY"},"type":"Feature","geometry":{"type":"Point","coordinates":[-84.447248,38.002239]}},{"properties":{"city":"Lexington","zip":"40503-3628","sicdesc":"Restaurants","store_name":"SUBWAY","secdesc1":"Foods-Carry Out","geo_score":0.512,"dateprod":"Jun 14 2011","secdesc2":"Delicatessens","dateobs":"Dec 14 2011","primsic":581208,"id":"acorz55dbim2","source":"infoUSA","address":"3320 Partner Pl # 108","geo_precision":"street","state":"KY"},"type":"Feature","geometry":{"type":"Point","coordinates":[-84.54731,37.99478]}},{"properties":{"city":"Lexington","zip":"40503-3633","sicdesc":"Restaurants","store_name":"SUBWAY","secdesc1":"Foods-Carry Out","geo_score":0.694,"dateprod":"Jun 14 2011","secdesc2":"Delicatessens","dateobs":"Dec 14 2011","primsic":581208,"id":"acorz534stqi","source":"infoUSA","address":"3401 Nicholasville Rd # Fc9","geo_precision":"street","state":"KY"},"type":"Feature","geometry":{"type":"Point","coordinates":[-84.550962,37.988378]}},{"properties":{"city":"Lexington","zip":"40503-1825","sicdesc":"Restaurants","store_name":"SUBWAY","secdesc1":"Foods-Carry Out","geo_score":1.0,"dateprod":"Jun 14 2011","secdesc2":"Delicatessens","dateobs":"Dec 14 2011","primsic":581208,"id":"acorz51txagj","source":"infoUSA","address":"360 Southland Dr","geo_precision":"range","state":"KY"},"type":"Feature","geometry":{"type":"Point","coordinates":[-84.526659,38.018125]}},{"properties":{"city":"Lexington","zip":"40514-1502","sicdesc":"Restaurants","store_name":"SUBWAY","secdesc1":"Foods-Carry Out","geo_score":0.512,"dateprod":"Jun 14 2011","secdesc2":"Delicatessens","dateobs":"Dec 14 2011","primsic":581208,"id":"acorz54k61r8","source":"infoUSA","address":"3650 Boston Rd # 118","geo_precision":"street","state":"KY"},"type":"Feature","geometry":{"type":"Point","coordinates":[-84.550343,37.981943]}},{"properties":{"city":"Lexington","zip":"40508-3024","sicdesc":"Restaurants","store_name":"SUBWAY","secdesc1":"Foods-Carry Out","geo_score":1.0,"dateprod":"Jun 14 2011","secdesc2":"Delicatessens","dateobs":"Dec 14 2011","primsic":581208,"id":"acorz4z8vr20","source":"infoUSA","address":"386 Woodland Ave","geo_precision":"range","state":"KY"},"type":"Feature","geometry":{"type":"Point","coordinates":[-84.493777,38.036107]}},{"properties":{"city":"Lexington","zip":"40504-2711","sicdesc":"Restaurants","store_name":"SUBWAY","secdesc1":"Foods-Carry Out","geo_score":1.0,"dateprod":"Jun 14 2011","secdesc2":"Delicatessens","dateobs":"Dec 14 2011","primsic":581208,"id":"acorz4yfmf82","source":"infoUSA","address":"409 Waller Ave","geo_precision":"range","state":"KY"},"type":"Feature","geometry":{"type":"Point","coordinates":[-84.523539,38.03353]}},{"properties":{"city":"Lexington","zip":"40507-1643","sicdesc":"Restaurants","store_name":"SUBWAY","secdesc1":"Foods-Carry Out","geo_score":0.707,"dateprod":"Jun 14 2011","secdesc2":"Delicatessens","dateobs":"Dec 14 2011","primsic":581208,"id":"acorz50lrs5h","source":"infoUSA","address":"410 W Vine St # 125","geo_precision":"range","state":"KY"},"type":"Feature","geometry":{"type":"Point","coordinates":[-84.497773,38.045426]}},{"properties":{"city":"Lexington","zip":"40515-6300","sicdesc":"Restaurants","store_name":"SUBWAY","secdesc1":"Foods-Carry Out","geo_score":1.0,"dateprod":"Jun 14 2011","secdesc2":"Delicatessens","dateobs":"Dec 14 2011","primsic":581208,"id":"acorz585jasd","source":"infoUSA","address":"4218 Saron Dr","geo_precision":"range","state":"KY"},"type":"Feature","geometry":{"type":"Point","coordinates":[-84.502174,37.96734]}},{"properties":{"city":"Lexington","zip":"40511-1833","sicdesc":"Restaurants","store_name":"SUBWAY","secdesc1":"Foods-Carry Out","geo_score":0.941,"dateprod":"Jun 14 2011","secdesc2":"Delicatessens","dateobs":"Dec 14 2011","primsic":581208,"id":"acorz4wqsdnx","source":"infoUSA","address":"500 W New Circle Rd","geo_precision":"range","state":"KY"},"type":"Feature","geometry":{"type":"Point","coordinates":[-84.480134,38.072087]}},{"properties":{"city":"Lexington","zip":"40509-9491","sicdesc":"Restaurants","store_name":"SUBWAY","secdesc1":"Foods-Carry Out","geo_score":1.0,"dateprod":"Jun 14 2011","secdesc2":"Delicatessens","dateobs":"Dec 14 2011","primsic":581208,"id":"acorz4xlkmtr","source":"infoUSA","address":"5360 Athens Boonesboro Rd","geo_precision":"range","state":"KY"},"type":"Feature","geometry":{"type":"Point","coordinates":[-84.397527,37.968091]}},{"properties":{"city":"Lexington","zip":"40508-2313","sicdesc":"Restaurants","store_name":"SUBWAY","secdesc1":"Foods-Carry Out","geo_score":0.417,"dateprod":"Jun 14 2011","secdesc2":"Delicatessens","dateobs":"Dec 14 2011","primsic":581208,"id":"acorz5bvi46y","source":"infoUSA","address":"630 E Main St # 1","geo_precision":"street","state":"KY"},"type":"Feature","geometry":{"type":"Point","coordinates":[-84.497577,38.046865]}},{"properties":{"city":"Lexington","zip":"40505-2948","sicdesc":"Restaurants","store_name":"SUBWAY","secdesc1":"Foods-Carry Out","geo_score":0.941,"dateprod":"Jun 14 2011","secdesc2":"Delicatessens","dateobs":"Dec 14 2011","primsic":581208,"id":"acorz58dwlro","source":"infoUSA","address":"690 E New Circle Rd","geo_precision":"range","state":"KY"},"type":"Feature","geometry":{"type":"Point","coordinates":[-84.454149,38.046389]}},{"properties":{"city":"Lexington","zip":"40508-3721","sicdesc":"Restaurants","store_name":"SUBWAY","secdesc1":"Foods-Carry Out","geo_score":0.932,"dateprod":"Jun 14 2011","secdesc2":"Delicatessens","dateobs":"Dec 14 2011","primsic":581208,"id":"acorz524d6dl","source":"infoUSA","address":"785 N Broadway","geo_precision":"range","state":"KY"},"type":"Feature","geometry":{"type":"Point","coordinates":[-84.484543,38.059708]}},{"properties":{"city":"Lexington","zip":"40505-4116","sicdesc":"Restaurants","store_name":"Taco Bell","secdesc1":"Foods-Carry Out","geo_score":0.941,"dateprod":"Jun 14 2011","secdesc2":null,"dateobs":"Dec 14 2011","primsic":581208,"id":"acorz4x8e8gp","source":"infoUSA","address":"1065 E New Circle Rd","geo_precision":"range","state":"KY"},"type":"Feature","geometry":{"type":"Point","coordinates":[-84.453774,38.034907]}},{"properties":{"city":"Lexington","zip":"40511-2028","sicdesc":"Restaurants","store_name":"Taco Bell","secdesc1":"Foods-Carry Out","geo_score":0.585,"dateprod":"Jun 14 2011","secdesc2":null,"dateobs":"Dec 14 2011","primsic":581208,"id":"acorz58z9qra","source":"infoUSA","address":"1768 Sharkey Way","geo_precision":"zip","state":"KY"},"type":"Feature","geometry":{"type":"Point","coordinates":[-84.492226,38.132747]}},{"properties":{"city":"Lexington","zip":"40509-2418","sicdesc":"Restaurants","store_name":"Taco Bell","secdesc1":"Foods-Carry Out","geo_score":1.0,"dateprod":"Jun 14 2011","secdesc2":null,"dateobs":"Dec 14 2011","primsic":581208,"id":"acorz5a7bwdt","source":"infoUSA","address":"1935 Plaudit Pl","geo_precision":"range","state":"KY"},"type":"Feature","geometry":{"type":"Point","coordinates":[-84.41468,38.019687]}},{"properties":{"city":"Lexington","zip":"40503-2428","sicdesc":"Restaurants","store_name":"Taco Bell","secdesc1":"Foods-Carry Out","geo_score":1.0,"dateprod":"Jun 14 2011","secdesc2":null,"dateobs":"Dec 14 2011","primsic":581208,"id":"acorz4wduutw","source":"infoUSA","address":"2275 Nicholasville Rd","geo_precision":"range","state":"KY"},"type":"Feature","geometry":{"type":"Point","coordinates":[-84.518662,38.005766]}},{"properties":{"city":"Lexington","zip":"40517-3059","sicdesc":"Restaurants","store_name":"Taco Bell","secdesc1":"Foods-Carry Out","geo_score":1.0,"dateprod":"Jun 14 2011","secdesc2":null,"dateobs":"Dec 14 2011","primsic":581208,"id":"acorz5bnibm0","source":"infoUSA","address":"4191 Tates Creek Centre Dr","geo_precision":"range","state":"KY"},"type":"Feature","geometry":{"type":"Point","coordinates":[-84.502587,37.968544]}},{"properties":{"city":"Lexington","zip":"40503-4407","sicdesc":"Restaurants","store_name":"TGI Friday's","secdesc1":"Foods-Carry Out","geo_score":1.0,"dateprod":"Jun 14 2011","secdesc2":null,"dateobs":"Dec 14 2011","primsic":581208,"id":"acorz53gd0gp","source":"infoUSA","address":"144 Rojay Dr","geo_precision":"range","state":"KY"},"type":"Feature","geometry":{"type":"Point","coordinates":[-84.528896,37.984698]}},{"properties":{"city":"Lexington","zip":"40509-2210","sicdesc":"Restaurants","store_name":"TGI Friday's","secdesc1":"Foods-Carry Out","geo_score":0.976,"dateprod":"Jun 14 2011","secdesc2":null,"dateobs":"Dec 14 2011","primsic":581208,"id":"acorz4wzlmz0","source":"infoUSA","address":"1916 Pavillon Way","geo_precision":"range","state":"KY"},"type":"Feature","geometry":{"type":"Point","coordinates":[-84.417706,38.02344]}},{"properties":{"city":"Lexington","zip":"40511 0000","sicdesc":"Restaurants","store_name":"Waffle House","secdesc1":"Foods-Carry Out","geo_score":1.0,"dateprod":"Jun 14 2011","secdesc2":null,"dateobs":"Dec 14 2011","primsic":581208,"id":"acorz4w18mxn","source":"infoUSA","address":"1000 Georgetown Rd","geo_precision":"range","state":"KY"},"type":"Feature","geometry":{"type":"Point","coordinates":[-84.507737,38.078889]}},{"properties":{"city":"Lexington","zip":"40517-4496","sicdesc":"Restaurants","store_name":"Waffle House","secdesc1":"Foods-Carry Out","geo_score":0.514,"dateprod":"Jun 14 2011","secdesc2":null,"dateobs":"Dec 14 2011","primsic":581208,"id":"acorz50okyhu","source":"infoUSA","address":"153 Patchen Dr # 41","geo_precision":"street","state":"KY"},"type":"Feature","geometry":{"type":"Point","coordinates":[-84.456257,38.007965]}},{"properties":{"city":"Lexington","zip":"40509-2417","sicdesc":"Restaurants","store_name":"Waffle House","secdesc1":"Foods-Carry Out","geo_score":0.878,"dateprod":"Jun 14 2011","secdesc2":null,"dateobs":"Dec 14 2011","primsic":581208,"id":"acorz52clo7p","source":"infoUSA","address":"1912 Plaudit Pl","geo_precision":"range","state":"KY"},"type":"Feature","geometry":{"type":"Point","coordinates":[-84.413834,38.019644]}},{"properties":{"city":"Lexington","zip":"40511-1350","sicdesc":"Restaurants","store_name":"Waffle House","secdesc1":"Foods-Carry Out","geo_score":1.0,"dateprod":"Jun 14 2011","secdesc2":null,"dateobs":"Dec 14 2011","primsic":581208,"id":"acorz4wielft","source":"infoUSA","address":"1943 Stanton Way","geo_precision":"range","state":"KY"},"type":"Feature","geometry":{"type":"Point","coordinates":[-84.481993,38.101781]}},{"properties":{"city":"Lexington","zip":"40505-1966","sicdesc":"Restaurants","store_name":"Waffle House","secdesc1":"Foods-Carry Out","geo_score":0.932,"dateprod":"Jun 14 2011","secdesc2":null,"dateobs":"Dec 14 2011","primsic":581208,"id":"acorz57gfdn8","source":"infoUSA","address":"2203 N Broadway","geo_precision":"range","state":"KY"},"type":"Feature","geometry":{"type":"Point","coordinates":[-84.451156,38.07855]}},{"properties":{"city":"Lexington","zip":"40505-4821","sicdesc":"Restaurants","store_name":"Waffle House","secdesc1":"Foods-Carry Out","geo_score":0.958,"dateprod":"Jun 14 2011","secdesc2":null,"dateobs":"Dec 14 2011","primsic":581208,"id":"acorz50e82qp","source":"infoUSA","address":"2340 Buena Vista Rd","geo_precision":"range","state":"KY"},"type":"Feature","geometry":{"type":"Point","coordinates":[-84.421039,38.044911]}},{"properties":{"city":"Lexington","zip":"40517-2020","sicdesc":"Restaurants","store_name":"Waffle House","secdesc1":"Foods-Carry Out","geo_score":0.619,"dateprod":"Jun 14 2011","secdesc2":null,"dateobs":"Dec 14 2011","primsic":581208,"id":"acorz5049dpa","source":"infoUSA","address":"3601 Walden Dr # A","geo_precision":"street","state":"KY"},"type":"Feature","geometry":{"type":"Point","coordinates":[-84.500376,37.97857]}},{"properties":{"city":"Lexington","zip":"40509-9491","sicdesc":"Restaurants","store_name":"Waffle House","secdesc1":"Foods-Carry Out","geo_score":1.0,"dateprod":"Jun 14 2011","secdesc2":null,"dateobs":"Dec 14 2011","primsic":581208,"id":"acorz5177dwe","source":"infoUSA","address":"5548 Athens Boonesboro Rd","geo_precision":"range","state":"KY"},"type":"Feature","geometry":{"type":"Point","coordinates":[-84.391394,37.964275]}},{"properties":{"city":"Lexington","zip":"40504-2601","sicdesc":"Restaurants","store_name":"Waffle House","secdesc1":"Foods-Carry Out","geo_score":0.932,"dateprod":"Jun 14 2011","secdesc2":null,"dateobs":"Dec 14 2011","primsic":581208,"id":"acorz55qt9ml","source":"infoUSA","address":"859 S Broadway","geo_precision":"range","state":"KY"},"type":"Feature","geometry":{"type":"Point","coordinates":[-84.512758,38.040724]}},{"properties":{"city":"Lexington","zip":"40503 0000","sicdesc":"Restaurants","store_name":"Waffle House","secdesc1":"Foods-Carry Out","geo_score":1.0,"dateprod":"Jun 14 2011","secdesc2":null,"dateobs":"Dec 14 2011","primsic":581208,"id":"acorz57ssnjc","source":"infoUSA","address":"Harrodsburg Rd","geo_precision":"street","state":"KY"},"type":"Feature","geometry":{"type":"Point","coordinates":[-84.531899,38.028515]}},{"properties":{"city":"Lexington","zip":"40511-1803","sicdesc":"Restaurants","store_name":"Wendy's","secdesc1":"Foods-Carry Out","geo_score":0.902,"dateprod":"Jun 14 2011","secdesc2":null,"dateobs":"Dec 14 2011","primsic":581208,"id":"acorz4zf4glm","source":"infoUSA","address":"1499 Boardwalk","geo_precision":"street","state":"KY"},"type":"Feature","geometry":{"type":"Point","coordinates":[-84.483004,38.071518]}},{"properties":{"city":"Lexington","zip":"40511-2028","sicdesc":"Restaurants","store_name":"Wendy's","secdesc1":"Foods-Carry Out","geo_score":0.585,"dateprod":"Jun 14 2011","secdesc2":null,"dateobs":"Dec 14 2011","primsic":581208,"id":"acorz56op2mr","source":"infoUSA","address":"1760 Sharkey Way","geo_precision":"zip","state":"KY"},"type":"Feature","geometry":{"type":"Point","coordinates":[-84.492226,38.132747]}},{"properties":{"city":"Lexington","zip":"40504-3112","sicdesc":"Restaurants","store_name":"Wendy's","secdesc1":"Foods-Carry Out","geo_score":0.585,"dateprod":"Jun 14 2011","secdesc2":null,"dateobs":"Dec 14 2011","primsic":581208,"id":"acorz553w9a3","source":"infoUSA","address":"1792 Alexandria Dr","geo_precision":"zip","state":"KY"},"type":"Feature","geometry":{"type":"Point","coordinates":[-84.539422,38.038613]}},{"properties":{"city":"Lexington","zip":"40509-2418","sicdesc":"Restaurants","store_name":"Wendy's","secdesc1":"Foods-Carry Out","geo_score":1.0,"dateprod":"Jun 14 2011","secdesc2":null,"dateobs":"Dec 14 2011","primsic":581208,"id":"acorz5040olw","source":"infoUSA","address":"1907 Plaudit Pl","geo_precision":"range","state":"KY"},"type":"Feature","geometry":{"type":"Point","coordinates":[-84.41368,38.019536]}},{"properties":{"city":"Lexington","zip":"40505-9002","sicdesc":"Restaurants","store_name":"Wendy's","secdesc1":"Foods-Carry Out","geo_score":0.585,"dateprod":"Jun 14 2011","secdesc2":null,"dateobs":"Dec 14 2011","primsic":581208,"id":"acorz54hftyt","source":"infoUSA","address":"2296 Thunderstick Dr","geo_precision":"zip","state":"KY"},"type":"Feature","geometry":{"type":"Point","coordinates":[-84.534941,38.149242]}},{"properties":{"city":"Lexington","zip":"40503-3357","sicdesc":"Restaurants","store_name":"Wendy's","secdesc1":"Foods-Carry Out","geo_score":1.0,"dateprod":"Jun 14 2011","secdesc2":null,"dateobs":"Dec 14 2011","primsic":581208,"id":"acorz56iu1y0","source":"infoUSA","address":"2575 Nicholasville Rd","geo_precision":"range","state":"KY"},"type":"Feature","geometry":{"type":"Point","coordinates":[-84.521299,37.998455]}},{"properties":{"city":"Lexington","zip":"40509-1507","sicdesc":"Restaurants","store_name":"Wendy's","secdesc1":"Foods-Carry Out","geo_score":1.0,"dateprod":"Jun 14 2011","secdesc2":null,"dateobs":"Dec 14 2011","primsic":581208,"id":"acorz51kseev","source":"infoUSA","address":"3010 Richmond Rd","geo_precision":"range","state":"KY"},"type":"Feature","geometry":{"type":"Point","coordinates":[-84.449872,38.004776]}},{"properties":{"city":"Lexington","zip":"40509 0000","sicdesc":"Restaurants","store_name":"Wendy's","secdesc1":"Foods-Carry Out","geo_score":1.0,"dateprod":"Jun 14 2011","secdesc2":null,"dateobs":"Dec 14 2011","primsic":581208,"id":"acorz528hchw","source":"infoUSA","address":"5365 Athens Boonesboro Rd","geo_precision":"range","state":"KY"},"type":"Feature","geometry":{"type":"Point","coordinates":[-84.39746,37.968228]}},{"properties":{"city":"Lexington","zip":"40509-9491","sicdesc":"Restaurants","store_name":"Wendy's","secdesc1":"Foods-Carry Out","geo_score":1.0,"dateprod":"Jun 14 2011","secdesc2":null,"dateobs":"Dec 14 2011","primsic":581208,"id":"acorz54hxb6q","source":"infoUSA","address":"5522 Athens Boonesboro Rd","geo_precision":"range","state":"KY"},"type":"Feature","geometry":{"type":"Point","coordinates":[-84.391211,37.964136]}},{"properties":{"city":"Lexington","zip":"40505-2905","sicdesc":"Restaurants","store_name":"Wendy's","secdesc1":"Foods-Carry Out","geo_score":0.941,"dateprod":"Jun 14 2011","secdesc2":null,"dateobs":"Dec 14 2011","primsic":581208,"id":"acorz58vbb6w","source":"infoUSA","address":"757 E New Circle Rd","geo_precision":"range","state":"KY"},"type":"Feature","geometry":{"type":"Point","coordinates":[-84.453791,38.046411]}},{"properties":{"city":"Lexington","zip":"40515-1442","sicdesc":"Restaurants","store_name":"Zaxby's","secdesc1":"Foods-Carry Out","geo_score":0.439,"dateprod":"Jun 14 2011","secdesc2":null,"dateobs":"Dec 14 2011","primsic":581208,"id":"acorz58l68y4","source":"infoUSA","address":"104 Sand Lake Dr","geo_precision":"street","state":"KY"},"type":"Feature","geometry":{"type":"Point","coordinates":[-84.541939,38.063303]}},{"properties":{"city":"Lexington","zip":"40511-1834","sicdesc":"Restaurants","store_name":"Zaxby's","secdesc1":"Foods-Carry Out","geo_score":0.941,"dateprod":"Jun 14 2011","secdesc2":null,"dateobs":"Dec 14 2011","primsic":581208,"id":"acorz59ekarx","source":"infoUSA","address":"531 W New Circle Rd","geo_precision":"range","state":"KY"},"type":"Feature","geometry":{"type":"Point","coordinates":[-84.48475,38.073121]}},{"properties":{"city":"Lexington","zip":"40502-1307","sicdesc":"Service Stations-Gasoline &amp; Oil","store_name":"BP","secdesc1":"Grocers-Retail","geo_score":1.0,"dateprod":"Jun 14 2011","secdesc2":null,"dateobs":"Dec 14 2011","primsic":554101,"id":"acorz56o6isj","source":"infoUSA","address":"2399 Richmond Rd","geo_precision":"range","state":"KY"},"type":"Feature","geometry":{"type":"Point","coordinates":[-84.463422,38.017103]}},{"properties":{"city":"Lexington","zip":"40503-3415","sicdesc":"Service Stations-Gasoline &amp; Oil","store_name":"BP","secdesc1":"Convenience Stores","geo_score":1.0,"dateprod":"Jun 14 2011","secdesc2":"Alternative Fuels","dateobs":"Dec 14 2011","primsic":554101,"id":"acorz4z5wchc","source":"infoUSA","address":"3334 Clays Mill Rd","geo_precision":"range","state":"KY"},"type":"Feature","geometry":{"type":"Point","coordinates":[-84.54758,37.998117]}},{"properties":{"city":"Lexington","zip":"40505-2241","sicdesc":"Service Stations-Gasoline &amp; Oil","store_name":"BP Foodmart","secdesc1":"Convenience Stores","geo_score":1.0,"dateprod":"Jun 14 2011","secdesc2":"Alternative Fuels","dateobs":"Dec 14 2011","primsic":554101,"id":"acorz4wr6vqg","source":"infoUSA","address":"1840 Bryan Station Rd","geo_precision":"range","state":"KY"},"type":"Feature","geometry":{"type":"Point","coordinates":[-84.452908,38.063933]}},{"properties":{"city":"Lexington","zip":"40517-1520","sicdesc":"Service Stations-Gasoline &amp; Oil","store_name":"Chevron","secdesc1":"Convenience Stores","geo_score":0.902,"dateprod":"Jun 14 2011","secdesc2":"Alternative Fuels","dateobs":"Dec 14 2011","primsic":554101,"id":"acorz5abt3kj","source":"infoUSA","address":"100 E Tiverton Way","geo_precision":"street","state":"KY"},"type":"Feature","geometry":{"type":"Point","coordinates":[-84.525292,37.979531]}},{"properties":{"city":"Lexington","zip":"40503-1828","sicdesc":"Service Stations-Gasoline &amp; Oil","store_name":"Chevron","secdesc1":"Convenience Stores","geo_score":1.0,"dateprod":"Jun 14 2011","secdesc2":null,"dateobs":"Dec 14 2011","primsic":554101,"id":"acorz50283rh","source":"infoUSA","address":"531 Southland Dr","geo_precision":"range","state":"KY"},"type":"Feature","geometry":{"type":"Point","coordinates":[-84.528682,38.021958]}},{"properties":{"city":"Lexington","zip":"40504-2711","sicdesc":"Service Stations-Gasoline &amp; Oil","store_name":"Chevron Food Mart","secdesc1":"Convenience Stores","geo_score":1.0,"dateprod":"Jun 14 2011","secdesc2":"Grocers-Retail","dateobs":"Dec 14 2011","primsic":554101,"id":"acorz4yq4noy","source":"infoUSA","address":"405 Waller Ave","geo_precision":"range","state":"KY"},"type":"Feature","geometry":{"type":"Point","coordinates":[-84.523586,38.033558]}},{"properties":{"city":"Lexington","zip":"40502-1603","sicdesc":"Service Stations-Gasoline &amp; Oil","store_name":"Chevron Food Mart","secdesc1":"Convenience Stores","geo_score":1.0,"dateprod":"Jun 14 2011","secdesc2":"Alternative Fuels","dateobs":"Dec 14 2011","primsic":554101,"id":"acorz4zxvmw3","source":"infoUSA","address":"801 E Main St","geo_precision":"range","state":"KY"},"type":"Feature","geometry":{"type":"Point","coordinates":[-84.483331,38.034186]}},{"properties":{"city":"Lexington","zip":"40505-1539","sicdesc":"Service Stations-Gasoline &amp; Oil","store_name":"Clark Pump-N-Shop","secdesc1":"Convenience Stores","geo_score":0.932,"dateprod":"Jun 14 2011","secdesc2":"Alternative Fuels","dateobs":"Dec 14 2011","primsic":554101,"id":"acorz4z8h6dk","source":"infoUSA","address":"1971 N Broadway","geo_precision":"range","state":"KY"},"type":"Feature","geometry":{"type":"Point","coordinates":[-84.457581,38.07518]}},{"properties":{"city":"Lexington","zip":"40505-1427","sicdesc":"Service Stations-Gasoline &amp; Oil","store_name":"Clarks Pump N Shop","secdesc1":"Convenience Stores","geo_score":0.941,"dateprod":"Jun 14 2011","secdesc2":"Alternative Fuels","dateobs":"Dec 14 2011","primsic":554101,"id":"acorz4wi2e9e","source":"infoUSA","address":"313 W New Circle Rd","geo_precision":"range","state":"KY"},"type":"Feature","geometry":{"type":"Point","coordinates":[-84.473835,38.068679]}},{"properties":{"city":"Lexington","zip":"40517-1249","sicdesc":"Service Stations-Gasoline &amp; Oil","store_name":"Dairy Mart","secdesc1":"Grocers-Retail","geo_score":1.0,"dateprod":"Jun 14 2011","secdesc2":null,"dateobs":"Dec 14 2011","primsic":554101,"id":"acorz571opey","source":"infoUSA","address":"155 E Reynolds Rd","geo_precision":"range","state":"KY"},"type":"Feature","geometry":{"type":"Point","coordinates":[-84.523617,37.991122]}},{"properties":{"city":"Lexington","zip":"40504-1447","sicdesc":"Service Stations-Gasoline &amp; Oil","store_name":"Dairy Mart","secdesc1":"Convenience Stores","geo_score":0.585,"dateprod":"Jun 14 2011","secdesc2":"Grocers-Retail","dateobs":"Dec 14 2011","primsic":554101,"id":"acorz51b4sqn","source":"infoUSA","address":"1918 Oxford Cir","geo_precision":"zip","state":"KY"},"type":"Feature","geometry":{"type":"Point","coordinates":[-84.539422,38.038613]}},{"properties":{"city":"Lexington","zip":"40511-1009","sicdesc":"Service Stations-Gasoline &amp; Oil","store_name":"Delimart Inc","secdesc1":"Convenience Stores","geo_score":1.0,"dateprod":"Jun 14 2011","secdesc2":"Grocers-Retail","dateobs":"Dec 14 2011","primsic":554101,"id":"acorz5btjbb8","source":"infoUSA","address":"1009 Georgetown Rd","geo_precision":"range","state":"KY"},"type":"Feature","geometry":{"type":"Point","coordinates":[-84.507785,38.078801]}},{"properties":{"city":"Lexington","zip":"40511 0000","sicdesc":"Service Stations-Gasoline &amp; Oil","store_name":"Donerail Travel Ctr","secdesc1":"Convenience Stores","geo_score":1.0,"dateprod":"Jun 14 2011","secdesc2":"Alternative Fuels","dateobs":"Dec 14 2011","primsic":554101,"id":"acorz4x6d80b","source":"infoUSA","address":"4550 Iron Works Pike","geo_precision":"range","state":"KY"},"type":"Feature","geometry":{"type":"Point","coordinates":[-84.538761,38.150781]}},{"properties":{"city":"Lexington","zip":"40503-2411","sicdesc":"Service Stations-Gasoline &amp; Oil","store_name":"El Rancho Mini Mart","secdesc1":"Convenience Stores","geo_score":1.0,"dateprod":"Jun 14 2011","secdesc2":"Grocers-Retail","dateobs":"Dec 14 2011","primsic":554101,"id":"acorz55h3cig","source":"infoUSA","address":"140 Burt Rd","geo_precision":"range","state":"KY"},"type":"Feature","geometry":{"type":"Point","coordinates":[-84.52062,38.007766]}},{"properties":{"city":"Lexington","zip":"40509-9491","sicdesc":"Service Stations-Gasoline &amp; Oil","store_name":"Exxon Friendly Mart","secdesc1":"Convenience Stores","geo_score":1.0,"dateprod":"Jun 14 2011","secdesc2":null,"dateobs":"Dec 14 2011","primsic":554101,"id":"acorz5806wm2","source":"infoUSA","address":"5522 Athens Boonesboro Rd","geo_precision":"range","state":"KY"},"type":"Feature","geometry":{"type":"Point","coordinates":[-84.391211,37.964136]}},{"properties":{"city":"Lexington","zip":"40509-9491","sicdesc":"Service Stations-Gasoline &amp; Oil","store_name":"Exxon Friendly Mart","secdesc1":"Convenience Stores","geo_score":1.0,"dateprod":"Jun 14 2011","secdesc2":"Alternative Fuels","dateobs":"Dec 14 2011","primsic":554101,"id":"acorz5a18ysq","source":"infoUSA","address":"5540 Athens Boonesboro Rd","geo_precision":"range","state":"KY"},"type":"Feature","geometry":{"type":"Point","coordinates":[-84.391337,37.964232]}},{"properties":{"city":"Lexington","zip":"40517-3428","sicdesc":"Service Stations-Gasoline &amp; Oil","store_name":"Fast Stop","secdesc1":"Convenience Stores","geo_score":0.512,"dateprod":"Jun 14 2011","secdesc2":null,"dateobs":"Dec 14 2011","primsic":554101,"id":"acorz50a4u9u","source":"infoUSA","address":"1392 Trent Blvd # 1","geo_precision":"street","state":"KY"},"type":"Feature","geometry":{"type":"Point","coordinates":[-84.493999,37.975314]}},{"properties":{"city":"Lexington","zip":"40504-3641","sicdesc":"Service Stations-Gasoline &amp; Oil","store_name":"Garden Springs Marathon","secdesc1":"Convenience Stores","geo_score":1.0,"dateprod":"Jun 14 2011","secdesc2":null,"dateobs":"Dec 14 2011","primsic":554101,"id":"acorz52q0bcl","source":"infoUSA","address":"2034 Garden Springs Dr","geo_precision":"range","state":"KY"},"type":"Feature","geometry":{"type":"Point","coordinates":[-84.541692,38.029959]}},{"properties":{"city":"Lexington","zip":"40509-8648","sicdesc":"Service Stations-Gasoline &amp; Oil","store_name":"Gleneagles Chevron","secdesc1":"Convenience Stores","geo_score":0.512,"dateprod":"Jun 14 2011","secdesc2":"Alternative Fuels","dateobs":"Dec 14 2011","primsic":554101,"id":"acorz57uptfi","source":"infoUSA","address":"6400 Polo Club Ln # 100","geo_precision":"street","state":"KY"},"type":"Feature","geometry":{"type":"Point","coordinates":[-84.403658,38.019529]}},{"properties":{"city":"Lexington","zip":"40509-2418","sicdesc":"Service Stations-Gasoline &amp; Oil","store_name":"Hamburg Shell","secdesc1":"Convenience Stores","geo_score":1.0,"dateprod":"Jun 14 2011","secdesc2":"Automated Teller Machines","dateobs":"Dec 14 2011","primsic":554101,"id":"acorz4za1tl1","source":"infoUSA","address":"1907 Plaudit Pl","geo_precision":"range","state":"KY"},"type":"Feature","geometry":{"type":"Point","coordinates":[-84.41368,38.019536]}},{"properties":{"city":"Lexington","zip":"40503-1256","sicdesc":"Service Stations-Gasoline &amp; Oil","store_name":"Harrodsburg Road Shell","secdesc1":"Convenience Stores","geo_score":1.0,"dateprod":"Jun 14 2011","secdesc2":null,"dateobs":"Dec 14 2011","primsic":554101,"id":"acorz59h2db3","source":"infoUSA","address":"1998 Harrodsburg Rd","geo_precision":"range","state":"KY"},"type":"Feature","geometry":{"type":"Point","coordinates":[-84.533941,38.027052]}},{"properties":{"city":"Lexington","zip":"40515-9720","sicdesc":"Service Stations-Gasoline &amp; Oil","store_name":"J &amp; D Market","secdesc1":"Convenience Stores","geo_score":1.0,"dateprod":"Jun 14 2011","secdesc2":"Grocers-Retail","dateobs":"Dec 14 2011","primsic":554101,"id":"acorz56edbc9","source":"infoUSA","address":"5902 Old Richmond Rd","geo_precision":"range","state":"KY"},"type":"Feature","geometry":{"type":"Point","coordinates":[-84.405343,37.939203]}},{"properties":{"city":"Lexington","zip":"40509-9491","sicdesc":"Service Stations-Gasoline &amp; Oil","store_name":"Kreissina 9","secdesc1":"Convenience Stores","geo_score":1.0,"dateprod":"Jun 14 2011","secdesc2":null,"dateobs":"Dec 14 2011","primsic":554101,"id":"acorz4ydqpsv","source":"infoUSA","address":"5350 Athens Boonesboro Rd","geo_precision":"range","state":"KY"},"type":"Feature","geometry":{"type":"Point","coordinates":[-84.397436,37.968025]}},{"properties":{"city":"Lexington","zip":"40509-1240","sicdesc":"Service Stations-Gasoline &amp; Oil","store_name":"Maple Leaf BP","secdesc1":"Convenience Stores","geo_score":1.0,"dateprod":"Jun 14 2011","secdesc2":"Alternative Fuels","dateobs":"Dec 14 2011","primsic":554101,"id":"acorz58gtv0d","source":"infoUSA","address":"3100 Mapleleaf Dr","geo_precision":"range","state":"KY"},"type":"Feature","geometry":{"type":"Point","coordinates":[-84.426418,38.007715]}},{"properties":{"city":"Lexington","zip":"40504-2607","sicdesc":"Service Stations-Gasoline &amp; Oil","store_name":"Marathon Food Mart","secdesc1":"Convenience Stores","geo_score":0.932,"dateprod":"Jun 14 2011","secdesc2":null,"dateobs":"Dec 14 2011","primsic":554101,"id":"acorz57fqx6q","source":"infoUSA","address":"1100 S Broadway","geo_precision":"range","state":"KY"},"type":"Feature","geometry":{"type":"Point","coordinates":[-84.519219,38.036249]}},{"properties":{"city":"Lexington","zip":"40508-3144","sicdesc":"Service Stations-Gasoline &amp; Oil","store_name":"Marathon Food Mart","secdesc1":"Convenience Stores","geo_score":0.805,"dateprod":"Jun 14 2011","secdesc2":null,"dateobs":"Dec 14 2011","primsic":554101,"id":"acorz57eo6an","source":"infoUSA","address":"1150 Versailles Rd","geo_precision":"range","state":"KY"},"type":"Feature","geometry":{"type":"Point","coordinates":[-84.517687,38.049996]}},{"properties":{"city":"Lexington","zip":"40517-3227","sicdesc":"Service Stations-Gasoline &amp; Oil","store_name":"Marathon Food Mart","secdesc1":"Convenience Stores","geo_score":1.0,"dateprod":"Jun 14 2011","secdesc2":null,"dateobs":"Dec 14 2011","primsic":554101,"id":"acorz5akr0m5","source":"infoUSA","address":"1161 Centre Pkwy","geo_precision":"range","state":"KY"},"type":"Feature","geometry":{"type":"Point","coordinates":[-84.484131,37.983101]}},{"properties":{"city":"Lexington","zip":"40508-1801","sicdesc":"Service Stations-Gasoline &amp; Oil","store_name":"Marathon Food Mart","secdesc1":"Convenience Stores","geo_score":1.0,"dateprod":"Jun 14 2011","secdesc2":"Alternative Fuels","dateobs":"Dec 14 2011","primsic":554101,"id":"acorz54h52ve","source":"infoUSA","address":"300 N Martin Luther King Blvd","geo_precision":"range","state":"KY"},"type":"Feature","geometry":{"type":"Point","coordinates":[-84.489533,38.048967]}},{"properties":{"city":"Lexington","zip":"40503-4435","sicdesc":"Service Stations-Gasoline &amp; Oil","store_name":"Marketplace Shell","secdesc1":"Convenience Stores","geo_score":0.82,"dateprod":"Jun 14 2011","secdesc2":"Alternative Fuels","dateobs":"Dec 14 2011","primsic":554101,"id":"acorz5237md0","source":"infoUSA","address":"4096 Nichols Park Dr","geo_precision":"range","state":"KY"},"type":"Feature","geometry":{"type":"Point","coordinates":[-84.533528,37.978509]}},{"properties":{"city":"Lexington","zip":"40509-9571","sicdesc":"Service Stations-Gasoline &amp; Oil","store_name":"Midway Petro Inc","secdesc1":"Convenience Stores","geo_score":1.0,"dateprod":"Jun 14 2011","secdesc2":"Alternative Fuels","dateobs":"Dec 14 2011","primsic":554101,"id":"acorz583wklj","source":"infoUSA","address":"3895 Winchester Rd","geo_precision":"range","state":"KY"},"type":"Feature","geometry":{"type":"Point","coordinates":[-84.364779,38.030882]}},{"properties":{"city":"Lexington","zip":"40517-1401","sicdesc":"Service Stations-Gasoline &amp; Oil","store_name":"Mini Market","secdesc1":"Convenience Stores","geo_score":1.0,"dateprod":"Jun 14 2011","secdesc2":"Grocers-Retail","dateobs":"Dec 14 2011","primsic":554101,"id":"acorz59f3f22","source":"infoUSA","address":"3527 Lansdowne Dr","geo_precision":"range","state":"KY"},"type":"Feature","geometry":{"type":"Point","coordinates":[-84.514848,37.988594]}},{"properties":{"city":"Lexington","zip":"40505-3621","sicdesc":"Service Stations-Gasoline &amp; Oil","store_name":"Mini Mart","secdesc1":"Convenience Stores","geo_score":1.0,"dateprod":"Jun 14 2011","secdesc2":"Alternative Fuels","dateobs":"Dec 14 2011","primsic":554101,"id":"acorz59759jo","source":"infoUSA","address":"705 E Loudon Ave","geo_precision":"range","state":"KY"},"type":"Feature","geometry":{"type":"Point","coordinates":[-84.467783,38.047167]}},{"properties":{"city":"Lexington","zip":"40509-1509","sicdesc":"Service Stations-Gasoline &amp; Oil","store_name":"Mist Lake Shell Foodmart","secdesc1":"Convenience Stores","geo_score":1.0,"dateprod":"Jun 14 2011","secdesc2":"Alternative Fuels","dateobs":"Dec 14 2011","primsic":554101,"id":"acorz4z0feup","source":"infoUSA","address":"3110 Richmond Rd","geo_precision":"range","state":"KY"},"type":"Feature","geometry":{"type":"Point","coordinates":[-84.446151,38.001232]}},{"properties":{"city":"Lexington","zip":"40505-1753","sicdesc":"Service Stations-Gasoline &amp; Oil","store_name":"North Broadway BP","secdesc1":"Convenience Stores","geo_score":0.932,"dateprod":"Jun 14 2011","secdesc2":"Alternative Fuels","dateobs":"Dec 14 2011","primsic":554101,"id":"acorz511dluq","source":"infoUSA","address":"2115 N Broadway","geo_precision":"range","state":"KY"},"type":"Feature","geometry":{"type":"Point","coordinates":[-84.452941,38.07778]}},{"properties":{"city":"Lexington","zip":"40509-2412","sicdesc":"Service Stations-Gasoline &amp; Oil","store_name":"Redi Mart 10","secdesc1":"Convenience Stores","geo_score":1.0,"dateprod":"Jun 14 2011","secdesc2":null,"dateobs":"Dec 14 2011","primsic":554101,"id":"acorz57ue05d","source":"infoUSA","address":"1970 Pleasant Ridge Dr","geo_precision":"range","state":"KY"},"type":"Feature","geometry":{"type":"Point","coordinates":[-84.414979,38.017475]}},{"properties":{"city":"Lexington","zip":"40511-1832","sicdesc":"Service Stations-Gasoline &amp; Oil","store_name":"Russell Cave Shell Food Mart","secdesc1":"Convenience Stores","geo_score":0.941,"dateprod":"Jun 14 2011","secdesc2":"Alternative Fuels","dateobs":"Dec 14 2011","primsic":554101,"id":"acorz573oonn","source":"infoUSA","address":"435 W New Circle Rd","geo_precision":"range","state":"KY"},"type":"Feature","geometry":{"type":"Point","coordinates":[-84.478006,38.071595]}},{"properties":{"city":"Lexington","zip":"40503-2043","sicdesc":"Service Stations-Gasoline &amp; Oil","store_name":"Southland Shell Foodmart","secdesc1":"Grocers-Retail","geo_score":1.0,"dateprod":"Jun 14 2011","secdesc2":null,"dateobs":"Dec 14 2011","primsic":554101,"id":"acorz5b3ybj5","source":"infoUSA","address":"1975 Nicholasville Rd","geo_precision":"range","state":"KY"},"type":"Feature","geometry":{"type":"Point","coordinates":[-84.516692,38.011632]}},{"properties":{"city":"Lexington","zip":"40511-1332","sicdesc":"Service Stations-Gasoline &amp; Oil","store_name":"Speaks Chevron","secdesc1":"Convenience Stores","geo_score":1.0,"dateprod":"Jun 14 2011","secdesc2":"Alternative Fuels","dateobs":"Dec 14 2011","primsic":554101,"id":"acorz4wi7jsw","source":"infoUSA","address":"1900 Newtown Pike","geo_precision":"range","state":"KY"},"type":"Feature","geometry":{"type":"Point","coordinates":[-84.485659,38.098653]}},{"properties":{"city":"Lexington","zip":"40502-3407","sicdesc":"Service Stations-Gasoline &amp; Oil","store_name":"Speedway","secdesc1":"Convenience Stores","geo_score":1.0,"dateprod":"Jun 14 2011","secdesc2":"Alternative Fuels","dateobs":"Dec 14 2011","primsic":554101,"id":"acorz557tpv3","source":"infoUSA","address":"3393 Tates Creek Rd","geo_precision":"range","state":"KY"},"type":"Feature","geometry":{"type":"Point","coordinates":[-84.495421,37.994302]}},{"properties":{"city":"Lexington","zip":"40505-1963","sicdesc":"Service Stations-Gasoline &amp; Oil","store_name":"Super America","secdesc1":"Convenience Stores","geo_score":1.0,"dateprod":"Jun 14 2011","secdesc2":"Automated Teller Machines","dateobs":"Dec 14 2011","primsic":554101,"id":"acorz53w8sl9","source":"infoUSA","address":"2301 Paris Pike","geo_precision":"range","state":"KY"},"type":"Feature","geometry":{"type":"Point","coordinates":[-84.449401,38.079392]}},{"properties":{"city":"Lexington","zip":"40517-2534","sicdesc":"Service Stations-Gasoline &amp; Oil","store_name":"Thornton Oil Co","secdesc1":"Convenience Stores","geo_score":0.902,"dateprod":"Jun 14 2011","secdesc2":"Alternative Fuels","dateobs":"Dec 14 2011","primsic":554101,"id":"acorz56y8m0j","source":"infoUSA","address":"441 Redding Rd","geo_precision":"street","state":"KY"},"type":"Feature","geometry":{"type":"Point","coordinates":[-84.495791,37.983188]}},{"properties":{"city":"Lexington","zip":"40517 0000","sicdesc":"Service Stations-Gasoline &amp; Oil","store_name":"Traxx Food Marts","secdesc1":"Convenience Stores","geo_score":1.0,"dateprod":"Jun 14 2011","secdesc2":"Alternative Fuels","dateobs":"Dec 14 2011","primsic":554101,"id":"acorz4z6xned","source":"infoUSA","address":"4151 Tates Creek Centre Dr","geo_precision":"range","state":"KY"},"type":"Feature","geometry":{"type":"Point","coordinates":[-84.50015,37.969063]}},{"properties":{"city":"Lexington","zip":"40504-1606","sicdesc":"Service Stations-Gasoline &amp; Oil","store_name":"Versailles Road Shell","secdesc1":"Convenience Stores","geo_score":1.0,"dateprod":"Jun 14 2011","secdesc2":"Alternative Fuels","dateobs":"Dec 14 2011","primsic":554101,"id":"acorz51s3t7s","source":"infoUSA","address":"2300 Versailles Rd","geo_precision":"range","state":"KY"},"type":"Feature","geometry":{"type":"Point","coordinates":[-84.551917,38.046732]}},{"properties":{"city":"Lexington","zip":"40505 0000","sicdesc":"Service Stations-Gasoline &amp; Oil","store_name":"Winchester Shell Food Mart","secdesc1":"Convenience Stores","geo_score":1.0,"dateprod":"Jun 14 2011","secdesc2":"Alternative Fuels","dateobs":"Dec 14 2011","primsic":554101,"id":"acorz5acfd85","source":"infoUSA","address":"2297 Charleston Dr","geo_precision":"range","state":"KY"},"type":"Feature","geometry":{"type":"Point","coordinates":[-84.425764,38.041689]}},{"properties":{"city":"Lexington","zip":"40505-3729","sicdesc":"Storage-Household &amp; Commercial","store_name":"Storage Mart","secdesc1":"Grocers-Retail","geo_score":1.0,"dateprod":"Jun 14 2011","secdesc2":"Storage","dateobs":"Dec 14 2011","primsic":422503,"id":"acorz58sb12v","source":"infoUSA","address":"750 Winchester Rd","geo_precision":"range","state":"KY"},"type":"Feature","geometry":{"type":"Point","coordinates":[-84.478576,38.041054]}},{"properties":{"city":"Lexington","zip":"40505-4148","sicdesc":"Wholesale Clubs","store_name":"Sam's Club","secdesc1":"Wholesale Clubs","geo_score":0.844,"dateprod":"Jun 14 2011","secdesc2":"Warehouses","dateobs":"Dec 14 2011","primsic":531110,"id":"acorz4xz7li9","source":"infoUSA","address":"1063 E New Circle Rd","geo_precision":"street","state":"KY"},"type":"Feature","geometry":{"type":"Point","coordinates":[-84.454364,38.038564]}}],"is_temporal":false,"author":{"url":"","metadata":"","contact_name":"","contact_address":"","source":"","contact_phone":""},"source":"","pagination":{"sort":null,"start":0,"total":417,"limit":1000000},"state":"complete","tags":"","published":"2014-08-17T00:35:58-04:00","id":329549}