{"type":"FeatureCollection","data_type":"Dataset","url_type":null,"permissions":[{"permissions":{"download":true,"view":true},"group_id":"everyone"}],"classification":null,"title":"Will_County_Map_Data","count":46,"stream_id":329582,"contributor":{"url":"http://geocommons.com/users/64725","name":"Leah14Miller"},"data_attributes":null,"calculation_params":null,"icon_link":null,"link":"http://geocommons.com/overlays/329582.json","extent":[-88.2411,41.2388,-87.6212,41.7127],"geometry_types":["point"],"unique_name":null,"name":"Will_County_Map_Data","feature_count":46,"description":"","next_feature":null,"is_raster":false,"short_classification":"Y","stats":{},"features":[{"properties":{"name":"New Song - Seeds Of Hope","city":"Bolingbrook","geo_score":1.0,"zip code":"60440","id":"acousfhe66y2","address":"151 E Briarcliff Road","geo_precision":"range","state":"IL"},"type":"Feature","geometry":{"type":"Point","coordinates":[-88.06739,41.698445]}},{"properties":{"name":"Bolingbrook 7Th Day Advent Food Pantry","city":"Bolingbrook","geo_score":1.0,"zip code":"60440","id":"acousfdjl86s","address":"301 East Boughton Road","geo_precision":"range","state":"IL"},"type":"Feature","geometry":{"type":"Point","coordinates":[-88.063587,41.712671]}},{"properties":{"name":"First Baptist Church Bolingbrook","city":"Bolingbrook","geo_score":0.902,"zip code":"60440","id":"acousfiy9ig6","address":"314 E Briarcliff Rd","geo_precision":"street","state":"IL"},"type":"Feature","geometry":{"type":"Point","coordinates":[-88.05536,41.698786]}},{"properties":{"name":"Community Care Center - Braidwood","city":"Braidwood","geo_score":1.0,"zip code":"60408","id":"acousf6t2m2o","address":"112 S Center Street","geo_precision":"range","state":"IL"},"type":"Feature","geometry":{"type":"Point","coordinates":[-88.217381,41.26413]}},{"properties":{"name":"Living Manna Food Ministry","city":"Channahon","geo_score":0.973,"zip code":"60410","id":"acousfe9nwm0","address":"25124 S Fryer St","geo_precision":"range","state":"IL"},"type":"Feature","geometry":{"type":"Point","coordinates":[-88.226714,41.425431]}},{"properties":{"name":"Family Outreach Program Inc","city":"Crest Hill","geo_score":0.807,"zip code":"60435","id":"acousfg5hb48","address":"1701 N Larkin Ave","geo_precision":"street","state":"IL"},"type":"Feature","geometry":{"type":"Point","coordinates":[-88.125697,41.547972]}},{"properties":{"name":"Crete-Monee School","city":"Crete","geo_score":0.857,"zip code":"60417","id":"acousfedjae0","address":"760 W. Exchange","geo_precision":"zip","state":"IL"},"type":"Feature","geometry":{"type":"Point","coordinates":[-87.621223,41.426684]}},{"properties":{"name":"Peace Community Church","city":"Frankfort","geo_score":0.784,"zip code":"60423","id":"acousfgucng3","address":"21300 S LaGrange Road","geo_precision":"street","state":"IL"},"type":"Feature","geometry":{"type":"Point","coordinates":[-87.868102,41.491821]}},{"properties":{"name":"Fellowship Bible - Joliet","city":"Joliet","geo_score":1.0,"zip code":"60436","id":"acousfbmxdpv","address":"122 Morris Street","geo_precision":"range","state":"IL"},"type":"Feature","geometry":{"type":"Point","coordinates":[-88.122199,41.52132]}},{"properties":{"name":"Warren Sharpe Community Center","city":"Joliet","geo_score":1.0,"zip code":"60436","id":"acousf6ihey2","address":"454 S Joliet St","geo_precision":"range","state":"IL"},"type":"Feature","geometry":{"type":"Point","coordinates":[-88.083946,41.514554]}},{"properties":{"name":"Mt Zion Lift Him Up Ministries","city":"Joliet","geo_score":0.725,"zip code":"60434","id":"acousffrt1ux","address":"351 N Ottawa","geo_precision":"range","state":"IL"},"type":"Feature","geometry":{"type":"Point","coordinates":[-88.083174,41.531455]}},{"properties":{"name":"St John the Baptist Food Pantry","city":"Joliet","geo_score":1.0,"zip code":"60435","id":"acousff3sdbn","address":"260 Division Street","geo_precision":"range","state":"IL"},"type":"Feature","geometry":{"type":"Point","coordinates":[-88.090339,41.530898]}},{"properties":{"name":"Spanish Community Center","city":"Joliet","geo_score":1.0,"zip code":"60432","id":"acousfaeruj2","address":"309 N Eastern Ave","geo_precision":"range","state":"IL"},"type":"Feature","geometry":{"type":"Point","coordinates":[-88.074951,41.531403]}},{"properties":{"name":"Will County Baptist Temple","city":"Joliet","geo_score":0.585,"zip code":"60436","id":"acousfjlyk1i","address":"625 McDonough Street","geo_precision":"zip","state":"IL"},"type":"Feature","geometry":{"type":"Point","coordinates":[-88.15716,41.48843]}},{"properties":{"name":"Life Line Food Pantry","city":"Joliet","geo_score":0.805,"zip code":"60433","id":"acousf9tncsr","address":"503 S Water Street","geo_precision":"range","state":"IL"},"type":"Feature","geometry":{"type":"Point","coordinates":[-88.145081,41.304605]}},{"properties":{"name":"Blessing Bench Pantry","city":"Joliet","geo_score":1.0,"zip code":"60432","id":"acousf52yaev","address":"55 W Benton Street","geo_precision":"range","state":"IL"},"type":"Feature","geometry":{"type":"Point","coordinates":[-88.084071,41.52976]}},{"properties":{"name":"Lebanon Dist. Laymen Ministry","city":"Joliet","geo_score":1.0,"zip code":"60436","id":"acousfedlxdq","address":"402 Singleton Place","geo_precision":"range","state":"IL"},"type":"Feature","geometry":{"type":"Point","coordinates":[-88.090513,41.498463]}},{"properties":{"name":"New Testament Fellowship","city":"Joliet","geo_score":0.912,"zip code":"60432","id":"acousf550ljv","address":"515 N Scott","geo_precision":"range","state":"IL"},"type":"Feature","geometry":{"type":"Point","coordinates":[-88.08043,41.533956]}},{"properties":{"name":"Ridgewood United Comm Pantry","city":"Joliet","geo_score":1.0,"zip code":"60432","id":"acousfhnx8hl","address":"301 Fairbanks Ave.","geo_precision":"range","state":"IL"},"type":"Feature","geometry":{"type":"Point","coordinates":[-88.049176,41.532011]}},{"properties":{"name":"True Tabernacle Christian","city":"Joliet","geo_score":1.0,"zip code":"60433","id":"acousfdvx834","address":"1220 Pawnee St.","geo_precision":"range","state":"IL"},"type":"Feature","geometry":{"type":"Point","coordinates":[-88.057965,41.502695]}},{"properties":{"name":"St. Patrick's Food Pantry","city":"Joliet","geo_score":1.0,"zip code":"60436","id":"acousffs47vy","address":"710 W Marion Street","geo_precision":"range","state":"IL"},"type":"Feature","geometry":{"type":"Point","coordinates":[-88.099868,41.521725]}},{"properties":{"name":"Soul Food Pantry","city":"Joliet","geo_score":0.463,"zip code":"60435","id":"acousfht34qm","address":"2800 Black Road","geo_precision":"street","state":"IL"},"type":"Feature","geometry":{"type":"Point","coordinates":[-88.239267,41.238763]}},{"properties":{"name":"Second Baptist Food Pantry","city":"Joliet","geo_score":1.0,"zip code":"60436","id":"acousfclhtqb","address":"156 S Joliet Street","geo_precision":"range","state":"IL"},"type":"Feature","geometry":{"type":"Point","coordinates":[-88.084139,41.520648]}},{"properties":{"name":"St John Lutheran Church","city":"Joliet","geo_score":0.805,"zip code":"60435","id":"acousfb7qt1e","address":"2650 Plainfield Road","geo_precision":"street","state":"IL"},"type":"Feature","geometry":{"type":"Point","coordinates":[-88.119503,41.550706]}},{"properties":{"name":"Christ Temple Food Pantry","city":"Joliet","geo_score":0.878,"zip code":"60433","id":"acousf47g9ej","address":"212 Richards Street","geo_precision":"street","state":"IL"},"type":"Feature","geometry":{"type":"Point","coordinates":[-88.074238,41.517018]}},{"properties":{"name":"Glory Tabernacle Church","city":"Joliet","geo_score":1.0,"zip code":"60432","id":"acousfcif2h4","address":"459 N Ottawa St","geo_precision":"range","state":"IL"},"type":"Feature","geometry":{"type":"Point","coordinates":[-88.082047,41.533125]}},{"properties":{"name":"Forest Park Community Center","city":"Joliet","geo_score":1.0,"zip code":"60432","id":"acousfcq4hex","address":"1017 Woodruff Road","geo_precision":"range","state":"IL"},"type":"Feature","geometry":{"type":"Point","coordinates":[-88.057516,41.546278]}},{"properties":{"name":"Greater Bible Way Apostolic","city":"Joliet","geo_score":1.0,"zip code":"60432","id":"acousfgbmhxj","address":"1214 Brown Ave.","geo_precision":"range","state":"IL"},"type":"Feature","geometry":{"type":"Point","coordinates":[-88.04939,41.531011]}},{"properties":{"name":"Lively Hope Church Of God","city":"Joliet","geo_score":0.604,"zip code":"60435","id":"acousff69txp","address":"308 N. Midland","geo_precision":"street","state":"IL"},"type":"Feature","geometry":{"type":"Point","coordinates":[-88.115184,41.523796]}},{"properties":{"name":"Salvation Army - Joliet","city":"Joliet","geo_score":0.916,"zip code":"60433","id":"acousf3oy87q","address":"300 Third Ave","geo_precision":"range","state":"IL"},"type":"Feature","geometry":{"type":"Point","coordinates":[-88.072969,41.51886]}},{"properties":{"name":"First Baptist Church Pantry","city":"Lockport","geo_score":0.92,"zip code":"60441","id":"acousf84c2d2","address":"800 Thornton","geo_precision":"range","state":"IL"},"type":"Feature","geometry":{"type":"Point","coordinates":[-88.041338,41.597388]}},{"properties":{"name":"Lockport Fish Food Pantry","city":"Lockport","geo_score":0.927,"zip code":"60441","id":"acousf7dt6g8","address":"604 E 9th Street","geo_precision":"range","state":"IL"},"type":"Feature","geometry":{"type":"Point","coordinates":[-88.048401,41.587551]}},{"properties":{"name":"Fairmont Food Pantry","city":"Lockport","geo_score":1.0,"zip code":"60441","id":"acousfaiu5jb","address":"525 Barry Avenue","geo_precision":"range","state":"IL"},"type":"Feature","geometry":{"type":"Point","coordinates":[-88.061483,41.557928]}},{"properties":{"name":"Christ's Mission Church","city":"Manhattan","geo_score":1.0,"zip code":"60442","id":"acousfh729lq","address":"22811 S Cedar Road","geo_precision":"range","state":"IL"},"type":"Feature","geometry":{"type":"Point","coordinates":[-87.964266,41.468624]}},{"properties":{"name":"Crossroads Comm Church Pantry","city":"New Lenox","geo_score":0.947,"zip code":"60451","id":"acousf91v8uh","address":"1501 South Gougar Road","geo_precision":"range","state":"IL"},"type":"Feature","geometry":{"type":"Point","coordinates":[-88.003712,41.493824]}},{"properties":{"name":"New Life Church - New Lenox","city":"New Lenox","geo_score":0.571,"zip code":"60451","id":"acousfdcam92","address":"500 S. Gougar Road","geo_precision":"street","state":"IL"},"type":"Feature","geometry":{"type":"Point","coordinates":[-88.004521,41.514053]}},{"properties":{"name":"Helping Hands - Peotone","city":"Peotone","geo_score":0.932,"zip code":"60468","id":"acousf4o7mhs","address":"200 West Crawford","geo_precision":"range","state":"IL"},"type":"Feature","geometry":{"type":"Point","coordinates":[-87.793804,41.335446]}},{"properties":{"name":"Life Spring Community Church","city":"Plainfield","geo_score":0.434,"zip code":"60544","id":"acousfh36wap","address":"1000 Hacker Ave","geo_precision":"street","state":"IL"},"type":"Feature","geometry":{"type":"Point","coordinates":[-88.195816,41.557044]}},{"properties":{"name":"Green Harvest Food Pantry","city":"Plainfield","geo_score":0.878,"zip code":"60585","id":"acousf4kf9ve","address":"25448 Ruff St","geo_precision":"range","state":"IL"},"type":"Feature","geometry":{"type":"Point","coordinates":[-88.241091,41.695205]}},{"properties":{"name":"Plainfield Area Interfaith","city":"Plainfield","geo_score":0.585,"zip code":"60544","id":"acousfd3jm1h","address":"22525 W Lockport St","geo_precision":"zip","state":"IL"},"type":"Feature","geometry":{"type":"Point","coordinates":[-88.181452,41.590308]}},{"properties":{"name":"We Care Of Romeoville","city":"Romeoville","geo_score":1.0,"zip code":"60446","id":"acousfdcdmq1","address":"219 Arlington Drive","geo_precision":"range","state":"IL"},"type":"Feature","geometry":{"type":"Point","coordinates":[-88.089394,41.650312]}},{"properties":{"name":"Dupage Township","city":"Romeoville","geo_score":1.0,"zip code":"60446","id":"acousf8k5xj5","address":"719 Parkwood Ave","geo_precision":"range","state":"IL"},"type":"Feature","geometry":{"type":"Point","coordinates":[-88.07645,41.654817]}},{"properties":{"name":"Good Shepherd Pantry","city":"Romeoville","geo_score":1.0,"zip code":"60446","id":"acousfe3uorz","address":"2 Belmont Dr","geo_precision":"range","state":"IL"},"type":"Feature","geometry":{"type":"Point","coordinates":[-88.080766,41.64749]}},{"properties":{"name":"Restoration Christian Church","city":"Shorewood","geo_score":0.659,"zip code":"60404","id":"acousfd9av6i","address":"114 Channahon Street","geo_precision":"street","state":"IL"},"type":"Feature","geometry":{"type":"Point","coordinates":[-88.105329,41.504062]}},{"properties":{"name":"Pilgrimage Protestant","city":"University Park","geo_score":0.585,"zip code":"60466","id":"acousfgob9og","address":"1100 Exchange Pkwy","geo_precision":"zip","state":"IL"},"type":"Feature","geometry":{"type":"Point","coordinates":[-87.685325,41.592257]}},{"properties":{"name":"Kuzma Care Cottage","city":"Wilmington","geo_score":1.0,"zip code":"60481","id":"acousfjg7ywr","address":"635 S Main Street","geo_precision":"range","state":"IL"},"type":"Feature","geometry":{"type":"Point","coordinates":[-88.143543,41.304126]}}],"is_temporal":false,"author":{"url":"","metadata":null,"contact_name":null,"contact_address":null,"source":null,"contact_phone":null},"source":"","pagination":{"sort":null,"start":0,"total":46,"limit":1000000},"state":"complete","tags":"","published":"2014-08-17T00:39:28-04:00","id":329582}