{"type":"FeatureCollection","data_type":"Dataset","url_type":null,"permissions":[{"permissions":{"download":true,"view":true},"group_id":"everyone"}],"classification":null,"title":"Windsor Crime Feb 25 to March 5 2013","count":88,"stream_id":330135,"contributor":{"url":"http://geocommons.com/users/55712","name":"WaterlooStudents"},"data_attributes":null,"calculation_params":null,"icon_link":null,"link":"http://geocommons.com/overlays/330135.json","extent":[-118.245,29.652,-69.5048,44.2201],"geometry_types":["point"],"unique_name":null,"name":"Windsor Crime Feb 25 to March 5 2013","feature_count":88,"description":"","next_feature":null,"is_raster":false,"short_classification":"Y","stats":{},"features":[{"properties":{"city":"Windsor","country":"Canada","geo_score":0.541,"crime type":"Breaking &amp; Entering","id":"acpf1r0iicee","address":"700 Block FELIX AV","province":"Ontario","geo_precision":"street"},"type":"Feature","geometry":{"type":"Point","coordinates":[-118.229666,34.085778]}},{"properties":{"city":"Windsor","country":"Canada","geo_score":0.413,"crime type":"Theft","id":"acpf1qtt241o","address":"TECUMSEH RD E AT CENTRAL AV","province":"Ontario","geo_precision":"street"},"type":"Feature","geometry":{"type":"Point","coordinates":[-72.643523,41.852003]}},{"properties":{"city":"Windsor","country":"Canada","geo_score":0.402,"crime type":"Theft","id":"acpf1qzn8fwt","address":"4300 Block WALKER RD","province":"Ontario","geo_precision":"street"},"type":"Feature","geometry":{"type":"Point","coordinates":[-77.159018,38.768976]}},{"properties":{"city":"Windsor","country":"Canada","geo_score":0.766,"crime type":"Theft","id":"acpf1qyppq1f","address":"1400 Block OTTAWA ST","province":"Ontario","geo_precision":"range"},"type":"Feature","geometry":{"type":"Point","coordinates":[-105.101573,40.544247]}},{"properties":{"city":"Windsor","country":"Canada","geo_score":0.338,"crime type":"Breaking &amp; Entering","id":"acpf1r3dtctf","address":"2800 Block DOUGALL AV","province":"Ontario","geo_precision":"street"},"type":"Feature","geometry":{"type":"Point","coordinates":[-93.695999,41.599094]}},{"properties":{"city":"Windsor","country":"Canada","geo_score":0.434,"crime type":"Breaking &amp; Entering","id":"acpf1r8anz4w","address":"1900 Block ARTHUR RD","province":"Ontario","geo_precision":"street"},"type":"Feature","geometry":{"type":"Point","coordinates":[-82.522605,40.754148]}},{"properties":{"city":"Windsor","country":"Canada","geo_score":0.338,"crime type":"Theft","id":"acpf1r19njpy","address":"3100 Block DOUGALL AV","province":"Ontario","geo_precision":"street"},"type":"Feature","geometry":{"type":"Point","coordinates":[-93.695999,41.599094]}},{"properties":{"city":"Windsor","country":"Canada","geo_score":0.532,"crime type":"Theft","id":"acpf1qza6e98","address":"600 Block ARGYLE RD","province":"Ontario","geo_precision":"street"},"type":"Feature","geometry":{"type":"Point","coordinates":[-89.647771,42.611503]}},{"properties":{"city":"Windsor","country":"Canada","geo_score":0.74,"crime type":"Breaking &amp; Entering","id":"acpf1r0s56su","address":"400 Block GILES BLVD W","province":"Ontario","geo_precision":"range"},"type":"Feature","geometry":{"type":"Point","coordinates":[-79.856609,34.288791]}},{"properties":{"city":"Windsor","country":"Canada","geo_score":0.578,"crime type":"Theft","id":"acpf1r4jll0h","address":"300 Block OUELLETTE AV","province":"Ontario","geo_precision":"street"},"type":"Feature","geometry":{"type":"Point","coordinates":[-69.504843,44.220148]}},{"properties":{"city":"Windsor","country":"Canada","geo_score":0.578,"crime type":"Theft","id":"acpf1r0ram4n","address":"500 Block OUELLETTE AV","province":"Ontario","geo_precision":"street"},"type":"Feature","geometry":{"type":"Point","coordinates":[-69.504843,44.220148]}},{"properties":{"city":"Windsor","country":"Canada","geo_score":0.443,"crime type":"Theft from Vehicle","id":"acpf1r9hlq2p","address":"1400 Block OLIVE RD","province":"Ontario","geo_precision":"street"},"type":"Feature","geometry":{"type":"Point","coordinates":[-93.526793,38.520645]}},{"properties":{"city":"Windsor","country":"Canada","geo_score":0.402,"crime type":"Breaking &amp; Entering","id":"acpf1qvtjeyw","address":"4000 Block WALKER RD","province":"Ontario","geo_precision":"street"},"type":"Feature","geometry":{"type":"Point","coordinates":[-77.159018,38.768976]}},{"properties":{"city":"Windsor","country":"Canada","geo_score":0.396,"crime type":"Robbery","id":"acpf1qxg3obz","address":"600 Block GOYEAU ST","province":"Ontario","geo_precision":"street"},"type":"Feature","geometry":{"type":"Point","coordinates":[-90.437119,41.200112]}},{"properties":{"city":"Windsor","country":"Canada","geo_score":0.45,"crime type":"Theft of Vehicle","id":"acpf1r25wc4j","address":"600 Block DEVONSHIRE RD","province":"Ontario","geo_precision":"street"},"type":"Feature","geometry":{"type":"Point","coordinates":[-81.004211,34.018484]}},{"properties":{"city":"Windsor","country":"Canada","geo_score":0.692,"crime type":"Breaking &amp; Entering","id":"acpf1qy9ospt","address":"500 Block PINE ST","province":"Ontario","geo_precision":"range"},"type":"Feature","geometry":{"type":"Point","coordinates":[-88.596764,39.44322]}},{"properties":{"city":"Windsor","country":"Canada","geo_score":0.707,"crime type":"Theft","id":"acpf1qwewhmv","address":"100 Block UNIVERSITY AV W","province":"Ontario","geo_precision":"range"},"type":"Feature","geometry":{"type":"Point","coordinates":[-82.323112,29.651957]}},{"properties":{"city":"Windsor","country":"Canada","geo_score":0.494,"crime type":"Theft","id":"acpf1qutv0c7","address":"300 Block CHURCH ST","province":"Ontario","geo_precision":"street"},"type":"Feature","geometry":{"type":"Point","coordinates":[-76.580643,39.91399]}},{"properties":{"city":"Windsor","country":"Canada","geo_score":0.449,"crime type":"Theft from Vehicle","id":"acpf1r8wlgda","address":"HOWARD AV AT LOGAN AV","province":"Ontario","geo_precision":"street"},"type":"Feature","geometry":{"type":"Point","coordinates":[-82.532545,40.769847]}},{"properties":{"city":"Windsor","country":"Canada","geo_score":0.443,"crime type":"Robbery","id":"acpf1qx1svjl","address":"UNIVERSITY AV W AT PATRICIA RD","province":"Ontario","geo_precision":"street"},"type":"Feature","geometry":{"type":"Point","coordinates":[-82.325837,29.651971]}},{"properties":{"city":"Windsor","country":"Canada","geo_score":0.416,"crime type":"Theft from Vehicle","id":"acpf1qtm1h3p","address":"2300 Block HURON CHURCH RD","province":"Ontario","geo_precision":"street"},"type":"Feature","geometry":{"type":"Point","coordinates":[-77.029159,40.208769]}},{"properties":{"city":"Windsor","country":"Canada","geo_score":0.578,"crime type":"Theft","id":"acpf1r3r5dih","address":"600 Block OUELLETTE AV","province":"Ontario","geo_precision":"street"},"type":"Feature","geometry":{"type":"Point","coordinates":[-69.504843,44.220148]}},{"properties":{"city":"Windsor","country":"Canada","geo_score":0.402,"crime type":"Theft","id":"acpf1qvkcnb7","address":"1300 Block WALKER RD","province":"Ontario","geo_precision":"street"},"type":"Feature","geometry":{"type":"Point","coordinates":[-84.789785,33.367278]}},{"properties":{"city":"Windsor","country":"Canada","geo_score":0.473,"crime type":"Breaking &amp; Entering","id":"acpf1r410vyc","address":"2100 Block HOWARD AV","province":"Ontario","geo_precision":"street"},"type":"Feature","geometry":{"type":"Point","coordinates":[-85.209847,40.190483]}},{"properties":{"city":"Windsor","country":"Canada","geo_score":0.472,"crime type":"Theft","id":"acpf1r7ntcz6","address":"700 Block VICTORIA AV","province":"Ontario","geo_precision":"street"},"type":"Feature","geometry":{"type":"Point","coordinates":[-72.657714,41.873234]}},{"properties":{"city":"Windsor","country":"Canada","geo_score":0.454,"crime type":"Robbery","id":"acpf1r4plnrf","address":"400 Block PARK ST W","province":"Ontario","geo_precision":"street"},"type":"Feature","geometry":{"type":"Point","coordinates":[-75.649389,42.077608]}},{"properties":{"city":"Windsor","country":"Canada","geo_score":0.338,"crime type":"Theft","id":"acpf1r8obzgp","address":"3100 Block DOUGALL AV","province":"Ontario","geo_precision":"street"},"type":"Feature","geometry":{"type":"Point","coordinates":[-93.695999,41.599094]}},{"properties":{"city":"Windsor","country":"Canada","geo_score":0.338,"crime type":"Vehicle Recovery","id":"acpf1qy80lqp","address":"2400 Block DOUGALL AV","province":"Ontario","geo_precision":"street"},"type":"Feature","geometry":{"type":"Point","coordinates":[-93.695999,41.599094]}},{"properties":{"city":"Windsor","country":"Canada","geo_score":0.401,"crime type":"Breaking &amp; Entering","id":"acpf1r8lo5lz","address":"400 Block CARON AV","province":"Ontario","geo_precision":"street"},"type":"Feature","geometry":{"type":"Point","coordinates":[-72.721824,41.904343]}},{"properties":{"city":"Windsor","country":"Canada","geo_score":0.473,"crime type":"Theft","id":"acpf1qzo8hko","address":"3000 Block HOWARD AV","province":"Ontario","geo_precision":"street"},"type":"Feature","geometry":{"type":"Point","coordinates":[-85.209847,40.190483]}},{"properties":{"city":"Windsor","country":"Canada","geo_score":0.389,"crime type":"Theft of Vehicle","id":"acpf1r6gcwbp","address":"CATARAQUI ST AT ARGYLE RD","province":"Ontario","geo_precision":"street"},"type":"Feature","geometry":{"type":"Point","coordinates":[-72.389923,43.48076]}},{"properties":{"city":"Windsor","country":"Canada","geo_score":0.451,"crime type":"Theft of Vehicle","id":"acpf1r1zxt1q","address":"2200 Block GLADSTONE AV","province":"Ontario","geo_precision":"street"},"type":"Feature","geometry":{"type":"Point","coordinates":[-76.098332,36.822182]}},{"properties":{"city":"Windsor","country":"Canada","geo_score":0.569,"crime type":"Theft","id":"acpf1qyqw21f","address":"2700 Block TECUMSEH RD W","province":"Ontario","geo_precision":"street"},"type":"Feature","geometry":{"type":"Point","coordinates":[-90.488424,38.645233]}},{"properties":{"city":"Windsor","country":"Canada","geo_score":0.59,"crime type":"Theft from Vehicle","id":"acpf1qwfndag","address":"100 Block WYANDOTTE ST W","province":"Ontario","geo_precision":"street"},"type":"Feature","geometry":{"type":"Point","coordinates":[-75.677129,36.029329]}},{"properties":{"city":"Windsor","country":"Canada","geo_score":0.443,"crime type":"Theft","id":"acpf1r12w6lh","address":"300 Block CURRY AV","province":"Ontario","geo_precision":"street"},"type":"Feature","geometry":{"type":"Point","coordinates":[-89.33408,43.217776]}},{"properties":{"city":"Windsor","country":"Canada","geo_score":0.578,"crime type":"Theft","id":"acpf1qyt3o3f","address":"600 Block OUELLETTE AV","province":"Ontario","geo_precision":"street"},"type":"Feature","geometry":{"type":"Point","coordinates":[-69.504843,44.220148]}},{"properties":{"city":"Windsor","country":"Canada","geo_score":0.707,"crime type":"Theft","id":"acpf1r2o3j21","address":"1200 Block UNIVERSITY AV W","province":"Ontario","geo_precision":"range"},"type":"Feature","geometry":{"type":"Point","coordinates":[-82.33764,29.652058]}},{"properties":{"city":"Windsor","country":"Canada","geo_score":0.402,"crime type":"Theft","id":"acpf1quitoyv","address":"4300 Block WALKER RD","province":"Ontario","geo_precision":"street"},"type":"Feature","geometry":{"type":"Point","coordinates":[-77.159018,38.768976]}},{"properties":{"city":"Windsor","country":"Canada","geo_score":0.629,"crime type":"Theft","id":"acpf1r6abl3m","address":"400 Block INDIAN RD","province":"Ontario","geo_precision":"range"},"type":"Feature","geometry":{"type":"Point","coordinates":[-85.200844,40.186656]}},{"properties":{"city":"Windsor","country":"Canada","geo_score":0.62,"crime type":"Theft","id":"acpf1r5jx9dl","address":"7100 Block ENTERPRISE WAY","province":"Ontario","geo_precision":"street"},"type":"Feature","geometry":{"type":"Point","coordinates":[-84.28822,33.219631]}},{"properties":{"city":"Windsor","country":"Canada","geo_score":0.427,"crime type":"Theft from Vehicle","id":"acpf1qzw2xln","address":"2500 Block BERNARD RD","province":"Ontario","geo_precision":"street"},"type":"Feature","geometry":{"type":"Point","coordinates":[-82.540292,40.74988]}},{"properties":{"city":"Windsor","country":"Canada","geo_score":0.385,"crime type":"Theft","id":"acpf1r45t0ps","address":"1700 Block BYNG RD","province":"Ontario","geo_precision":"street"},"type":"Feature","geometry":{"type":"Point","coordinates":[-76.750841,36.808277]}},{"properties":{"city":"Windsor","country":"Canada","geo_score":0.713,"crime type":"Theft from Vehicle","id":"acpf1qtjo9mk","address":"3600 Block SANDWICH ST","province":"Ontario","geo_precision":"range"},"type":"Feature","geometry":{"type":"Point","coordinates":[-104.90504,40.344034]}},{"properties":{"city":"Windsor","country":"Canada","geo_score":0.512,"crime type":"Theft from Vehicle","id":"acpf1r27g9ml","address":"7300 Block TRANBY AV","province":"Ontario","geo_precision":"street"},"type":"Feature","geometry":{"type":"Point","coordinates":[-118.24492,34.104133]}},{"properties":{"city":"Windsor","country":"Canada","geo_score":0.338,"crime type":"Theft of Vehicle","id":"acpf1r655t5n","address":"2100 Block DOUGALL AV","province":"Ontario","geo_precision":"street"},"type":"Feature","geometry":{"type":"Point","coordinates":[-93.695999,41.599094]}},{"properties":{"city":"Windsor","country":"Canada","geo_score":0.591,"crime type":"Breaking &amp; Entering","id":"acpf1r2tjo34","address":"1300 Block WYANDOTTE ST E","province":"Ontario","geo_precision":"street"},"type":"Feature","geometry":{"type":"Point","coordinates":[-75.677129,36.029329]}},{"properties":{"city":"Windsor","country":"Canada","geo_score":0.43,"crime type":"Breaking &amp; Entering","id":"acpf1qvhlpvw","address":"1100 Block HALL AV","province":"Ontario","geo_precision":"street"},"type":"Feature","geometry":{"type":"Point","coordinates":[-82.531429,40.763833]}},{"properties":{"city":"Windsor","country":"Canada","geo_score":0.538,"crime type":"Vehicle Recovery","id":"acpf1r80ezm7","address":"1500 Block MARENTETTE AV","province":"Ontario","geo_precision":"street"},"type":"Feature","geometry":{"type":"Point","coordinates":[-90.279508,38.685106]}},{"properties":{"city":"Windsor","country":"Canada","geo_score":0.402,"crime type":"Theft","id":"acpf1r7gd4eb","address":"4100 Block WALKER RD","province":"Ontario","geo_precision":"street"},"type":"Feature","geometry":{"type":"Point","coordinates":[-77.159018,38.768976]}},{"properties":{"city":"Windsor","country":"Canada","geo_score":0.569,"crime type":"Theft","id":"acpf1r8zz049","address":"7700 Block TECUMSEH RD E","province":"Ontario","geo_precision":"street"},"type":"Feature","geometry":{"type":"Point","coordinates":[-90.488424,38.645233]}},{"properties":{"city":"Windsor","country":"Canada","geo_score":0.493,"crime type":"Vehicle Recovery","id":"acpf1r6rebsr","address":"400 Block CHURCH ST","province":"Ontario","geo_precision":"street"},"type":"Feature","geometry":{"type":"Point","coordinates":[-76.580643,39.91399]}},{"properties":{"city":"Windsor","country":"Canada","geo_score":0.434,"crime type":"Breaking &amp; Entering","id":"acpf1r7raybo","address":"2500 Block ARTHUR RD","province":"Ontario","geo_precision":"street"},"type":"Feature","geometry":{"type":"Point","coordinates":[-82.522605,40.754148]}},{"properties":{"city":"Windsor","country":"Canada","geo_score":0.418,"crime type":"Theft","id":"acpf1r6tik3m","address":"1500 Block HURON CHURCH RD","province":"Ontario","geo_precision":"street"},"type":"Feature","geometry":{"type":"Point","coordinates":[-77.029159,40.208769]}},{"properties":{"city":"Windsor","country":"Canada","geo_score":0.406,"crime type":"Theft","id":"acpf1r15ohfb","address":"ELLIS ST E AT LANGLOIS AV","province":"Ontario","geo_precision":"street"},"type":"Feature","geometry":{"type":"Point","coordinates":[-75.606526,41.999981]}},{"properties":{"city":"Windsor","country":"Canada","geo_score":0.578,"crime type":"Theft","id":"acpf1qzw61mr","address":"300 Block OUELLETTE AV","province":"Ontario","geo_precision":"street"},"type":"Feature","geometry":{"type":"Point","coordinates":[-69.504843,44.220148]}},{"properties":{"city":"Windsor","country":"Canada","geo_score":0.569,"crime type":"Theft","id":"acpf1qvu4f4u","address":"7100 Block TECUMSEH RD E","province":"Ontario","geo_precision":"street"},"type":"Feature","geometry":{"type":"Point","coordinates":[-90.488424,38.645233]}},{"properties":{"city":"Windsor","country":"Canada","geo_score":0.805,"crime type":"Theft of Vehicle","id":"acpf1qycyulu","address":"1 Block TUSCARORA ST","province":"Ontario","geo_precision":"range"},"type":"Feature","geometry":{"type":"Point","coordinates":[-77.382764,40.532236]}},{"properties":{"city":"Windsor","country":"Canada","geo_score":0.673,"crime type":"Theft","id":"acpf1r2v2mfq","address":"2100 Block WINDERMERE RD","province":"Ontario","geo_precision":"range"},"type":"Feature","geometry":{"type":"Point","coordinates":[-81.399475,41.693173]}},{"properties":{"city":"Windsor","country":"Canada","geo_score":0.396,"crime type":"Theft","id":"acpf1r71d14a","address":"700 Block GOYEAU ST","province":"Ontario","geo_precision":"street"},"type":"Feature","geometry":{"type":"Point","coordinates":[-90.437119,41.200112]}},{"properties":{"city":"Windsor","country":"Canada","geo_score":0.795,"crime type":"Theft from Vehicle","id":"acpf1qvw4mya","address":"1000 Block WINDERMERE RD","province":"Ontario","geo_precision":"range"},"type":"Feature","geometry":{"type":"Point","coordinates":[-81.401241,41.696899]}},{"properties":{"city":"Windsor","country":"Canada","geo_score":0.416,"crime type":"Theft from Vehicle","id":"acpf1qwmgy9j","address":"1800 Block HURON CHURCH RD","province":"Ontario","geo_precision":"street"},"type":"Feature","geometry":{"type":"Point","coordinates":[-77.029159,40.208769]}},{"properties":{"city":"Windsor","country":"Canada","geo_score":0.419,"crime type":"Theft from Vehicle","id":"acpf1qudsgpn","address":"1700 Block DAYTONA AV","province":"Ontario","geo_precision":"street"},"type":"Feature","geometry":{"type":"Point","coordinates":[-76.084741,36.837906]}},{"properties":{"city":"Windsor","country":"Canada","geo_score":0.317,"crime type":"Breaking &amp; Entering","id":"acpf1qtfo3uq","address":"2300 Block PILLETTE RD","province":"Ontario","geo_precision":"street"},"type":"Feature","geometry":{"type":"Point","coordinates":[-76.699806,39.332102]}},{"properties":{"city":"Windsor","country":"Canada","geo_score":0.416,"crime type":"Theft from Vehicle","id":"acpf1qzhdzft","address":"1800 Block HURON CHURCH RD","province":"Ontario","geo_precision":"street"},"type":"Feature","geometry":{"type":"Point","coordinates":[-77.029159,40.208769]}},{"properties":{"city":"Windsor","country":"Canada","geo_score":0.538,"crime type":"Theft of Vehicle","id":"acpf1qxaqa9v","address":"1500 Block MARENTETTE AV","province":"Ontario","geo_precision":"street"},"type":"Feature","geometry":{"type":"Point","coordinates":[-90.279508,38.685106]}},{"properties":{"city":"Windsor","country":"Canada","geo_score":0.416,"crime type":"Theft from Vehicle","id":"acpf1r1g9akx","address":"1800 Block HURON CHURCH RD","province":"Ontario","geo_precision":"street"},"type":"Feature","geometry":{"type":"Point","coordinates":[-77.029159,40.208769]}},{"properties":{"city":"Windsor","country":"Canada","geo_score":0.67,"crime type":"Theft from Vehicle","id":"acpf1qtgcjuh","address":"200 Block MILL ST","province":"Ontario","geo_precision":"range"},"type":"Feature","geometry":{"type":"Point","coordinates":[-93.524193,38.535802]}},{"properties":{"city":"Windsor","country":"Canada","geo_score":0.37,"crime type":"Theft","id":"acpf1r31cnn9","address":"600 Block BRANT ST","province":"Ontario","geo_precision":"street"},"type":"Feature","geometry":{"type":"Point","coordinates":[-90.387868,38.579509]}},{"properties":{"city":"Windsor","country":"Canada","geo_score":0.764,"crime type":"Theft","id":"acpf1r9ilk5z","address":"1 Block TECUMSEH RD W","province":"Ontario","geo_precision":"range"},"type":"Feature","geometry":{"type":"Point","coordinates":[-73.069397,42.29382]}},{"properties":{"city":"Windsor","country":"Canada","geo_score":0.338,"crime type":"Theft","id":"acpf1r8rgtck","address":"2400 Block DOUGALL AV","province":"Ontario","geo_precision":"street"},"type":"Feature","geometry":{"type":"Point","coordinates":[-93.695999,41.599094]}},{"properties":{"city":"Windsor","country":"Canada","geo_score":0.484,"crime type":"Theft","id":"acpf1r1vpcqn","address":"3600 Block WELLS ST","province":"Ontario","geo_precision":"street"},"type":"Feature","geometry":{"type":"Point","coordinates":[-72.387678,43.47709]}},{"properties":{"city":"Windsor","country":"Canada","geo_score":0.569,"crime type":"Theft","id":"acpf1r6lvpa5","address":"2600 Block TECUMSEH RD W","province":"Ontario","geo_precision":"street"},"type":"Feature","geometry":{"type":"Point","coordinates":[-90.488424,38.645233]}},{"properties":{"city":"Windsor","country":"Canada","geo_score":0.461,"crime type":"Theft from Vehicle","id":"acpf1r30rh1s","address":"HOWARD AV AT ERIE ST E","province":"Ontario","geo_precision":"street"},"type":"Feature","geometry":{"type":"Point","coordinates":[-82.532545,40.769847]}},{"properties":{"city":"Windsor","country":"Canada","geo_score":0.338,"crime type":"Theft","id":"acpf1r459ney","address":"3100 Block DOUGALL AV","province":"Ontario","geo_precision":"street"},"type":"Feature","geometry":{"type":"Point","coordinates":[-93.695999,41.599094]}},{"properties":{"city":"Windsor","country":"Canada","geo_score":0.42,"crime type":"Robbery","id":"acpf1qzzgtso","address":"2900 Block WILDWOOD DR","province":"Ontario","geo_precision":"street"},"type":"Feature","geometry":{"type":"Point","coordinates":[-90.44887,38.568403]}},{"properties":{"city":"Windsor","country":"Canada","geo_score":0.434,"crime type":"Breaking &amp; Entering","id":"acpf1qtub14u","address":"2300 Block ARTHUR RD","province":"Ontario","geo_precision":"street"},"type":"Feature","geometry":{"type":"Point","coordinates":[-82.522605,40.754148]}},{"properties":{"city":"Windsor","country":"Canada","geo_score":0.523,"crime type":"Breaking &amp; Entering","id":"acpf1qx5snag","address":"1700 Block TOURANGEAU RD","province":"Ontario","geo_precision":"street"},"type":"Feature","geometry":{"type":"Point","coordinates":[-105.035475,40.69763]}},{"properties":{"city":"Windsor","country":"Canada","geo_score":0.569,"crime type":"Theft","id":"acpf1r7vsbuf","address":"3600 Block TECUMSEH RD E","province":"Ontario","geo_precision":"street"},"type":"Feature","geometry":{"type":"Point","coordinates":[-90.488424,38.645233]}},{"properties":{"city":"Windsor","country":"Canada","geo_score":0.569,"crime type":"Theft","id":"acpf1r4kn8m6","address":"7200 Block TECUMSEH RD E","province":"Ontario","geo_precision":"street"},"type":"Feature","geometry":{"type":"Point","coordinates":[-90.488424,38.645233]}},{"properties":{"city":"Windsor","country":"Canada","geo_score":0.402,"crime type":"Theft from Vehicle","id":"acpf1qxlm6t3","address":"4100 Block WALKER RD","province":"Ontario","geo_precision":"street"},"type":"Feature","geometry":{"type":"Point","coordinates":[-77.159018,38.768976]}},{"properties":{"city":"Windsor","country":"Canada","geo_score":0.338,"crime type":"Theft","id":"acpf1qu7slck","address":"2400 Block DOUGALL AV","province":"Ontario","geo_precision":"street"},"type":"Feature","geometry":{"type":"Point","coordinates":[-93.695999,41.599094]}},{"properties":{"city":"Windsor","country":"Canada","geo_score":0.54,"crime type":"Theft from Vehicle","id":"acpf1qzdjm0l","address":"3200 Block ASKIN AV","province":"Ontario","geo_precision":"street"},"type":"Feature","geometry":{"type":"Point","coordinates":[-118.24492,34.104133]}},{"properties":{"city":"Windsor","country":"Canada","geo_score":0.474,"crime type":"Theft","id":"acpf1qv861ba","address":"400 Block SUNSET AV","province":"Ontario","geo_precision":"street"},"type":"Feature","geometry":{"type":"Point","coordinates":[-93.531859,38.541295]}},{"properties":{"city":"Windsor","country":"Canada","geo_score":0.493,"crime type":"Theft from Vehicle","id":"acpf1r0nnit4","address":"2600 Block MEADOWBROOK LN","province":"Ontario","geo_precision":"street"},"type":"Feature","geometry":{"type":"Point","coordinates":[-93.513106,38.536135]}},{"properties":{"city":"Windsor","country":"Canada","geo_score":0.617,"crime type":"Theft from Vehicle","id":"acpf1qytjmim","address":"500 Block NIAGARA ST","province":"Ontario","geo_precision":"street"},"type":"Feature","geometry":{"type":"Point","coordinates":[-79.745629,34.195188]}},{"properties":{"city":"Windsor","country":"Canada","geo_score":0.357,"crime type":"Breaking &amp; Entering","id":"acpf1r7rernt","address":"MOY AV AT WYANDOTTE ST E","province":"Ontario","geo_precision":"street"},"type":"Feature","geometry":{"type":"Point","coordinates":[-104.851343,40.487631]}},{"properties":{"city":"Windsor","country":"Canada","geo_score":0.59,"crime type":"Theft","id":"acpf1qtddsmr","address":"1 Block WYANDOTTE ST E","province":"Ontario","geo_precision":"street"},"type":"Feature","geometry":{"type":"Point","coordinates":[-75.677129,36.029329]}},{"properties":{"city":"Windsor","country":"Canada","geo_score":0.578,"crime type":"Theft","id":"acpf1qztuwua","address":"500 Block OUELLETTE AV","province":"Ontario","geo_precision":"street"},"type":"Feature","geometry":{"type":"Point","coordinates":[-69.504843,44.220148]}}],"is_temporal":false,"author":{"url":"http://www.police.windsor.on.ca/Public%20Safety/crime_maps/crime_maps.htm","metadata":"https://www.crimereports.com/services/crimedata/crime_list.html/2013-02-26/2013-03-05/100,98,103,99,101,170/42.34633428046731/42.196446351780025/-82.86484645935053/-83.13607143493647/1545/false?limit=false","contact_name":"","contact_address":"","source":"Windsor Police","contact_phone":""},"source":"http://www.police.windsor.on.ca/Public%20Safety/crime_maps/crime_maps.htm","pagination":{"sort":null,"start":0,"total":88,"limit":1000000},"state":"complete","tags":"2013,crime,derek,february,lewandowski,march,windsor","published":"2013-03-05T17:00:00Z","id":330135}