{"type":"FeatureCollection","data_type":"Dataset","url_type":null,"permissions":[{"permissions":{"download":true,"view":true},"group_id":"everyone"}],"classification":null,"title":"Community Access Services of WNY Outreach Locations","count":39,"stream_id":330215,"contributor":{"url":"http://geocommons.com/users/64992","name":"Citiesexplorer"},"data_attributes":null,"calculation_params":null,"icon_link":null,"link":"http://geocommons.com/overlays/330215.json","extent":[-78.9015,42.8226,-78.801,42.9478],"geometry_types":["point"],"unique_name":null,"name":"Community Access Services of WNY Outreach Locations","feature_count":39,"description":"","next_feature":null,"is_raster":false,"short_classification":"Y","stats":{},"features":[{"properties":{"name":"Sheppards Liquor","or/staff/ peer":"Wed/Christina","zip":"14215","type":"Liquor","geo_score":0.688,"phone":null,"id":"acpijneaxyy6","address":"3177 Bailey","geo_precision":"range"},"type":"Feature","geometry":{"type":"Point","coordinates":[-78.813582,42.941506]}},{"properties":{"name":"Crown of Glory","or/staff/ peer":"Wed/Christina","zip":"14215","type":"Salon","geo_score":0.688,"phone":"803-1009","id":"acpijnj4irae","address":"3211 Bailey","geo_precision":"range"},"type":"Feature","geometry":{"type":"Point","coordinates":[-78.813584,42.942136]}},{"properties":{"name":"Chopafellaz","or/staff/ peer":"Wed/Christina","zip":"14215","type":"Barbershop","geo_score":0.688,"phone":"832-8484","id":"acpijnn3gmnj","address":"3251 Bailey","geo_precision":"range"},"type":"Feature","geometry":{"type":"Point","coordinates":[-78.813583,42.942776]}},{"properties":{"name":"Legends","or/staff/ peer":"Wed/Christina","zip":"14215","type":"Barbershop","geo_score":0.401,"phone":"833-4633","id":"acpijng1x33z","address":"1088 Ken","geo_precision":"street"},"type":"Feature","geometry":{"type":"Point","coordinates":[-78.849317,42.822649]}},{"properties":{"name":"Sammy's Nails","or/staff/ peer":"Wed/Christina","zip":"14215","type":"Nail","geo_score":0.688,"phone":null,"id":"acpijn6z1kti","address":"2982 Bailey","geo_precision":"range"},"type":"Feature","geometry":{"type":"Point","coordinates":[-78.813717,42.93599]}},{"properties":{"name":"Profile","or/staff/ peer":"Wed/Christina","zip":"14215","type":"Barbershop","geo_score":0.688,"phone":"831-2279","id":"acpijnaun5aj","address":"2955 Bailey","geo_precision":"range"},"type":"Feature","geometry":{"type":"Point","coordinates":[-78.81357,42.935696]}},{"properties":{"name":null,"or/staff/ peer":"Wed/Christina","zip":"14215","type":"Barbershop","geo_score":0.543,"phone":null,"id":"acpijnis9se7","address":"Bailey","geo_precision":"street"},"type":"Feature","geometry":{"type":"Point","coordinates":[-78.813694,42.917842]}},{"properties":{"name":"Klassic Kutz","or/staff/ peer":"IOR/Andre","zip":"14215","type":"Barbershop","geo_score":0.721,"phone":"836-3260","id":"acpijnje3sbw","address":"1471 Kensington","geo_precision":"range"},"type":"Feature","geometry":{"type":"Point","coordinates":[-78.800959,42.942875]}},{"properties":{"name":"Iconz","or/staff/ peer":"IOR/Charell","zip":"14216","type":"Mens Spa","geo_score":0.688,"phone":"259-9225","id":"acpijnk7omrq","address":"1598 Hertel","geo_precision":"range"},"type":"Feature","geometry":{"type":"Point","coordinates":[-78.849024,42.947715]}},{"properties":{"name":"Amanda B's","or/staff/ peer":"IOR/Charell","zip":"14216","type":"Salon","geo_score":0.805,"phone":null,"id":"acpijn82129g","address":"1470 Hertel Ave","geo_precision":"range"},"type":"Feature","geometry":{"type":"Point","coordinates":[-78.853827,42.947756]}},{"properties":{"name":"Studio 277","or/staff/ peer":"IOR/Charell","zip":"14215","type":"Salon","geo_score":0.715,"phone":null,"id":"acpijn8e9e5k","address":"277 Parkridge","geo_precision":"range"},"type":"Feature","geometry":{"type":"Point","coordinates":[-78.821578,42.943052]}},{"properties":{"name":"One Mo Shot","or/staff/ peer":"Wed/Christina/Nicole","zip":"14215","type":"Liquor","geo_score":0.688,"phone":null,"id":"acpijnb443n8","address":"2608 Bailey","geo_precision":"range"},"type":"Feature","geometry":{"type":"Point","coordinates":[-78.813673,42.925922]}},{"properties":{"name":"Styles of Man","or/staff/ peer":"Wed/Christina","zip":"14215","type":"Barbershop","geo_score":0.319,"phone":"891-8538","id":"acpijna7ar1k","address":"1348 E. Delavan","geo_precision":"street"},"type":"Feature","geometry":{"type":"Point","coordinates":[-78.833623,42.921791]}},{"properties":{"name":"Ideal Liquor","or/staff/ peer":"Wed/Christina/Nicole","zip":"14215","type":"Liquor","geo_score":0.319,"phone":null,"id":"acpijn93fd6n","address":"E. Delavan","geo_precision":"street"},"type":"Feature","geometry":{"type":"Point","coordinates":[-78.833623,42.921791]}},{"properties":{"name":"House of Masters","or/staff/ peer":"IOR/Andre","zip":"14225","type":"Barbershop","geo_score":0.319,"phone":"883-3629","id":"acpijn9c0vq1","address":"295 E. Delavan","geo_precision":"street"},"type":"Feature","geometry":{"type":"Point","coordinates":[-78.857315,42.92218]}},{"properties":{"name":"Al's Unisex","or/staff/ peer":"IOR/Andre","zip":"14211","type":"Barbershop","geo_score":0.717,"phone":"894-3881","id":"acpijna7bx1l","address":"1849 Genesee","geo_precision":"range"},"type":"Feature","geometry":{"type":"Point","coordinates":[-78.812777,42.912894]}},{"properties":{"name":"The New Clip House/Salon","or/staff/ peer":"IOR/Nicole","zip":"14211","type":"Barbershop/Salon","geo_score":0.329,"phone":"725-6227","id":"acpijn8n8rom","address":"543 E. Ferry St","geo_precision":"street"},"type":"Feature","geometry":{"type":"Point","coordinates":[-78.839092,42.91462]}},{"properties":{"name":"Doris Records","or/staff/ peer":"IOR/Terry","zip":"14208","type":"Record store","geo_score":0.717,"phone":"883-2410","id":"acpijnmet4j8","address":"286 E Ferry","geo_precision":"range"},"type":"Feature","geometry":{"type":"Point","coordinates":[-78.853167,42.914821]}},{"properties":{"name":"Elite Hair Creations","or/staff/ peer":"IOR/Andre","zip":"14214","type":"Barbershop","geo_score":0.679,"phone":"833-8648","id":"acpijnmur8zu","address":"2612 Main","geo_precision":"range"},"type":"Feature","geometry":{"type":"Point","coordinates":[-78.83993,42.938332]}},{"properties":{"name":"Jim Bell Cleaners","or/staff/ peer":"IOR/Terry","zip":"14208","type":"Cleaners","geo_score":0.715,"phone":"886-1888","id":"acpijna6x8wk","address":"1379 Jefferson","geo_precision":"range"},"type":"Feature","geometry":{"type":"Point","coordinates":[-78.853913,42.913531]}},{"properties":{"name":"Mr. Love's","or/staff/ peer":"IOR/Terry","zip":"14208","type":"Barbershop","geo_score":0.715,"phone":"866-9017","id":"acpijnfdsymu","address":"1384 Jefferson","geo_precision":"range"},"type":"Feature","geometry":{"type":"Point","coordinates":[-78.854062,42.913381]}},{"properties":{"name":"Metropolitan Style Shop","or/staff/ peer":"IOR/Terry","zip":"14208","type":"Barbershop","geo_score":0.715,"phone":"886-9047","id":"acpijnapwyvy","address":"1395 Jefferson","geo_precision":"range"},"type":"Feature","geometry":{"type":"Point","coordinates":[-78.853911,42.913085]}},{"properties":{"name":"VIP Wireless-Cricket","or/staff/ peer":"IOR/Terry","zip":"14208","type":"Phone Service","geo_score":0.715,"phone":"844-8594","id":"acpijnh5k66e","address":"1390 Jefferson","geo_precision":"range"},"type":"Feature","geometry":{"type":"Point","coordinates":[-78.854062,42.91322]}},{"properties":{"name":"Wishful Inking","or/staff/ peer":"IOR/Barb?","zip":"14201","type":"Tattoo","geo_score":0.805,"phone":"884-9474","id":"acpijnfb4qcb","address":"581 Niagara St","geo_precision":"range"},"type":"Feature","geometry":{"type":"Point","coordinates":[-78.8895,42.898488]}},{"properties":{"name":"Impacto by Mery","or/staff/ peer":"IOR/?","zip":"14201","type":"Salon","geo_score":0.805,"phone":"715-8643","id":"acpijnjmftyn","address":"207 Niagara St","geo_precision":"range"},"type":"Feature","geometry":{"type":"Point","coordinates":[-78.881813,42.890277]}},{"properties":{"name":"A Stylish Creation","or/staff/ peer":"Wed/Alex","zip":"14201","type":"Salon","geo_score":0.805,"phone":"578-8299","id":"acpijnlsihg4","address":"241 Niagara St","geo_precision":"range"},"type":"Feature","geometry":{"type":"Point","coordinates":[-78.882697,42.891131]}},{"properties":{"name":"Buffalo's Hot Spot","or/staff/ peer":"Wed/Alex/Barb","zip":"14201","type":"Pizza","geo_score":0.805,"phone":"842-0330","id":"acpijnbvzfbw","address":"273 Niagara St","geo_precision":"range"},"type":"Feature","geometry":{"type":"Point","coordinates":[-78.881813,42.890277]}},{"properties":{"name":"The Belle Center","or/staff/ peer":"Wed/Alex/Barb","zip":"14201","type":"Community Center","geo_score":0.805,"phone":"845-0485","id":"acpijn8cs7q0","address":"104 Maryland St","geo_precision":"range"},"type":"Feature","geometry":{"type":"Point","coordinates":[-78.887355,42.894419]}},{"properties":{"name":"Between Yesterday&amp; Tom.","or/staff/ peer":"Mon/Lisa","zip":"14213","type":"Apparel","geo_score":0.805,"phone":null,"id":"acpijn8dmcc4","address":"88 Grant St","geo_precision":"range"},"type":"Feature","geometry":{"type":"Point","coordinates":[-78.890618,42.916461]}},{"properties":{"name":"San Bor Sports","or/staff/ peer":"Mon/Lisa","zip":"14213","type":"Apparel","geo_score":0.714,"phone":null,"id":"acpijnkksy04","address":"Grant St","geo_precision":"street"},"type":"Feature","geometry":{"type":"Point","coordinates":[-78.890253,42.914069]}},{"properties":{"name":"Cricket","or/staff/ peer":"Mon/Lisa","zip":"14213","type":"Phone Service","geo_score":0.714,"phone":null,"id":"acpijnc5io93","address":"Grant St","geo_precision":"street"},"type":"Feature","geometry":{"type":"Point","coordinates":[-78.890253,42.914069]}},{"properties":{"name":"Will's Nails &amp; Spa","or/staff/ peer":"Mon/Lisa","zip":"14213","type":"Nail","geo_score":0.805,"phone":null,"id":"acpijnl2qf8o","address":"125 Grant St","geo_precision":"range"},"type":"Feature","geometry":{"type":"Point","coordinates":[-78.890528,42.916947]}},{"properties":{"name":"Jenny's","or/staff/ peer":"Mon/Lisa","zip":"14213","type":"Nail","geo_score":0.586,"phone":"886-0695","id":"acpijncx9iwx","address":"W Ferry","geo_precision":"street"},"type":"Feature","geometry":{"type":"Point","coordinates":[-78.901533,42.915274]}},{"properties":{"name":"Rotundo's","or/staff/ peer":"Mon/Lisa/Terry","zip":"14213","type":"Cleaners","geo_score":0.717,"phone":"883-1478","id":"acpijnd1wcgh","address":"332 W Ferry","geo_precision":"range"},"type":"Feature","geometry":{"type":"Point","coordinates":[-78.888996,42.915393]}},{"properties":{"name":"Urban Footwear","or/staff/ peer":"Mon/Lisa","zip":"14213","type":"Apparel","geo_score":0.586,"phone":null,"id":"acpijnmasmmj","address":"W Ferry","geo_precision":"street"},"type":"Feature","geometry":{"type":"Point","coordinates":[-78.901533,42.915274]}},{"properties":{"name":"All Star Line Up","or/staff/ peer":"Mon/Lisa","zip":"14213","type":"Barbershop","geo_score":0.805,"phone":null,"id":"acpijnijv270","address":"407 Hampshire St","geo_precision":"range"},"type":"Feature","geometry":{"type":"Point","coordinates":[-78.887428,42.915245]}},{"properties":{"name":"Fresh 2 Def Kutz","or/staff/ peer":"Mon/Lisa","zip":"14213","type":"Barbershop","geo_score":0.488,"phone":null,"id":"acpijni9ly2a","address":"882 Massachutes","geo_precision":"zip"},"type":"Feature","geometry":{"type":"Point","coordinates":[-78.891108,42.918057]}},{"properties":{"name":"JJ Liquor","or/staff/ peer":null,"zip":"14211","type":"Liquor","geo_score":0.683,"phone":null,"id":"acpijnignfox","address":"910 Filmore","geo_precision":"range"},"type":"Feature","geometry":{"type":"Point","coordinates":[-78.839367,42.898651]}},{"properties":{"name":"Prestige Beaty","or/staff/ peer":null,"zip":"14212","type":"Salon","geo_score":0.805,"phone":null,"id":"acpijn8e5qrd","address":"1100 Broadway","geo_precision":"range"},"type":"Feature","geometry":{"type":"Point","coordinates":[-78.833934,42.894204]}}],"is_temporal":false,"author":{"url":"https://www.facebook.com/CASWNY","metadata":"","contact_name":"Alexis Soto-Colorado, AICP ","contact_address":"http://www.linkedin.com/in/alexissoto","source":"Community Access Services of WNY","contact_phone":"techplanner@yahoo.com"},"source":"https://www.facebook.com/CASWNY","pagination":{"sort":null,"start":0,"total":39,"limit":1000000},"state":"complete","tags":"community,condoms,health,hiv","published":"2014-08-16T13:21:27-04:00","id":330215}