{"type":"FeatureCollection","data_type":"Dataset","url_type":null,"permissions":[{"permissions":{"download":true,"view":true},"group_id":"everyone"}],"classification":null,"title":"HCA Hospitals","count":164,"stream_id":330893,"contributor":{"url":"http://geocommons.com/users/65314","name":"jtrimiew"},"data_attributes":null,"calculation_params":null,"icon_link":null,"link":"http://geocommons.com/overlays/330893.json","extent":[-149.823,25.7268,-70.6148,61.2051],"geometry_types":["point"],"unique_name":null,"name":"HCA Hospitals","feature_count":164,"description":"","next_feature":null,"is_raster":false,"short_classification":"Y","stats":{},"features":[{"properties":{"city":"Anchorage","zip":"99508","geo_score":0.857,"hospital name":"Alaska Regional Hospital","id":"acqcbe97xtn3","geo_precision":"zip","state":"AK"},"type":"Feature","geometry":{"type":"Point","coordinates":[-149.823203,61.205076]}},{"properties":{"city":"Iola","zip":"66749","geo_score":0.857,"hospital name":"Allen County Hospital","id":"acqcbdtt9brp","geo_precision":"zip","state":"KS"},"type":"Feature","geometry":{"type":"Point","coordinates":[-95.390815,37.993644]}},{"properties":{"city":"Aventura","zip":"33180","geo_score":0.857,"hospital name":"Aventura Hospital and Medical Center","id":"acqcbe5wbox5","geo_precision":"zip","state":"FL"},"type":"Feature","geometry":{"type":"Point","coordinates":[-80.150601,25.948426]}},{"properties":{"city":"Pasadena","zip":"77504","geo_score":0.857,"hospital name":"Bayshore Medical Center","id":"acqcbe8s5okx","geo_precision":"zip","state":"TX"},"type":"Feature","geometry":{"type":"Point","coordinates":[-95.176291,29.645312]}},{"properties":{"city":"Corpus Christi","zip":"78414","geo_score":0.857,"hospital name":"Bayview Behavioral Hospital","id":"acqcbe5t5xhy","geo_precision":"zip","state":"TX"},"type":"Feature","geometry":{"type":"Point","coordinates":[-97.373419,27.667387]}},{"properties":{"city":"Bradenton","zip":"34209","geo_score":0.857,"hospital name":"Blake Medical Center","id":"acqcbe7i4vhw","geo_precision":"zip","state":"FL"},"type":"Feature","geometry":{"type":"Point","coordinates":[-82.616719,27.475853]}},{"properties":{"city":"Brandon","zip":"33511","geo_score":0.857,"hospital name":"Brandon Regional Hospital","id":"acqcbdynbsyh","geo_precision":"zip","state":"FL"},"type":"Feature","geometry":{"type":"Point","coordinates":[-82.303981,27.945578]}},{"properties":{"city":"Brigham City","zip":"84302","geo_score":0.857,"hospital name":"Brigham City Community Hospital","id":"acqcbdzq0osp","geo_precision":"zip","state":"UT"},"type":"Feature","geometry":{"type":"Point","coordinates":[-112.061761,41.537922]}},{"properties":{"city":"Tallahassee","zip":"32308","geo_score":0.857,"hospital name":"Capital Regional Medical Center","id":"acqcbe8ehfse","geo_precision":"zip","state":"FL"},"type":"Feature","geometry":{"type":"Point","coordinates":[-84.176286,30.557144]}},{"properties":{"city":"Cartersville","zip":"30120","geo_score":0.857,"hospital name":"Cartersville Medical Center","id":"acqcbe9x6ce4","geo_precision":"zip","state":"GA"},"type":"Feature","geometry":{"type":"Point","coordinates":[-84.915776,34.10482]}},{"properties":{"city":"Independence","zip":"64057","geo_score":0.857,"hospital name":"Centerpoint Medical Center","id":"acqcbe7ycymn","geo_precision":"zip","state":"MO"},"type":"Feature","geometry":{"type":"Point","coordinates":[-94.31505,39.077509]}},{"properties":{"city":"Sanford","zip":"32771","geo_score":0.857,"hospital name":"Central Florida Regional Hospital","id":"acqcbdxo19r0","geo_precision":"zip","state":"FL"},"type":"Feature","geometry":{"type":"Point","coordinates":[-81.254509,28.794993]}},{"properties":{"city":"Richmond","zip":"23225","geo_score":0.857,"hospital name":"CJW Medical Center - Chippenham Campus","id":"acqcbe1z3rsr","geo_precision":"zip","state":"VA"},"type":"Feature","geometry":{"type":"Point","coordinates":[-77.500757,37.519396]}},{"properties":{"city":"Richmond","zip":"23235","geo_score":0.857,"hospital name":"CJW Medical Center - Johnston-Willis Campus","id":"acqcbdumf7rw","geo_precision":"zip","state":"VA"},"type":"Feature","geometry":{"type":"Point","coordinates":[-77.585544,37.535147]}},{"properties":{"city":"Webster","zip":"77598","geo_score":0.857,"hospital name":"Clear Lake Regional Medical Center","id":"acqcbe4q0mzw","geo_precision":"zip","state":"TX"},"type":"Feature","geometry":{"type":"Point","coordinates":[-95.128758,29.550411]}},{"properties":{"city":"Macon","zip":"31217","geo_score":0.857,"hospital name":"Coliseum Center for Behavioral Health","id":"acqcbdxa9rto","geo_precision":"zip","state":"GA"},"type":"Feature","geometry":{"type":"Point","coordinates":[-83.565009,32.811767]}},{"properties":{"city":"Macon","zip":"31217","geo_score":0.857,"hospital name":"Coliseum Medical Center","id":"acqcbdxsdikn","geo_precision":"zip","state":"GA"},"type":"Feature","geometry":{"type":"Point","coordinates":[-83.565009,32.811767]}},{"properties":{"city":"Macon","zip":"31210","geo_score":0.857,"hospital name":"Coliseum Northside Hospital","id":"acqcbe5k9nk0","geo_precision":"zip","state":"GA"},"type":"Feature","geometry":{"type":"Point","coordinates":[-83.680078,32.843368]}},{"properties":{"city":"Walterboro","zip":"29488","geo_score":0.857,"hospital name":"Colleton Medical Center","id":"acqcbe8b1fup","geo_precision":"zip","state":"SC"},"type":"Feature","geometry":{"type":"Point","coordinates":[-80.630382,32.78962]}},{"properties":{"city":"Conroe","zip":"77304","geo_score":0.857,"hospital name":"Conroe Regional Medical Center","id":"acqcbe3q8jox","geo_precision":"zip","state":"TX"},"type":"Feature","geometry":{"type":"Point","coordinates":[-95.493553,30.38104]}},{"properties":{"city":"Corpus Christi","zip":"78412","geo_score":0.857,"hospital name":"Corpus Christi Medical Center - Bay Area","id":"acqcbdyf3klk","geo_precision":"zip","state":"TX"},"type":"Feature","geometry":{"type":"Point","coordinates":[-97.351868,27.68456]}},{"properties":{"city":"Corpus Christi","zip":"78411","geo_score":0.857,"hospital name":"Corpus Christi Medical Center - Doctors Regional","id":"acqcbdx9algk","geo_precision":"zip","state":"TX"},"type":"Feature","geometry":{"type":"Point","coordinates":[-97.385169,27.732089]}},{"properties":{"city":"Corpus Christi","zip":"78410","geo_score":0.857,"hospital name":"Corpus Christi Medical Center - Northwest","id":"acqcbe5pt37k","geo_precision":"zip","state":"TX"},"type":"Feature","geometry":{"type":"Point","coordinates":[-97.584067,27.82437]}},{"properties":{"city":"Corpus Christi","zip":"78412","geo_score":0.857,"hospital name":"Corpus Christi Medical Center - The Heart Hospital","id":"acqcbe6iqb2u","geo_precision":"zip","state":"TX"},"type":"Feature","geometry":{"type":"Point","coordinates":[-97.351868,27.68456]}},{"properties":{"city":"New Iberia","zip":"70563","geo_score":0.857,"hospital name":"Dauterive Hospital","id":"acqcbdwu48bn","geo_precision":"zip","state":"LA"},"type":"Feature","geometry":{"type":"Point","coordinates":[-91.749604,30.024515]}},{"properties":{"city":"El Paso","zip":"79925","geo_score":0.857,"hospital name":"Del Sol Medical Center","id":"acqcbdv3g0aq","geo_precision":"zip","state":"TX"},"type":"Feature","geometry":{"type":"Point","coordinates":[-106.38054,31.787886]}},{"properties":{"city":"Denton","zip":"76210","geo_score":0.857,"hospital name":"Denton Regional Medical Center","id":"acqcbe0mnh7f","geo_precision":"zip","state":"TX"},"type":"Feature","geometry":{"type":"Point","coordinates":[-97.068141,33.143289]}},{"properties":{"city":"Augusta","zip":"30909","geo_score":0.857,"hospital name":"Doctors Hospital of Augusta","id":"acqcbe76gxuz","geo_precision":"zip","state":"GA"},"type":"Feature","geometry":{"type":"Point","coordinates":[-82.055973,33.416616]}},{"properties":{"city":"Sarasota","zip":"34233","geo_score":0.857,"hospital name":"Doctors Hospital of Sarasota","id":"acqcbe7i6vtw","geo_precision":"zip","state":"FL"},"type":"Feature","geometry":{"type":"Point","coordinates":[-82.423776,27.127372]}},{"properties":{"city":"Falls Church","zip":"22044","geo_score":0.857,"hospital name":"Dominion Hospital","id":"acqcbe39ty6f","geo_precision":"zip","state":"VA"},"type":"Feature","geometry":{"type":"Point","coordinates":[-77.16248,38.851501]}},{"properties":{"city":"Houston","zip":"77015","geo_score":0.857,"hospital name":"East Houston Regional Medical Center","id":"acqcbdw0eh05","geo_precision":"zip","state":"TX"},"type":"Feature","geometry":{"type":"Point","coordinates":[-95.171877,29.778282]}},{"properties":{"city":"Snellville","zip":"30078","geo_score":0.857,"hospital name":"Eastside Medical Center","id":"acqcbdx7i1z6","geo_precision":"zip","state":"GA"},"type":"Feature","geometry":{"type":"Point","coordinates":[-84.008066,33.863454]}},{"properties":{"city":"Saint Petersburg","zip":"33713","geo_score":0.857,"hospital name":"Edward White Hospital","id":"acqcbea3mlxx","geo_precision":"zip","state":"FL"},"type":"Feature","geometry":{"type":"Point","coordinates":[-82.677321,27.789403]}},{"properties":{"city":"Englewood","zip":"34223","geo_score":0.857,"hospital name":"Englewood Community Hospital","id":"acqcbe9or513","geo_precision":"zip","state":"FL"},"type":"Feature","geometry":{"type":"Point","coordinates":[-82.404959,27.143931]}},{"properties":{"city":"Dublin","zip":"31021","geo_score":0.857,"hospital name":"Fairview Park Hospital","id":"acqcbdw5i55k","geo_precision":"zip","state":"GA"},"type":"Feature","geometry":{"type":"Point","coordinates":[-82.938121,32.459291]}},{"properties":{"city":"Port Charlotte","zip":"33952","geo_score":0.857,"hospital name":"Fawcett Memorial Hospital","id":"acqcbe40pz7e","geo_precision":"zip","state":"FL"},"type":"Feature","geometry":{"type":"Point","coordinates":[-82.156128,26.994048]}},{"properties":{"city":"Fort Walton Beach","zip":"32547","geo_score":0.857,"hospital name":"Fort Walton Beach Medical Center","id":"acqcbe2fo1le","geo_precision":"zip","state":"FL"},"type":"Feature","geometry":{"type":"Point","coordinates":[-86.62545,30.448726]}},{"properties":{"city":"Frankfort","zip":"40601","geo_score":0.857,"hospital name":"Frankfort Regional Medical Center","id":"acqcbe06m6ag","geo_precision":"zip","state":"KY"},"type":"Feature","geometry":{"type":"Point","coordinates":[-84.814393,38.178684]}},{"properties":{"city":"Wichita","zip":"67220","geo_score":0.857,"hospital name":"Galichia Heart Hospital","id":"acqcbe05f3ig","geo_precision":"zip","state":"KS"},"type":"Feature","geometry":{"type":"Point","coordinates":[-97.265043,37.769735]}},{"properties":{"city":"Gulfport","zip":"39503","geo_score":0.857,"hospital name":"Garden Park Medical Center","id":"acqcbea2o75q","geo_precision":"zip","state":"MS"},"type":"Feature","geometry":{"type":"Point","coordinates":[-89.088372,30.454641]}},{"properties":{"city":"San Jose","zip":"95124","geo_score":0.857,"hospital name":"Good Samaritan Hospital","id":"acqcbe9ibhns","geo_precision":"zip","state":"CA"},"type":"Feature","geometry":{"type":"Point","coordinates":[-121.705327,37.189396]}},{"properties":{"city":"Myrtle Beach","zip":"29572","geo_score":0.857,"hospital name":"Grand Strand Regional Medical Center","id":"acqcbe7hzgvi","geo_precision":"zip","state":"SC"},"type":"Feature","geometry":{"type":"Point","coordinates":[-78.852005,33.711741]}},{"properties":{"city":"Bowling Green","zip":"42104","geo_score":0.857,"hospital name":"Greenview Regional Hospital","id":"acqcbe358tw8","geo_precision":"zip","state":"KY"},"type":"Feature","geometry":{"type":"Point","coordinates":[-86.509438,36.894208]}},{"properties":{"city":"Panama City","zip":"32405","geo_score":0.857,"hospital name":"Gulf Coast Medical Center","id":"acqcbe0x4oz7","geo_precision":"zip","state":"FL"},"type":"Feature","geometry":{"type":"Point","coordinates":[-85.626871,30.201034]}},{"properties":{"city":"Austin","zip":"78756","geo_score":0.857,"hospital name":"Heart Hospital of Austin","id":"acqcbe0ulwk6","geo_precision":"zip","state":"TX"},"type":"Feature","geometry":{"type":"Point","coordinates":[-97.737583,30.320606]}},{"properties":{"city":"Richmond","zip":"23229","geo_score":0.857,"hospital name":"Henrico Doctor's Hospital","id":"acqcbe491btr","geo_precision":"zip","state":"VA"},"type":"Feature","geometry":{"type":"Point","coordinates":[-77.567765,37.616813]}},{"properties":{"city":"Atlantis","zip":"33462","geo_score":0.857,"hospital name":"JFK Medical Center","id":"acqcbdtwv03k","geo_precision":"zip","state":"FL"},"type":"Feature","geometry":{"type":"Point","coordinates":[-80.053375,26.566459]}},{"properties":{"city":"Hopewell","zip":"23860","geo_score":0.857,"hospital name":"John Randolph Medical Center","id":"acqcbe1h646m","geo_precision":"zip","state":"VA"},"type":"Feature","geometry":{"type":"Point","coordinates":[-77.294978,37.283482]}},{"properties":{"city":"Miami","zip":"33175","geo_score":0.857,"hospital name":"Kendall Regional Medical Center","id":"acqcbe4re62w","geo_precision":"zip","state":"FL"},"type":"Feature","geometry":{"type":"Point","coordinates":[-80.355331,25.726768]}},{"properties":{"city":"Kingwood","zip":"77339","geo_score":0.857,"hospital name":"Kingwood Medical Center","id":"acqcbe7le0ww","geo_precision":"zip","state":"TX"},"type":"Feature","geometry":{"type":"Point","coordinates":[-95.434241,29.83399]}},{"properties":{"city":"Lexington","zip":"64067","geo_score":0.857,"hospital name":"Lafayette Regional Health Center","id":"acqcbdu2mev2","geo_precision":"zip","state":"MO"},"type":"Feature","geometry":{"type":"Point","coordinates":[-93.849284,39.14086]}},{"properties":{"city":"Lake City","zip":"32055","geo_score":0.857,"hospital name":"Lake City Medical Center","id":"acqcbe7ekc1r","geo_precision":"zip","state":"FL"},"type":"Feature","geometry":{"type":"Point","coordinates":[-82.614567,30.192454]}},{"properties":{"city":"Bountiful","zip":"84010","geo_score":0.857,"hospital name":"Lakeview Hospital","id":"acqcbe2hj14g","geo_precision":"zip","state":"UT"},"type":"Feature","geometry":{"type":"Point","coordinates":[-111.892993,40.855501]}},{"properties":{"city":"Covington","zip":"70433","geo_score":0.857,"hospital name":"Lakeview Regional Medical Center","id":"acqcbe3f7glx","geo_precision":"zip","state":"LA"},"type":"Feature","geometry":{"type":"Point","coordinates":[-90.01202,30.556302]}},{"properties":{"city":"Largo","zip":"33770","geo_score":0.857,"hospital name":"Largo Medical Center","id":"acqcbdw5m8yn","geo_precision":"zip","state":"FL"},"type":"Feature","geometry":{"type":"Point","coordinates":[-82.802668,27.916998]}},{"properties":{"city":"Irving","zip":"75039","geo_score":0.857,"hospital name":"Las Colinas Medical Center","id":"acqcbdzct1ob","geo_precision":"zip","state":"TX"},"type":"Feature","geometry":{"type":"Point","coordinates":[-96.82273,32.73178]}},{"properties":{"city":"El Paso","zip":"79902","geo_score":0.857,"hospital name":"Las Palmas Medical Center","id":"acqcbe7xiu60","geo_precision":"zip","state":"TX"},"type":"Feature","geometry":{"type":"Point","coordinates":[-106.544218,31.879779]}},{"properties":{"city":"Fort Pierce","zip":"34950","geo_score":0.857,"hospital name":"Lawnwood Regional Medical Center &amp; Heart Institute","id":"acqcbe8tvupt","geo_precision":"zip","state":"FL"},"type":"Feature","geometry":{"type":"Point","coordinates":[-80.333224,27.448066]}},{"properties":{"city":"Lee's Summit","zip":"64063","geo_score":0.857,"hospital name":"Lee's Summit Medical Center","id":"acqcbdu0vv98","geo_precision":"zip","state":"MO"},"type":"Feature","geometry":{"type":"Point","coordinates":[-94.348739,38.938517]}},{"properties":{"city":"Low Moor","zip":"24457","geo_score":0.857,"hospital name":"LewisGale Hospital at Alleghany","id":"acqcbe9jubko","geo_precision":"zip","state":"VA"},"type":"Feature","geometry":{"type":"Point","coordinates":[-79.88283,37.780396]}},{"properties":{"city":"Blacksburg","zip":"24060","geo_score":0.857,"hospital name":"LewisGale Hospital at Montgomery","id":"acqcbe5shr7o","geo_precision":"zip","state":"VA"},"type":"Feature","geometry":{"type":"Point","coordinates":[-80.564503,37.199848]}},{"properties":{"city":"Pulaski","zip":"24301","geo_score":0.857,"hospital name":"LewisGale Hospital at Pulaski","id":"acqcbe9plvcb","geo_precision":"zip","state":"VA"},"type":"Feature","geometry":{"type":"Point","coordinates":[-80.771241,37.064714]}},{"properties":{"city":"Salem","zip":"24153","geo_score":0.857,"hospital name":"LewisGale Medical Center","id":"acqcbe4ejf8m","geo_precision":"zip","state":"VA"},"type":"Feature","geometry":{"type":"Point","coordinates":[-80.067762,37.28814]}},{"properties":{"city":"Thousand Oaks","zip":"91360","geo_score":0.857,"hospital name":"Los Robles Hospital and Medical Center","id":"acqcbe62hfol","geo_precision":"zip","state":"CA"},"type":"Feature","geometry":{"type":"Point","coordinates":[-118.943432,34.183617]}},{"properties":{"city":"Texas City","zip":"77591","geo_score":0.857,"hospital name":"Mainland Medical Center","id":"acqcbe64t6aq","geo_precision":"zip","state":"TX"},"type":"Feature","geometry":{"type":"Point","coordinates":[-94.969173,29.427468]}},{"properties":{"city":"Arlington","zip":"76015","geo_score":0.857,"hospital name":"Medical Center of Arlington","id":"acqcbe0dzsjt","geo_precision":"zip","state":"TX"},"type":"Feature","geometry":{"type":"Point","coordinates":[-97.291484,32.771419]}},{"properties":{"city":"Lewisville","zip":"75057","geo_score":0.857,"hospital name":"Medical Center of Lewisville","id":"acqcbe7q5pvr","geo_precision":"zip","state":"TX"},"type":"Feature","geometry":{"type":"Point","coordinates":[-96.977396,33.088471]}},{"properties":{"city":"McKinney","zip":"75069","geo_score":0.857,"hospital name":"Medical Center of McKinney","id":"acqcbdzx28np","geo_precision":"zip","state":"TX"},"type":"Feature","geometry":{"type":"Point","coordinates":[-96.547211,33.18595]}},{"properties":{"city":"Plano","zip":"75075","geo_score":0.857,"hospital name":"Medical Center of Plano","id":"acqcbdwzlbm3","geo_precision":"zip","state":"TX"},"type":"Feature","geometry":{"type":"Point","coordinates":[-96.71546,33.162417]}},{"properties":{"city":"Dallas","zip":"75230","geo_score":0.857,"hospital name":"Medical City Hospital","id":"acqcbdxav9d8","geo_precision":"zip","state":"TX"},"type":"Feature","geometry":{"type":"Point","coordinates":[-96.769578,32.886576]}},{"properties":{"city":"Jacksonville","zip":"32216","geo_score":0.857,"hospital name":"Memorial Hospital","id":"acqcbe50m6j9","geo_precision":"zip","state":"FL"},"type":"Feature","geometry":{"type":"Point","coordinates":[-81.429252,30.28413]}},{"properties":{"city":"Overland Park","zip":"66209","geo_score":0.857,"hospital name":"Menorah Medical Center","id":"acqcbdyhdaep","geo_precision":"zip","state":"KS"},"type":"Feature","geometry":{"type":"Point","coordinates":[-94.616901,38.966673]}},{"properties":{"city":"San Antonio","zip":"78240","geo_score":0.857,"hospital name":"Methodist Ambulatory Surgery Hospital","id":"acqcbdytnj1z","geo_precision":"zip","state":"TX"},"type":"Feature","geometry":{"type":"Point","coordinates":[-98.461582,29.437532]}},{"properties":{"city":"San Antonio","zip":"78229","geo_score":0.857,"hospital name":"Methodist Childrens Hospital of South Texas","id":"acqcbe5ed180","geo_precision":"zip","state":"TX"},"type":"Feature","geometry":{"type":"Point","coordinates":[-98.33469,29.269288]}},{"properties":{"city":"San Antonio","zip":"78229","geo_score":0.857,"hospital name":"Methodist Hospital","id":"acqcbe0r3mwf","geo_precision":"zip","state":"TX"},"type":"Feature","geometry":{"type":"Point","coordinates":[-98.33469,29.269288]}},{"properties":{"city":"San Antonio","zip":"78229","geo_score":0.857,"hospital name":"Methodist Specialty and Transplant Hospital","id":"acqcbe96ers3","geo_precision":"zip","state":"TX"},"type":"Feature","geometry":{"type":"Point","coordinates":[-98.33469,29.269288]}},{"properties":{"city":"San Antonio","zip":"78258","geo_score":0.857,"hospital name":"Methodist Stone Oak Hospital","id":"acqcbdvjt1d4","geo_precision":"zip","state":"TX"},"type":"Feature","geometry":{"type":"Point","coordinates":[-98.461582,29.437532]}},{"properties":{"city":"San Antonio","zip":"78201","geo_score":0.857,"hospital name":"Methodist Texsan Hospital","id":"acqcbe470mmv","geo_precision":"zip","state":"TX"},"type":"Feature","geometry":{"type":"Point","coordinates":[-98.537495,29.399933]}},{"properties":{"city":"San Antonio","zip":"78212","geo_score":0.857,"hospital name":"Metropolitan Methodist Hospital","id":"acqcbe1hgh5c","geo_precision":"zip","state":"TX"},"type":"Feature","geometry":{"type":"Point","coordinates":[-98.493494,29.438782]}},{"properties":{"city":"Payson","zip":"84651","geo_score":0.857,"hospital name":"Mountain View Hospital","id":"acqcbe78mlk4","geo_precision":"zip","state":"UT"},"type":"Feature","geometry":{"type":"Point","coordinates":[-111.67687,40.011344]}},{"properties":{"city":"Las Vegas","zip":"89128","geo_score":0.857,"hospital name":"MountainView Hospital","id":"acqcbe70f7mr","geo_precision":"zip","state":"NV"},"type":"Feature","geometry":{"type":"Point","coordinates":[-115.24018,36.119038]}},{"properties":{"city":"Gainesville","zip":"32605","geo_score":0.857,"hospital name":"North Florida Regional Medical Center","id":"acqcbdz4piw5","geo_precision":"zip","state":"FL"},"type":"Feature","geometry":{"type":"Point","coordinates":[-82.369273,29.702467]}},{"properties":{"city":"North Richland Hills","zip":"76180","geo_score":0.857,"hospital name":"North Hills Hospital","id":"acqcbdyrh8pr","geo_precision":"zip","state":"TX"},"type":"Feature","geometry":{"type":"Point","coordinates":[-97.217416,32.868023]}},{"properties":{"city":"Thornton","zip":"80229","geo_score":0.857,"hospital name":"North Suburban Medical Center","id":"acqcbdys1fps","geo_precision":"zip","state":"CO"},"type":"Feature","geometry":{"type":"Point","coordinates":[-104.943868,39.873319]}},{"properties":{"city":"Live Oak","zip":"78233","geo_score":0.857,"hospital name":"Northeast Methodist Hospital","id":"acqcbdwei6hq","geo_precision":"zip","state":"TX"},"type":"Feature","geometry":{"type":"Point","coordinates":[-98.408567,29.292564]}},{"properties":{"city":"Saint Petersburg","zip":"33709","geo_score":0.857,"hospital name":"Northside Hospital &amp; Tampa Bay Heart Institute","id":"acqcbdwevzwn","geo_precision":"zip","state":"FL"},"type":"Feature","geometry":{"type":"Point","coordinates":[-82.7201,27.815581]}},{"properties":{"city":"Margate","zip":"33063","geo_score":0.857,"hospital name":"Northwest Medical Center","id":"acqcbe10b9l0","geo_precision":"zip","state":"FL"},"type":"Feature","geometry":{"type":"Point","coordinates":[-80.178935,26.251748]}},{"properties":{"city":"Brooksville","zip":"34613","geo_score":0.857,"hospital name":"Oak Hill Hospital","id":"acqcbe9x0wb4","geo_precision":"zip","state":"FL"},"type":"Feature","geometry":{"type":"Point","coordinates":[-82.572877,28.515551]}},{"properties":{"city":"Ocala","zip":"34478","geo_score":0.857,"hospital name":"Ocala Regional Medical Center","id":"acqcbdx8urxg","geo_precision":"zip","state":"FL"},"type":"Feature","geometry":{"type":"Point","coordinates":[-82.112278,29.187178]}},{"properties":{"city":"Ogden","zip":"84405","geo_score":0.857,"hospital name":"Ogden Regional Medical Center","id":"acqcbe4sg41w","geo_precision":"zip","state":"UT"},"type":"Feature","geometry":{"type":"Point","coordinates":[-111.976608,41.172722]}},{"properties":{"city":"Oklahoma City","zip":"73104","geo_score":0.857,"hospital name":"Oklahoma University Medical Center","id":"acqcbe0wgqxa","geo_precision":"zip","state":"OK"},"type":"Feature","geometry":{"type":"Point","coordinates":[-97.506415,35.44541]}},{"properties":{"city":"Edmond","zip":"73034","geo_score":0.857,"hospital name":"Oklahoma University Medical Center Edmond","id":"acqcbe39yl9x","geo_precision":"zip","state":"OK"},"type":"Feature","geometry":{"type":"Point","coordinates":[-97.463291,35.631005]}},{"properties":{"city":"Orange Park","zip":"32073","geo_score":0.857,"hospital name":"Orange Park Medical Center","id":"acqcbe7aty7p","geo_precision":"zip","state":"FL"},"type":"Feature","geometry":{"type":"Point","coordinates":[-81.734541,30.177462]}},{"properties":{"city":"Kissimmee","zip":"34741","geo_score":0.857,"hospital name":"Osceola Regional Medical Center","id":"acqcbdx867qj","geo_precision":"zip","state":"FL"},"type":"Feature","geometry":{"type":"Point","coordinates":[-81.461385,28.307138]}},{"properties":{"city":"Overland Park","zip":"66215","geo_score":0.857,"hospital name":"Overland Park Regional Medical Center","id":"acqcbdy6vjee","geo_precision":"zip","state":"KS"},"type":"Feature","geometry":{"type":"Point","coordinates":[-94.740503,38.949007]}},{"properties":{"city":"Loxahatchee","zip":"33470","geo_score":0.857,"hospital name":"Palms West Hospital","id":"acqcbe2fgpz2","geo_precision":"zip","state":"FL"},"type":"Feature","geometry":{"type":"Point","coordinates":[-80.294771,26.649816]}},{"properties":{"city":"Richmond","zip":"23294","geo_score":0.857,"hospital name":"Parham Doctor's Hospital","id":"acqcbdzpjwnu","geo_precision":"zip","state":"VA"},"type":"Feature","geometry":{"type":"Point","coordinates":[-77.542483,37.630525]}},{"properties":{"city":"Derry","zip":"3038","geo_score":0.857,"hospital name":"Parkland Medical Center","id":"acqcbe42lkpy","geo_precision":"zip","state":"NH"},"type":"Feature","geometry":{"type":"Point","coordinates":[-71.312008,42.891753]}},{"properties":{"city":"Chattanooga","zip":"37412","geo_score":0.857,"hospital name":"Parkridge East Hospital","id":"acqcbe98aj0p","geo_precision":"zip","state":"TN"},"type":"Feature","geometry":{"type":"Point","coordinates":[-85.258289,35.004242]}},{"properties":{"city":"Chattanooga","zip":"37404","geo_score":0.857,"hospital name":"Parkridge Medical Center","id":"acqcbe8l2oox","geo_precision":"zip","state":"TN"},"type":"Feature","geometry":{"type":"Point","coordinates":[-85.272179,35.028685]}},{"properties":{"city":"Chattanooga","zip":"37421","geo_score":0.857,"hospital name":"Parkridge Valley","id":"acqcbe4jjmdq","geo_precision":"zip","state":"TN"},"type":"Feature","geometry":{"type":"Point","coordinates":[-85.149953,35.057574]}},{"properties":{"city":"Plantation","zip":"33317","geo_score":0.857,"hospital name":"Plantation General Hospital","id":"acqcbdxjum1p","geo_precision":"zip","state":"FL"},"type":"Feature","geometry":{"type":"Point","coordinates":[-80.233104,26.127586]}},{"properties":{"city":"Fort Worth","zip":"76104","geo_score":0.857,"hospital name":"Plaza Medical Center of Fort Worth","id":"acqcbdv27t29","geo_precision":"zip","state":"TX"},"type":"Feature","geometry":{"type":"Point","coordinates":[-97.291484,32.771419]}},{"properties":{"city":"Portsmouth","zip":"3801","geo_score":0.857,"hospital name":"Portsmouth Regional Hospital","id":"acqcbe112uvb","geo_precision":"zip","state":"NH"},"type":"Feature","geometry":{"type":"Point","coordinates":[-70.614771,42.977592]}},{"properties":{"city":"Denver","zip":"80218","geo_score":0.857,"hospital name":"Presbyterian/Saint Luke's Medical Center","id":"acqcbe1zdfc0","geo_precision":"zip","state":"CO"},"type":"Feature","geometry":{"type":"Point","coordinates":[-104.968759,39.720236]}},{"properties":{"city":"Okeechobee","zip":"34972","geo_score":0.857,"hospital name":"Raulerson Hospital","id":"acqcbe1ypt6g","geo_precision":"zip","state":"FL"},"type":"Feature","geometry":{"type":"Point","coordinates":[-80.945361,27.420316]}},{"properties":{"city":"Rome","zip":"30165","geo_score":0.857,"hospital name":"Redmond Regional Medical Center","id":"acqcbe3eb6wp","geo_precision":"zip","state":"GA"},"type":"Feature","geometry":{"type":"Point","coordinates":[-85.272949,34.315817]}},{"properties":{"city":"Hudson","zip":"34667","geo_score":0.857,"hospital name":"Regional Medical Center Bayonet Point","id":"acqcbe6u665r","geo_precision":"zip","state":"FL"},"type":"Feature","geometry":{"type":"Point","coordinates":[-82.64803,28.382489]}},{"properties":{"city":"San Jose","zip":"95116","geo_score":0.857,"hospital name":"Regional Medical Center of San Jose","id":"acqcbdx4iutj","geo_precision":"zip","state":"CA"},"type":"Feature","geometry":{"type":"Point","coordinates":[-121.835344,37.35504]}},{"properties":{"city":"Belton","zip":"64012","geo_score":0.857,"hospital name":"Research Belton Hospital","id":"acqcbe0lo9b2","geo_precision":"zip","state":"MO"},"type":"Feature","geometry":{"type":"Point","coordinates":[-94.589399,38.759453]}},{"properties":{"city":"Kansas City","zip":"64132","geo_score":0.857,"hospital name":"Research Medical Center","id":"acqcbe7uyi2c","geo_precision":"zip","state":"MO"},"type":"Feature","geometry":{"type":"Point","coordinates":[-94.546556,38.984205]}},{"properties":{"city":"Kansas City","zip":"64130","geo_score":0.857,"hospital name":"Research Psychiatric Center","id":"acqcbdxasre6","geo_precision":"zip","state":"MO"},"type":"Feature","geometry":{"type":"Point","coordinates":[-94.541868,39.033712]}},{"properties":{"city":"Reston","zip":"20190","geo_score":0.857,"hospital name":"Reston Hospital Center","id":"acqcbdv9404c","geo_precision":"zip","state":"VA"},"type":"Feature","geometry":{"type":"Point","coordinates":[-77.3418,38.96146]}},{"properties":{"city":"Richmond","zip":"23220","geo_score":0.857,"hospital name":"Retreat Doctor's Hospital","id":"acqcbdwm64pt","geo_precision":"zip","state":"VA"},"type":"Feature","geometry":{"type":"Point","coordinates":[-77.456602,37.552746]}},{"properties":{"city":"McAllen","zip":"78503","geo_score":0.857,"hospital name":"Rio Grande Regional Hospital","id":"acqcbe9pxbbt","geo_precision":"zip","state":"TX"},"type":"Feature","geometry":{"type":"Point","coordinates":[-98.33773,26.182171]}},{"properties":{"city":"Riverside","zip":"92501","geo_score":0.857,"hospital name":"Riverside Community Hospital","id":"acqcbdztg6gt","geo_precision":"zip","state":"CA"},"type":"Feature","geometry":{"type":"Point","coordinates":[-116.055617,33.752886]}},{"properties":{"city":"Denver","zip":"80220","geo_score":0.857,"hospital name":"Rose Medical Center","id":"acqcbe4be7fw","geo_precision":"zip","state":"CO"},"type":"Feature","geometry":{"type":"Point","coordinates":[-104.910843,39.732436]}},{"properties":{"city":"Georgetown","zip":"78626","geo_score":0.857,"hospital name":"Saint David's Georgetown Hospital","id":"acqcbdv49c37","geo_precision":"zip","state":"TX"},"type":"Feature","geometry":{"type":"Point","coordinates":[-97.574706,30.668034]}},{"properties":{"city":"Austin","zip":"78705","geo_score":0.857,"hospital name":"Saint David's Medical Center","id":"acqcbe5a3751","geo_precision":"zip","state":"TX"},"type":"Feature","geometry":{"type":"Point","coordinates":[-97.736932,30.293057]}},{"properties":{"city":"Austin","zip":"78758","geo_score":0.857,"hospital name":"Saint David's North Austin Medical Center","id":"acqcbe5dkrh0","geo_precision":"zip","state":"TX"},"type":"Feature","geometry":{"type":"Point","coordinates":[-97.708233,30.383637]}},{"properties":{"city":"Austin","zip":"78705","geo_score":0.857,"hospital name":"Saint David's Rehabilitation Hospital","id":"acqcbe1yer84","geo_precision":"zip","state":"TX"},"type":"Feature","geometry":{"type":"Point","coordinates":[-97.736932,30.293057]}},{"properties":{"city":"Austin","zip":"78704","geo_score":0.857,"hospital name":"Saint David's South Austin Medical Center","id":"acqcbdtyb0uf","geo_precision":"zip","state":"TX"},"type":"Feature","geometry":{"type":"Point","coordinates":[-97.768832,30.240685]}},{"properties":{"city":"Port Saint Lucie","zip":"34952","geo_score":0.857,"hospital name":"Saint Lucie Medical Center","id":"acqcbdy0xdq9","geo_precision":"zip","state":"FL"},"type":"Feature","geometry":{"type":"Point","coordinates":[-80.313322,27.312492]}},{"properties":{"city":"Salt Lake City","zip":"84124","geo_score":0.857,"hospital name":"Saint Mark's Hospital","id":"acqcbe53klzt","geo_precision":"zip","state":"UT"},"type":"Feature","geometry":{"type":"Point","coordinates":[-111.820566,40.653246]}},{"properties":{"city":"Saint Petersburg","zip":"33710","geo_score":0.857,"hospital name":"Saint Petersburg General Hospital","id":"acqcbdz6wjt7","geo_precision":"zip","state":"FL"},"type":"Feature","geometry":{"type":"Point","coordinates":[-82.699621,27.788853]}},{"properties":{"city":"Mamou","zip":"70554","geo_score":0.857,"hospital name":"Savoy Medical Center","id":"acqcbdyto4ux","geo_precision":"zip","state":"LA"},"type":"Feature","geometry":{"type":"Point","coordinates":[-92.425103,30.714716]}},{"properties":{"city":"Lone Tree","zip":"80124","geo_score":0.857,"hospital name":"Sky Ridge Medical Center","id":"acqcbdubwy0b","geo_precision":"zip","state":"CO"},"type":"Feature","geometry":{"type":"Point","coordinates":[-104.861962,39.531381]}},{"properties":{"city":"Sun City Center","zip":"33573","geo_score":0.857,"hospital name":"South Bay Hospital","id":"acqcbe7b2l68","geo_precision":"zip","state":"FL"},"type":"Feature","geometry":{"type":"Point","coordinates":[-82.35742,27.704046]}},{"properties":{"city":"Las Vegas","zip":"89148","geo_score":0.857,"hospital name":"Southern Hills Hospital &amp; Medical Center","id":"acqcbe27p3hf","geo_precision":"zip","state":"NV"},"type":"Feature","geometry":{"type":"Point","coordinates":[-115.272463,36.062903]}},{"properties":{"city":"Aurora","zip":"80011","geo_score":0.857,"hospital name":"Spalding Rehabilitation Hospital","id":"acqcbea0kaoa","geo_precision":"zip","state":"CO"},"type":"Feature","geometry":{"type":"Point","coordinates":[-104.822765,39.788286]}},{"properties":{"city":"Jacksonville","zip":"32207","geo_score":0.857,"hospital name":"Specialty Hospital","id":"acqcbdv3znkq","geo_precision":"zip","state":"FL"},"type":"Feature","geometry":{"type":"Point","coordinates":[-81.609537,30.296351]}},{"properties":{"city":"Fredericksburg","zip":"22408","geo_score":0.857,"hospital name":"Spotsylvania Regional Medical Center","id":"acqcbdub9gj3","geo_precision":"zip","state":"VA"},"type":"Feature","geometry":{"type":"Point","coordinates":[-77.562773,38.233933]}},{"properties":{"city":"Summerville","zip":"29485","geo_score":0.857,"hospital name":"Summerville Medical Center","id":"acqcbe70t1x8","geo_precision":"zip","state":"SC"},"type":"Feature","geometry":{"type":"Point","coordinates":[-80.329328,32.999726]}},{"properties":{"city":"Las Vegas","zip":"89109","geo_score":0.857,"hospital name":"Sunrise Hospital &amp; Medical Center","id":"acqcbe74x6v4","geo_precision":"zip","state":"NV"},"type":"Feature","geometry":{"type":"Point","coordinates":[-115.146665,36.097195]}},{"properties":{"city":"Englewood","zip":"80113","geo_score":0.857,"hospital name":"Swedish Medical Center","id":"acqcbdu728x9","geo_precision":"zip","state":"CO"},"type":"Feature","geometry":{"type":"Point","coordinates":[-104.98776,39.647765]}},{"properties":{"city":"Terre Haute","zip":"47802","geo_score":0.857,"hospital name":"Terre Haute Regional Hospital","id":"acqcbe6fs54b","geo_precision":"zip","state":"IN"},"type":"Feature","geometry":{"type":"Point","coordinates":[-87.42014,39.357875]}},{"properties":{"city":"Aurora","zip":"80012","geo_score":0.857,"hospital name":"The Medical Center of Aurora","id":"acqcbe04d6sl","geo_precision":"zip","state":"CO"},"type":"Feature","geometry":{"type":"Point","coordinates":[-104.80973,39.681201]}},{"properties":{"city":"Lafayette","zip":"70506","geo_score":0.857,"hospital name":"The Regional Medical Center of Acadiana","id":"acqcbdwa1b6g","geo_precision":"zip","state":"LA"},"type":"Feature","geometry":{"type":"Point","coordinates":[-92.066315,30.176093]}},{"properties":{"city":"Houston","zip":"77054","geo_score":0.857,"hospital name":"The Woman's Hospital of Texas","id":"acqcbdwq8m4y","geo_precision":"zip","state":"TX"},"type":"Feature","geometry":{"type":"Point","coordinates":[-95.391466,29.67543]}},{"properties":{"city":"Nashville","zip":"37203","geo_score":0.857,"hospital name":"The Women's Hospital at Centennial","id":"acqcbdyyjnxr","geo_precision":"zip","state":"TN"},"type":"Feature","geometry":{"type":"Point","coordinates":[-86.791598,36.150406]}},{"properties":{"city":"Orem","zip":"84057","geo_score":0.857,"hospital name":"Timpanogos Regional Hospital","id":"acqcbdyhwwcm","geo_precision":"zip","state":"UT"},"type":"Feature","geometry":{"type":"Point","coordinates":[-111.746702,40.297037]}},{"properties":{"city":"Charleston","zip":"29406","geo_score":0.857,"hospital name":"Trident Medical Center","id":"acqcbea4cme3","geo_precision":"zip","state":"SC"},"type":"Feature","geometry":{"type":"Point","coordinates":[-79.97481,32.85462]}},{"properties":{"city":"Ashland City","zip":"37015","geo_score":0.857,"hospital name":"TriStar Ashland City","id":"acqcbe32fiie","geo_precision":"zip","state":"TN"},"type":"Feature","geometry":{"type":"Point","coordinates":[-87.120837,36.345885]}},{"properties":{"city":"Nashville","zip":"37203","geo_score":0.857,"hospital name":"TriStar Centennial","id":"acqcbe65oshm","geo_precision":"zip","state":"TN"},"type":"Feature","geometry":{"type":"Point","coordinates":[-86.791598,36.150406]}},{"properties":{"city":"Hendersonville","zip":"37075","geo_score":0.857,"hospital name":"TriStar Hendersonville Medical Center","id":"acqcbe8p5f4i","geo_precision":"zip","state":"TN"},"type":"Feature","geometry":{"type":"Point","coordinates":[-86.101377,36.36894]}},{"properties":{"city":"Dickson","zip":"37055","geo_score":0.857,"hospital name":"TriStar Horizon Medical Center","id":"acqcbe7q4cxg","geo_precision":"zip","state":"TN"},"type":"Feature","geometry":{"type":"Point","coordinates":[-87.335012,36.012007]}},{"properties":{"city":"Nashville","zip":"37203","geo_score":0.857,"hospital name":"TriStar Parthenon Pavilion","id":"acqcbe1p3ef4","geo_precision":"zip","state":"TN"},"type":"Feature","geometry":{"type":"Point","coordinates":[-86.791598,36.150406]}},{"properties":{"city":"Madison","zip":"37115","geo_score":0.857,"hospital name":"TriStar Skyline Madison Campus","id":"acqcbe59su6g","geo_precision":"zip","state":"TN"},"type":"Feature","geometry":{"type":"Point","coordinates":[-86.706296,36.259503]}},{"properties":{"city":"Nashville","zip":"37207","geo_score":0.857,"hospital name":"TriStar Skyline Medical Center","id":"acqcbe01ydgz","geo_precision":"zip","state":"TN"},"type":"Feature","geometry":{"type":"Point","coordinates":[-86.784698,36.233916]}},{"properties":{"city":"Nashville","zip":"37211","geo_score":0.857,"hospital name":"TriStar Southern Hills Medical Center","id":"acqcbdvz6x4b","geo_precision":"zip","state":"TN"},"type":"Feature","geometry":{"type":"Point","coordinates":[-82.758763,36.175103]}},{"properties":{"city":"Smyrna","zip":"37167","geo_score":0.857,"hospital name":"TriStar StoneCrest Medical Center","id":"acqcbe6ye7ax","geo_precision":"zip","state":"TN"},"type":"Feature","geometry":{"type":"Point","coordinates":[-86.494993,36.006452]}},{"properties":{"city":"Hermitage","zip":"37076","geo_score":0.857,"hospital name":"TriStar Summit Medical Center","id":"acqcbdzhzvkw","geo_precision":"zip","state":"TN"},"type":"Feature","geometry":{"type":"Point","coordinates":[-86.633052,36.201444]}},{"properties":{"city":"Niceville","zip":"32578","geo_score":0.857,"hospital name":"Twin Cities Hospital","id":"acqcbe867jhj","geo_precision":"zip","state":"FL"},"type":"Feature","geometry":{"type":"Point","coordinates":[-86.409948,30.479087]}},{"properties":{"city":"Tamarac","zip":"33321","geo_score":0.857,"hospital name":"University Hospital and Medical Center","id":"acqcbdyr1c13","geo_precision":"zip","state":"FL"},"type":"Feature","geometry":{"type":"Point","coordinates":[-80.26052,26.144589]}},{"properties":{"city":"Brownsville","zip":"78526","geo_score":0.857,"hospital name":"Valley Regional Medical Center","id":"acqcbdx8bje4","geo_precision":"zip","state":"TX"},"type":"Feature","geometry":{"type":"Point","coordinates":[-97.469871,25.971728]}},{"properties":{"city":"Wichita","zip":"67214","geo_score":0.857,"hospital name":"Wesley Medical Center","id":"acqcbe7efkkn","geo_precision":"zip","state":"KS"},"type":"Feature","geometry":{"type":"Point","coordinates":[-97.319593,37.706143]}},{"properties":{"city":"Pensacola","zip":"32514","geo_score":0.857,"hospital name":"West Florida Hospital","id":"acqcbe0oc80c","geo_precision":"zip","state":"FL"},"type":"Feature","geometry":{"type":"Point","coordinates":[-87.212471,30.510196]}},{"properties":{"city":"West Hills","zip":"91307","geo_score":0.857,"hospital name":"West Hills Hospital &amp; Medical Center","id":"acqcbdwpuq4m","geo_precision":"zip","state":"CA"},"type":"Feature","geometry":{"type":"Point","coordinates":[-118.298662,33.786594]}},{"properties":{"city":"Houston","zip":"77082","geo_score":0.857,"hospital name":"West Houston Medical Center","id":"acqcbdxfzgai","geo_precision":"zip","state":"TX"},"type":"Feature","geometry":{"type":"Point","coordinates":[-95.434241,29.83399]}},{"properties":{"city":"Ocala","zip":"34474","geo_score":0.857,"hospital name":"West Marion Community Hospital","id":"acqcbe3i0xev","geo_precision":"zip","state":"FL"},"type":"Feature","geometry":{"type":"Point","coordinates":[-82.137774,29.150148]}},{"properties":{"city":"West Palm Beach","zip":"33407","geo_score":0.857,"hospital name":"West Palm Hospital","id":"acqcbdw9xos5","geo_precision":"zip","state":"FL"},"type":"Feature","geometry":{"type":"Point","coordinates":[-80.430269,26.645895]}},{"properties":{"city":"Caldwell","zip":"83605","geo_score":0.857,"hospital name":"West Valley Medical Center","id":"acqcbe0c1afy","geo_precision":"zip","state":"ID"},"type":"Feature","geometry":{"type":"Point","coordinates":[-116.772916,43.545159]}},{"properties":{"city":"Plantation","zip":"33324","geo_score":0.857,"hospital name":"Westside Regional Medical Center","id":"acqcbe3ruxvn","geo_precision":"zip","state":"FL"},"type":"Feature","geometry":{"type":"Point","coordinates":[-80.264371,26.125463]}},{"properties":{"city":"Lafayette","zip":"70508","geo_score":0.857,"hospital name":"Women's and Children's Hospital","id":"acqcbe7pdz0d","geo_precision":"zip","state":"LA"},"type":"Feature","geometry":{"type":"Point","coordinates":[-92.026859,30.181866]}}],"is_temporal":false,"author":{"url":"","metadata":"","contact_name":"","contact_address":"","source":"","contact_phone":""},"source":"","pagination":{"sort":null,"start":0,"total":164,"limit":1000000},"state":"complete","tags":"","published":"2014-08-16T14:16:31-04:00","id":330893}