{"type":"FeatureCollection","data_type":"Dataset","url_type":null,"permissions":[{"permissions":{"download":true,"view":true},"group_id":"everyone"}],"classification":null,"title":"derecho w speeds","count":41,"stream_id":331621,"contributor":{"url":"http://geocommons.com/users/46387","name":"OleCage"},"data_attributes":null,"calculation_params":null,"icon_link":null,"link":"http://geocommons.com/overlays/331621.json","extent":[-80.27,36.68,-75.96,39.29],"geometry_types":["point"],"unique_name":null,"name":"derecho w speeds","feature_count":41,"description":"","next_feature":null,"is_raster":false,"short_classification":"Y","stats":{"lon":{"max":-75.96,"variance":1.12713451219512,"mean":-77.6282926829268,"stdev":1.06166591364474,"min":-80.27,"median":-77.45},"time":{"max":1556,"variance":93012.6012195122,"mean":308.268292682927,"stdev":304.979673453022,"min":57,"median":239},"speed":{"max":87,"variance":52.6487804878049,"mean":67.4146341463415,"stdev":7.25594793860905,"min":58,"median":66},"lat":{"max":39.29,"variance":0.70028975609756,"mean":37.899512195122,"stdev":0.836833171006958,"min":36.68,"median":37.98}},"features":[{"properties":{"lon":-78.13,"time":256,"county":"LUNENBURG","speed":58,"id":"acszfv0wgazn","lat":36.96,"location":"KENBRIDGE","state":"VA"},"type":"Feature","geometry":{"type":"Point","coordinates":[-78.13,36.96]}},{"properties":{"lon":-75.96,"time":430,"county":"NORTHAMPTON","speed":58,"id":"acszfv1y8xia","lat":37.14,"location":"KIPTOPEKE","state":"VA"},"type":"Feature","geometry":{"type":"Point","coordinates":[-75.96,37.14]}},{"properties":{"lon":-77.6,"time":208,"county":"LOUDOUN","speed":60,"id":"acszfv33a0qf","lat":39.29,"location":"2 ENE LOVETTSVILLE","state":"VA"},"type":"Feature","geometry":{"type":"Point","coordinates":[-77.6,39.29]}},{"properties":{"lon":-78.85,"time":215,"county":"ROCKINGHAM","speed":60,"id":"acszfuw4usxb","lat":38.28,"location":"2 WNW GROTTOES","state":"VA"},"type":"Feature","geometry":{"type":"Point","coordinates":[-78.85,38.28]}},{"properties":{"lon":-77.71,"time":215,"county":"FAUQUIER","speed":60,"id":"acszfv833jys","lat":38.59,"location":"1 SE MIDLAND","state":"VA"},"type":"Feature","geometry":{"type":"Point","coordinates":[-77.71,38.59]}},{"properties":{"lon":-78.14,"time":225,"county":"AMELIA","speed":60,"id":"acszfv4uiylw","lat":37.32,"location":"2 ESE DEATONVILLE","state":"VA"},"type":"Feature","geometry":{"type":"Point","coordinates":[-78.14,37.32]}},{"properties":{"lon":-77.61,"time":240,"county":"HENRICO","speed":60,"id":"acszfv0sqbna","lat":37.65,"location":"SHORT PUMP","state":"VA"},"type":"Feature","geometry":{"type":"Point","coordinates":[-77.61,37.65]}},{"properties":{"lon":-77.37,"time":250,"county":"CAROLINE","speed":60,"id":"acszfvbjbqxf","lat":37.98,"location":"2 N PENOLA","state":"VA"},"type":"Feature","geometry":{"type":"Point","coordinates":[-77.37,37.98]}},{"properties":{"lon":-76.53,"time":345,"county":"GLOUCESTER","speed":60,"id":"acszfv77j158","lat":37.41,"location":"GLOUCESTER","state":"VA"},"type":"Feature","geometry":{"type":"Point","coordinates":[-76.53,37.41]}},{"properties":{"lon":-78.15,"time":155,"county":"FREDERICK","speed":61,"id":"acszfvalzaf7","lat":39.15,"location":"2 SE WINCHESTER","state":"VA"},"type":"Feature","geometry":{"type":"Point","coordinates":[-78.15,39.15]}},{"properties":{"lon":-76.3,"time":424,"county":"CITY OF PORTSMOUT","speed":61,"id":"acszfv0r6m8f","lat":36.84,"location":"PORTSMOUTH","state":"VA"},"type":"Feature","geometry":{"type":"Point","coordinates":[-76.3,36.84]}},{"properties":{"lon":-76.74,"time":400,"county":"ISLE OF WIGHT","speed":62,"id":"acszfv65bb64","lat":36.81,"location":"WINDSOR","state":"VA"},"type":"Feature","geometry":{"type":"Point","coordinates":[-76.74,36.81]}},{"properties":{"lon":-76.62,"time":1556,"county":"CITY OF NEWPORT N","speed":63,"id":"acszfv7y5dx4","lat":37.13,"location":"FORT EUSTIS","state":"VA"},"type":"Feature","geometry":{"type":"Point","coordinates":[-76.62,37.13]}},{"properties":{"lon":-79.45,"time":57,"county":"ROCKBRIDGE","speed":63,"id":"acszfvaqac54","lat":37.92,"location":"10 N LEXINGTON CITY","state":"VA"},"type":"Feature","geometry":{"type":"Point","coordinates":[-79.45,37.92]}},{"properties":{"lon":-78.14,"time":139,"county":"FREDERICK","speed":63,"id":"acszfuy4gslj","lat":39.17,"location":"2 E WINCHESTER","state":"VA"},"type":"Feature","geometry":{"type":"Point","coordinates":[-78.14,39.17]}},{"properties":{"lon":-76.62,"time":356,"county":"CITY OF NEWPORT N","speed":63,"id":"acszfv4ptv3z","lat":37.13,"location":"FORT EUSTIS","state":"VA"},"type":"Feature","geometry":{"type":"Point","coordinates":[-76.62,37.13]}},{"properties":{"lon":-76.01,"time":442,"county":"CITY OF VIRGINIA","speed":63,"id":"acszfuyt9ybh","lat":36.93,"location":"NWLON CAPE HENRY","state":"VA"},"type":"Feature","geometry":{"type":"Point","coordinates":[-76.01,36.93]}},{"properties":{"lon":-76.3,"time":427,"county":"CITY OF HAMPTON","speed":64,"id":"acszfv6kcu6v","lat":37.05,"location":"HAMPTON","state":"VA"},"type":"Feature","geometry":{"type":"Point","coordinates":[-76.3,37.05]}},{"properties":{"lon":-77.23,"time":325,"county":"PRINCE GEORGE","speed":65,"id":"acszfv84469f","lat":37.12,"location":"DISPUTANTA","state":"VA"},"type":"Feature","geometry":{"type":"Point","coordinates":[-77.23,37.12]}},{"properties":{"lon":-79.13,"time":100,"county":"AUGUSTA","speed":66,"id":"acszfuygcud2","lat":38.3,"location":"3 WSW MOSCOW","state":"VA"},"type":"Feature","geometry":{"type":"Point","coordinates":[-79.13,38.3]}},{"properties":{"lon":-77.3,"time":244,"county":"PRINCE WILLIAM","speed":66,"id":"acszfuwf6ouj","lat":38.51,"location":"1 SW QUANTICO","state":"VA"},"type":"Feature","geometry":{"type":"Point","coordinates":[-77.3,38.51]}},{"properties":{"lon":-76.11,"time":430,"county":"ANZ634","speed":66,"id":"acszfuvkd2j8","lat":36.97,"location":"CHESA BAY BRDG TNL","state":"VA"},"type":"Feature","geometry":{"type":"Point","coordinates":[-76.11,36.97]}},{"properties":{"lon":-77.55,"time":219,"county":"PRINCE WILLIAM","speed":68,"id":"acszfv8fp6oy","lat":38.73,"location":"3 NE NOKESVILLE","state":"VA"},"type":"Feature","geometry":{"type":"Point","coordinates":[-77.55,38.73]}},{"properties":{"lon":-78.87,"time":59,"county":"CITY OF HARRISONB","speed":69,"id":"acszfv1nv2tw","lat":38.45,"location":"1 NNE HARRISONBURG","state":"VA"},"type":"Feature","geometry":{"type":"Point","coordinates":[-78.87,38.45]}},{"properties":{"lon":-78.87,"time":149,"county":"CITY OF HARRISONB","speed":69,"id":"acszfv25bcfk","lat":38.45,"location":"1 NNE HARRISONBURG","state":"VA"},"type":"Feature","geometry":{"type":"Point","coordinates":[-78.87,38.45]}},{"properties":{"lon":-78.23,"time":142,"county":"RAPPAHANNOCK","speed":70,"id":"acszfv0iambw","lat":38.66,"location":"SPERRYVILLE","state":"VA"},"type":"Feature","geometry":{"type":"Point","coordinates":[-78.23,38.66]}},{"properties":{"lon":-78.7,"time":148,"county":"ALBEMARLE","speed":70,"id":"acszfva8z3re","lat":38.07,"location":"CROZET","state":"VA"},"type":"Feature","geometry":{"type":"Point","coordinates":[-78.7,38.07]}},{"properties":{"lon":-77.54,"time":222,"county":"STAFFORD","speed":70,"id":"acszfv64mbnn","lat":38.38,"location":"1 SSW GLENDIE","state":"VA"},"type":"Feature","geometry":{"type":"Point","coordinates":[-77.54,38.38]}},{"properties":{"lon":-77.25,"time":239,"county":"FAIRFAX","speed":70,"id":"acszfv1kwpem","lat":38.8,"location":"2 NE BURKE","state":"VA"},"type":"Feature","geometry":{"type":"Point","coordinates":[-77.25,38.8]}},{"properties":{"lon":-77.03,"time":248,"county":"ARLINGTON","speed":70,"id":"acszfv3m71f0","lat":38.85,"location":"1 S REAGAN NATIONAL AIR","state":"VA"},"type":"Feature","geometry":{"type":"Point","coordinates":[-77.03,38.85]}},{"properties":{"lon":-77.45,"time":223,"county":"LOUDOUN","speed":71,"id":"acszfv2jdlcq","lat":38.96,"location":"1 NNE DULLES INTERNATIO","state":"VA"},"type":"Feature","geometry":{"type":"Point","coordinates":[-77.45,38.96]}},{"properties":{"lon":-77.45,"time":252,"county":"LOUDOUN","speed":71,"id":"acszfv205vyg","lat":38.96,"location":"1 NNE DULLES INTERNATIO","state":"VA"},"type":"Feature","geometry":{"type":"Point","coordinates":[-77.45,38.96]}},{"properties":{"lon":-76.94,"time":353,"county":"CITY OF FRANKLIN","speed":71,"id":"acszfv4nm7rb","lat":36.68,"location":"FRANKLIN","state":"VA"},"type":"Feature","geometry":{"type":"Point","coordinates":[-76.94,36.68]}},{"properties":{"lon":-76.9,"time":1555,"county":"ISLE OF WIGHT","speed":74,"id":"acszfv4vkh7v","lat":36.7,"location":"FRANKLIN/J_B_ROSE","state":"VA"},"type":"Feature","geometry":{"type":"Point","coordinates":[-76.9,36.7]}},{"properties":{"lon":-76.9,"time":355,"county":"ISLE OF WIGHT","speed":74,"id":"acszfv37w5vg","lat":36.7,"location":"FRANKLIN/J_B_ROSE","state":"VA"},"type":"Feature","geometry":{"type":"Point","coordinates":[-76.9,36.7]}},{"properties":{"lon":-80.27,"time":100,"county":"FLOYD","speed":76,"id":"acszfv6lfqfe","lat":37.02,"location":"6 ESE PILOT","state":"VA"},"type":"Feature","geometry":{"type":"Point","coordinates":[-80.27,37.02]}},{"properties":{"lon":-77.35,"time":235,"county":"FAIRFAX","speed":79,"id":"acszfuxje8cj","lat":38.96,"location":"RESTON","state":"VA"},"type":"Feature","geometry":{"type":"Point","coordinates":[-77.35,38.96]}},{"properties":{"lon":-77.51,"time":228,"county":"CITY OF FREDERICK","speed":80,"id":"acszfvawuic3","lat":38.3,"location":"1 W FREDERICKSBURG","state":"VA"},"type":"Feature","geometry":{"type":"Point","coordinates":[-77.51,38.3]}},{"properties":{"lon":-79.97,"time":108,"county":"CITY OF ROANOKE","speed":81,"id":"acszfv3eudmp","lat":37.33,"location":"3 NNW ROANOKE","state":"VA"},"type":"Feature","geometry":{"type":"Point","coordinates":[-79.97,37.33]}},{"properties":{"lon":-77.03,"time":245,"county":"ANZ536","speed":82,"id":"acszfv814774","lat":38.31,"location":"2 SE DAHLGREN","state":"VA"},"type":"Feature","geometry":{"type":"Point","coordinates":[-77.03,38.31]}},{"properties":{"lon":-78.95,"time":120,"county":"NELSON","speed":87,"id":"acszfuy3f883","lat":37.92,"location":"4 NW WINTERGREEN","state":"VA"},"type":"Feature","geometry":{"type":"Point","coordinates":[-78.95,37.92]}}],"is_temporal":false,"author":{"url":"","metadata":"","contact_name":"","contact_address":"","source":"","contact_phone":""},"source":"","pagination":{"sort":null,"start":0,"total":41,"limit":1000000},"state":"complete","tags":"","published":"2014-08-16T15:07:26-04:00","id":331621}