{"type":"FeatureCollection","data_type":"Dataset","url_type":null,"permissions":[{"permissions":{"download":true,"view":true},"group_id":"everyone"}],"classification":null,"title":"Credit_unions-Table_1","count":401,"stream_id":331930,"contributor":{"url":"http://geocommons.com/users/65719","name":"everfi"},"data_attributes":null,"calculation_params":null,"icon_link":null,"link":"http://geocommons.com/overlays/331930.json","extent":[-124.211,32.6403,-114.603,41.7657],"geometry_types":["point"],"unique_name":null,"name":"Credit_unions-Table_1","feature_count":401,"description":"","next_feature":null,"is_raster":false,"short_classification":"Y","stats":{"assets":{"max":0,"count":1,"variance":0.0,"mean":0.0,"counts_by_value":{"0":401},"list":[0],"stdev":0.0,"min":0,"median":0}},"features":[{"properties":{"zip":"94588","bank type":"Credit Union","assets":0,"geo_score":0.459,"street address":"5901 Gibraltar Drive, North","cu name":"1st United Services CU","id":"actnycmtuid7","sponsor?":null,"geo_precision":"street","state":"CA"},"type":"Feature","geometry":{"type":"Point","coordinates":[-121.89218,37.693625]}},{"properties":{"zip":"92401","bank type":"Credit Union","assets":0,"geo_score":0.829,"street address":"401 West Second Street","cu name":"1st Valley Credit Union","id":"actnycf4uy3h","sponsor?":null,"geo_precision":"range","state":"CA"},"type":"Feature","geometry":{"type":"Point","coordinates":[-117.292994,34.102726]}},{"properties":{"zip":"90067","bank type":"Credit Union","assets":0,"geo_score":0.902,"street address":"1901 Avenue of the Stars","cu name":"20th Century Fox FCU","id":"actnycdz8181","sponsor?":null,"geo_precision":"range","state":"CA"},"type":"Feature","geometry":{"type":"Point","coordinates":[-118.416921,34.059895]}},{"properties":{"zip":"95667","bank type":"Credit Union","assets":0,"geo_score":0.902,"street address":"225 Placerville Drive","cu name":"49'er Federal Credit Union","id":"actnycb8t584","sponsor?":null,"geo_precision":"range","state":"CA"},"type":"Feature","geometry":{"type":"Point","coordinates":[-120.837151,38.728658]}},{"properties":{"zip":"90245","bank type":"Credit Union","assets":0,"geo_score":0.902,"street address":"2310 East El Segundo Boulevard","cu name":"Aerospace Federal Credit Union","id":"actnycgdc54v","sponsor?":null,"geo_precision":"range","state":"CA"},"type":"Feature","geometry":{"type":"Point","coordinates":[-118.379653,33.916299]}},{"properties":{"zip":"91505","bank type":"Credit Union","assets":0,"geo_score":0.902,"street address":"134 North Kenwood Street","cu name":"AFTRA-SAG Federal Credit Union","id":"actnyc99p6wh","sponsor?":null,"geo_precision":"range","state":"CA"},"type":"Feature","geometry":{"type":"Point","coordinates":[-118.34115,34.150982]}},{"properties":{"zip":"91201","bank type":"Credit Union","assets":0,"geo_score":0.805,"street address":"6265 San Fernando Road","cu name":"Airco Federal Credit Union","id":"actnyckgjp8j","sponsor?":null,"geo_precision":"range","state":"CA"},"type":"Feature","geometry":{"type":"Point","coordinates":[-118.286347,34.164457]}},{"properties":{"zip":"94501","bank type":"Credit Union","assets":0,"geo_score":0.551,"street address":"2250 South Shore Center Drive","cu name":"Alameda Credit Union","id":"actnyca77fyn","sponsor?":null,"geo_precision":"street","state":"CA"},"type":"Feature","geometry":{"type":"Point","coordinates":[-122.252974,37.760211]}},{"properties":{"zip":"93534","bank type":"Credit Union","assets":0,"geo_score":0.476,"street address":"43816 15th Street, West","cu name":"All Valley FCU","id":"actnycahnkd2","sponsor?":null,"geo_precision":"street","state":"CA"},"type":"Feature","geometry":{"type":"Point","coordinates":[-118.156633,34.647665]}},{"properties":{"zip":"95118","bank type":"Credit Union","assets":0,"geo_score":0.805,"street address":"3315 Almaden Expressway","cu name":"Alliance Credit Union","id":"actnycgiaauq","sponsor?":null,"geo_precision":"range","state":"CA"},"type":"Feature","geometry":{"type":"Point","coordinates":[-121.87876,37.274733]}},{"properties":{"zip":"95207","bank type":"Credit Union","assets":0,"geo_score":0.902,"street address":"2131 West March Lane","cu name":"Allied Credit Union","id":"actnycox8l6r","sponsor?":null,"geo_precision":"range","state":"CA"},"type":"Feature","geometry":{"type":"Point","coordinates":[-121.332502,37.986621]}},{"properties":{"zip":"90806","bank type":"Credit Union","assets":0,"geo_score":0.902,"street address":"2801 Atlantic Avenue","cu name":"Allied Healthcare FCU","id":"actnyccvju28","sponsor?":null,"geo_precision":"range","state":"CA"},"type":"Feature","geometry":{"type":"Point","coordinates":[-118.18501,33.808918]}},{"properties":{"zip":"92374","bank type":"Credit Union","assets":0,"geo_score":0.902,"street address":"1425 West Lugonia Avenue","cu name":"Alta Vista Credit Union","id":"actnycm1a1vg","sponsor?":null,"geo_precision":"range","state":"CA"},"type":"Feature","geometry":{"type":"Point","coordinates":[-117.206097,34.070214]}},{"properties":{"zip":"93555","bank type":"Credit Union","assets":0,"geo_score":0.902,"street address":"701 South China Lake Boulevard","cu name":"AltaOne Federal Credit Union","id":"actnychvmoc7","sponsor?":null,"geo_precision":"range","state":"CA"},"type":"Feature","geometry":{"type":"Point","coordinates":[-117.670268,35.61348]}},{"properties":{"zip":"92507","bank type":"Credit Union","assets":0,"geo_score":0.902,"street address":"2847 Campus Parkway","cu name":"Altura Credit Union","id":"actnycl8hdkt","sponsor?":null,"geo_precision":"range","state":"CA"},"type":"Feature","geometry":{"type":"Point","coordinates":[-117.280997,33.937541]}},{"properties":{"zip":"90248","bank type":"Credit Union","assets":0,"geo_score":0.902,"street address":"101 West Walnut Street","cu name":"AM Federal Credit Union","id":"actnycahfp9e","sponsor?":null,"geo_precision":"range","state":"CA"},"type":"Feature","geometry":{"type":"Point","coordinates":[-118.277309,33.875415]}},{"properties":{"zip":"91740","bank type":"Credit Union","assets":0,"geo_score":0.805,"street address":"2100 East Route 66","cu name":"America's Christian CU","id":"actnycgnowy6","sponsor?":null,"geo_precision":"range","state":"CA"},"type":"Feature","geometry":{"type":"Point","coordinates":[-117.82392,34.127515]}},{"properties":{"zip":"91345","bank type":"Credit Union","assets":0,"geo_score":0.78,"street address":"15455 San Fernando Mission Boulevard","cu name":"American Federal Credit Union","id":"actnyceo8ait","sponsor?":null,"geo_precision":"range","state":"CA"},"type":"Feature","geometry":{"type":"Point","coordinates":[-118.468243,34.271954]}},{"properties":{"zip":"90631","bank type":"Credit Union","assets":0,"geo_score":0.902,"street address":"700 North Harbor Boulevard","cu name":"American First CU","id":"actnycf0icfm","sponsor?":null,"geo_precision":"range","state":"CA"},"type":"Feature","geometry":{"type":"Point","coordinates":[-117.932971,33.936061]}},{"properties":{"zip":"90058","bank type":"Credit Union","assets":0,"geo_score":0.902,"street address":"2636 Leonis Boulevard","cu name":"Angelus Can Employees FCU","id":"actnycmegkzp","sponsor?":null,"geo_precision":"range","state":"CA"},"type":"Feature","geometry":{"type":"Point","coordinates":[-118.223228,33.999955]}},{"properties":{"zip":"94509","bank type":"Credit Union","assets":0,"geo_score":0.902,"street address":"301 G Street","cu name":"Antioch Cmnty FCU","id":"actnyck219qx","sponsor?":null,"geo_precision":"range","state":"CA"},"type":"Feature","geometry":{"type":"Point","coordinates":[-121.813762,38.015466]}},{"properties":{"zip":"91006","bank type":"Credit Union","assets":0,"geo_score":0.902,"street address":"45 East Huntington Drive","cu name":"Arcadia Cty FCU","id":"actnychcba4a","sponsor?":null,"geo_precision":"range","state":"CA"},"type":"Feature","geometry":{"type":"Point","coordinates":[-118.02949,34.140144]}},{"properties":{"zip":"92408","bank type":"Credit Union","assets":0,"geo_score":0.902,"street address":"550 East Hospitality Lane","cu name":"Arrowhead Central Credit Union","id":"actnycfm9xtz","sponsor?":null,"geo_precision":"range","state":"CA"},"type":"Feature","geometry":{"type":"Point","coordinates":[-117.273424,34.066163]}},{"properties":{"zip":"94801","bank type":"Credit Union","assets":0,"geo_score":0.902,"street address":"279 Curry Street","cu name":"Atchison Village Credit Union","id":"actnycc2ohx6","sponsor?":null,"geo_precision":"range","state":"CA"},"type":"Feature","geometry":{"type":"Point","coordinates":[-122.371391,37.935504]}},{"properties":{"zip":"95119","bank type":"Credit Union","assets":0,"geo_score":0.902,"street address":"6830 Via Del Oro","cu name":"ATD Federal Credit Union","id":"actnyc9xmzmb","sponsor?":null,"geo_precision":"range","state":"CA"},"type":"Feature","geometry":{"type":"Point","coordinates":[-121.777803,37.231871]}},{"properties":{"zip":"90703","bank type":"Credit Union","assets":0,"geo_score":0.902,"street address":"18327 Gridley Road","cu name":"Auto Club Federal Credit Union","id":"actnycfq8t14","sponsor?":null,"geo_precision":"range","state":"CA"},"type":"Feature","geometry":{"type":"Point","coordinates":[-118.091009,33.864588]}},{"properties":{"zip":"91702","bank type":"Credit Union","assets":0,"geo_score":0.902,"street address":"213 East Foothill Boulevard","cu name":"Azusa Cty Employees FCU","id":"actnycenqy9a","sponsor?":null,"geo_precision":"range","state":"CA"},"type":"Feature","geometry":{"type":"Point","coordinates":[-117.90571,34.133535]}},{"properties":{"zip":"93301","bank type":"Credit Union","assets":0,"geo_score":0.429,"street address":"2101 -16th Street","cu name":"Bakersfield Commmunity FCU","id":"actnyccvdfls","sponsor?":null,"geo_precision":"street","state":"CA"},"type":"Feature","geometry":{"type":"Point","coordinates":[-119.00925,35.372307]}},{"properties":{"zip":"93301","bank type":"Credit Union","assets":0,"geo_score":0.819,"street address":"2817 16th Street","cu name":"Bakersfield Cty Emps FCU","id":"actnycf2sop7","sponsor?":null,"geo_precision":"range","state":"CA"},"type":"Feature","geometry":{"type":"Point","coordinates":[-119.036186,35.372329]}},{"properties":{"zip":"90640","bank type":"Credit Union","assets":0,"geo_score":0.902,"street address":"3413 West Beverly Boulevard","cu name":"Bakery Employees Credit Union","id":"actnycfvvy2g","sponsor?":null,"geo_precision":"range","state":"CA"},"type":"Feature","geometry":{"type":"Point","coordinates":[-118.140078,34.024166]}},{"properties":{"zip":"92311","bank type":"Credit Union","assets":0,"geo_score":0.71,"street address":"222 East Main Street","cu name":"Barstow Railway Employees CU","id":"actnych2zkyw","sponsor?":null,"geo_precision":"street","state":"CA"},"type":"Feature","geometry":{"type":"Point","coordinates":[-117.02445,34.898749]}},{"properties":{"zip":"94541","bank type":"Credit Union","assets":0,"geo_score":0.902,"street address":"22777 Main Street","cu name":"Bay Cities Credit Union","id":"actnycb1hepd","sponsor?":null,"geo_precision":"range","state":"CA"},"type":"Feature","geometry":{"type":"Point","coordinates":[-122.081682,37.67178]}},{"properties":{"zip":"95010","bank type":"Credit Union","assets":0,"geo_score":0.902,"street address":"3333 Clares Street","cu name":"Bay Federal Credit Union","id":"actnycck3tjo","sponsor?":null,"geo_precision":"range","state":"CA"},"type":"Feature","geometry":{"type":"Point","coordinates":[-121.969599,36.97431]}},{"properties":{"zip":"94115","bank type":"Credit Union","assets":0,"geo_score":0.902,"street address":"970 Laguna Street","cu name":"Bethel A.M.E. San Francisco","id":"actnycap3lti","sponsor?":null,"geo_precision":"range","state":"CA"},"type":"Feature","geometry":{"type":"Point","coordinates":[-122.426904,37.779962]}},{"properties":{"zip":"90210","bank type":"Credit Union","assets":0,"geo_score":0.829,"street address":"9298 West Third Street","cu name":"Beverly Hills City Emps FCU","id":"actnyckw71f9","sponsor?":null,"geo_precision":"range","state":"CA"},"type":"Feature","geometry":{"type":"Point","coordinates":[-118.394815,34.073505]}},{"properties":{"zip":"95826","bank type":"Credit Union","assets":0,"geo_score":0.902,"street address":"3111 Wissemann Drive","cu name":"Big Valley FCU","id":"actnyc8q7eo0","sponsor?":null,"geo_precision":"range","state":"CA"},"type":"Feature","geometry":{"type":"Point","coordinates":[-121.381587,38.550381]}},{"properties":{"zip":"90731","bank type":"Credit Union","assets":0,"geo_score":0.902,"street address":"1451 South Seaside Avenue","cu name":"Bopti Federal Credit Union","id":"actnych36lnr","sponsor?":null,"geo_precision":"range","state":"CA"},"type":"Feature","geometry":{"type":"Point","coordinates":[-118.268817,33.72884]}},{"properties":{"zip":"92507","bank type":"Credit Union","assets":0,"geo_score":0.902,"street address":"1200 Columbia Avenue","cu name":"Bourns Employees FCU","id":"actnycjfhizs","sponsor?":null,"geo_precision":"range","state":"CA"},"type":"Feature","geometry":{"type":"Point","coordinates":[-117.336879,34.001094]}},{"properties":{"zip":"91506","bank type":"Credit Union","assets":0,"geo_score":0.585,"street address":"1800 West Magnolia Boulevard","cu name":"Burbank City FCU","id":"actnycil7nxo","sponsor?":null,"geo_precision":"zip","state":"CA"},"type":"Feature","geometry":{"type":"Point","coordinates":[-118.298662,33.786594]}},{"properties":{"zip":"95917","bank type":"Credit Union","assets":0,"geo_score":0.902,"street address":"482 B Street","cu name":"Butte Federal Credit Union","id":"actnyceqib4q","sponsor?":null,"geo_precision":"range","state":"CA"},"type":"Feature","geometry":{"type":"Point","coordinates":[-121.710346,39.413364]}},{"properties":{"zip":"91604","bank type":"Credit Union","assets":0,"geo_score":0.902,"street address":"12001 Ventura Place","cu name":"C B S Employees FCU","id":"actnycf69whu","sponsor?":null,"geo_precision":"range","state":"CA"},"type":"Feature","geometry":{"type":"Point","coordinates":[-118.39583,34.145106]}},{"properties":{"zip":"94525","bank type":"Credit Union","assets":0,"geo_score":0.902,"street address":"1420 Pomona Street","cu name":"C&amp;H Sugar Emps FCU","id":"actnyc9jsl6o","sponsor?":null,"geo_precision":"range","state":"CA"},"type":"Feature","geometry":{"type":"Point","coordinates":[-122.225084,38.052491]}},{"properties":{"zip":"91206","bank type":"Credit Union","assets":0,"geo_score":0.902,"street address":"1441 East Chevy Chase Drive","cu name":"CA Adventist FCU","id":"actnyclkijz1","sponsor?":null,"geo_precision":"range","state":"CA"},"type":"Feature","geometry":{"type":"Point","coordinates":[-118.234909,34.151603]}},{"properties":{"zip":"95826","bank type":"Credit Union","assets":0,"geo_score":0.902,"street address":"8815 Folsom Boulevard","cu name":"CA Community CU","id":"actnycdywaml","sponsor?":null,"geo_precision":"range","state":"CA"},"type":"Feature","geometry":{"type":"Point","coordinates":[-121.375609,38.552881]}},{"properties":{"zip":"95501","bank type":"Credit Union","assets":0,"geo_score":0.902,"street address":"321 Wabash Avenue","cu name":"CA State &amp; Fed Emps #20 CU","id":"actnyclrojw1","sponsor?":null,"geo_precision":"range","state":"CA"},"type":"Feature","geometry":{"type":"Point","coordinates":[-124.165461,40.791457]}},{"properties":{"zip":"92131","bank type":"Credit Union","assets":0,"geo_score":0.902,"street address":"10075 Carroll Canyon Road","cu name":"Cabrillo Credit Union","id":"actnycjp11m0","sponsor?":null,"geo_precision":"range","state":"CA"},"type":"Feature","geometry":{"type":"Point","coordinates":[-117.109694,32.903763]}},{"properties":{"zip":"95826","bank type":"Credit Union","assets":0,"geo_score":0.805,"street address":"2843 Manlove Road","cu name":"CAHP CU","id":"actnycedmk8y","sponsor?":null,"geo_precision":"street","state":"CA"},"type":"Feature","geometry":{"type":"Point","coordinates":[-121.372231,38.558135]}},{"properties":{"zip":"91768","bank type":"Credit Union","assets":0,"geo_score":0.902,"street address":"3801 West Temple Avenue","cu name":"Cal Poly Federal Credit Union","id":"actnycf0l6pb","sponsor?":null,"geo_precision":"range","state":"CA"},"type":"Feature","geometry":{"type":"Point","coordinates":[-117.815978,34.049864]}},{"properties":{"zip":"90032","bank type":"Credit Union","assets":0,"geo_score":0.902,"street address":"2445 Mariondale Avenue","cu name":"Cal State L.A. FCU","id":"actnyclnkdmf","sponsor?":null,"geo_precision":"range","state":"CA"},"type":"Feature","geometry":{"type":"Point","coordinates":[-118.166196,34.07558]}},{"properties":{"zip":"90503","bank type":"Credit Union","assets":0,"geo_score":0.902,"street address":"20723 Hawthorne Boulevard","cu name":"CalCom Federal Credit Union","id":"actnycos5xq4","sponsor?":null,"geo_precision":"range","state":"CA"},"type":"Feature","geometry":{"type":"Point","coordinates":[-118.353683,33.84249]}},{"properties":{"zip":"90621","bank type":"Credit Union","assets":0,"geo_score":0.902,"street address":"6281 Beach Boulevard","cu name":"California Agribusiness CU","id":"actnycm9mm6d","sponsor?":null,"geo_precision":"range","state":"CA"},"type":"Feature","geometry":{"type":"Point","coordinates":[-117.99821,33.869558]}},{"properties":{"zip":"90071","bank type":"Credit Union","assets":0,"geo_score":0.902,"street address":"350 South Figueroa Street","cu name":"California Bear Credit Union","id":"actnycd4855c","sponsor?":null,"geo_precision":"range","state":"CA"},"type":"Feature","geometry":{"type":"Point","coordinates":[-118.255226,34.054327]}},{"properties":{"zip":"91761","bank type":"Credit Union","assets":0,"geo_score":0.902,"street address":"2777 East Guasti Road","cu name":"California Center Credit Union","id":"actnyce4p6mc","sponsor?":null,"geo_precision":"range","state":"CA"},"type":"Feature","geometry":{"type":"Point","coordinates":[-117.584552,34.065647]}},{"properties":{"zip":"92123","bank type":"Credit Union","assets":0,"geo_score":0.649,"street address":"9201 Spectrum Center Boulevard","cu name":"California Coast Credit Union","id":"actnycagushz","sponsor?":null,"geo_precision":"street","state":"CA"},"type":"Feature","geometry":{"type":"Point","coordinates":[-117.143074,32.827351]}},{"properties":{"zip":"91203","bank type":"Credit Union","assets":0,"geo_score":0.902,"street address":"701 North Brand Boulevard","cu name":"California Credit Union","id":"actnyce3vx8c","sponsor?":null,"geo_precision":"range","state":"CA"},"type":"Feature","geometry":{"type":"Point","coordinates":[-118.255142,34.157455]}},{"properties":{"zip":"90404","bank type":"Credit Union","assets":0,"geo_score":0.902,"street address":"2806 Santa Monica Boulevard","cu name":"California Lithuanian CU","id":"actnyckh2gux","sponsor?":null,"geo_precision":"range","state":"CA"},"type":"Feature","geometry":{"type":"Point","coordinates":[-118.471472,34.035481]}},{"properties":{"zip":"91011","bank type":"Credit Union","assets":0,"geo_score":0.902,"street address":"528 Foothill Boulevard","cu name":"Caltech Employees FCU","id":"actnycieliyv","sponsor?":null,"geo_precision":"range","state":"CA"},"type":"Feature","geometry":{"type":"Point","coordinates":[-118.190603,34.199901]}},{"properties":{"zip":"91340","bank type":"Credit Union","assets":0,"geo_score":0.405,"street address":"12928 Vaughn Street","cu name":"Calvary Baptist of Pacoima FCU","id":"actnychvotu1","sponsor?":null,"geo_precision":"street","state":"CA"},"type":"Feature","geometry":{"type":"Point","coordinates":[-118.555179,34.154967]}},{"properties":{"zip":"90640","bank type":"Credit Union","assets":0,"geo_score":0.902,"street address":"520 North Taylor Avenue","cu name":"Camino FCU","id":"actnycauctu0","sponsor?":null,"geo_precision":"range","state":"CA"},"type":"Feature","geometry":{"type":"Point","coordinates":[-118.111501,34.019119]}},{"properties":{"zip":"91304","bank type":"Credit Union","assets":0,"geo_score":0.902,"street address":"8201 Canoga Avenue","cu name":"Canoga Postal FCU","id":"actnycbg7rxh","sponsor?":null,"geo_precision":"range","state":"CA"},"type":"Feature","geometry":{"type":"Point","coordinates":[-118.597607,34.216945]}},{"properties":{"zip":"92656","bank type":"Credit Union","assets":0,"geo_score":0.549,"street address":"Three Polaris Way","cu name":"Capstone Federal Credit Union","id":"actnycnl20ej","sponsor?":null,"geo_precision":"street","state":"CA"},"type":"Feature","geometry":{"type":"Point","coordinates":[-117.70162,33.47327]}},{"properties":{"zip":"92801","bank type":"Credit Union","assets":0,"geo_score":0.882,"street address":"2373 West La Palma Avenue","cu name":"Carepoint Federal Credit Union","id":"actnyci156a1","sponsor?":null,"geo_precision":"range","state":"CA"},"type":"Feature","geometry":{"type":"Point","coordinates":[-117.962434,33.847015]}},{"properties":{"zip":"93036","bank type":"Credit Union","assets":0,"geo_score":0.902,"street address":"2151 East Gonzales Road","cu name":"CBC Federal Credit Union","id":"actnycmmthxf","sponsor?":null,"geo_precision":"range","state":"CA"},"type":"Feature","geometry":{"type":"Point","coordinates":[-119.144903,34.218792]}},{"properties":{"zip":"90048","bank type":"Credit Union","assets":0,"geo_score":0.78,"street address":"8700 Beverly Boulevard","cu name":"Cedars-Sinai FCU","id":"actnyccqx0yx","sponsor?":null,"geo_precision":"range","state":"CA"},"type":"Feature","geometry":{"type":"Point","coordinates":[-118.380921,34.076921]}},{"properties":{"zip":"93955","bank type":"Credit Union","assets":0,"geo_score":0.585,"street address":"4242 Gigling Road","cu name":"Central Coast FCU","id":"actnyce2nv5x","sponsor?":null,"geo_precision":"zip","state":"CA"},"type":"Feature","geometry":{"type":"Point","coordinates":[-121.848286,36.617182]}},{"properties":{"zip":"95202","bank type":"Credit Union","assets":0,"geo_score":0.849,"street address":"919 North Center Street","cu name":"Central State Credit Union","id":"actnycftzgzv","sponsor?":null,"geo_precision":"range","state":"CA"},"type":"Feature","geometry":{"type":"Point","coordinates":[-121.293812,37.962181]}},{"properties":{"zip":"94568","bank type":"Credit Union","assets":0,"geo_score":0.902,"street address":"7080 Donlon Way","cu name":"Chabot Federal Credit Union","id":"actnyckc8pmm","sponsor?":null,"geo_precision":"range","state":"CA"},"type":"Feature","geometry":{"type":"Point","coordinates":[-121.939054,37.702161]}},{"properties":{"zip":"91764","bank type":"Credit Union","assets":0,"geo_score":0.823,"street address":"410 North Lemon Street","cu name":"Chaffey Federal Credit Union","id":"actnycgoq5eo","sponsor?":null,"geo_precision":"range","state":"CA"},"type":"Feature","geometry":{"type":"Point","coordinates":[-117.64956,34.068113]}},{"properties":{"zip":"92705","bank type":"Credit Union","assets":0,"geo_score":0.805,"street address":"1224 East Warner Avenue","cu name":"Cherry Emps FCU","id":"actnycd3gvd6","sponsor?":null,"geo_precision":"range","state":"CA"},"type":"Feature","geometry":{"type":"Point","coordinates":[-117.85506,33.71587]}},{"properties":{"zip":"94607","bank type":"Credit Union","assets":0,"geo_score":0.819,"street address":"500 12th Street","cu name":"Chevron Federal Credit Union","id":"actnyc8osl39","sponsor?":null,"geo_precision":"range","state":"CA"},"type":"Feature","geometry":{"type":"Point","coordinates":[-122.27211,37.802965]}},{"properties":{"zip":"93312","bank type":"Credit Union","assets":0,"geo_score":0.902,"street address":"8200 Granite Falls Drive","cu name":"Chevron Valley Credit Union","id":"actnycdytl56","sponsor?":null,"geo_precision":"range","state":"CA"},"type":"Feature","geometry":{"type":"Point","coordinates":[-119.094029,35.387065]}},{"properties":{"zip":"91773","bank type":"Credit Union","assets":0,"geo_score":0.902,"street address":"255 North Lone Hill Avenue","cu name":"Christian Community CU","id":"actnycgcwz3l","sponsor?":null,"geo_precision":"range","state":"CA"},"type":"Feature","geometry":{"type":"Point","coordinates":[-117.828479,34.108368]}},{"properties":{"zip":"91910","bank type":"Credit Union","assets":0,"geo_score":0.819,"street address":"276 Fourth Avenue","cu name":"Chula Vista City Employees FCU","id":"actnyci0m2et","sponsor?":null,"geo_precision":"range","state":"CA"},"type":"Feature","geometry":{"type":"Point","coordinates":[-117.084107,32.640284]}},{"properties":{"zip":"90241","bank type":"Credit Union","assets":0,"geo_score":0.902,"street address":"10411 Lakewood Boulevard","cu name":"City of Downey FCU","id":"actnyc9vwomh","sponsor?":null,"geo_precision":"range","state":"CA"},"type":"Feature","geometry":{"type":"Point","coordinates":[-118.119364,33.943177]}},{"properties":{"zip":"95482","bank type":"Credit Union","assets":0,"geo_score":0.78,"street address":"1425 South State Street","cu name":"City of Ukiah Employees CU","id":"actnyca17d0p","sponsor?":null,"geo_precision":"street","state":"CA"},"type":"Feature","geometry":{"type":"Point","coordinates":[-123.204433,39.128217]}},{"properties":{"zip":"91203","bank type":"Credit Union","assets":0,"geo_score":0.902,"street address":"340 Arden Avenue","cu name":"Clearpath Federal Credit Union","id":"actnycbec6t7","sponsor?":null,"geo_precision":"range","state":"CA"},"type":"Feature","geometry":{"type":"Point","coordinates":[-118.260053,34.158394]}},{"properties":{"zip":"95542","bank type":"Credit Union","assets":0,"geo_score":0.78,"street address":"757 Redwood Drive","cu name":"Cmnty CU of Sthrn Humboldt","id":"actnycjsp2x3","sponsor?":null,"geo_precision":"range","state":"CA"},"type":"Feature","geometry":{"type":"Point","coordinates":[-123.795002,40.100813]}},{"properties":{"zip":"95501","bank type":"Credit Union","assets":0,"geo_score":0.902,"street address":"2650 Harrison Avenue","cu name":"Coast Central CU","id":"actnyca9ozrf","sponsor?":null,"geo_precision":"range","state":"CA"},"type":"Feature","geometry":{"type":"Point","coordinates":[-124.139702,40.783854]}},{"properties":{"zip":"93901","bank type":"Credit Union","assets":0,"geo_score":0.902,"street address":"356 Main Street","cu name":"Coast-Tel Federal Credit Union","id":"actnycjz3q8h","sponsor?":null,"geo_precision":"range","state":"CA"},"type":"Feature","geometry":{"type":"Point","coordinates":[-121.654627,36.672368]}},{"properties":{"zip":"93436","bank type":"Credit Union","assets":0,"geo_score":0.902,"street address":"3880 Constellation Road","cu name":"CoastHills FCU","id":"actnycnmeqxv","sponsor?":null,"geo_precision":"range","state":"CA"},"type":"Feature","geometry":{"type":"Point","coordinates":[-120.465475,34.703617]}},{"properties":{"zip":"92324","bank type":"Credit Union","assets":0,"geo_score":0.882,"street address":"466 North La Cadena Drive","cu name":"Colton FCU","id":"actnyccsx032","sponsor?":null,"geo_precision":"range","state":"CA"},"type":"Feature","geometry":{"type":"Point","coordinates":[-117.323711,34.069415]}},{"properties":{"zip":"91340","bank type":"Credit Union","assets":0,"geo_score":0.902,"street address":"1129 Celis Street","cu name":"Columbus Club FCU","id":"actnycnzfzso","sponsor?":null,"geo_precision":"range","state":"CA"},"type":"Feature","geometry":{"type":"Point","coordinates":[-118.442379,34.282492]}},{"properties":{"zip":"95138","bank type":"Credit Union","assets":0,"geo_score":0.902,"street address":"5890 Silver Creek Valley Road","cu name":"Commonwealth Central CU","id":"actnycnep8dv","sponsor?":null,"geo_precision":"range","state":"CA"},"type":"Feature","geometry":{"type":"Point","coordinates":[-121.789221,37.25705]}},{"properties":{"zip":"95401","bank type":"Credit Union","assets":0,"geo_score":0.902,"street address":"1105 North Dutton Avenue","cu name":"Community First Credit Union","id":"actnycbr0z6a","sponsor?":null,"geo_precision":"range","state":"CA"},"type":"Feature","geometry":{"type":"Point","coordinates":[-122.731857,38.448041]}},{"properties":{"zip":"90220","bank type":"Credit Union","assets":0,"geo_score":0.902,"street address":"205 South Willowbrook Avenue","cu name":"Compton Muni Emps FCU","id":"actnycl8eohq","sponsor?":null,"geo_precision":"range","state":"CA"},"type":"Feature","geometry":{"type":"Point","coordinates":[-118.224422,33.895558]}},{"properties":{"zip":"92704","bank type":"Credit Union","assets":0,"geo_score":0.902,"street address":"1317 West Warner Avenue","cu name":"Comunidad Latina FCU","id":"actnycfqyxu2","sponsor?":null,"geo_precision":"range","state":"CA"},"type":"Feature","geometry":{"type":"Point","coordinates":[-117.887679,33.716222]}},{"properties":{"zip":"94553","bank type":"Credit Union","assets":0,"geo_score":0.902,"street address":"1111 Pine Street","cu name":"Contra Costa FCU","id":"actnyclthyt4","sponsor?":null,"geo_precision":"range","state":"CA"},"type":"Feature","geometry":{"type":"Point","coordinates":[-122.131022,38.016264]}},{"properties":{"zip":"94703","bank type":"Credit Union","assets":0,"geo_score":0.902,"street address":"2001 Ashby Avenue","cu name":"Cooperative Center FCU","id":"actnycp27o57","sponsor?":null,"geo_precision":"range","state":"CA"},"type":"Feature","geometry":{"type":"Point","coordinates":[-122.268969,37.854732]}},{"properties":{"zip":"93960","bank type":"Credit Union","assets":0,"geo_score":0.902,"street address":"747 Front Street","cu name":"Corrections FCU","id":"actnycfeg0jj","sponsor?":null,"geo_precision":"range","state":"CA"},"type":"Feature","geometry":{"type":"Point","coordinates":[-121.326718,36.425287]}},{"properties":{"zip":"93003","bank type":"Credit Union","assets":0,"geo_score":0.902,"street address":"4591 Market Street","cu name":"County Schools FCU","id":"actnyc9lzh39","sponsor?":null,"geo_precision":"range","state":"CA"},"type":"Feature","geometry":{"type":"Point","coordinates":[-119.231212,34.257222]}},{"properties":{"zip":"92860","bank type":"Credit Union","assets":0,"geo_score":0.805,"street address":"632 Sixth Street","cu name":"CRC Federal Credit Union","id":"actnycaiprwi","sponsor?":null,"geo_precision":"range","state":"CA"},"type":"Feature","geometry":{"type":"Point","coordinates":[-117.534225,33.938356]}},{"properties":{"zip":"92821","bank type":"Credit Union","assets":0,"geo_score":0.708,"street address":"10 Pointe Drive","cu name":"CU of Southern CA","id":"actnycox3ray","sponsor?":null,"geo_precision":"street","state":"CA"},"type":"Feature","geometry":{"type":"Point","coordinates":[-117.87706,33.92547]}},{"properties":{"zip":"90232","bank type":"Credit Union","assets":0,"geo_score":0.902,"street address":"9770 Culver Boulevard","cu name":"Culver City Employees FCU","id":"actnyclg4tdg","sponsor?":null,"geo_precision":"range","state":"CA"},"type":"Feature","geometry":{"type":"Point","coordinates":[-118.396182,34.021554]}},{"properties":{"zip":"90012","bank type":"Credit Union","assets":0,"geo_score":0.829,"street address":"815 East First Street","cu name":"Daijo Federal Credit Union","id":"actnycd2uawe","sponsor?":null,"geo_precision":"range","state":"CA"},"type":"Feature","geometry":{"type":"Point","coordinates":[-118.23403,34.048525]}},{"properties":{"zip":"94107","bank type":"Credit Union","assets":0,"geo_score":0.902,"street address":"600 The Embarcadero","cu name":"Delancey Street FCU","id":"actnycp2o8mx","sponsor?":null,"geo_precision":"range","state":"CA"},"type":"Feature","geometry":{"type":"Point","coordinates":[-122.388023,37.784774]}},{"properties":{"zip":"94509","bank type":"Credit Union","assets":0,"geo_score":0.837,"street address":"701 West 18th Street","cu name":"Delta Schools FCU","id":"actnychupa99","sponsor?":null,"geo_precision":"range","state":"CA"},"type":"Feature","geometry":{"type":"Point","coordinates":[-121.819767,38.005508]}},{"properties":{"zip":"90027","bank type":"Credit Union","assets":0,"geo_score":0.902,"street address":"5433 Fernwood Avenue","cu name":"Deluxe Laboratories FCU","id":"actnycf4f4wt","sponsor?":null,"geo_precision":"range","state":"CA"},"type":"Feature","geometry":{"type":"Point","coordinates":[-118.30862,34.095648]}},{"properties":{"zip":"95531","bank type":"Credit Union","assets":0,"geo_score":0.902,"street address":"1244 Glenn Street","cu name":"Denocos Federal Credit Union","id":"actnycnvq14q","sponsor?":null,"geo_precision":"range","state":"CA"},"type":"Feature","geometry":{"type":"Point","coordinates":[-124.211388,41.765679]}},{"properties":{"zip":"92363","bank type":"Credit Union","assets":0,"geo_score":0.429,"street address":"305 \"D\" Street","cu name":"Desert Communities FCU","id":"actnyce6u675","sponsor?":null,"geo_precision":"street","state":"CA"},"type":"Feature","geometry":{"type":"Point","coordinates":[-114.60347,34.83868]}},{"properties":{"zip":"93555","bank type":"Credit Union","assets":0,"geo_score":0.873,"street address":"100 East Ward Avenue","cu name":"Desert Valleys FCU","id":"actnycgwwzvh","sponsor?":null,"geo_precision":"range","state":"CA"},"type":"Feature","geometry":{"type":"Point","coordinates":[-117.669867,35.644317]}},{"properties":{"zip":"94518","bank type":"Credit Union","assets":0,"geo_score":0.805,"street address":"1051 Detroit Avenue","cu name":"Diablo Valley FCU","id":"actnycf5m87q","sponsor?":null,"geo_precision":"range","state":"CA"},"type":"Feature","geometry":{"type":"Point","coordinates":[-122.028982,37.954545]}},{"properties":{"zip":"94531","bank type":"Credit Union","assets":0,"geo_score":0.805,"street address":"4041 Lone Tree Way","cu name":"Dow Great Western Credit Union","id":"actnychcdck1","sponsor?":null,"geo_precision":"range","state":"CA"},"type":"Feature","geometry":{"type":"Point","coordinates":[-121.780308,37.965909]}},{"properties":{"zip":"90241","bank type":"Credit Union","assets":0,"geo_score":0.805,"street address":"8237 Third Street","cu name":"Downey Federal Credit Union","id":"actnycln6j4l","sponsor?":null,"geo_precision":"range","state":"CA"},"type":"Feature","geometry":{"type":"Point","coordinates":[-118.131774,33.941906]}},{"properties":{"zip":"91105","bank type":"Credit Union","assets":0,"geo_score":0.902,"street address":"990 South Fair Oaks Avenue","cu name":"E-Central Credit Union","id":"actnycfak4db","sponsor?":null,"geo_precision":"range","state":"CA"},"type":"Feature","geometry":{"type":"Point","coordinates":[-118.15025,34.129624]}},{"properties":{"zip":"92630","bank type":"Credit Union","assets":0,"geo_score":0.902,"street address":"23021 Lake Center Drive","cu name":"Eagle Community Credit Union","id":"actnycnsy7pq","sponsor?":null,"geo_precision":"range","state":"CA"},"type":"Feature","geometry":{"type":"Point","coordinates":[-117.717483,33.628203]}},{"properties":{"zip":"95242","bank type":"Credit Union","assets":0,"geo_score":0.709,"street address":"1401 Lakeshore Drive","cu name":"Eagle Credit Union","id":"actnyc94ntpd","sponsor?":null,"geo_precision":"street","state":"CA"},"type":"Feature","geometry":{"type":"Point","coordinates":[-121.293444,38.115378]}},{"properties":{"zip":"93711","bank type":"Credit Union","assets":0,"geo_score":0.902,"street address":"2222 West Shaw Avenue","cu name":"Educational Employees CU","id":"actnycjkhwzb","sponsor?":null,"geo_precision":"range","state":"CA"},"type":"Feature","geometry":{"type":"Point","coordinates":[-119.832007,36.808347]}},{"properties":{"zip":"93524","bank type":"Credit Union","assets":0,"geo_score":0.902,"street address":"10 South Muroc Drive","cu name":"Edwards Federal Credit Union","id":"actnycnw7zdh","sponsor?":null,"geo_precision":"range","state":"CA"},"type":"Feature","geometry":{"type":"Point","coordinates":[-117.900815,34.920029]}},{"properties":{"zip":"92020","bank type":"Credit Union","assets":0,"geo_score":0.465,"street address":"266 South Magnolia Avenue","cu name":"El Cajon Federal Credit Union","id":"actnycbtoknk","sponsor?":null,"geo_precision":"street","state":"CA"},"type":"Feature","geometry":{"type":"Point","coordinates":[-117.292369,33.044143]}},{"properties":{"zip":"91732","bank type":"Credit Union","assets":0,"geo_score":0.902,"street address":"11718 Ramona Boulevard","cu name":"El Monte Community CU","id":"actnycmb4jgy","sponsor?":null,"geo_precision":"range","state":"CA"},"type":"Feature","geometry":{"type":"Point","coordinates":[-118.018897,34.074454]}},{"properties":{"zip":"90026","bank type":"Credit Union","assets":0,"geo_score":0.902,"street address":"840 Echo Park Avenue","cu name":"Episcopal Community FCU","id":"actnychqibbh","sponsor?":null,"geo_precision":"range","state":"CA"},"type":"Feature","geometry":{"type":"Point","coordinates":[-118.25869,34.074428]}},{"properties":{"zip":"92025","bank type":"Credit Union","assets":0,"geo_score":0.902,"street address":"201 North Broadway","cu name":"Escondido Federal Credit Union","id":"actnycna2lyl","sponsor?":null,"geo_precision":"range","state":"CA"},"type":"Feature","geometry":{"type":"Point","coordinates":[-117.082392,33.123671]}},{"properties":{"zip":"93305","bank type":"Credit Union","assets":0,"geo_score":0.902,"street address":"1015 Sumner Street","cu name":"Espeeco Federal Credit Union","id":"actnycm17258","sponsor?":null,"geo_precision":"range","state":"CA"},"type":"Feature","geometry":{"type":"Point","coordinates":[-118.986897,35.375407]}},{"properties":{"zip":"92821","bank type":"Credit Union","assets":0,"geo_score":0.902,"street address":"955 West Imperial Highway","cu name":"Evangelical Christian CU","id":"actnycbtdnr8","sponsor?":null,"geo_precision":"range","state":"CA"},"type":"Feature","geometry":{"type":"Point","coordinates":[-117.915069,33.917437]}},{"properties":{"zip":"91754","bank type":"Credit Union","assets":0,"geo_score":0.902,"street address":"2625 Corporate Place","cu name":"F&amp;A Federal Credit Union","id":"actnycjh5ouk","sponsor?":null,"geo_precision":"range","state":"CA"},"type":"Feature","geometry":{"type":"Point","coordinates":[-118.165404,34.046643]}},{"properties":{"zip":"92626","bank type":"Credit Union","assets":0,"geo_score":0.902,"street address":"2501 Harbor Boulevard","cu name":"Fairview Employees FCU","id":"actnycaw7485","sponsor?":null,"geo_precision":"range","state":"CA"},"type":"Feature","geometry":{"type":"Point","coordinates":[-117.91928,33.66383]}},{"properties":{"zip":"92054","bank type":"Credit Union","assets":0,"geo_score":0.74,"street address":"2424 Vista Way","cu name":"Faith Based FCU","id":"actnycmvqgo5","sponsor?":null,"geo_precision":"range","state":"CA"},"type":"Feature","geometry":{"type":"Point","coordinates":[-117.336577,33.183285]}},{"properties":{"zip":"93230","bank type":"Credit Union","assets":0,"geo_score":0.829,"street address":"312 West Seventh Street","cu name":"Families &amp; Schls Together FCU","id":"actnychs825q","sponsor?":null,"geo_precision":"range","state":"CA"},"type":"Feature","geometry":{"type":"Point","coordinates":[-119.64905,36.326163]}},{"properties":{"zip":"90744","bank type":"Credit Union","assets":0,"geo_score":0.902,"street address":"1000 North Avalon Boulevard","cu name":"Family Federal Credit Union","id":"actnyclk9apv","sponsor?":null,"geo_precision":"range","state":"CA"},"type":"Feature","geometry":{"type":"Point","coordinates":[-118.262802,33.784746]}},{"properties":{"zip":"90010","bank type":"Credit Union","assets":0,"geo_score":0.902,"street address":"4601 Wilshire Boulevard","cu name":"Farmers Insurance Group FCU","id":"actnyclbdqrj","sponsor?":null,"geo_precision":"range","state":"CA"},"type":"Feature","geometry":{"type":"Point","coordinates":[-118.330381,34.061957]}},{"properties":{"zip":"90017","bank type":"Credit Union","assets":0,"geo_score":0.829,"street address":"611 West Sixth Street","cu name":"Federal Employees West FCU","id":"actnycdjqqhi","sponsor?":null,"geo_precision":"range","state":"CA"},"type":"Feature","geometry":{"type":"Point","coordinates":[-118.256203,34.049425]}},{"properties":{"zip":"92677","bank type":"Credit Union","assets":0,"geo_score":0.902,"street address":"24000 Avila Road","cu name":"FedONE Federal Credit Union","id":"actnychle8dy","sponsor?":null,"geo_precision":"range","state":"CA"},"type":"Feature","geometry":{"type":"Point","coordinates":[-117.711364,33.563097]}},{"properties":{"zip":"95202","bank type":"Credit Union","assets":0,"geo_score":0.727,"street address":"18 South Center Street","cu name":"Financial Center CU","id":"actnycblu2vo","sponsor?":null,"geo_precision":"range","state":"CA"},"type":"Feature","geometry":{"type":"Point","coordinates":[-121.291071,37.95243]}},{"properties":{"zip":"90242","bank type":"Credit Union","assets":0,"geo_score":0.902,"street address":"7800 East Imperial Highway","cu name":"Financial Partners CU","id":"actnychi534g","sponsor?":null,"geo_precision":"range","state":"CA"},"type":"Feature","geometry":{"type":"Point","coordinates":[-118.155204,33.925667]}},{"properties":{"zip":"94501","bank type":"Credit Union","assets":0,"geo_score":0.902,"street address":"1528 Webster Street","cu name":"Finl Benefits Credit Union","id":"actnycmkn4py","sponsor?":null,"geo_precision":"range","state":"CA"},"type":"Feature","geometry":{"type":"Point","coordinates":[-122.276796,37.775134]}},{"properties":{"zip":"92804","bank type":"Credit Union","assets":0,"geo_score":0.902,"street address":"801 South Brookhurst Street","cu name":"Firestone Financial Srvcs CU","id":"actnycaagg3u","sponsor?":null,"geo_precision":"range","state":"CA"},"type":"Feature","geometry":{"type":"Point","coordinates":[-117.958929,33.820973]}},{"properties":{"zip":"90012","bank type":"Credit Union","assets":0,"geo_score":0.902,"street address":"717 West Temple Street","cu name":"First City CU","id":"actnycmp2iv3","sponsor?":null,"geo_precision":"range","state":"CA"},"type":"Feature","geometry":{"type":"Point","coordinates":[-118.248253,34.059752]}},{"properties":{"zip":"90068","bank type":"Credit Union","assets":0,"geo_score":0.902,"street address":"6735 Forest Lawn Drive","cu name":"First Entertainment CU","id":"actnyce4356p","sponsor?":null,"geo_precision":"range","state":"CA"},"type":"Feature","geometry":{"type":"Point","coordinates":[-118.340516,34.143735]}},{"properties":{"zip":"91790","bank type":"Credit Union","assets":0,"geo_score":0.902,"street address":"1600 West Cameron Avenue","cu name":"First Financial CU","id":"actnycdsiwmq","sponsor?":null,"geo_precision":"range","state":"CA"},"type":"Feature","geometry":{"type":"Point","coordinates":[-117.942484,34.068818]}},{"properties":{"zip":"92243","bank type":"Credit Union","assets":0,"geo_score":0.902,"street address":"1602 West Main Street","cu name":"First Imperial Credit Union","id":"actnycap3vba","sponsor?":null,"geo_precision":"range","state":"CA"},"type":"Feature","geometry":{"type":"Point","coordinates":[-115.571751,32.792913]}},{"properties":{"zip":"94043","bank type":"Credit Union","assets":0,"geo_score":0.902,"street address":"1335 Terra Bella Avenue","cu name":"First Technology FCU","id":"actnyc91c47d","sponsor?":null,"geo_precision":"range","state":"CA"},"type":"Feature","geometry":{"type":"Point","coordinates":[-122.081282,37.409947]}},{"properties":{"zip":"95825","bank type":"Credit Union","assets":0,"geo_score":0.902,"street address":"580 University Avenue","cu name":"First U.S. Community CU","id":"actnychv1c45","sponsor?":null,"geo_precision":"range","state":"CA"},"type":"Feature","geometry":{"type":"Point","coordinates":[-121.419233,38.565636]}},{"properties":{"zip":"91205","bank type":"Credit Union","assets":0,"geo_score":0.902,"street address":"310 East Colorado Street","cu name":"Fiscal Credit Union","id":"actnycic2y9c","sponsor?":null,"geo_precision":"range","state":"CA"},"type":"Feature","geometry":{"type":"Point","coordinates":[-118.252054,34.142547]}},{"properties":{"zip":"92335","bank type":"Credit Union","assets":0,"geo_score":0.902,"street address":"17235 Arrow Boulevard","cu name":"Fontana Federal Credit Union","id":"actnyclkdg26","sponsor?":null,"geo_precision":"range","state":"CA"},"type":"Feature","geometry":{"type":"Point","coordinates":[-117.428855,34.099257]}},{"properties":{"zip":"91006","bank type":"Credit Union","assets":0,"geo_score":0.837,"street address":"30 South First Avenue","cu name":"Foothill Federal Credit Union","id":"actnycch6ou6","sponsor?":null,"geo_precision":"range","state":"CA"},"type":"Feature","geometry":{"type":"Point","coordinates":[-118.028254,34.139308]}},{"properties":{"zip":"95437","bank type":"Credit Union","assets":0,"geo_score":0.902,"street address":"120 North Franklin Street","cu name":"Fort Bragg Community FCU","id":"actnycik1cin","sponsor?":null,"geo_precision":"range","state":"CA"},"type":"Feature","geometry":{"type":"Point","coordinates":[-123.80447,39.442711]}},{"properties":{"zip":"92708","bank type":"Credit Union","assets":0,"geo_score":0.902,"street address":"10200 Slater Avenue","cu name":"Fountain Valley Credit Union","id":"actnycluagaz","sponsor?":null,"geo_precision":"range","state":"CA"},"type":"Feature","geometry":{"type":"Point","coordinates":[-117.950514,33.70895]}},{"properties":{"zip":"93711","bank type":"Credit Union","assets":0,"geo_score":0.902,"street address":"2580 West Shaw Lane","cu name":"Fresco Cnty FCU","id":"actnycl17src","sponsor?":null,"geo_precision":"range","state":"CA"},"type":"Feature","geometry":{"type":"Point","coordinates":[-119.839476,36.809307]}},{"properties":{"zip":"93710","bank type":"Credit Union","assets":0,"geo_score":0.902,"street address":"5300 North Fresno Street","cu name":"Fresno Fire Dept CU","id":"actnyc9hkmnc","sponsor?":null,"geo_precision":"range","state":"CA"},"type":"Feature","geometry":{"type":"Point","coordinates":[-119.781331,36.815739]}},{"properties":{"zip":"93705","bank type":"Credit Union","assets":0,"geo_score":0.829,"street address":"2319 North Parkway Drive","cu name":"Fresno Grangers FCU","id":"actnycn96gkw","sponsor?":null,"geo_precision":"range","state":"CA"},"type":"Feature","geometry":{"type":"Point","coordinates":[-119.837885,36.769293]}},{"properties":{"zip":"93728","bank type":"Credit Union","assets":0,"geo_score":0.902,"street address":"1004 North Van Ness Avenue","cu name":"Fresno Police Department CU","id":"actnycevwhw8","sponsor?":null,"geo_precision":"range","state":"CA"},"type":"Feature","geometry":{"type":"Point","coordinates":[-119.798761,36.756613]}},{"properties":{"zip":"93726","bank type":"Credit Union","assets":0,"geo_score":0.902,"street address":"2525 East Shields Avenue","cu name":"Frst CA FCU","id":"actnycb5r3kn","sponsor?":null,"geo_precision":"range","state":"CA"},"type":"Feature","geometry":{"type":"Point","coordinates":[-119.780303,36.779741]}},{"properties":{"zip":"91208","bank type":"Credit Union","assets":0,"geo_score":0.902,"street address":"1800 Broadview Drive","cu name":"Glendale Area Schools FCU","id":"actnycaxb5fz","sponsor?":null,"geo_precision":"range","state":"CA"},"type":"Feature","geometry":{"type":"Point","coordinates":[-118.227119,34.204068]}},{"properties":{"zip":"91206","bank type":"Credit Union","assets":0,"geo_score":0.902,"street address":"500 East Wilson Avenue","cu name":"Glendale Federal Credit Union","id":"actnycg7sjfm","sponsor?":null,"geo_precision":"range","state":"CA"},"type":"Feature","geometry":{"type":"Point","coordinates":[-118.249472,34.148145]}},{"properties":{"zip":"95826","bank type":"Credit Union","assets":0,"geo_score":0.588,"street address":"8945 Cal Center Drive","cu name":"Golden 1 Credit Union","id":"actnycme2xrz","sponsor?":null,"geo_precision":"street","state":"CA"},"type":"Feature","geometry":{"type":"Point","coordinates":[-121.372231,38.558135]}},{"properties":{"zip":"95336","bank type":"Credit Union","assets":0,"geo_score":0.849,"street address":"409 West Center Street","cu name":"Golden Valley FCU","id":"actnycd3xvki","sponsor?":null,"geo_precision":"range","state":"CA"},"type":"Feature","geometry":{"type":"Point","coordinates":[-121.220669,37.799185]}},{"properties":{"zip":"92840","bank type":"Credit Union","assets":0,"geo_score":0.902,"street address":"11390 Stanford Avenue","cu name":"Golden West Cities FCU","id":"actnyciyholh","sponsor?":null,"geo_precision":"range","state":"CA"},"type":"Feature","geometry":{"type":"Point","coordinates":[-117.933892,33.777796]}},{"properties":{"zip":"93728","bank type":"Credit Union","assets":0,"geo_score":0.902,"street address":"1185 West Hedges Avenue","cu name":"Greater Valley Credit Union","id":"actnyccbolhx","sponsor?":null,"geo_precision":"range","state":"CA"},"type":"Feature","geometry":{"type":"Point","coordinates":[-119.826111,36.75859]}},{"properties":{"zip":"92021","bank type":"Credit Union","assets":0,"geo_score":0.902,"street address":"1069 Graves Avenue","cu name":"Grossmont Schools FCU","id":"actnycp0nhbb","sponsor?":null,"geo_precision":"range","state":"CA"},"type":"Feature","geometry":{"type":"Point","coordinates":[-116.961384,32.812796]}},{"properties":{"zip":"90043","bank type":"Credit Union","assets":0,"geo_score":0.902,"street address":"7225 Crenshaw Boulevard","cu name":"Guidance Church of Religious","id":"actnych1qthn","sponsor?":null,"geo_precision":"range","state":"CA"},"type":"Feature","geometry":{"type":"Point","coordinates":[-118.330939,33.973839]}},{"properties":{"zip":"94949","bank type":"Credit Union","assets":0,"geo_score":0.902,"street address":"11 Digital Drive","cu name":"Hamilton Federal Credit Union","id":"actnycls0bxu","sponsor?":null,"geo_precision":"range","state":"CA"},"type":"Feature","geometry":{"type":"Point","coordinates":[-122.531443,38.070759]}},{"properties":{"zip":"90010","bank type":"Credit Union","assets":0,"geo_score":0.902,"street address":"3700 Wilshire Boulevard","cu name":"Hanin Federal Credit Union","id":"actnycjc74wr","sponsor?":null,"geo_precision":"range","state":"CA"},"type":"Feature","geometry":{"type":"Point","coordinates":[-118.307836,34.061699]}},{"properties":{"zip":"90717","bank type":"Credit Union","assets":0,"geo_score":0.902,"street address":"25433 Narbonne Avenue","cu name":"Harbor Area Postal Emps FCU","id":"actnycp4zkop","sponsor?":null,"geo_precision":"range","state":"CA"},"type":"Feature","geometry":{"type":"Point","coordinates":[-118.320033,33.792927]}},{"properties":{"zip":"90745","bank type":"Credit Union","assets":0,"geo_score":0.735,"street address":"One Civic Plaza Drive","cu name":"Harbor Federal Credit Union","id":"actnyceuhdhb","sponsor?":null,"geo_precision":"street","state":"CA"},"type":"Feature","geometry":{"type":"Point","coordinates":[-118.259385,33.832778]}},{"properties":{"zip":"92868","bank type":"Credit Union","assets":0,"geo_score":0.902,"street address":"530 South Main Street","cu name":"Health Assoc. FCU","id":"actnycha7lqb","sponsor?":null,"geo_precision":"range","state":"CA"},"type":"Feature","geometry":{"type":"Point","coordinates":[-117.867366,33.778967]}},{"properties":{"zip":"95827","bank type":"Credit Union","assets":0,"geo_score":0.902,"street address":"10399 Old Placerville Road","cu name":"Heritage Community CU","id":"actnycen0trw","sponsor?":null,"geo_precision":"range","state":"CA"},"type":"Feature","geometry":{"type":"Point","coordinates":[-121.307684,38.566567]}},{"properties":{"zip":"93514","bank type":"Credit Union","assets":0,"geo_score":0.902,"street address":"136 West Line Street","cu name":"High Sierra Credit Union","id":"actnycdxz3l3","sponsor?":null,"geo_precision":"range","state":"CA"},"type":"Feature","geometry":{"type":"Point","coordinates":[-118.396069,37.361291]}},{"properties":{"zip":"90502","bank type":"Credit Union","assets":0,"geo_score":0.902,"street address":"19701 Hamilton Avenue","cu name":"Honda Federal Credit Union","id":"actnycl76oyy","sponsor?":null,"geo_precision":"range","state":"CA"},"type":"Feature","geometry":{"type":"Point","coordinates":[-118.28608,33.850605]}},{"properties":{"zip":"92648","bank type":"Credit Union","assets":0,"geo_score":0.902,"street address":"2000 Main Street","cu name":"Huntington Beach Cty Emps CU","id":"actnyclipbk5","sponsor?":null,"geo_precision":"range","state":"CA"},"type":"Feature","geometry":{"type":"Point","coordinates":[-118.00182,33.67926]}},{"properties":{"zip":"90301","bank type":"Credit Union","assets":0,"geo_score":0.812,"street address":"One West Manchester Boulevard","cu name":"I.C.E. Federal Credit Union","id":"actnycnckygn","sponsor?":null,"geo_precision":"street","state":"CA"},"type":"Feature","geometry":{"type":"Point","coordinates":[-118.355381,33.961743]}},{"properties":{"zip":"90744","bank type":"Credit Union","assets":0,"geo_score":0.902,"street address":"1134 North Avalon Boulevard","cu name":"I.L.W.U. Credit Union","id":"actnycaoaof4","sponsor?":null,"geo_precision":"range","state":"CA"},"type":"Feature","geometry":{"type":"Point","coordinates":[-118.262837,33.786028]}},{"properties":{"zip":"94553","bank type":"Credit Union","assets":0,"geo_score":0.902,"street address":"1875 Arnold Drive","cu name":"IBEW Members Plus CU","id":"actnyca6ziw6","sponsor?":null,"geo_precision":"range","state":"CA"},"type":"Feature","geometry":{"type":"Point","coordinates":[-122.088531,37.991552]}},{"properties":{"zip":"94607","bank type":"Credit Union","assets":0,"geo_score":0.902,"street address":"237 Fallon Street","cu name":"ILWU-FSC Federal Credit Union","id":"actnycmqqhjf","sponsor?":null,"geo_precision":"range","state":"CA"},"type":"Feature","geometry":{"type":"Point","coordinates":[-122.266556,37.792975]}},{"properties":{"zip":"92021","bank type":"Credit Union","assets":0,"geo_score":0.902,"street address":"570 Broadway","cu name":"Inland Federal Credit Union","id":"actnycp5jw8e","sponsor?":null,"geo_precision":"range","state":"CA"},"type":"Feature","geometry":{"type":"Point","coordinates":[-116.955992,32.807758]}},{"properties":{"zip":"92335","bank type":"Credit Union","assets":0,"geo_score":0.902,"street address":"9389 Cherry Avenue","cu name":"Inland Valley FCU","id":"actnycam569i","sponsor?":null,"geo_precision":"range","state":"CA"},"type":"Feature","geometry":{"type":"Point","coordinates":[-117.488775,34.084523]}},{"properties":{"zip":"92806","bank type":"Credit Union","assets":0,"geo_score":0.78,"street address":"1475 South State College Boulevard","cu name":"Interstate FCU","id":"actnyckq327u","sponsor?":null,"geo_precision":"range","state":"CA"},"type":"Feature","geometry":{"type":"Point","coordinates":[-117.889163,33.81356]}},{"properties":{"zip":"90018","bank type":"Credit Union","assets":0,"geo_score":0.902,"street address":"3037 West Jefferson Boulevard","cu name":"JACOM CU","id":"actnycli4idr","sponsor?":null,"geo_precision":"range","state":"CA"},"type":"Feature","geometry":{"type":"Point","coordinates":[-118.328981,34.02568]}},{"properties":{"zip":"94115","bank type":"Credit Union","assets":0,"geo_score":0.902,"street address":"1975 Post Street","cu name":"Jones Methodist Church CU","id":"actnyckqk80y","sponsor?":null,"geo_precision":"range","state":"CA"},"type":"Feature","geometry":{"type":"Point","coordinates":[-122.434422,37.784916]}},{"properties":{"zip":"91304","bank type":"Credit Union","assets":0,"geo_score":0.902,"street address":"22841 Elkwood Street","cu name":"K.C. No. 3601 FCU","id":"actnych5ow3e","sponsor?":null,"geo_precision":"range","state":"CA"},"type":"Feature","geometry":{"type":"Point","coordinates":[-118.624799,34.212513]}},{"properties":{"zip":"94596","bank type":"Credit Union","assets":0,"geo_score":0.902,"street address":"1600 South Main Street","cu name":"Kaiperm Federal Credit Union","id":"actnycev9rxk","sponsor?":null,"geo_precision":"range","state":"CA"},"type":"Feature","geometry":{"type":"Point","coordinates":[-122.057364,37.890072]}},{"properties":{"zip":"94591","bank type":"Credit Union","assets":0,"geo_score":0.829,"street address":"173 Plaza Drive","cu name":"Kaiperm North Bay FCU","id":"actnycjvdjwb","sponsor?":null,"geo_precision":"range","state":"CA"},"type":"Feature","geometry":{"type":"Point","coordinates":[-122.217959,38.134079]}},{"properties":{"zip":"93301","bank type":"Credit Union","assets":0,"geo_score":0.585,"street address":"1717 Truxtun Avenue","cu name":"Kern Federal Credit Union","id":"actnycdwnzgu","sponsor?":null,"geo_precision":"zip","state":"CA"},"type":"Feature","geometry":{"type":"Point","coordinates":[-118.970102,35.063856]}},{"properties":{"zip":"93311","bank type":"Credit Union","assets":0,"geo_score":0.805,"street address":"9500 Ming Avenue","cu name":"Kern Schools FCU","id":"actnycla1tjg","sponsor?":null,"geo_precision":"range","state":"CA"},"type":"Feature","geometry":{"type":"Point","coordinates":[-119.107224,35.339855]}},{"properties":{"zip":"92021","bank type":"Credit Union","assets":0,"geo_score":0.902,"street address":"792 Greenfield Drive","cu name":"Ketema Federal Credit Union","id":"actnyce9jrkc","sponsor?":null,"geo_precision":"range","state":"CA"},"type":"Feature","geometry":{"type":"Point","coordinates":[-116.952645,32.813401]}},{"properties":{"zip":"95051","bank type":"Credit Union","assets":0,"geo_score":0.902,"street address":"2805 Bowers Avenue","cu name":"KeyPoint CU","id":"actnycjyjagz","sponsor?":null,"geo_precision":"range","state":"CA"},"type":"Feature","geometry":{"type":"Point","coordinates":[-121.977711,37.374018]}},{"properties":{"zip":"90266","bank type":"Credit Union","assets":0,"geo_score":0.902,"street address":"1440 Rosecrans Avenue","cu name":"Kinecta Federal Credit Union","id":"actnycn072nc","sponsor?":null,"geo_precision":"range","state":"CA"},"type":"Feature","geometry":{"type":"Point","coordinates":[-118.38702,33.9018]}},{"properties":{"zip":"93230","bank type":"Credit Union","assets":0,"geo_score":0.902,"street address":"1415 West Lacey Boulevard","cu name":"Kings Federal Credit Union","id":"actnyce3vdpw","sponsor?":null,"geo_precision":"range","state":"CA"},"type":"Feature","geometry":{"type":"Point","coordinates":[-119.666481,36.328004]}},{"properties":{"zip":"91106","bank type":"Credit Union","assets":0,"geo_score":0.902,"street address":"1021 East Walnut Street","cu name":"L. A. Electrical Workers CU","id":"actnyciybxbu","sponsor?":null,"geo_precision":"range","state":"CA"},"type":"Feature","geometry":{"type":"Point","coordinates":[-118.128358,34.149687]}},{"properties":{"zip":"90017","bank type":"Credit Union","assets":0,"geo_score":0.849,"street address":"637 South Lucas Avenue","cu name":"L.A. Healthcare FCU","id":"actnyce6bmqq","sponsor?":null,"geo_precision":"range","state":"CA"},"type":"Feature","geometry":{"type":"Point","coordinates":[-118.264299,34.054242]}},{"properties":{"zip":"91105","bank type":"Credit Union","assets":0,"geo_score":0.902,"street address":"1520 West Colorado Boulevard","cu name":"LA Financial FCU","id":"actnychattft","sponsor?":null,"geo_precision":"range","state":"CA"},"type":"Feature","geometry":{"type":"Point","coordinates":[-118.180274,34.140803]}},{"properties":{"zip":"92354","bank type":"Credit Union","assets":0,"geo_score":0.902,"street address":"26151 Mayberry Street","cu name":"La Loma FCU","id":"actnycid4jny","sponsor?":null,"geo_precision":"range","state":"CA"},"type":"Feature","geometry":{"type":"Point","coordinates":[-117.232684,34.048471]}},{"properties":{"zip":"91340","bank type":"Credit Union","assets":0,"geo_score":0.707,"street address":"662 Kalisher Street","cu name":"LA Mission FCU","id":"actnyci5x2rl","sponsor?":null,"geo_precision":"street","state":"CA"},"type":"Feature","geometry":{"type":"Point","coordinates":[-118.451992,34.279666]}},{"properties":{"zip":"96130","bank type":"Credit Union","assets":0,"geo_score":0.708,"street address":"2605 Riverside Drive","cu name":"Lassen County FCU","id":"actnycbagbq3","sponsor?":null,"geo_precision":"street","state":"CA"},"type":"Feature","geometry":{"type":"Point","coordinates":[-120.630634,40.406528]}},{"properties":{"zip":"92683","bank type":"Credit Union","assets":0,"geo_score":0.805,"street address":"5505 Garden Grove Boulevard","cu name":"LBS Financial CU","id":"actnyccibr91","sponsor?":null,"geo_precision":"range","state":"CA"},"type":"Feature","geometry":{"type":"Point","coordinates":[-118.037486,33.773189]}},{"properties":{"zip":"93060","bank type":"Credit Union","assets":0,"geo_score":0.902,"street address":"1141 Cummings Road","cu name":"Limoneira Federal Credit Union","id":"actnycogxtip","sponsor?":null,"geo_precision":"range","state":"CA"},"type":"Feature","geometry":{"type":"Point","coordinates":[-119.12476,34.337535]}},{"properties":{"zip":"90039","bank type":"Credit Union","assets":0,"geo_score":0.902,"street address":"3352 Glendale Boulevard","cu name":"Lithuanian Credit Union","id":"actnycev2lhj","sponsor?":null,"geo_precision":"range","state":"CA"},"type":"Feature","geometry":{"type":"Point","coordinates":[-118.258641,34.119766]}},{"properties":{"zip":"91942","bank type":"Credit Union","assets":0,"geo_score":0.805,"street address":"7750 University Avenue","cu name":"LMCC Employees FCU","id":"actnycig9rfd","sponsor?":null,"geo_precision":"range","state":"CA"},"type":"Feature","geometry":{"type":"Point","coordinates":[-117.031496,32.76147]}},{"properties":{"zip":"91505","bank type":"Credit Union","assets":0,"geo_score":0.902,"street address":"2340 North Hollywood Way","cu name":"Logix Federal Credit Union","id":"actnycoxsx3q","sponsor?":null,"geo_precision":"range","state":"CA"},"type":"Feature","geometry":{"type":"Point","coordinates":[-118.34899,34.190231]}},{"properties":{"zip":"90755","bank type":"Credit Union","assets":0,"geo_score":0.902,"street address":"2801 Temple Avenue","cu name":"Long Beach City Emps FCU","id":"actnyci0a1b7","sponsor?":null,"geo_precision":"range","state":"CA"},"type":"Feature","geometry":{"type":"Point","coordinates":[-118.158914,33.80937]}},{"properties":{"zip":"90815","bank type":"Credit Union","assets":0,"geo_score":0.902,"street address":"2245 Argonne Avenue","cu name":"Long Beach Firemen's CU","id":"actnycn1y3ka","sponsor?":null,"geo_precision":"range","state":"CA"},"type":"Feature","geometry":{"type":"Point","coordinates":[-118.136149,33.799628]}},{"properties":{"zip":"91205","bank type":"Credit Union","assets":0,"geo_score":0.902,"street address":"300 South Glendale Avenue","cu name":"Los Angeles FCU","id":"actnycbeo23b","sponsor?":null,"geo_precision":"range","state":"CA"},"type":"Feature","geometry":{"type":"Point","coordinates":[-118.249695,34.14179]}},{"properties":{"zip":"90041","bank type":"Credit Union","assets":0,"geo_score":0.902,"street address":"815 Colorado Boulevard","cu name":"Los Angeles Firemen's CU","id":"actnyc95cv62","sponsor?":null,"geo_precision":"range","state":"CA"},"type":"Feature","geometry":{"type":"Point","coordinates":[-118.184745,34.139929]}},{"properties":{"zip":"90012","bank type":"Credit Union","assets":0,"geo_score":0.902,"street address":"964 North Hill Street","cu name":"Los Angeles Lee FCU","id":"actnycj4fqzy","sponsor?":null,"geo_precision":"range","state":"CA"},"type":"Feature","geometry":{"type":"Point","coordinates":[-118.237631,34.06657]}},{"properties":{"zip":"91406","bank type":"Credit Union","assets":0,"geo_score":0.902,"street address":"16150 Sherman Way","cu name":"Los Angeles Police FCU","id":"actnycejtvi0","sponsor?":null,"geo_precision":"range","state":"CA"},"type":"Feature","geometry":{"type":"Point","coordinates":[-118.484922,34.200976]}},{"properties":{"zip":"92821","bank type":"Credit Union","assets":0,"geo_score":0.902,"street address":"251 South Randolph Avenue","cu name":"Lutheran Credit Union of Am","id":"actnyce6rz7v","sponsor?":null,"geo_precision":"range","state":"CA"},"type":"Feature","geometry":{"type":"Point","coordinates":[-117.889808,33.912695]}},{"properties":{"zip":"94903","bank type":"Credit Union","assets":0,"geo_score":0.902,"street address":"30 North San Pedro Road","cu name":"Marin County FCU","id":"actnycd8oavt","sponsor?":null,"geo_precision":"range","state":"CA"},"type":"Feature","geometry":{"type":"Point","coordinates":[-122.532379,37.994172]}},{"properties":{"zip":"90012","bank type":"Credit Union","assets":0,"geo_score":0.902,"street address":"222 South Hewitt Street","cu name":"Maryknoll of Los Angeles FCU","id":"actnycncych8","sponsor?":null,"geo_precision":"range","state":"CA"},"type":"Feature","geometry":{"type":"Point","coordinates":[-118.236033,34.046093]}},{"properties":{"zip":"91311","bank type":"Credit Union","assets":0,"geo_score":0.902,"street address":"20045 Prairie Street","cu name":"Matadors Community CU","id":"actnycnbbj2p","sponsor?":null,"geo_precision":"range","state":"CA"},"type":"Feature","geometry":{"type":"Point","coordinates":[-118.570381,34.23927]}},{"properties":{"zip":"94607","bank type":"Credit Union","assets":0,"geo_score":0.819,"street address":"555 12th Street","cu name":"Matson Employees FCU","id":"actnycla05qs","sponsor?":null,"geo_precision":"range","state":"CA"},"type":"Feature","geometry":{"type":"Point","coordinates":[-122.275142,37.804033]}},{"properties":{"zip":"90245","bank type":"Credit Union","assets":0,"geo_score":0.902,"street address":"333 Continental Boulevard","cu name":"Mattel Federal Credit Union","id":"actnyco9e15l","sponsor?":null,"geo_precision":"range","state":"CA"},"type":"Feature","geometry":{"type":"Point","coordinates":[-118.390928,33.919797]}},{"properties":{"zip":"95816","bank type":"Credit Union","assets":0,"geo_score":0.902,"street address":"2100 Q Street","cu name":"McClatchy Employees CU","id":"actnyciu56dm","sponsor?":null,"geo_precision":"range","state":"CA"},"type":"Feature","geometry":{"type":"Point","coordinates":[-121.480581,38.568245]}},{"properties":{"zip":"94104","bank type":"Credit Union","assets":0,"geo_score":0.762,"street address":"One Post Street","cu name":"McKesson Employees FCU","id":"actnycdem7nw","sponsor?":null,"geo_precision":"street","state":"CA"},"type":"Feature","geometry":{"type":"Point","coordinates":[-122.401997,37.789103]}},{"properties":{"zip":"91506","bank type":"Credit Union","assets":0,"geo_score":0.902,"street address":"1020 West Olive Avenue","cu name":"Media City Community CU","id":"actnycissggo","sponsor?":null,"geo_precision":"range","state":"CA"},"type":"Feature","geometry":{"type":"Point","coordinates":[-118.318454,34.171559]}},{"properties":{"zip":"96003","bank type":"Credit Union","assets":0,"geo_score":0.902,"street address":"4710 Mountain Lakes Boulevard","cu name":"Members 1st CU","id":"actnycb179ii","sponsor?":null,"geo_precision":"range","state":"CA"},"type":"Feature","geometry":{"type":"Point","coordinates":[-122.37602,40.629159]}},{"properties":{"zip":"95482","bank type":"Credit Union","assets":0,"geo_score":0.902,"street address":"526 South State Street","cu name":"Mendo Lake Credit Union","id":"actnychoet6h","sponsor?":null,"geo_precision":"range","state":"CA"},"type":"Feature","geometry":{"type":"Point","coordinates":[-123.207084,39.146896]}},{"properties":{"zip":"94025","bank type":"Credit Union","assets":0,"geo_score":0.902,"street address":"345 Middlefield Road","cu name":"Menlo Survey FCU","id":"actnycp2m6kp","sponsor?":null,"geo_precision":"range","state":"CA"},"type":"Feature","geometry":{"type":"Point","coordinates":[-122.170052,37.457601]}},{"properties":{"zip":"95340","bank type":"Credit Union","assets":0,"geo_score":0.837,"street address":"725 West 18th Street","cu name":"Merced Municipal Employees CU","id":"actnyckodrer","sponsor?":null,"geo_precision":"range","state":"CA"},"type":"Feature","geometry":{"type":"Point","coordinates":[-120.486993,37.304023]}},{"properties":{"zip":"95348","bank type":"Credit Union","assets":0,"geo_score":0.902,"street address":"1021 Olivewood Drive","cu name":"Merced School Employees FCU","id":"actnycn5m96o","sponsor?":null,"geo_precision":"range","state":"CA"},"type":"Feature","geometry":{"type":"Point","coordinates":[-120.484926,37.318274]}},{"properties":{"zip":"95340","bank type":"Credit Union","assets":0,"geo_score":0.902,"street address":"1911 M Street","cu name":"Merco Credit Union","id":"actnycl8nz82","sponsor?":null,"geo_precision":"range","state":"CA"},"type":"Feature","geometry":{"type":"Point","coordinates":[-120.483229,37.304894]}},{"properties":{"zip":"95123","bank type":"Credit Union","assets":0,"geo_score":0.902,"street address":"5615 Chesbro Avenue","cu name":"Meriwest Credit Union","id":"actnycbbv1we","sponsor?":null,"geo_precision":"range","state":"CA"},"type":"Feature","geometry":{"type":"Point","coordinates":[-121.842599,37.248627]}},{"properties":{"zip":"90221","bank type":"Credit Union","assets":0,"geo_score":0.902,"street address":"325 South Santa Fe Avenue","cu name":"Mid-Cities CU","id":"actnycb7gqdp","sponsor?":null,"geo_precision":"range","state":"CA"},"type":"Feature","geometry":{"type":"Point","coordinates":[-118.21614,33.892547]}},{"properties":{"zip":"92126","bank type":"Credit Union","assets":0,"geo_score":0.902,"street address":"9494 Miramar Road","cu name":"Miramar Federal Credit Union","id":"actnycnjlzx0","sponsor?":null,"geo_precision":"range","state":"CA"},"type":"Feature","geometry":{"type":"Point","coordinates":[-117.126827,32.893819]}},{"properties":{"zip":"95050","bank type":"Credit Union","assets":0,"geo_score":0.902,"street address":"1391 Franklin Street","cu name":"Mission City FCU","id":"actnycapytgq","sponsor?":null,"geo_precision":"range","state":"CA"},"type":"Feature","geometry":{"type":"Point","coordinates":[-121.948203,37.34852]}},{"properties":{"zip":"92121","bank type":"Credit Union","assets":0,"geo_score":0.902,"street address":"5785 Oberlin Drive","cu name":"Mission FCU","id":"actnyces4tg5","sponsor?":null,"geo_precision":"range","state":"CA"},"type":"Feature","geometry":{"type":"Point","coordinates":[-117.192903,32.894295]}},{"properties":{"zip":"95355","bank type":"Credit Union","assets":0,"geo_score":0.902,"street address":"3600 Coffee Road","cu name":"MOCSE Federal Credit Union","id":"actnyckeq3q2","sponsor?":null,"geo_precision":"range","state":"CA"},"type":"Feature","geometry":{"type":"Point","coordinates":[-120.976094,37.691317]}},{"properties":{"zip":"95354","bank type":"Credit Union","assets":0,"geo_score":0.819,"street address":"430 12th Street","cu name":"Modesto's First FCU","id":"actnycd3yy16","sponsor?":null,"geo_precision":"range","state":"CA"},"type":"Feature","geometry":{"type":"Point","coordinates":[-120.992317,37.636877]}},{"properties":{"zip":"93501","bank type":"Credit Union","assets":0,"geo_score":0.902,"street address":"9350 Oak Creek Road","cu name":"Mojave Plant Employees FCU","id":"actnycmtfcf8","sponsor?":null,"geo_precision":"range","state":"CA"},"type":"Feature","geometry":{"type":"Point","coordinates":[-118.295157,35.038288]}},{"properties":{"zip":"95242","bank type":"Credit Union","assets":0,"geo_score":0.902,"street address":"531 North Mills Avenue","cu name":"Mokelumne Federal Credit Union","id":"actnycb6zdy8","sponsor?":null,"geo_precision":"range","state":"CA"},"type":"Feature","geometry":{"type":"Point","coordinates":[-121.297771,38.145098]}},{"properties":{"zip":"91016","bank type":"Credit Union","assets":0,"geo_score":0.902,"street address":"415 South Ivy Avenue","cu name":"Monrovia City Employees FCU","id":"actnyc9g751o","sponsor?":null,"geo_precision":"range","state":"CA"},"type":"Feature","geometry":{"type":"Point","coordinates":[-117.99885,34.147706]}},{"properties":{"zip":"93901","bank type":"Credit Union","assets":0,"geo_score":0.902,"street address":"20 West Market Street","cu name":"Monterey Cnty Employees CU","id":"actnych7kok7","sponsor?":null,"geo_precision":"range","state":"CA"},"type":"Feature","geometry":{"type":"Point","coordinates":[-121.656578,36.677831]}},{"properties":{"zip":"93940","bank type":"Credit Union","assets":0,"geo_score":0.902,"street address":"501 East Franklin Street","cu name":"Monterey Credit Union","id":"actnycnmwd2y","sponsor?":null,"geo_precision":"range","state":"CA"},"type":"Feature","geometry":{"type":"Point","coordinates":[-121.889132,36.599092]}},{"properties":{"zip":"94577","bank type":"Credit Union","assets":0,"geo_score":0.902,"street address":"2450 Washington Avenue","cu name":"Moore West FCU","id":"actnycbkmu7o","sponsor?":null,"geo_precision":"range","state":"CA"},"type":"Feature","geometry":{"type":"Point","coordinates":[-122.149272,37.71425]}},{"properties":{"zip":"90038","bank type":"Credit Union","assets":0,"geo_score":0.837,"street address":"817 North Vine Street","cu name":"Musicians' Interguild CU","id":"actnycdbssdr","sponsor?":null,"geo_precision":"range","state":"CA"},"type":"Feature","geometry":{"type":"Point","coordinates":[-118.326682,34.085901]}},{"properties":{"zip":"90012","bank type":"Credit Union","assets":0,"geo_score":0.902,"street address":"700 North Alameda Street","cu name":"MWD Federal Credit Union","id":"actnyc9lt3z3","sponsor?":null,"geo_precision":"range","state":"CA"},"type":"Feature","geometry":{"type":"Point","coordinates":[-118.237866,34.054271]}},{"properties":{"zip":"94063","bank type":"Credit Union","assets":0,"geo_score":0.902,"street address":"510 Veterans Boulevard","cu name":"My Credit Union","id":"actnyc8r9tqz","sponsor?":null,"geo_precision":"range","state":"CA"},"type":"Feature","geometry":{"type":"Point","coordinates":[-122.23324,37.493164]}},{"properties":{"zip":"95051","bank type":"Credit Union","assets":0,"geo_score":0.902,"street address":"2999 San Ysidro Way","cu name":"National 1st CU","id":"actnycm8lc6w","sponsor?":null,"geo_precision":"range","state":"CA"},"type":"Feature","geometry":{"type":"Point","coordinates":[-121.99768,37.37395]}},{"properties":{"zip":"91523","bank type":"Credit Union","assets":0,"geo_score":0.805,"street address":"3000 West Alameda Avenue","cu name":"NBC Universal Employees FCU","id":"actnyckqntcv","sponsor?":null,"geo_precision":"range","state":"CA"},"type":"Feature","geometry":{"type":"Point","coordinates":[-118.33419,34.156174]}},{"properties":{"zip":"94111","bank type":"Credit Union","assets":0,"geo_score":0.902,"street address":"683 Clay Street","cu name":"NE Cmnty FCU","id":"actnycet4y1v","sponsor?":null,"geo_precision":"range","state":"CA"},"type":"Feature","geometry":{"type":"Point","coordinates":[-122.403688,37.794557]}},{"properties":{"zip":"92663","bank type":"Credit Union","assets":0,"geo_score":0.902,"street address":"425 Old Newport Boulevard","cu name":"Newport Beach City Emps FCU","id":"actnycgn3kf9","sponsor?":null,"geo_precision":"range","state":"CA"},"type":"Feature","geometry":{"type":"Point","coordinates":[-117.926111,33.627581]}},{"properties":{"zip":"90248","bank type":"Credit Union","assets":0,"geo_score":0.902,"street address":"18425 South Western Avenue","cu name":"Nikkei Credit Union","id":"actnycoky6b6","sponsor?":null,"geo_precision":"range","state":"CA"},"type":"Feature","geometry":{"type":"Point","coordinates":[-118.309148,33.864139]}},{"properties":{"zip":"92127","bank type":"Credit Union","assets":0,"geo_score":0.902,"street address":"17045 Via Del Campo","cu name":"North County CU","id":"actnycop2gdg","sponsor?":null,"geo_precision":"range","state":"CA"},"type":"Feature","geometry":{"type":"Point","coordinates":[-117.0901,33.018219]}},{"properties":{"zip":"91601","bank type":"Credit Union","assets":0,"geo_score":0.902,"street address":"11304 Chandler Boulevard","cu name":"North Hollywood FCU","id":"actnyc9ctiqf","sponsor?":null,"geo_precision":"range","state":"CA"},"type":"Feature","geometry":{"type":"Point","coordinates":[-118.378918,34.167982]}},{"properties":{"zip":"92111","bank type":"Credit Union","assets":0,"geo_score":0.902,"street address":"5898 Copley Drive","cu name":"North Island Financial CU","id":"actnycj4wgl9","sponsor?":null,"geo_precision":"range","state":"CA"},"type":"Feature","geometry":{"type":"Point","coordinates":[-117.167511,32.840277]}},{"properties":{"zip":"94114","bank type":"Credit Union","assets":0,"geo_score":0.902,"street address":"425 Hoffman Avenue","cu name":"Northern California Latvian CU","id":"actnycgoogyr","sponsor?":null,"geo_precision":"range","state":"CA"},"type":"Feature","geometry":{"type":"Point","coordinates":[-122.440415,37.749698]}},{"properties":{"zip":"95521","bank type":"Credit Union","assets":0,"geo_score":0.78,"street address":"1270 Giuntoli Lane","cu name":"Northern Redwood FCU","id":"actnycnpukml","sponsor?":null,"geo_precision":"range","state":"CA"},"type":"Feature","geometry":{"type":"Point","coordinates":[-124.08117,40.904981]}},{"properties":{"zip":"90248","bank type":"Credit Union","assets":0,"geo_score":0.902,"street address":"879 West 190th Street","cu name":"Northrop Grumman FCU","id":"actnycguhsab","sponsor?":null,"geo_precision":"range","state":"CA"},"type":"Feature","geometry":{"type":"Point","coordinates":[-118.288329,33.860023]}},{"properties":{"zip":"92647","bank type":"Credit Union","assets":0,"geo_score":0.902,"street address":"7812 Edinger Avenue","cu name":"NuVision Federal Credit Union","id":"actnycfyh2mo","sponsor?":null,"geo_precision":"range","state":"CA"},"type":"Feature","geometry":{"type":"Point","coordinates":[-117.9939,33.7301]}},{"properties":{"zip":"90755","bank type":"Credit Union","assets":0,"geo_score":0.902,"street address":"2525 Cherry Avenue","cu name":"Ocean Crest FCU","id":"actnychvf49w","sponsor?":null,"geo_precision":"range","state":"CA"},"type":"Feature","geometry":{"type":"Point","coordinates":[-118.16767,33.803383]}},{"properties":{"zip":"91342","bank type":"Credit Union","assets":0,"geo_score":0.857,"street address":"14445 Olive View Drive","cu name":"Olive View Emps FCU","id":"actnycnfg59l","sponsor?":null,"geo_precision":"range","state":"CA"},"type":"Feature","geometry":{"type":"Point","coordinates":[-118.44644,34.324474]}},{"properties":{"zip":"91762","bank type":"Credit Union","assets":0,"geo_score":0.902,"street address":"1520 North Palmetto Avenue","cu name":"Ontario Montclair Sch Emps FCU","id":"actnycbrom6w","sponsor?":null,"geo_precision":"range","state":"CA"},"type":"Feature","geometry":{"type":"Point","coordinates":[-117.667314,34.086126]}},{"properties":{"zip":"91762","bank type":"Credit Union","assets":0,"geo_score":0.902,"street address":"202 West B Street","cu name":"Ontario Public Employees FCU","id":"actnycjjwagm","sponsor?":null,"geo_precision":"range","state":"CA"},"type":"Feature","geometry":{"type":"Point","coordinates":[-117.653556,34.064661]}},{"properties":{"zip":"94551","bank type":"Credit Union","assets":0,"geo_score":0.422,"street address":"250 North Canyons Parkway","cu name":"Operating Engineers Local","id":"actnycknuhtt","sponsor?":null,"geo_precision":"street","state":"CA"},"type":"Feature","geometry":{"type":"Point","coordinates":[-121.941023,37.769957]}},{"properties":{"zip":"92705","bank type":"Credit Union","assets":0,"geo_score":0.902,"street address":"1701 East Saint Andrew Place","cu name":"Orange County's Credit Union","id":"actnycfqclio","sponsor?":null,"geo_precision":"range","state":"CA"},"type":"Feature","geometry":{"type":"Point","coordinates":[-117.84144,33.72061]}},{"properties":{"zip":"95350","bank type":"Credit Union","assets":0,"geo_score":0.902,"street address":"2112 McHenry Avenue","cu name":"Organized Labor CU","id":"actnycjd5di3","sponsor?":null,"geo_precision":"range","state":"CA"},"type":"Feature","geometry":{"type":"Point","coordinates":[-120.993865,37.664961]}},{"properties":{"zip":"91767","bank type":"Credit Union","assets":0,"geo_score":0.902,"street address":"1880 North Garey Avenue","cu name":"P.V.H.M.C. FCU","id":"actnycoqn8f2","sponsor?":null,"geo_precision":"range","state":"CA"},"type":"Feature","geometry":{"type":"Point","coordinates":[-117.752405,34.07893]}},{"properties":{"zip":"92835","bank type":"Credit Union","assets":0,"geo_score":0.805,"street address":"401 East Imperial Highway","cu name":"Pacific Community Credit Union","id":"actnycmlor7o","sponsor?":null,"geo_precision":"range","state":"CA"},"type":"Feature","geometry":{"type":"Point","coordinates":[-117.941181,33.917416]}},{"properties":{"zip":"91768","bank type":"Credit Union","assets":0,"geo_score":0.857,"street address":"3530 Pomona Boulevard","cu name":"Pacific Federal Credit Union","id":"actnycdkc6dx","sponsor?":null,"geo_precision":"range","state":"CA"},"type":"Feature","geometry":{"type":"Point","coordinates":[-117.810829,34.047134]}},{"properties":{"zip":"92056","bank type":"Credit Union","assets":0,"geo_score":0.45,"street address":"1278 Rocky Point Drive","cu name":"Pacific Marine Credit Union","id":"actnyca6n8wx","sponsor?":null,"geo_precision":"street","state":"CA"},"type":"Feature","geometry":{"type":"Point","coordinates":[-117.237131,33.250459]}},{"properties":{"zip":"93010","bank type":"Credit Union","assets":0,"geo_score":0.844,"street address":"761 Daily Drive","cu name":"Pacific Oaks FCU","id":"actnyce04qjg","sponsor?":null,"geo_precision":"range","state":"CA"},"type":"Feature","geometry":{"type":"Point","coordinates":[-119.091629,34.221184]}},{"properties":{"zip":"95126","bank type":"Credit Union","assets":0,"geo_score":0.577,"street address":"1040 Leigh Avenue","cu name":"Pacific Postal Credit Union","id":"actnycenvo4v","sponsor?":null,"geo_precision":"range","state":"CA"},"type":"Feature","geometry":{"type":"Point","coordinates":[-121.889133,37.294479]}},{"properties":{"zip":"90071","bank type":"Credit Union","assets":0,"geo_score":0.902,"street address":"333 South Hope Street","cu name":"Pacific Resource Credit Union","id":"actnyccy70sk","sponsor?":null,"geo_precision":"range","state":"CA"},"type":"Feature","geometry":{"type":"Point","coordinates":[-118.252275,34.053711]}},{"properties":{"zip":"94519","bank type":"Credit Union","assets":0,"geo_score":0.902,"street address":"3000 Clayton Road","cu name":"Pacific Service Credit Union","id":"actnyck1mx3d","sponsor?":null,"geo_precision":"range","state":"CA"},"type":"Feature","geometry":{"type":"Point","coordinates":[-122.023181,37.973922]}},{"properties":{"zip":"90248","bank type":"Credit Union","assets":0,"geo_score":0.902,"street address":"501 West 190th Street","cu name":"Pacific Transportation FCU","id":"actnyciqjhvd","sponsor?":null,"geo_precision":"range","state":"CA"},"type":"Feature","geometry":{"type":"Point","coordinates":[-118.281635,33.862767]}},{"properties":{"zip":"91331","bank type":"Credit Union","assets":0,"geo_score":0.902,"street address":"13168 Van Nuys Boulevard","cu name":"Pacoima Dev. FCU","id":"actnycfa119r","sponsor?":null,"geo_precision":"range","state":"CA"},"type":"Feature","geometry":{"type":"Point","coordinates":[-118.419926,34.267631]}},{"properties":{"zip":"92262","bank type":"Credit Union","assets":0,"geo_score":0.902,"street address":"425 North Civic Drive","cu name":"Palm Springs City Employees","id":"actnycokqaug","sponsor?":null,"geo_precision":"range","state":"CA"},"type":"Feature","geometry":{"type":"Point","coordinates":[-116.514178,33.826872]}},{"properties":{"zip":"91950","bank type":"Credit Union","assets":0,"geo_score":0.829,"street address":"2700 East Fourth Street","cu name":"Paradise Valley FCU","id":"actnyc9fwm1k","sponsor?":null,"geo_precision":"range","state":"CA"},"type":"Feature","geometry":{"type":"Point","coordinates":[-117.080966,32.686836]}},{"properties":{"zip":"90501","bank type":"Credit Union","assets":0,"geo_score":0.902,"street address":"2355 Crenshaw Boulevard","cu name":"Parishioners FCU","id":"actnycb7i6rm","sponsor?":null,"geo_precision":"range","state":"CA"},"type":"Feature","geometry":{"type":"Point","coordinates":[-118.328592,33.824866]}},{"properties":{"zip":"91124","bank type":"Credit Union","assets":0,"geo_score":0.805,"street address":"100 West Walnut Street","cu name":"Parsons Federal Credit Union","id":"actnycfxdtwn","sponsor?":null,"geo_precision":"range","state":"CA"},"type":"Feature","geometry":{"type":"Point","coordinates":[-118.151341,34.149582]}},{"properties":{"zip":"91502","bank type":"Credit Union","assets":0,"geo_score":0.829,"street address":"100 North First Street","cu name":"Partners Federal Credit Union","id":"actnycbsghng","sponsor?":null,"geo_precision":"range","state":"CA"},"type":"Feature","geometry":{"type":"Point","coordinates":[-118.310174,34.179812]}},{"properties":{"zip":"91105","bank type":"Credit Union","assets":0,"geo_score":0.902,"street address":"1038 South Fair Oaks Avenue","cu name":"Pasadena Federal Credit Union","id":"actnych5qwdj","sponsor?":null,"geo_precision":"range","state":"CA"},"type":"Feature","geometry":{"type":"Point","coordinates":[-118.150235,34.128035]}},{"properties":{"zip":"91107","bank type":"Credit Union","assets":0,"geo_score":0.902,"street address":"670 North Rosemead Boulevard","cu name":"Pasadena Service FCU","id":"actnycew9c2q","sponsor?":null,"geo_precision":"range","state":"CA"},"type":"Feature","geometry":{"type":"Point","coordinates":[-118.078817,34.155404]}},{"properties":{"zip":"94588","bank type":"Credit Union","assets":0,"geo_score":0.902,"street address":"5050 Hopyard Road","cu name":"Patelco Credit Union","id":"actnycbs8z76","sponsor?":null,"geo_precision":"range","state":"CA"},"type":"Feature","geometry":{"type":"Point","coordinates":[-121.903495,37.694965]}},{"properties":{"zip":"92656","bank type":"Credit Union","assets":0,"geo_score":0.902,"street address":"26970 Aliso Viejo Parkway","cu name":"Patriots Federal Credit Union","id":"actnycjnfo2a","sponsor?":null,"geo_precision":"range","state":"CA"},"type":"Feature","geometry":{"type":"Point","coordinates":[-117.728257,33.565939]}},{"properties":{"zip":"90043","bank type":"Credit Union","assets":0,"geo_score":0.805,"street address":"5856 West Boulevard","cu name":"Peoples Ind Church FCU","id":"actnycgsyiw3","sponsor?":null,"geo_precision":"range","state":"CA"},"type":"Feature","geometry":{"type":"Point","coordinates":[-118.335116,33.987461]}},{"properties":{"zip":"90620","bank type":"Credit Union","assets":0,"geo_score":0.902,"street address":"6250 Descanso Avenue","cu name":"Pepsi Cola FCU","id":"actnycnds7ey","sponsor?":null,"geo_precision":"range","state":"CA"},"type":"Feature","geometry":{"type":"Point","coordinates":[-118.024305,33.86637]}},{"properties":{"zip":"94565","bank type":"Credit Union","assets":0,"geo_score":0.756,"street address":"2120 Railroad Avenue","cu name":"Pittsburg Employees FCU","id":"actnycepccez","sponsor?":null,"geo_precision":"range","state":"CA"},"type":"Feature","geometry":{"type":"Point","coordinates":[-121.889338,38.017242]}},{"properties":{"zip":"92123","bank type":"Credit Union","assets":0,"geo_score":0.902,"street address":"9420 Farnham Street","cu name":"Point Loma Credit Union","id":"actnyciuzud1","sponsor?":null,"geo_precision":"range","state":"CA"},"type":"Feature","geometry":{"type":"Point","coordinates":[-117.124,32.833085]}},{"properties":{"zip":"94063","bank type":"Credit Union","assets":0,"geo_score":0.902,"street address":"770 Marshall Street","cu name":"Polam FCU","id":"actnycm0uhrj","sponsor?":null,"geo_precision":"range","state":"CA"},"type":"Feature","geometry":{"type":"Point","coordinates":[-122.226592,37.487576]}},{"properties":{"zip":"90004","bank type":"Credit Union","assets":0,"geo_score":0.902,"street address":"589 North Larchmont Boulevard","cu name":"Polam Federal Credit Union","id":"actnycehmpms","sponsor?":null,"geo_precision":"range","state":"CA"},"type":"Feature","geometry":{"type":"Point","coordinates":[-118.323726,34.079228]}},{"properties":{"zip":"91768","bank type":"Credit Union","assets":0,"geo_score":0.902,"street address":"437 West Center Street","cu name":"Pomona Postal FCU","id":"actnycj8aqqy","sponsor?":null,"geo_precision":"range","state":"CA"},"type":"Feature","geometry":{"type":"Point","coordinates":[-117.756157,34.061377]}},{"properties":{"zip":"90703","bank type":"Credit Union","assets":0,"geo_score":0.861,"street address":"13304 East Alondra Boulevard","cu name":"POPA Federal Credit Union","id":"actnycaaj5us","sponsor?":null,"geo_precision":"range","state":"CA"},"type":"Feature","geometry":{"type":"Point","coordinates":[-118.04654,33.887855]}},{"properties":{"zip":"91311","bank type":"Credit Union","assets":0,"geo_score":0.902,"street address":"19867 Prairie Street","cu name":"Premier America Credit Union","id":"actnycetkpqz","sponsor?":null,"geo_precision":"range","state":"CA"},"type":"Feature","geometry":{"type":"Point","coordinates":[-118.565566,34.239216]}},{"properties":{"zip":"95219","bank type":"Credit Union","assets":0,"geo_score":0.902,"street address":"3315 West Benjamin Holt Drive","cu name":"Premier Community CU","id":"actnycewbcaq","sponsor?":null,"geo_precision":"range","state":"CA"},"type":"Feature","geometry":{"type":"Point","coordinates":[-121.358746,38.005447]}},{"properties":{"zip":"90040","bank type":"Credit Union","assets":0,"geo_score":0.902,"street address":"5800 South Eastern Avenue","cu name":"Printing Industries CU","id":"actnycdxirbo","sponsor?":null,"geo_precision":"range","state":"CA"},"type":"Feature","geometry":{"type":"Point","coordinates":[-118.162029,33.985804]}},{"properties":{"zip":"91723","bank type":"Credit Union","assets":0,"geo_score":0.902,"street address":"301 East Rowland Street","cu name":"Printing Office Emps CU","id":"actnycp68z0o","sponsor?":null,"geo_precision":"range","state":"CA"},"type":"Feature","geometry":{"type":"Point","coordinates":[-117.885905,34.079041]}},{"properties":{"zip":"91030","bank type":"Credit Union","assets":0,"geo_score":0.902,"street address":"1631 Huntington Drive","cu name":"Priority One Credit Union","id":"actnycbopitl","sponsor?":null,"geo_precision":"range","state":"CA"},"type":"Feature","geometry":{"type":"Point","coordinates":[-118.1467,34.104017]}},{"properties":{"zip":"91765","bank type":"Credit Union","assets":0,"geo_score":0.824,"street address":"1310 South Valley Vista Drive","cu name":"Prospectors FCU","id":"actnycje2g93","sponsor?":null,"geo_precision":"range","state":"CA"},"type":"Feature","geometry":{"type":"Point","coordinates":[-117.835331,33.99828]}},{"properties":{"zip":"94065","bank type":"Credit Union","assets":0,"geo_score":0.902,"street address":"303 Twin Dolphin Drive","cu name":"Provident Credit Union","id":"actnycdhhie9","sponsor?":null,"geo_precision":"range","state":"CA"},"type":"Feature","geometry":{"type":"Point","coordinates":[-122.25912,37.522067]}},{"properties":{"zip":"92506","bank type":"Credit Union","assets":0,"geo_score":0.452,"street address":"6876 Magnolia Avenue","cu name":"Rafe Federal Credit Union","id":"actnycbbik7s","sponsor?":null,"geo_precision":"street","state":"CA"},"type":"Feature","geometry":{"type":"Point","coordinates":[-117.292929,33.87204]}},{"properties":{"zip":"90242","bank type":"Credit Union","assets":0,"geo_score":0.585,"street address":"12620 Erickson Avenue","cu name":"Rancho Federal Credit Union","id":"actnycodva14","sponsor?":null,"geo_precision":"zip","state":"CA"},"type":"Feature","geometry":{"type":"Point","coordinates":[-118.139969,33.922714]}},{"properties":{"zip":"95203","bank type":"Credit Union","assets":0,"geo_score":0.585,"street address":"218 McCloy Avenue","cu name":"Rarin Federal Credit Union","id":"actnycmr3gpl","sponsor?":null,"geo_precision":"zip","state":"CA"},"type":"Feature","geometry":{"type":"Point","coordinates":[-121.321707,37.954573]}},{"properties":{"zip":"92373","bank type":"Credit Union","assets":0,"geo_score":0.902,"street address":"35 Cajon Street","cu name":"Redlands City Employees FCU","id":"actnycjd3br6","sponsor?":null,"geo_precision":"range","state":"CA"},"type":"Feature","geometry":{"type":"Point","coordinates":[-117.182361,34.054967]}},{"properties":{"zip":"95403","bank type":"Credit Union","assets":0,"geo_score":0.902,"street address":"3033 Cleveland Avenue","cu name":"Redwood Credit Union","id":"actnycbd6xfk","sponsor?":null,"geo_precision":"range","state":"CA"},"type":"Feature","geometry":{"type":"Point","coordinates":[-122.72936,38.469187]}},{"properties":{"zip":"95382","bank type":"Credit Union","assets":0,"geo_score":0.902,"street address":"2101 Geer Road","cu name":"Rolling F Credit Union","id":"actnyci9h23o","sponsor?":null,"geo_precision":"range","state":"CA"},"type":"Feature","geometry":{"type":"Point","coordinates":[-120.848883,37.511828]}},{"properties":{"zip":"94080","bank type":"Credit Union","assets":0,"geo_score":0.902,"street address":"33 Arroyo Drive","cu name":"S San Francisco City Emps FCU","id":"actnycjxyff5","sponsor?":null,"geo_precision":"range","state":"CA"},"type":"Feature","geometry":{"type":"Point","coordinates":[-122.436517,37.65623]}},{"properties":{"zip":"95928","bank type":"Credit Union","assets":0,"geo_score":0.902,"street address":"550 Salem Street","cu name":"S. T. A. R. Community CU","id":"actnycc01vaf","sponsor?":null,"geo_precision":"range","state":"CA"},"type":"Feature","geometry":{"type":"Point","coordinates":[-121.839481,39.726653]}},{"properties":{"zip":"94116","bank type":"Credit Union","assets":0,"geo_score":0.872,"street address":"258 B Laguna Honda Boulevard","cu name":"S.F. Bay Area Educators CU","id":"actnycnni30x","sponsor?":null,"geo_precision":"range","state":"CA"},"type":"Feature","geometry":{"type":"Point","coordinates":[-122.463315,37.752812]}},{"properties":{"zip":"94122","bank type":"Credit Union","assets":0,"geo_score":0.902,"street address":"2550 Irving Street","cu name":"S.F. Police Credit Union","id":"actnyck7hadc","sponsor?":null,"geo_precision":"range","state":"CA"},"type":"Feature","geometry":{"type":"Point","coordinates":[-122.485271,37.763282]}},{"properties":{"zip":"95814","bank type":"Credit Union","assets":0,"geo_score":0.902,"street address":"800 H Street","cu name":"Sacramento Credit Union","id":"actnyca80h9i","sponsor?":null,"geo_precision":"range","state":"CA"},"type":"Feature","geometry":{"type":"Point","coordinates":[-121.493867,38.582856]}},{"properties":{"zip":"93311","bank type":"Credit Union","assets":0,"geo_score":0.595,"street address":"1400 Mill Rock Way","cu name":"Safe 1 Credit Union","id":"actnycl5iho4","sponsor?":null,"geo_precision":"street","state":"CA"},"type":"Feature","geometry":{"type":"Point","coordinates":[-119.107205,35.32035]}},{"properties":{"zip":"95660","bank type":"Credit Union","assets":0,"geo_score":0.902,"street address":"3720 Madison Avenue","cu name":"SAFE CU","id":"actnycfk3yx0","sponsor?":null,"geo_precision":"range","state":"CA"},"type":"Feature","geometry":{"type":"Point","coordinates":[-121.376531,38.661143]}},{"properties":{"zip":"94588","bank type":"Credit Union","assets":0,"geo_score":0.902,"street address":"6001 Gibraltar Drive","cu name":"SafeAmerica CU","id":"actnycli10mq","sponsor?":null,"geo_precision":"range","state":"CA"},"type":"Feature","geometry":{"type":"Point","coordinates":[-121.901512,37.69604]}},{"properties":{"zip":"92410","bank type":"Credit Union","assets":0,"geo_score":0.902,"street address":"701 South Mount Vernon Avenue","cu name":"San Bernardino Community","id":"actnycftjz98","sponsor?":null,"geo_precision":"range","state":"CA"},"type":"Feature","geometry":{"type":"Point","coordinates":[-117.313788,34.088725]}},{"properties":{"zip":"92405","bank type":"Credit Union","assets":0,"geo_score":0.902,"street address":"2441 North Sierra Way","cu name":"San Bernardino School Emps FCU","id":"actnyckrrbuw","sponsor?":null,"geo_precision":"range","state":"CA"},"type":"Feature","geometry":{"type":"Point","coordinates":[-117.285075,34.138396]}},{"properties":{"zip":"92121","bank type":"Credit Union","assets":0,"geo_score":0.902,"street address":"6545 Sequence Drive","cu name":"San Diego County CU","id":"actnycb6zkyt","sponsor?":null,"geo_precision":"range","state":"CA"},"type":"Feature","geometry":{"type":"Point","coordinates":[-117.179147,32.907577]}},{"properties":{"zip":"92124","bank type":"Credit Union","assets":0,"geo_score":0.756,"street address":"4926 La Cuenta Drive","cu name":"San Diego Firefighters FCU","id":"actnyccc8pvp","sponsor?":null,"geo_precision":"range","state":"CA"},"type":"Feature","geometry":{"type":"Point","coordinates":[-117.09819,32.820954]}},{"properties":{"zip":"92123","bank type":"Credit Union","assets":0,"geo_score":0.805,"street address":"9212 Balboa Avenue","cu name":"San Diego Metropolitan CU","id":"actnycbmjseh","sponsor?":null,"geo_precision":"range","state":"CA"},"type":"Feature","geometry":{"type":"Point","coordinates":[-117.127697,32.822383]}},{"properties":{"zip":"91342","bank type":"Credit Union","assets":0,"geo_score":0.902,"street address":"13900 Polk Street","cu name":"San Fernando Valley Jap CU","id":"actnycfnlrva","sponsor?":null,"geo_precision":"range","state":"CA"},"type":"Feature","geometry":{"type":"Point","coordinates":[-118.436485,34.319506]}},{"properties":{"zip":"94105","bank type":"Credit Union","assets":0,"geo_score":0.717,"street address":"201 Mission Street","cu name":"San Francisco BPR FCU","id":"actnycp3zxxw","sponsor?":null,"geo_precision":"range","state":"CA"},"type":"Feature","geometry":{"type":"Point","coordinates":[-122.409683,37.786203]}},{"properties":{"zip":"94102","bank type":"Credit Union","assets":0,"geo_score":0.902,"street address":"770 Golden Gate Avenue","cu name":"San Francisco FCU","id":"actnyccn9tw7","sponsor?":null,"geo_precision":"range","state":"CA"},"type":"Feature","geometry":{"type":"Point","coordinates":[-122.422815,37.780835]}},{"properties":{"zip":"94118","bank type":"Credit Union","assets":0,"geo_score":0.902,"street address":"3201 California Street","cu name":"San Francisco Fire CU","id":"actnycas0be5","sponsor?":null,"geo_precision":"range","state":"CA"},"type":"Feature","geometry":{"type":"Point","coordinates":[-122.448467,37.787048]}},{"properties":{"zip":"94108","bank type":"Credit Union","assets":0,"geo_score":0.902,"street address":"915 Grant Avenue","cu name":"San Francisco Lee FCU","id":"actnycaj748h","sponsor?":null,"geo_precision":"range","state":"CA"},"type":"Feature","geometry":{"type":"Point","coordinates":[-122.406606,37.795371]}},{"properties":{"zip":"94112","bank type":"Credit Union","assets":0,"geo_score":0.902,"street address":"1425 Ocean Avenue","cu name":"San Francisco Municipal","id":"actnyce6r0e9","sponsor?":null,"geo_precision":"range","state":"CA"},"type":"Feature","geometry":{"type":"Point","coordinates":[-122.45809,37.724188]}},{"properties":{"zip":"91723","bank type":"Credit Union","assets":0,"geo_score":0.902,"street address":"328 East San Bernardino Road","cu name":"San Gabriel Valley Postal CU","id":"actnycn1z23s","sponsor?":null,"geo_precision":"range","state":"CA"},"type":"Feature","geometry":{"type":"Point","coordinates":[-117.885763,34.090415]}},{"properties":{"zip":"93711","bank type":"Credit Union","assets":0,"geo_score":0.902,"street address":"1080 West Shaw Avenue","cu name":"San Joaquin Power Emps CU","id":"actnycgxih74","sponsor?":null,"geo_precision":"range","state":"CA"},"type":"Feature","geometry":{"type":"Point","coordinates":[-119.810707,36.808369]}},{"properties":{"zip":"94403","bank type":"Credit Union","assets":0,"geo_score":0.844,"street address":"330 West 20th Avenue","cu name":"San Mateo City Employees FCU","id":"actnyckcqb66","sponsor?":null,"geo_precision":"range","state":"CA"},"type":"Feature","geometry":{"type":"Point","coordinates":[-122.315071,37.547044]}},{"properties":{"zip":"94063","bank type":"Credit Union","assets":0,"geo_score":0.902,"street address":"350 Convention Way","cu name":"San Mateo Credit Union","id":"actnycbevyfi","sponsor?":null,"geo_precision":"range","state":"CA"},"type":"Feature","geometry":{"type":"Point","coordinates":[-122.229744,37.49448]}},{"properties":{"zip":"92701","bank type":"Credit Union","assets":0,"geo_score":0.884,"street address":"800 West Santa Ana Boulevard","cu name":"Santa Ana Federal Credit Union","id":"actnycgac7jm","sponsor?":null,"geo_precision":"range","state":"CA"},"type":"Feature","geometry":{"type":"Point","coordinates":[-117.85909,33.75186]}},{"properties":{"zip":"93105","bank type":"Credit Union","assets":0,"geo_score":0.88,"street address":"2623 De La Vina Street","cu name":"Santa Barbara County FCU","id":"actnycezqwaf","sponsor?":null,"geo_precision":"range","state":"CA"},"type":"Feature","geometry":{"type":"Point","coordinates":[-119.724992,34.435213]}},{"properties":{"zip":"93110","bank type":"Credit Union","assets":0,"geo_score":0.878,"street address":"3970 La Colina Road","cu name":"Santa Barbara Teachers FCU","id":"actnycchfbhd","sponsor?":null,"geo_precision":"range","state":"CA"},"type":"Feature","geometry":{"type":"Point","coordinates":[-119.751058,34.44419]}},{"properties":{"zip":"95112","bank type":"Credit Union","assets":0,"geo_score":0.829,"street address":"1641 North First Street","cu name":"Santa Clara County FCU","id":"actnyc96nkc4","sponsor?":null,"geo_precision":"range","state":"CA"},"type":"Feature","geometry":{"type":"Point","coordinates":[-121.913113,37.366258]}},{"properties":{"zip":"95060","bank type":"Credit Union","assets":0,"geo_score":0.902,"street address":"324 Front Street","cu name":"Santa Cruz Community CU","id":"actnyckfdjc4","sponsor?":null,"geo_precision":"range","state":"CA"},"type":"Feature","geometry":{"type":"Point","coordinates":[-122.024146,36.971617]}},{"properties":{"zip":"95062","bank type":"Credit Union","assets":0,"geo_score":0.902,"street address":"8030 Soquel Avenue","cu name":"Santa Cruz County Employees CU","id":"actnyc9mn4e9","sponsor?":null,"geo_precision":"range","state":"CA"},"type":"Feature","geometry":{"type":"Point","coordinates":[-121.96686,36.98227]}},{"properties":{"zip":"93458","bank type":"Credit Union","assets":0,"geo_score":0.902,"street address":"314 West Cook Street","cu name":"Santa Maria Associated Emp FCU","id":"actnycb16jds","sponsor?":null,"geo_precision":"range","state":"CA"},"type":"Feature","geometry":{"type":"Point","coordinates":[-120.439133,34.949744]}},{"properties":{"zip":"91706","bank type":"Credit Union","assets":0,"geo_score":0.585,"street address":"12701 Schabarum Avenue","cu name":"SCE Federal Credit Union","id":"actnycjmkwpc","sponsor?":null,"geo_precision":"zip","state":"CA"},"type":"Feature","geometry":{"type":"Point","coordinates":[-118.298662,33.786594]}},{"properties":{"zip":"90220","bank type":"Credit Union","assets":0,"geo_score":0.902,"street address":"2200 West Artesia Boulevard","cu name":"Schools Federal Credit Union","id":"actnycigsozx","sponsor?":null,"geo_precision":"range","state":"CA"},"type":"Feature","geometry":{"type":"Point","coordinates":[-118.247937,33.873846]}},{"properties":{"zip":"95815","bank type":"Credit Union","assets":0,"geo_score":0.902,"street address":"1485 Response Road","cu name":"Schools Financial CU","id":"actnycjh0e8a","sponsor?":null,"geo_precision":"range","state":"CA"},"type":"Feature","geometry":{"type":"Point","coordinates":[-121.438708,38.595896]}},{"properties":{"zip":"92706","bank type":"Credit Union","assets":0,"geo_score":0.902,"street address":"2115 North Broadway","cu name":"SchoolsFirst FCU","id":"actnyceg8127","sponsor?":null,"geo_precision":"range","state":"CA"},"type":"Feature","geometry":{"type":"Point","coordinates":[-117.869504,33.76386]}},{"properties":{"zip":"92108","bank type":"Credit Union","assets":0,"geo_score":0.902,"street address":"8889 Rio San Diego Drive","cu name":"SD Medical FCU","id":"actnyc8qtf58","sponsor?":null,"geo_precision":"range","state":"CA"},"type":"Feature","geometry":{"type":"Point","coordinates":[-117.139939,32.775812]}},{"properties":{"zip":"90740","bank type":"Credit Union","assets":0,"geo_score":0.902,"street address":"800 Seal Beach Boulevard","cu name":"Sea Air Federal Credit Union","id":"actnycd4sdge","sponsor?":null,"geo_precision":"range","state":"CA"},"type":"Feature","geometry":{"type":"Point","coordinates":[-118.090166,33.747939]}},{"properties":{"zip":"94605","bank type":"Credit Union","assets":0,"geo_score":0.902,"street address":"8750 Mountain Boulevard","cu name":"Sea West Coast Guard FCU","id":"actnycorz7jo","sponsor?":null,"geo_precision":"range","state":"CA"},"type":"Feature","geometry":{"type":"Point","coordinates":[-122.152001,37.766394]}},{"properties":{"zip":"94063","bank type":"Credit Union","assets":0,"geo_score":0.645,"street address":"530 El Camino Real","cu name":"Sequoia FCU","id":"actnycithk5y","sponsor?":null,"geo_precision":"street","state":"CA"},"type":"Feature","geometry":{"type":"Point","coordinates":[-122.224144,37.478142]}},{"properties":{"zip":"94063","bank type":"Credit Union","assets":0,"geo_score":0.902,"street address":"770 Marshall Street","cu name":"Sequoia Hospital Employees FCU","id":"actnycgfvkan","sponsor?":null,"geo_precision":"range","state":"CA"},"type":"Feature","geometry":{"type":"Point","coordinates":[-122.226592,37.487576]}},{"properties":{"zip":"93405","bank type":"Credit Union","assets":0,"geo_score":0.902,"street address":"11491 Los Osos Valley Road","cu name":"Sesloc FCU","id":"actnycoxiidk","sponsor?":null,"geo_precision":"range","state":"CA"},"type":"Feature","geometry":{"type":"Point","coordinates":[-120.692528,35.25855]}},{"properties":{"zip":"94122","bank type":"Credit Union","assets":0,"geo_score":0.829,"street address":"1286 23rd Avenue","cu name":"SF Recreation &amp; Parks FCU","id":"actnyce9t6p3","sponsor?":null,"geo_precision":"range","state":"CA"},"type":"Feature","geometry":{"type":"Point","coordinates":[-122.481426,37.765033]}},{"properties":{"zip":"94553","bank type":"Credit Union","assets":0,"geo_score":0.902,"street address":"1700 Pacheco Boulevard","cu name":"Shell Western States FCU","id":"actnyceyvd5b","sponsor?":null,"geo_precision":"range","state":"CA"},"type":"Feature","geometry":{"type":"Point","coordinates":[-122.125696,38.014119]}},{"properties":{"zip":"95991","bank type":"Credit Union","assets":0,"geo_score":0.837,"street address":"820 Plaza Way","cu name":"Sierra Central Credit Union","id":"actnycg77wxb","sponsor?":null,"geo_precision":"range","state":"CA"},"type":"Feature","geometry":{"type":"Point","coordinates":[-121.629772,39.143245]}},{"properties":{"zip":"94080","bank type":"Credit Union","assets":0,"geo_score":0.902,"street address":"365 South Spruce Avenue","cu name":"Sierra Point Credit Union","id":"actnycjs7zgh","sponsor?":null,"geo_precision":"range","state":"CA"},"type":"Feature","geometry":{"type":"Point","coordinates":[-122.421888,37.645603]}},{"properties":{"zip":"94508","bank type":"Credit Union","assets":0,"geo_score":0.679,"street address":"One Angwin Plaza","cu name":"Silverado Credit Union","id":"actnycgjwm9x","sponsor?":null,"geo_precision":"street","state":"CA"},"type":"Feature","geometry":{"type":"Point","coordinates":[-122.441491,38.57071]}},{"properties":{"zip":"96097","bank type":"Credit Union","assets":0,"geo_score":0.805,"street address":"845 Fourth Street","cu name":"Siskiyou Central Credit Union","id":"actnyce8hk2u","sponsor?":null,"geo_precision":"range","state":"CA"},"type":"Feature","geometry":{"type":"Point","coordinates":[-122.639816,41.72547]}},{"properties":{"zip":"90250","bank type":"Credit Union","assets":0,"geo_score":0.902,"street address":"14600 Aviation Boulevard","cu name":"SkyOne Federal Credit Union","id":"actnycaxht3y","sponsor?":null,"geo_precision":"range","state":"CA"},"type":"Feature","geometry":{"type":"Point","coordinates":[-118.378663,33.898802]}},{"properties":{"zip":"93401","bank type":"Credit Union","assets":0,"geo_score":0.902,"street address":"1220 Osos Street","cu name":"SLO CU","id":"actnycnty8ho","sponsor?":null,"geo_precision":"range","state":"CA"},"type":"Feature","geometry":{"type":"Point","coordinates":[-120.659906,35.280251]}},{"properties":{"zip":"94577","bank type":"Credit Union","assets":0,"geo_score":0.902,"street address":"1750 Abram Court","cu name":"SMW 104 Federal Credit Union","id":"actnycknnwpm","sponsor?":null,"geo_precision":"range","state":"CA"},"type":"Feature","geometry":{"type":"Point","coordinates":[-122.169741,37.710403]}},{"properties":{"zip":"93727","bank type":"Credit Union","assets":0,"geo_score":0.902,"street address":"4986 East Clinton Way","cu name":"So-Val Tel FCU","id":"actnyclkoxck","sponsor?":null,"geo_precision":"range","state":"CA"},"type":"Feature","geometry":{"type":"Point","coordinates":[-119.727084,36.772156]}},{"properties":{"zip":"94533","bank type":"Credit Union","assets":0,"geo_score":0.902,"street address":"1000 Union Avenue","cu name":"Solano First FCU","id":"actnyco4mhpd","sponsor?":null,"geo_precision":"range","state":"CA"},"type":"Feature","geometry":{"type":"Point","coordinates":[-122.040456,38.253594]}},{"properties":{"zip":"95407","bank type":"Credit Union","assets":0,"geo_score":0.902,"street address":"304 Sutton Place","cu name":"Sonoma County Grange CU","id":"actnyc9my4xn","sponsor?":null,"geo_precision":"range","state":"CA"},"type":"Feature","geometry":{"type":"Point","coordinates":[-122.724763,38.390821]}},{"properties":{"zip":"95405","bank type":"Credit Union","assets":0,"geo_score":0.902,"street address":"1126 Montgomery Drive","cu name":"Sonoma Federal Credit Union","id":"actnycedf4ao","sponsor?":null,"geo_precision":"range","state":"CA"},"type":"Feature","geometry":{"type":"Point","coordinates":[-122.699964,38.443161]}},{"properties":{"zip":"92127","bank type":"Credit Union","assets":0,"geo_score":0.902,"street address":"16530 Via Esprillo","cu name":"Sony San Diego Employees FCU","id":"actnyccbazk5","sponsor?":null,"geo_precision":"range","state":"CA"},"type":"Feature","geometry":{"type":"Point","coordinates":[-117.092407,33.014044]}},{"properties":{"zip":"90278","bank type":"Credit Union","assets":0,"geo_score":0.902,"street address":"2304 Artesia Boulevard","cu name":"South Bay CU","id":"actnycaz1149","sponsor?":null,"geo_precision":"range","state":"CA"},"type":"Feature","geometry":{"type":"Point","coordinates":[-118.369978,33.872766]}},{"properties":{"zip":"90631","bank type":"Credit Union","assets":0,"geo_score":0.902,"street address":"901 East Whittier Boulevard","cu name":"South Western FCU","id":"actnycnqmnge","sponsor?":null,"geo_precision":"range","state":"CA"},"type":"Feature","geometry":{"type":"Point","coordinates":[-117.935733,33.939193]}},{"properties":{"zip":"90815","bank type":"Credit Union","assets":0,"geo_score":0.902,"street address":"2371 Grand Avenue","cu name":"Southern California Postal CU","id":"actnyc96hgn9","sponsor?":null,"geo_precision":"range","state":"CA"},"type":"Feature","geometry":{"type":"Point","coordinates":[-118.147997,33.800946]}},{"properties":{"zip":"90720","bank type":"Credit Union","assets":0,"geo_score":0.902,"street address":"10701 Los Alamitos Boulevard","cu name":"Southland Credit Union","id":"actnycf64far","sponsor?":null,"geo_precision":"range","state":"CA"},"type":"Feature","geometry":{"type":"Point","coordinates":[-118.071985,33.807446]}},{"properties":{"zip":"90621","bank type":"Credit Union","assets":0,"geo_score":0.902,"street address":"5681 Beach Boulevard","cu name":"Southland Savings FCU","id":"actnyciskwpc","sponsor?":null,"geo_precision":"range","state":"CA"},"type":"Feature","geometry":{"type":"Point","coordinates":[-117.998237,33.87752]}},{"properties":{"zip":"94025","bank type":"Credit Union","assets":0,"geo_score":0.286,"street address":"Building A","cu name":"SRI Federal Credit Union","id":"actnych5suzi","sponsor?":null,"geo_precision":"street","state":"CA"},"type":"Feature","geometry":{"type":"Point","coordinates":[-122.466392,37.68604]}},{"properties":{"zip":"94303","bank type":"Credit Union","assets":0,"geo_score":0.902,"street address":"1860 Embarcadero Road","cu name":"Stanford Federal Credit Union","id":"actnycjnnb3b","sponsor?":null,"geo_precision":"range","state":"CA"},"type":"Feature","geometry":{"type":"Point","coordinates":[-122.115956,37.451902]}},{"properties":{"zip":"90220","bank type":"Credit Union","assets":0,"geo_score":0.902,"street address":"2021 East Del Amo Boulevard","cu name":"Star Harbor FCU","id":"actnycjyyvrp","sponsor?":null,"geo_precision":"range","state":"CA"},"type":"Feature","geometry":{"type":"Point","coordinates":[-118.228902,33.846643]}},{"properties":{"zip":"94089","bank type":"Credit Union","assets":0,"geo_score":0.585,"street address":"1306 Bordeaux Drive","cu name":"Star One CU","id":"actnycdyrugt","sponsor?":null,"geo_precision":"zip","state":"CA"},"type":"Feature","geometry":{"type":"Point","coordinates":[-121.705327,37.189396]}},{"properties":{"zip":"95336","bank type":"Credit Union","assets":0,"geo_score":0.393,"street address":"P.O. Box 2157","cu name":"State Employees #84 CU","id":"actnycctanp8","sponsor?":null,"geo_precision":"street","state":"CA"},"type":"Feature","geometry":{"type":"Point","coordinates":[-120.495817,37.292466]}},{"properties":{"zip":"92243","bank type":"Credit Union","assets":0,"geo_score":0.902,"street address":"1068 Broadway Street","cu name":"Sun Community FCU","id":"actnycb1zxlp","sponsor?":null,"geo_precision":"range","state":"CA"},"type":"Feature","geometry":{"type":"Point","coordinates":[-115.564114,32.79393]}},{"properties":{"zip":"94801","bank type":"Credit Union","assets":0,"geo_score":0.902,"street address":"1221 Nevin Avenue","cu name":"Sun-Pacific FCU","id":"actnycm4zk0e","sponsor?":null,"geo_precision":"range","state":"CA"},"type":"Feature","geometry":{"type":"Point","coordinates":[-122.357333,37.936892]}},{"properties":{"zip":"91423","bank type":"Credit Union","assets":0,"geo_score":0.902,"street address":"14130 Riverside Drive","cu name":"Sunkist Employees FCU","id":"actnycdyskfg","sponsor?":null,"geo_precision":"range","state":"CA"},"type":"Feature","geometry":{"type":"Point","coordinates":[-118.442147,34.157605]}},{"properties":{"zip":"94085","bank type":"Credit Union","assets":0,"geo_score":0.805,"street address":"333 West Maude Avenue","cu name":"Sunnyvale FCU","id":"actnyce7gzh4","sponsor?":null,"geo_precision":"range","state":"CA"},"type":"Feature","geometry":{"type":"Point","coordinates":[-122.02851,37.38905]}},{"properties":{"zip":"94607","bank type":"Credit Union","assets":0,"geo_score":0.819,"street address":"1188 12th Street","cu name":"Taylor Mem Untd Methodist FCU","id":"actnycl5fnhb","sponsor?":null,"geo_precision":"range","state":"CA"},"type":"Feature","geometry":{"type":"Point","coordinates":[-122.287071,37.808266]}},{"properties":{"zip":"91506","bank type":"Credit Union","assets":0,"geo_score":0.902,"street address":"434 West Alameda Avenue","cu name":"Technicolor FCU","id":"actnycf0dluq","sponsor?":null,"geo_precision":"range","state":"CA"},"type":"Feature","geometry":{"type":"Point","coordinates":[-118.311203,34.163819]}},{"properties":{"zip":"95131","bank type":"Credit Union","assets":0,"geo_score":0.732,"street address":"2010 North First Street","cu name":"Technology Credit Union","id":"actnyce2wv8d","sponsor?":null,"geo_precision":"range","state":"CA"},"type":"Feature","geometry":{"type":"Point","coordinates":[-121.919864,37.375437]}},{"properties":{"zip":"93561","bank type":"Credit Union","assets":0,"geo_score":0.902,"street address":"206 South Green Street","cu name":"Tehachapi FCU","id":"actnycbla16r","sponsor?":null,"geo_precision":"range","state":"CA"},"type":"Feature","geometry":{"type":"Point","coordinates":[-118.447678,35.130919]}},{"properties":{"zip":"90501","bank type":"Credit Union","assets":0,"geo_score":0.902,"street address":"2377 Crenshaw Boulevard","cu name":"Torrance Community FCU","id":"actnycfhksox","sponsor?":null,"geo_precision":"range","state":"CA"},"type":"Feature","geometry":{"type":"Point","coordinates":[-118.32848,33.823068]}},{"properties":{"zip":"95687","bank type":"Credit Union","assets":0,"geo_score":0.509,"street address":"One Travis Way","cu name":"Travis Credit Union","id":"actnyc8tjjqp","sponsor?":null,"geo_precision":"street","state":"CA"},"type":"Feature","geometry":{"type":"Point","coordinates":[-121.935467,38.345085]}},{"properties":{"zip":"93277","bank type":"Credit Union","assets":0,"geo_score":0.902,"street address":"5222 West Cypress Avenue","cu name":"Tucoemas Federal Credit Union","id":"actnycilbx9x","sponsor?":null,"geo_precision":"range","state":"CA"},"type":"Feature","geometry":{"type":"Point","coordinates":[-119.348935,36.324522]}},{"properties":{"zip":"93274","bank type":"Credit Union","assets":0,"geo_score":0.902,"street address":"300 North K Street","cu name":"Tulare County FCU","id":"actnycj0pn1l","sponsor?":null,"geo_precision":"range","state":"CA"},"type":"Feature","geometry":{"type":"Point","coordinates":[-119.347011,36.211687]}},{"properties":{"zip":"94025","bank type":"Credit Union","assets":0,"geo_score":0.902,"street address":"3715 Haven Avenue","cu name":"Tyco Federal Credit Union","id":"actnyckksixl","sponsor?":null,"geo_precision":"range","state":"CA"},"type":"Feature","geometry":{"type":"Point","coordinates":[-122.179403,37.486668]}},{"properties":{"zip":"91764","bank type":"Credit Union","assets":0,"geo_score":0.902,"street address":"3110 Inland Empire Boulevard","cu name":"U.P.S. Employees FCU","id":"actnycm5mdes","sponsor?":null,"geo_precision":"range","state":"CA"},"type":"Feature","geometry":{"type":"Point","coordinates":[-117.582178,34.070641]}},{"properties":{"zip":"90017","bank type":"Credit Union","assets":0,"geo_score":0.902,"street address":"915 Wilshire Boulevard","cu name":"U.S. Engineers L.A. FCU","id":"actnyckc1mqp","sponsor?":null,"geo_precision":"range","state":"CA"},"type":"Feature","geometry":{"type":"Point","coordinates":[-118.260152,34.050694]}},{"properties":{"zip":"90744","bank type":"Credit Union","assets":0,"geo_score":0.902,"street address":"300 Falcon Street","cu name":"U.S.B. Employees FCU","id":"actnycl26ulz","sponsor?":null,"geo_precision":"range","state":"CA"},"type":"Feature","geometry":{"type":"Point","coordinates":[-118.266776,33.758475]}},{"properties":{"zip":"91505","bank type":"Credit Union","assets":0,"geo_score":0.585,"street address":"3000 West Magnolia Boulevard","cu name":"UMe Federal Credit Union","id":"actnycmdiply","sponsor?":null,"geo_precision":"zip","state":"CA"},"type":"Feature","geometry":{"type":"Point","coordinates":[-118.298662,33.786594]}},{"properties":{"zip":"94551","bank type":"Credit Union","assets":0,"geo_score":0.902,"street address":"2100 Las Positas Court","cu name":"Uncle Credit Union","id":"actnycmow4h4","sponsor?":null,"geo_precision":"range","state":"CA"},"type":"Feature","geometry":{"type":"Point","coordinates":[-121.775486,37.697509]}},{"properties":{"zip":"92821","bank type":"Credit Union","assets":0,"geo_score":0.902,"street address":"411 West Lambert Road","cu name":"Union Oil Sante Fe Springs FCU","id":"actnyckfxzpa","sponsor?":null,"geo_precision":"range","state":"CA"},"type":"Feature","geometry":{"type":"Point","coordinates":[-117.900891,33.924917]}},{"properties":{"zip":"90720","bank type":"Credit Union","assets":0,"geo_score":0.902,"street address":"10900 Los Alamitos Boulevard","cu name":"Union Pacific CA Employees FCU","id":"actnycbazszf","sponsor?":null,"geo_precision":"range","state":"CA"},"type":"Feature","geometry":{"type":"Point","coordinates":[-118.071877,33.803714]}},{"properties":{"zip":"92868","bank type":"Credit Union","assets":0,"geo_score":0.78,"street address":"1918 West Chapman Avenue","cu name":"Union Yes FCU","id":"actnycit18y7","sponsor?":null,"geo_precision":"range","state":"CA"},"type":"Feature","geometry":{"type":"Point","coordinates":[-117.873346,33.787884]}},{"properties":{"zip":"91331","bank type":"Credit Union","assets":0,"geo_score":0.902,"street address":"14015 Van Nuys Boulevard","cu name":"United America West FCU","id":"actnycexqfax","sponsor?":null,"geo_precision":"range","state":"CA"},"type":"Feature","geometry":{"type":"Point","coordinates":[-118.43826,34.254465]}},{"properties":{"zip":"94518","bank type":"Credit Union","assets":0,"geo_score":0.805,"street address":"935 Detroit Avenue","cu name":"United Assn. CU","id":"actnyc9gv7gj","sponsor?":null,"geo_precision":"range","state":"CA"},"type":"Feature","geometry":{"type":"Point","coordinates":[-122.027783,37.951824]}},{"properties":{"zip":"90605","bank type":"Credit Union","assets":0,"geo_score":0.902,"street address":"9925 Painter Avenue","cu name":"United Financial Credit Union","id":"actnycdti0q1","sponsor?":null,"geo_precision":"range","state":"CA"},"type":"Feature","geometry":{"type":"Point","coordinates":[-118.049131,33.947184]}},{"properties":{"zip":"94010","bank type":"Credit Union","assets":0,"geo_score":0.84,"street address":"1860 El Camino Real","cu name":"United Health Credit Union","id":"actnycfe2wlt","sponsor?":null,"geo_precision":"range","state":"CA"},"type":"Feature","geometry":{"type":"Point","coordinates":[-122.385396,37.596428]}},{"properties":{"zip":"93720","bank type":"Credit Union","assets":0,"geo_score":0.805,"street address":"3650 East Ashlan Avenue","cu name":"United Local Credit Union","id":"actnycn33n3p","sponsor?":null,"geo_precision":"range","state":"CA"},"type":"Feature","geometry":{"type":"Point","coordinates":[-119.767024,36.794045]}},{"properties":{"zip":"91763","bank type":"Credit Union","assets":0,"geo_score":0.902,"street address":"9040 Benson Avenue","cu name":"United Methodist FCU","id":"actnyc8zn16d","sponsor?":null,"geo_precision":"range","state":"CA"},"type":"Feature","geometry":{"type":"Point","coordinates":[-117.680966,34.089587]}},{"properties":{"zip":"94546","bank type":"Credit Union","assets":0,"geo_score":0.902,"street address":"3545 Jamison Way","cu name":"United Workers FCU","id":"actnyca5lv91","sponsor?":null,"geo_precision":"range","state":"CA"},"type":"Feature","geometry":{"type":"Point","coordinates":[-122.077531,37.698091]}},{"properties":{"zip":"91608","bank type":"Credit Union","assets":0,"geo_score":0.502,"street address":"90 Universal City Plaza","cu name":"Universal Cty Studios CU","id":"actnycc4t6hm","sponsor?":null,"geo_precision":"street","state":"CA"},"type":"Feature","geometry":{"type":"Point","coordinates":[-118.352736,34.137665]}},{"properties":{"zip":"92121","bank type":"Credit Union","assets":0,"geo_score":0.844,"street address":"10120 Pacific Heights Boulevard","cu name":"University &amp; State Employees","id":"actnycozl3le","sponsor?":null,"geo_precision":"range","state":"CA"},"type":"Feature","geometry":{"type":"Point","coordinates":[-117.194999,32.903486]}},{"properties":{"zip":"90025","bank type":"Credit Union","assets":0,"geo_score":0.902,"street address":"1500 South Sepulveda Boulevard","cu name":"University Credit Union","id":"actnycmuz92z","sponsor?":null,"geo_precision":"range","state":"CA"},"type":"Feature","geometry":{"type":"Point","coordinates":[-118.445572,34.049137]}},{"properties":{"zip":"91791","bank type":"Credit Union","assets":0,"geo_score":0.464,"street address":"2225 East Garvey Avenue, North","cu name":"Untd Catholics FCU","id":"actnychrq6e3","sponsor?":null,"geo_precision":"street","state":"CA"},"type":"Feature","geometry":{"type":"Point","coordinates":[-117.872238,34.072176]}},{"properties":{"zip":"90007","bank type":"Credit Union","assets":0,"geo_score":0.902,"street address":"3720 South Flower Street","cu name":"USC Credit Union","id":"actnyce0t9xb","sponsor?":null,"geo_precision":"range","state":"CA"},"type":"Feature","geometry":{"type":"Point","coordinates":[-118.281369,34.017355]}},{"properties":{"zip":"94607","bank type":"Credit Union","assets":0,"geo_score":0.819,"street address":"375 11th Street","cu name":"Utility Dist Credit Union","id":"actnycfz6ak6","sponsor?":null,"geo_precision":"range","state":"CA"},"type":"Feature","geometry":{"type":"Point","coordinates":[-122.27079,37.801469]}},{"properties":{"zip":"90822","bank type":"Credit Union","assets":0,"geo_score":0.61,"street address":"5901 East Seventh Street","cu name":"VA Desert Pacific FCU","id":"actnycoa41kx","sponsor?":null,"geo_precision":"range","state":"CA"},"type":"Feature","geometry":{"type":"Point","coordinates":[-118.115879,33.775241]}},{"properties":{"zip":"95350","bank type":"Credit Union","assets":0,"geo_score":0.902,"street address":"1005 West Orangeburg Avenue","cu name":"Valley First Credit Union","id":"actnycdh0f4h","sponsor?":null,"geo_precision":"range","state":"CA"},"type":"Feature","geometry":{"type":"Point","coordinates":[-121.006229,37.66399]}},{"properties":{"zip":"93271","bank type":"Credit Union","assets":0,"geo_score":0.902,"street address":"40870 Sierra Drive","cu name":"Valley Oak Credit Union","id":"actnycb5uo1r","sponsor?":null,"geo_precision":"range","state":"CA"},"type":"Feature","geometry":{"type":"Point","coordinates":[-118.916568,36.421829]}},{"properties":{"zip":"93003","bank type":"Credit Union","assets":0,"geo_score":0.861,"street address":"6026 Telephone Road","cu name":"Ventura County Credit Union","id":"actnycov2lli","sponsor?":null,"geo_precision":"range","state":"CA"},"type":"Feature","geometry":{"type":"Point","coordinates":[-119.21044,34.265557]}},{"properties":{"zip":"92395","bank type":"Credit Union","assets":0,"geo_score":0.0,"street address":"15445 Eighth Street","cu name":"Victor Valley FCU","id":"actnych94v85","sponsor?":null,"geo_precision":"unmatched","state":"CA"},"type":"Feature","geometry":null},{"properties":{"zip":"95827","bank type":"Credit Union","assets":0,"geo_score":0.902,"street address":"3279 Ramos Circle","cu name":"Vision One Credit Union","id":"actnyclevyf3","sponsor?":null,"geo_precision":"range","state":"CA"},"type":"Feature","geometry":{"type":"Point","coordinates":[-121.308849,38.576344]}},{"properties":{"zip":"92553","bank type":"Credit Union","assets":0,"geo_score":0.805,"street address":"23540 Cactus Avenue","cu name":"Visterra Credit Union","id":"actnycd8vlmb","sponsor?":null,"geo_precision":"range","state":"CA"},"type":"Feature","geometry":{"type":"Point","coordinates":[-117.263139,33.910239]}},{"properties":{"zip":"91731","bank type":"Credit Union","assets":0,"geo_score":0.902,"street address":"4455 Arden Drive","cu name":"Vons Employees FCU","id":"actnyc8tm70z","sponsor?":null,"geo_precision":"range","state":"CA"},"type":"Feature","geometry":{"type":"Point","coordinates":[-118.043544,34.086246]}},{"properties":{"zip":"90012","bank type":"Credit Union","assets":0,"geo_score":0.902,"street address":"1053 West Sunset Boulevard","cu name":"Water &amp; Power Community CU","id":"actnychelh1m","sponsor?":null,"geo_precision":"range","state":"CA"},"type":"Feature","geometry":{"type":"Point","coordinates":[-118.248708,34.064755]}},{"properties":{"zip":"95076","bank type":"Credit Union","assets":0,"geo_score":0.873,"street address":"75 Nielson Street","cu name":"Watsonville Hospital FCU","id":"actnycod1jgs","sponsor?":null,"geo_precision":"range","state":"CA"},"type":"Feature","geometry":{"type":"Point","coordinates":[-121.790951,36.928332]}},{"properties":{"zip":"91101","bank type":"Credit Union","assets":0,"geo_score":0.902,"street address":"123 South Marengo Avenue","cu name":"Wescom Central Credit Union","id":"actnycek1ghz","sponsor?":null,"geo_precision":"range","state":"CA"},"type":"Feature","geometry":{"type":"Point","coordinates":[-118.145994,34.142712]}},{"properties":{"zip":"90250","bank type":"Credit Union","assets":0,"geo_score":0.902,"street address":"14500 Aviation Boulevard","cu name":"Western FCU","id":"actnyclm8hig","sponsor?":null,"geo_precision":"range","state":"CA"},"type":"Feature","geometry":{"type":"Point","coordinates":[-118.378663,33.898855]}},{"properties":{"zip":"94521","bank type":"Credit Union","assets":0,"geo_score":0.472,"street address":"5442 Ygnacio Valley Road","cu name":"Western Healthcare FCU","id":"actnyciqggy9","sponsor?":null,"geo_precision":"street","state":"CA"},"type":"Feature","geometry":{"type":"Point","coordinates":[-122.289471,38.007017]}},{"properties":{"zip":"90006","bank type":"Credit Union","assets":0,"geo_score":0.902,"street address":"920 South Alvarado Street","cu name":"Western States Regional FCU","id":"actnyco3utym","sponsor?":null,"geo_precision":"range","state":"CA"},"type":"Feature","geometry":{"type":"Point","coordinates":[-118.279596,34.052022]}},{"properties":{"zip":"95661","bank type":"Credit Union","assets":0,"geo_score":0.902,"street address":"130 Sunrise Avenue","cu name":"Western Valley FCU","id":"actnyce1oavo","sponsor?":null,"geo_precision":"range","state":"CA"},"type":"Feature","geometry":{"type":"Point","coordinates":[-121.266317,38.743649]}},{"properties":{"zip":"90404","bank type":"Credit Union","assets":0,"geo_score":0.902,"street address":"2020 Santa Monica Boulevard","cu name":"Westside Employees FCU","id":"actnycb1ysit","sponsor?":null,"geo_precision":"range","state":"CA"},"type":"Feature","geometry":{"type":"Point","coordinates":[-118.479399,34.029041]}},{"properties":{"zip":"90245","bank type":"Credit Union","assets":0,"geo_score":0.902,"street address":"888 North Nash Street","cu name":"Xceed Financial FCU","id":"actnych299fi","sponsor?":null,"geo_precision":"range","state":"CA"},"type":"Feature","geometry":{"type":"Point","coordinates":[-118.387397,33.930306]}},{"properties":{"zip":"95695","bank type":"Credit Union","assets":0,"geo_score":0.902,"street address":"266 West Main Street","cu name":"YOLO Federal Credit Union","id":"actnyc96268p","sponsor?":null,"geo_precision":"range","state":"CA"},"type":"Feature","geometry":{"type":"Point","coordinates":[-121.79506,38.67772]}},{"properties":{"zip":"90043","bank type":"Credit Union","assets":0,"geo_score":0.829,"street address":"7860 10th Avenue","cu name":"Zion Hill Baptist Church FCU","id":"actnycc9d7lw","sponsor?":null,"geo_precision":"range","state":"CA"},"type":"Feature","geometry":{"type":"Point","coordinates":[-118.328588,33.96745]}}],"is_temporal":false,"author":{"url":"","metadata":"","contact_name":"","contact_address":"","source":"","contact_phone":""},"source":"","pagination":{"sort":null,"start":0,"total":401,"limit":1000000},"state":"complete","tags":"","published":"2014-08-16T15:24:10-04:00","id":331930}