{"type":"FeatureCollection","data_type":"Dataset","url_type":null,"permissions":[{"permissions":{"download":true,"view":true},"group_id":"everyone"}],"classification":null,"title":"transfer_stations","count":74,"stream_id":332026,"contributor":{"url":"http://geocommons.com/users/18983","name":"danswick"},"data_attributes":null,"calculation_params":null,"icon_link":null,"link":"http://geocommons.com/overlays/332026.json","extent":[-90.731564,37.576438,-87.610053,42.322814],"geometry_types":["point"],"unique_name":null,"name":"transfer_stations","feature_count":74,"description":"","next_feature":null,"is_raster":false,"short_classification":"Y","stats":{"tons in 2008":{"max":583913,"variance":18895273614.4104,"mean":103679.38028169,"stdev":137460.080075673,"min":0,"median":18294}},"features":[{"properties":{"lw":"yes","name of facility":"C &amp; L LSW Trans. Stn.","waste accepted":"LW","county":"Cook","operator":"Skyline Disposal","geo_score":0.714,"tons in 2008":0,"tip fee":"NA","municipality":"Chicago Heights","column_1":"SSMMA","c_d":null,"owner":"C&amp;L LLC","id":"actvjoj98dct","recycling":null,"geo_precision":"city","state":"IL"},"type":"Feature","geometry":{"type":"Point","coordinates":[-87.68732,41.811929]}},{"properties":{"lw":"yes","name of facility":"Homewood","waste accepted":"MSW, LW","county":"Cook","operator":"Homewood Scavenger","geo_score":0.714,"tons in 2008":0,"tip fee":"NA","municipality":"East Hazel Crest","column_1":"SSMMA","c_d":null,"owner":"Star Investments","id":"actvjoqdcrzk","recycling":null,"geo_precision":"city","state":"IL"},"type":"Feature","geometry":{"type":"Point","coordinates":[-87.740051,41.683367]}},{"properties":{"lw":"yes","name of facility":"Harvey Transfer Station","waste accepted":"C&amp;D, LW","county":"Cook","operator":"Contractors Recycling Service","geo_score":0.714,"tons in 2008":0,"tip fee":"NA","municipality":"Harvey","column_1":"SSMMA","c_d":"yes","owner":"J&amp;L","id":"actvjomd35mx","recycling":null,"geo_precision":"city","state":"IL"},"type":"Feature","geometry":{"type":"Point","coordinates":[-87.68732,41.811929]}},{"properties":{"lw":null,"name of facility":"Prairie Lakes Recycling and Transfer 3","waste accepted":"LW, C&amp;D, recyclables","county":"Cook","operator":"Land and Lakes","geo_score":0.714,"tons in 2008":0,"tip fee":"NA","municipality":"Matteson","column_1":"SSMMA","c_d":"yes","owner":"Matteson Investments","id":"actvjohyfkow","recycling":"yes","geo_precision":"city","state":"IL"},"type":"Feature","geometry":{"type":"Point","coordinates":[-87.68732,41.811929]}},{"properties":{"lw":"yes","name of facility":"Star Disposal Service LSW Transfer Station","waste accepted":"LW","county":"Cook","operator":"Homewood Scavenger","geo_score":0.714,"tons in 2008":0,"tip fee":"NA","municipality":"Park Forest","column_1":"SSMMA","c_d":null,"owner":"Star Investments","id":"actvjoulsk4o","recycling":null,"geo_precision":"city","state":"IL"},"type":"Feature","geometry":{"type":"Point","coordinates":[-88.393085,40.754176]}},{"properties":{"lw":null,"name of facility":"Star Disposal Service Transfer Station","waste accepted":"MSW","county":"Cook","operator":"Homewood Scavenger","geo_score":0.714,"tons in 2008":0,"tip fee":"NA","municipality":"Park Forest","column_1":"SSMMA","c_d":null,"owner":"Star Investments","id":"actvjou3codt","recycling":null,"geo_precision":"city","state":"IL"},"type":"Feature","geometry":{"type":"Point","coordinates":[-88.393085,40.754176]}},{"properties":{"lw":null,"name of facility":"Groot Industries/Chicago TS","waste accepted":"MSW, C&amp;D","county":"Cook","operator":"Groot","geo_score":0.714,"tons in 2008":0,"tip fee":"NA","municipality":"Elk Grove Village","column_1":"SWANCC","c_d":"yes","owner":"Groot","id":"actvjosd0dfp","recycling":null,"geo_precision":"city","state":"IL"},"type":"Feature","geometry":{"type":"Point","coordinates":[-87.905866,42.020278]}},{"properties":{"lw":"yes","name of facility":"Mr. K?s Garden and Material Center Transfer Station","waste accepted":"LW","county":"Cook","operator":"Mr. K?s","geo_score":0.714,"tons in 2008":0,"tip fee":"NA","municipality":"Park Ridge","column_1":"SWANCC","c_d":null,"owner":"Mr. K?s","id":"actvjokqneqa","recycling":null,"geo_precision":"city","state":"IL"},"type":"Feature","geometry":{"type":"Point","coordinates":[-87.843714,42.037228]}},{"properties":{"lw":"yes","name of facility":"Wilmette Village Yard","waste accepted":"LW","county":"Cook","operator":"Village of Wilmette","geo_score":0.714,"tons in 2008":0,"tip fee":"NA","municipality":"Wilmette","column_1":"SWANCC","c_d":null,"owner":"Village of Wilmette","id":"actvjopq55e9","recycling":null,"geo_precision":"city","state":"IL"},"type":"Feature","geometry":{"type":"Point","coordinates":[-87.72836,42.079228]}},{"properties":{"lw":"yes","name of facility":"Cloverleaf Farms Transfer","waste accepted":"LW","county":"Cook","operator":"Midwest Compost","geo_score":0.714,"tons in 2008":0,"tip fee":"NA","municipality":"Elgin","column_1":"unaff","c_d":null,"owner":"Midwest Compost","id":"actvjohalin1","recycling":null,"geo_precision":"city","state":"IL"},"type":"Feature","geometry":{"type":"Point","coordinates":[-88.429777,41.990689]}},{"properties":{"lw":"yes","name of facility":"Best Lawns TS Streamwood","waste accepted":"LW","county":"Cook","operator":"Best Lawns","geo_score":0.714,"tons in 2008":0,"tip fee":"NA","municipality":"Streamwood","column_1":"unaff","c_d":null,"owner":"Best Lawns","id":"actvjohsjf11","recycling":null,"geo_precision":"city","state":"IL"},"type":"Feature","geometry":{"type":"Point","coordinates":[-88.178475,42.019093]}},{"properties":{"lw":null,"name of facility":"Kucera Disposal Company","waste accepted":"MSW, recyclables, C&amp;D","county":"Cook","operator":"Frank Kucera","geo_score":0.714,"tons in 2008":0,"tip fee":"NA","municipality":"Cicero","column_1":"WCCSWA","c_d":"yes","owner":"Frank Kucera","id":"actvjoqrx6ve","recycling":"yes","geo_precision":"city","state":"IL"},"type":"Feature","geometry":{"type":"Point","coordinates":[-87.753945,41.845588]}},{"properties":{"lw":"yes","name of facility":"Greenwood Development","waste accepted":"LW","county":"Cook","operator":"Greenwood","geo_score":0.714,"tons in 2008":0,"tip fee":"NA","municipality":"Maywood","column_1":"WCCSWA","c_d":null,"owner":"Greenwood","id":"actvjoo1v9e7","recycling":null,"geo_precision":"city","state":"IL"},"type":"Feature","geometry":{"type":"Point","coordinates":[-87.68732,41.811929]}},{"properties":{"lw":null,"name of facility":"Greenwood Transfer Facility 1","waste accepted":"MSW","county":"Cook","operator":"Greenwood","geo_score":0.714,"tons in 2008":0,"tip fee":"NA","municipality":"Maywood","column_1":"WCCSWA","c_d":null,"owner":"Roy Strom","id":"actvjoqcenod","recycling":null,"geo_precision":"city","state":"IL"},"type":"Feature","geometry":{"type":"Point","coordinates":[-87.68732,41.811929]}},{"properties":{"lw":null,"name of facility":"Ravenswood Disposal Service Transfer Station","waste accepted":"C&amp;D","county":"Cook","operator":"Ravenswood Disposal","geo_score":0.714,"tons in 2008":0,"tip fee":"NA","municipality":"Chicago","column_1":null,"c_d":"yes","owner":"Ravenswood Disposal","id":"actvjogu94ph","recycling":null,"geo_precision":"city","state":"IL"},"type":"Feature","geometry":{"type":"Point","coordinates":[-87.68732,41.811929]}},{"properties":{"lw":"yes","name of facility":"River Bend Prairie Recycling and Transfer Facility","waste accepted":"MSW, LW, recyclables, non special bulk waste","county":"Cook","operator":"Land and Lakes","geo_score":0.714,"tons in 2008":0,"tip fee":"NA","municipality":"Chicago","column_1":null,"c_d":null,"owner":"Marina Developments","id":"actvjovv9psg","recycling":"yes","geo_precision":"city","state":"IL"},"type":"Feature","geometry":{"type":"Point","coordinates":[-87.68732,41.811929]}},{"properties":{"lw":null,"name of facility":"Robbins Recycling &amp; Transfer 1","waste accepted":"MSW, nonhaz special waste","county":"Cook","operator":"Allied","geo_score":0.714,"tons in 2008":72,"tip fee":"NA","municipality":"Robbins","column_1":"SSMMA","c_d":null,"owner":"Village of Robbins","id":"actvjoomw9wt","recycling":null,"geo_precision":"city","state":"IL"},"type":"Feature","geometry":{"type":"Point","coordinates":[-87.878888,41.95273]}},{"properties":{"lw":null,"name of facility":"Des Plaines Trans. Stn.","waste accepted":"LW, CCDD from muni","county":"Cook","operator":"City of Des Plaines","geo_score":0.714,"tons in 2008":545,"tip fee":"NA","municipality":"Des Plaines","column_1":"unaff","c_d":"CCDD from muni","owner":"City of Des Plaines","id":"actvjot09y7w","recycling":null,"geo_precision":"city","state":"IL"},"type":"Feature","geometry":{"type":"Point","coordinates":[-89.79483,39.985327]}},{"properties":{"lw":"yes","name of facility":"Northlake Transfer Station 2","waste accepted":"MSW, LW, recyclables, C&amp;D","county":"Cook","operator":"Northlake Transfer, Allied subsidiary","geo_score":0.714,"tons in 2008":561,"tip fee":"NA","municipality":"Northlake","column_1":"WCCSWA","c_d":"yes","owner":"Northlake Transfer, Allied subsidiary","id":"actvjohcaodl","recycling":"yes","geo_precision":"city","state":"IL"},"type":"Feature","geometry":{"type":"Point","coordinates":[-87.895619,41.917253]}},{"properties":{"lw":"yes","name of facility":"Oak Forest Public Works","waste accepted":"LW","county":"Cook","operator":"City of Oak Forest","geo_score":0.714,"tons in 2008":924,"tip fee":"NA","municipality":"Oak Forest","column_1":"SSMMA","c_d":null,"owner":"City of Oak Forest","id":"actvjok78okz","recycling":null,"geo_precision":"city","state":"IL"},"type":"Feature","geometry":{"type":"Point","coordinates":[-88.517825,37.576438]}},{"properties":{"lw":"yes","name of facility":"Winnetka Municipal LSW Trans.","waste accepted":"LW","county":"Cook","operator":"Village of Winnetka","geo_score":0.714,"tons in 2008":3540,"tip fee":"NA","municipality":"Winnetka","column_1":"SWANCC","c_d":null,"owner":"Village of Winnetka","id":"actvjoidat16","recycling":null,"geo_precision":"city","state":"IL"},"type":"Feature","geometry":{"type":"Point","coordinates":[-87.940168,42.112176]}},{"properties":{"lw":"yes","name of facility":"JKS Ventures Inc.","waste accepted":"LW","county":"Cook","operator":"JKS Ventures","geo_score":0.714,"tons in 2008":10000,"tip fee":"NA","municipality":"Melrose Park","column_1":"WCCSWA","c_d":null,"owner":"Chicago Title Land Trust","id":"actvjopi72i4","recycling":null,"geo_precision":"city","state":"IL"},"type":"Feature","geometry":{"type":"Point","coordinates":[-87.764196,39.223372]}},{"properties":{"lw":"yes","name of facility":"American Wood Recycling TS","waste accepted":"LW","county":"Cook","operator":"American Wood Recycling","geo_score":0.714,"tons in 2008":11036,"tip fee":"$38/ton","municipality":"Hoffman Estates","column_1":"SWANCC","c_d":null,"owner":"American Wood Recycling","id":"actvjot46rcx","recycling":null,"geo_precision":"city","state":"IL"},"type":"Feature","geometry":{"type":"Point","coordinates":[-88.223655,42.079336]}},{"properties":{"lw":null,"name of facility":"City Waste Transfer","waste accepted":"MSW, recyclables, commercial","county":"Cook","operator":"American Disposal, Allied subsidiary","geo_score":0.714,"tons in 2008":18294,"tip fee":"NA","municipality":"Chicago","column_1":null,"c_d":null,"owner":"American Disposal, Allied subsidiary","id":"actvjosvftgq","recycling":"yes","geo_precision":"city","state":"IL"},"type":"Feature","geometry":{"type":"Point","coordinates":[-87.68732,41.811929]}},{"properties":{"lw":null,"name of facility":"CID Transfer Station","waste accepted":"MSW","county":"Cook","operator":"Waste Management","geo_score":0.714,"tons in 2008":40886,"tip fee":"NA","municipality":"Chicago","column_1":null,"c_d":null,"owner":"Waste Management","id":"actvjoi5vjbt","recycling":null,"geo_precision":"city","state":"IL"},"type":"Feature","geometry":{"type":"Point","coordinates":[-87.68732,41.811929]}},{"properties":{"lw":null,"name of facility":"SRS North Lot","waste accepted":"C&amp;D","county":"Cook","operator":"Shred All, Allied subsidiary","geo_score":0.714,"tons in 2008":47337,"tip fee":"NA","municipality":"Chicago","column_1":null,"c_d":"yes","owner":"ELK Corporation","id":"actvjow4a7nc","recycling":null,"geo_precision":"city","state":"IL"},"type":"Feature","geometry":{"type":"Point","coordinates":[-87.68732,41.811929]}},{"properties":{"lw":"yes","name of facility":"Liberty Waste","waste accepted":"MSW, LW, recyclables, C&amp;D","county":"Cook","operator":"Liberty Waste, Allied subsidiary","geo_score":0.0,"tons in 2008":81378,"tip fee":"NA","municipality":"McCook","column_1":"WCCSWA","c_d":"yes","owner":"Liberty Waste, Allied subsidiary","id":"actvjoul0hkl","recycling":"yes","geo_precision":"unmatched","state":"IL"},"type":"Feature","geometry":null},{"properties":{"lw":null,"name of facility":"Midtown Transfer","waste accepted":"MSW, commercial","county":"Cook","operator":"BFI, Allied Subsidiary","geo_score":0.714,"tons in 2008":89100,"tip fee":"NA","municipality":"Chicago","column_1":null,"c_d":null,"owner":"BFI, Allied Subsidiary","id":"actvjoibne83","recycling":null,"geo_precision":"city","state":"IL"},"type":"Feature","geometry":{"type":"Point","coordinates":[-87.68732,41.811929]}},{"properties":{"lw":null,"name of facility":"Veolia ES SW MW LLC/N","waste accepted":"MSW, recyclables","county":"Cook","operator":"Veolia","geo_score":0.714,"tons in 2008":119466,"tip fee":"NA","municipality":"Northbrook","column_1":"unaff","c_d":null,"owner":"Veolia","id":"actvjouoluoq","recycling":"yes","geo_precision":"city","state":"IL"},"type":"Feature","geometry":{"type":"Point","coordinates":[-88.140635,42.207802]}},{"properties":{"lw":null,"name of facility":"Waste Mgt.-So. Suburbs/Rec. Am./A","waste accepted":"MSW","county":"Cook","operator":"Waste Management","geo_score":0.714,"tons in 2008":120037,"tip fee":"NA","municipality":"Alsip","column_1":"unaff","c_d":null,"owner":"Waste Management","id":"actvjooizhfv","recycling":null,"geo_precision":"city","state":"IL"},"type":"Feature","geometry":{"type":"Point","coordinates":[-87.738662,41.668922]}},{"properties":{"lw":null,"name of facility":"34th Street Mat'l. Rec. &amp; Recy.","waste accepted":"MSW, recyclables","county":"Cook","operator":"Allied","geo_score":0.714,"tons in 2008":131332,"tip fee":"NA","municipality":"Chicago","column_1":null,"c_d":null,"owner":"City of Chicago","id":"actvjov8ypj0","recycling":"yes","geo_precision":"city","state":"IL"},"type":"Feature","geometry":{"type":"Point","coordinates":[-87.68732,41.811929]}},{"properties":{"lw":null,"name of facility":"Veolia ES SW MW LLC/E","waste accepted":"MSW","county":"Cook","operator":"Veolia","geo_score":0.714,"tons in 2008":164972,"tip fee":"$65/ton","municipality":"Evanston","column_1":"SWANCC","c_d":null,"owner":"Veolia","id":"actvjohwcu9n","recycling":null,"geo_precision":"city","state":"IL"},"type":"Feature","geometry":{"type":"Point","coordinates":[-87.702155,42.049148]}},{"properties":{"lw":null,"name of facility":"Veolia ES SW MW LLC/RM","waste accepted":"MSW","county":"Cook","operator":"Veolia","geo_score":0.714,"tons in 2008":168442,"tip fee":"$55/ton","municipality":"Rolling Meadows","column_1":"SWANCC","c_d":null,"owner":"City of Rolling Meadows","id":"actvjowimzsj","recycling":null,"geo_precision":"city","state":"IL"},"type":"Feature","geometry":{"type":"Point","coordinates":[-88.804788,40.744479]}},{"properties":{"lw":null,"name of facility":"Riverdale Recycling Inc. a","waste accepted":"MSW, recyclables, C&amp;D, tires","county":"Cook","operator":"Tri State Disposal","geo_score":0.714,"tons in 2008":183261,"tip fee":"$55/ton","municipality":"Riverdale","column_1":"SSMMA","c_d":"yes","owner":"Tri State Disposal","id":"actvjondsvoi","recycling":"yes","geo_precision":"city","state":"IL"},"type":"Feature","geometry":{"type":"Point","coordinates":[-87.633102,41.633368]}},{"properties":{"lw":"yes","name of facility":"Groot Industries/McCook TS","waste accepted":"MSW, LW, recyclables","county":"Cook","operator":"Groot","geo_score":0.0,"tons in 2008":187800,"tip fee":"NA","municipality":"McCook","column_1":"WCCSWA","c_d":null,"owner":"Groot","id":"actvjoq6uz96","recycling":"yes","geo_precision":"unmatched","state":"IL"},"type":"Feature","geometry":null},{"properties":{"lw":null,"name of facility":"Medill Mat'l. Rec. &amp; Recy.","waste accepted":"MSW, recyclables, C&amp;D recycling","county":"Cook","operator":"Allied","geo_score":0.714,"tons in 2008":190121,"tip fee":"NA","municipality":"Chicago","column_1":null,"c_d":"yes, recycling","owner":"City of Chicago","id":"actvjohmbzw5","recycling":"yes","geo_precision":"city","state":"IL"},"type":"Feature","geometry":{"type":"Point","coordinates":[-87.68732,41.811929]}},{"properties":{"lw":null,"name of facility":"Shred-All Recycling Systems TS","waste accepted":"MSW, recyclables, commercial, tires","county":"Cook","operator":"Shred All, Allied subsidiary","geo_score":0.714,"tons in 2008":238443,"tip fee":"NA","municipality":"Chicago","column_1":null,"c_d":null,"owner":"American Disposal, Allied subsidiary","id":"actvjowpxar0","recycling":"yes","geo_precision":"city","state":"IL"},"type":"Feature","geometry":{"type":"Point","coordinates":[-87.68732,41.811929]}},{"properties":{"lw":null,"name of facility":"Waste Mgt.-Metro/S","waste accepted":"MSW, PIMW","county":"Cook","operator":"Waste Management","geo_score":0.0,"tons in 2008":247993,"tip fee":"NA","municipality":"Stickney","column_1":"WCCSWA","c_d":null,"owner":"Waste Management","id":"actvjow79x0k","recycling":null,"geo_precision":"unmatched","state":"IL"},"type":"Feature","geometry":null},{"properties":{"lw":null,"name of facility":"Loop Transfer-Laflin","waste accepted":"MSW, C&amp;D, commercial","county":"Cook","operator":"Loop Transfer","geo_score":0.714,"tons in 2008":247993,"tip fee":"NA","municipality":"Chicago","column_1":null,"c_d":"yes","owner":"Allied","id":"actvjov15wq0","recycling":null,"geo_precision":"city","state":"IL"},"type":"Feature","geometry":{"type":"Point","coordinates":[-87.68732,41.811929]}},{"properties":{"lw":"yes","name of facility":"Waste Mgt.-Northwest/W","waste accepted":"MSW, LW, recyclables, C&amp;D","county":"Cook","operator":"Waste Management","geo_score":0.714,"tons in 2008":251087,"tip fee":"NA","municipality":"Wheeling","column_1":"SWANCC","c_d":"yes","owner":"Waste Management","id":"actvjogfsjct","recycling":"yes","geo_precision":"city","state":"IL"},"type":"Feature","geometry":{"type":"Point","coordinates":[-87.933819,42.124176]}},{"properties":{"lw":null,"name of facility":"West Cook Transfer Station","waste accepted":"MSW, C&amp;D recycling","county":"Cook","operator":"Heartland Recycling","geo_score":0.714,"tons in 2008":252000,"tip fee":"$50/ton","municipality":"Forest View","column_1":"WCCSWA","c_d":"yes, recycling","owner":"Town and Country Transfer","id":"actvjospuhgz","recycling":null,"geo_precision":"city","state":"IL"},"type":"Feature","geometry":{"type":"Point","coordinates":[-88.393085,40.754176]}},{"properties":{"lw":"yes","name of facility":"AW/Groen Waste Services","waste accepted":"MSW, LW, recyclables","county":"Cook","operator":"Allied","geo_score":0.714,"tons in 2008":252478,"tip fee":null,"municipality":"Crestwood","column_1":"unaff","c_d":null,"owner":"Allied","id":"actvjordkygz","recycling":"yes","geo_precision":"city","state":"IL"},"type":"Feature","geometry":{"type":"Point","coordinates":[-87.752551,41.661144]}},{"properties":{"lw":null,"name of facility":"Waste Management/Bluff City TS 1","waste accepted":"MSW, recyclables, C&amp;D","county":"Cook","operator":"Waste Management","geo_score":0.714,"tons in 2008":268815,"tip fee":"$52.50/ton","municipality":"Elgin","column_1":"unaff","c_d":"yes","owner":"Waste Management","id":"actvjos0m4eu","recycling":"yes","geo_precision":"city","state":"IL"},"type":"Feature","geometry":{"type":"Point","coordinates":[-88.429777,41.990689]}},{"properties":{"lw":null,"name of facility":"Hooker Street TS","waste accepted":"MSW","county":"Cook","operator":"Waste Management","geo_score":0.714,"tons in 2008":285485,"tip fee":"$44/ton","municipality":"Chicago","column_1":null,"c_d":null,"owner":"Waste Management","id":"actvjop4yyeq","recycling":null,"geo_precision":"city","state":"IL"},"type":"Feature","geometry":{"type":"Point","coordinates":[-87.68732,41.811929]}},{"properties":{"lw":null,"name of facility":"Loop Transfer - 64th Street","waste accepted":"MSW, commercial, recyclables","county":"Cook","operator":"Loop Transfer","geo_score":0.714,"tons in 2008":287650,"tip fee":"NA","municipality":"Chicago","column_1":null,"c_d":null,"owner":"Allied","id":"actvjotyu6e5","recycling":"yes","geo_precision":"city","state":"IL"},"type":"Feature","geometry":{"type":"Point","coordinates":[-87.68732,41.811929]}},{"properties":{"lw":null,"name of facility":"Calumet Transfer Station","waste accepted":"MSW, commercial","county":"Cook","operator":"Liberty Waste, Allied subsidiary","geo_score":0.714,"tons in 2008":289481,"tip fee":null,"municipality":"Chicago","column_1":null,"c_d":null,"owner":"Liberty Waste, Allied subsidiary","id":"actvjoi3c15y","recycling":null,"geo_precision":"city","state":"IL"},"type":"Feature","geometry":{"type":"Point","coordinates":[-87.68732,41.811929]}},{"properties":{"lw":"yes","name of facility":"Glenview Transfer Station","waste accepted":"MSW, LW","county":"Cook","operator":"Groot","geo_score":0.714,"tons in 2008":296022,"tip fee":"NA","municipality":"Glenview","column_1":"SWANCC","c_d":null,"owner":"SWANCC","id":"actvjoqmxtf3","recycling":null,"geo_precision":"city","state":"IL"},"type":"Feature","geometry":{"type":"Point","coordinates":[-87.819714,42.082715]}},{"properties":{"lw":"yes","name of facility":"Northwest Mat'l. Rec. &amp; Recy.","waste accepted":"MSW, LW, recyclables","county":"Cook","operator":"Allied","geo_score":0.714,"tons in 2008":301360,"tip fee":"NA","municipality":"Chicago","column_1":null,"c_d":null,"owner":"City of Chicago","id":"actvjopfmva4","recycling":"yes","geo_precision":"city","state":"IL"},"type":"Feature","geometry":{"type":"Point","coordinates":[-87.68732,41.811929]}},{"properties":{"lw":"LSW?","name of facility":"ARC Disposal &amp; Recycling","waste accepted":"MSW, industrial, commercial","county":"Cook","operator":"ARC","geo_score":0.714,"tons in 2008":326227,"tip fee":"$51/ton","municipality":"Mt. Prospect","column_1":"SWANCC","c_d":null,"owner":"ARC","id":"actvjovgfbh1","recycling":"yes?","geo_precision":"city","state":"IL"},"type":"Feature","geometry":{"type":"Point","coordinates":[-88.805278,39.434607]}},{"properties":{"lw":null,"name of facility":"Planet Recovery Transfer Station","waste accepted":"MSW, recyclables, commercial","county":"Cook","operator":"Allied","geo_score":0.714,"tons in 2008":374902,"tip fee":"NA","municipality":"Chicago","column_1":null,"c_d":null,"owner":"Allied","id":"actvjoradwcl","recycling":"yes","geo_precision":"city","state":"IL"},"type":"Feature","geometry":{"type":"Point","coordinates":[-87.68732,41.811929]}},{"properties":{"lw":null,"name of facility":"Veolia ES SW MW LLC/MP","waste accepted":"MSW","county":"Cook","operator":"Veolia","geo_score":0.714,"tons in 2008":500000,"tip fee":"NA","municipality":"Melrose Park","column_1":"WCCSWA","c_d":null,"owner":"Veolia","id":"actvjom9dxg7","recycling":null,"geo_precision":"city","state":"IL"},"type":"Feature","geometry":{"type":"Point","coordinates":[-87.764196,39.223372]}},{"properties":{"lw":"yes","name of facility":"Recycling Systems Inc. 1","waste accepted":"MSW, LW, C&amp;D","county":"Cook","operator":"RSI","geo_score":0.714,"tons in 2008":583913,"tip fee":"$55/ton","municipality":"Chicago","column_1":null,"c_d":"yes","owner":"RSI","id":"actvjom9gh4m","recycling":null,"geo_precision":"city","state":"IL"},"type":"Feature","geometry":{"type":"Point","coordinates":[-87.68732,41.811929]}},{"properties":{"lw":"yes","name of facility":"DuKane Transfer Facility 1 &amp; a","waste accepted":"MSW, LW, recyclables","county":"DuPage","operator":"Groot","geo_score":0.714,"tons in 2008":0,"tip fee":"NA","municipality":"West Chicago","column_1":null,"c_d":null,"owner":"Groot","id":"actvjotcoo66","recycling":"yes","geo_precision":"city","state":"IL"},"type":"Feature","geometry":{"type":"Point","coordinates":[-88.088716,41.839679]}},{"properties":{"lw":"yes","name of facility":"DuPage Yard Waste TS","waste accepted":"LW","county":"DuPage","operator":"Midwest Compost","geo_score":0.714,"tons in 2008":0,"tip fee":"NA","municipality":"West Chicago","column_1":null,"c_d":null,"owner":"Midwest Compost","id":"actvjomccs4i","recycling":null,"geo_precision":"city","state":"IL"},"type":"Feature","geometry":{"type":"Point","coordinates":[-88.088716,41.839679]}},{"properties":{"lw":"yes","name of facility":"Veolia ES SW MW LLC.Batavia TS","waste accepted":"MSW, LW, recyclables","county":"Kane","operator":"Veolia","geo_score":0.714,"tons in 2008":0,"tip fee":"NA","municipality":"Batavia","column_1":null,"c_d":null,"owner":"Veolia","id":"actvjosjf1ht","recycling":"yes","geo_precision":"city","state":"IL"},"type":"Feature","geometry":{"type":"Point","coordinates":[-88.407334,41.828292]}},{"properties":{"lw":"yes","name of facility":"Montgomery Landscape Waste Collection Site","waste accepted":"LW","county":"Kane","operator":"Village of Montgomery","geo_score":0.714,"tons in 2008":0,"tip fee":"NA","municipality":"Montgomery","column_1":null,"c_d":null,"owner":"Village of Montgomery","id":"actvjosmd8oy","recycling":null,"geo_precision":"city","state":"IL"},"type":"Feature","geometry":{"type":"Point","coordinates":[-88.457951,41.643752]}},{"properties":{"lw":null,"name of facility":"Waste Management/E","waste accepted":"MSW, non special waste","county":"Kane","operator":"Waste Management","geo_score":0.714,"tons in 2008":165054,"tip fee":"$52.50/ton","municipality":"Elburn","column_1":null,"c_d":null,"owner":"Waste Management","id":"actvjouvc23y","recycling":null,"geo_precision":"city","state":"IL"},"type":"Feature","geometry":{"type":"Point","coordinates":[-88.469931,41.834928]}},{"properties":{"lw":null,"name of facility":"United Disposal of Bradley Transfer Station","waste accepted":"MSW, recyclables","county":"Kankakee","operator":"United Disposal of Bradley","geo_score":0.714,"tons in 2008":0,"tip fee":"NA","municipality":"Bradley","column_1":null,"c_d":null,"owner":"Municipal Trust and Savings","id":"actvjow8d280","recycling":"yes","geo_precision":"city","state":"IL"},"type":"Feature","geometry":{"type":"Point","coordinates":[-87.842583,41.207762]}},{"properties":{"lw":null,"name of facility":"Apollo Disposal Service TS","waste accepted":"MSW, recyclables","county":"Kankakee","operator":"Allied","geo_score":0.714,"tons in 2008":106000,"tip fee":"$52.50/ton","municipality":"Momence","column_1":null,"c_d":null,"owner":"Allied","id":"actvjotguacm","recycling":"yes","geo_precision":"city","state":"IL"},"type":"Feature","geometry":{"type":"Point","coordinates":[-87.868519,41.116572]}},{"properties":{"lw":"yes","name of facility":"Land &amp; Lakes/Wheeling LSW Transfer Station","waste accepted":"LW","county":"Lake","operator":"Land and Lakes","geo_score":0.714,"tons in 2008":0,"tip fee":"$17-$19/ cu yd","municipality":"Deerfield","column_1":null,"c_d":null,"owner":"Prairie Rec Development","id":"actvjol6qztl","recycling":null,"geo_precision":"city","state":"IL"},"type":"Feature","geometry":{"type":"Point","coordinates":[-87.866818,42.178175]}},{"properties":{"lw":"yes","name of facility":"Aspen Valley LSW TS 2","waste accepted":"LW","county":"Lake","operator":"Aspen Valley","geo_score":0.714,"tons in 2008":0,"tip fee":"NA","municipality":"Park City","column_1":null,"c_d":null,"owner":"Weaver?s Family","id":"actvjotsg5bx","recycling":null,"geo_precision":"city","state":"IL"},"type":"Feature","geometry":{"type":"Point","coordinates":[-90.731564,40.583158]}},{"properties":{"lw":"yes","name of facility":"Eco Materials Waukegan LSW TS a","waste accepted":"LW","county":"Lake","operator":"Eco Materials","geo_score":0.714,"tons in 2008":0,"tip fee":"NA","municipality":"Waukegan","column_1":null,"c_d":null,"owner":"Thelen Sand and Gravel","id":"actvjol7pds1","recycling":null,"geo_precision":"city","state":"IL"},"type":"Feature","geometry":{"type":"Point","coordinates":[-87.610053,42.322814]}},{"properties":{"lw":"yes","name of facility":"Highland Park LSW TS","waste accepted":"LW","county":"Lake","operator":"City of Highland Park","geo_score":0.0,"tons in 2008":50,"tip fee":"NA","municipality":"Highland Park","column_1":null,"c_d":null,"owner":"City of Highland Park","id":"actvjopbs750","recycling":null,"geo_precision":"unmatched","state":"IL"},"type":"Feature","geometry":null},{"properties":{"lw":"yes","name of facility":"Zion Municipal Trans. Stn.","waste accepted":"LW","county":"Lake","operator":"City of Zion","geo_score":0.714,"tons in 2008":1564,"tip fee":"NA","municipality":"Zion","column_1":null,"c_d":null,"owner":"City of Zion","id":"actvjonjx5sc","recycling":null,"geo_precision":"city","state":"IL"},"type":"Feature","geometry":{"type":"Point","coordinates":[-88.664186,38.710776]}},{"properties":{"lw":"yes","name of facility":"Lake Forest Transfer Facility","waste accepted":"LW from Lake Forest","county":"Lake","operator":"DK Organics","geo_score":0.714,"tons in 2008":22470,"tip fee":"NA","municipality":"Lake Forest","column_1":null,"c_d":null,"owner":"City of Lake Forest","id":"actvjooe1gta","recycling":null,"geo_precision":"city","state":"IL"},"type":"Feature","geometry":{"type":"Point","coordinates":[-88.393085,40.754176]}},{"properties":{"lw":"yes","name of facility":"Oak Development LLC 1 &amp; b","waste accepted":"LW","county":"Lake","operator":"DK Organics","geo_score":0.714,"tons in 2008":84464,"tip fee":"NA","municipality":"Lake Bluff","column_1":null,"c_d":null,"owner":"Oak Development","id":"actvjojolg6q","recycling":null,"geo_precision":"city","state":"IL"},"type":"Feature","geometry":{"type":"Point","coordinates":[-89.680102,40.684482]}},{"properties":{"lw":"yes","name of facility":"Meyer Material/MDC LSW TS","waste accepted":"LW","county":"McHenry","operator":"Marengo Disposal","geo_score":0.714,"tons in 2008":5000,"tip fee":"NA","municipality":"McHenry","column_1":null,"c_d":null,"owner":"Meyer Material","id":"actvjokgsrig","recycling":null,"geo_precision":"city","state":"IL"},"type":"Feature","geometry":{"type":"Point","coordinates":[-88.320886,42.296671]}},{"properties":{"lw":"yes","name of facility":"Land &amp; Lakes/Willow Ranch LSW Transfer Station","waste accepted":"LW","county":"Will","operator":"Land and Lakes","geo_score":0.714,"tons in 2008":0,"tip fee":"$15/cu yd","municipality":"Romeoville","column_1":null,"c_d":null,"owner":"JMC Operations","id":"actvjokszsmb","recycling":null,"geo_precision":"city","state":"IL"},"type":"Feature","geometry":{"type":"Point","coordinates":[-88.089506,41.647531]}},{"properties":{"lw":null,"name of facility":"Citiwaste Transfer Station","waste accepted":"CCDD, LW, recyclables","county":"Will","operator":"Citiwaste","geo_score":0.714,"tons in 2008":28202,"tip fee":"NA","municipality":"Joliet","column_1":null,"c_d":"CCDD","owner":"Citiwaste","id":"actvjosce3hv","recycling":"yes","geo_precision":"city","state":"IL"},"type":"Feature","geometry":{"type":"Point","coordinates":[-87.93909,41.471206]}},{"properties":{"lw":"yes","name of facility":"Waste Management/Rockdale","waste accepted":"MSW, LW, recyclables","county":"Will","operator":"Waste Management","geo_score":0.0,"tons in 2008":53479,"tip fee":"NA","municipality":"Rockdale","column_1":null,"c_d":null,"owner":"Waste Management","id":"actvjoski8w5","recycling":"yes","geo_precision":"unmatched","state":"IL"},"type":"Feature","geometry":null},{"properties":{"lw":null,"name of facility":"Waste Management/J","waste accepted":"MSW, C&amp;D","county":"Will","operator":"Waste Management","geo_score":0.714,"tons in 2008":322000,"tip fee":"$65/ton","municipality":"Joliet","column_1":null,"c_d":"yes","owner":"Waste Management","id":"actvjot293lq","recycling":null,"geo_precision":"city","state":"IL"},"type":"Feature","geometry":{"type":"Point","coordinates":[-87.93909,41.471206]}},{"properties":{"lw":"yes","name of facility":"James Park LSW TS 1","waste accepted":"LW","county":null,"operator":"City of Evanston","geo_score":0.714,"tons in 2008":null,"tip fee":"NA","municipality":"not on list","column_1":null,"c_d":null,"owner":"City of Evanston","id":"actvjowgm7xh","recycling":null,"geo_precision":"city","state":"IL"},"type":"Feature","geometry":{"type":"Point","coordinates":[-87.769192,40.167258]}},{"properties":{"lw":null,"name of facility":"Mariani Landscape  Transfer 1","waste accepted":null,"county":null,"operator":null,"geo_score":0.714,"tons in 2008":null,"tip fee":null,"municipality":"not on list","column_1":null,"c_d":null,"owner":null,"id":"actvjow2bvc6","recycling":null,"geo_precision":"city","state":"IL"},"type":"Feature","geometry":{"type":"Point","coordinates":[-87.769192,40.167258]}},{"properties":{"lw":"yes","name of facility":"Perricone Nursery LSW TS 1","waste accepted":"LW","county":null,"operator":"Perricone Brothers Landscaping","geo_score":0.714,"tons in 2008":null,"tip fee":"NA","municipality":"not on list","column_1":null,"c_d":null,"owner":"Albany Bank and Trust","id":"actvjome22ra","recycling":null,"geo_precision":"city","state":"IL"},"type":"Feature","geometry":{"type":"Point","coordinates":[-87.769192,40.167258]}}],"is_temporal":false,"author":{"url":"","metadata":null,"contact_name":null,"contact_address":null,"source":null,"contact_phone":null},"source":"","pagination":{"sort":null,"start":0,"total":74,"limit":1000000},"state":"geocoded","tags":"","published":"2014-08-16T15:35:33-04:00","id":332026}