{"type":"FeatureCollection","data_type":"Dataset","url_type":null,"permissions":[{"permissions":{"download":true,"edit":true,"view":true},"group_id":"everyone"}],"classification":null,"title":"ZIP_CODES_MISSING","count":314,"stream_id":333101,"contributor":{"url":"http://geocommons.com/users/38156","name":"althause"},"data_attributes":null,"calculation_params":null,"icon_link":null,"link":"http://geocommons.com/overlays/333101.json","extent":[-163.119,18.213,-66.0388,61.3084],"geometry_types":["point"],"unique_name":null,"name":"ZIP_CODES_MISSING","feature_count":314,"description":"Airports in US and Canada missing postal or zip codes","next_feature":null,"is_raster":false,"short_classification":"Y","stats":{},"features":[{"properties":{"location name":"WKK-Aleknagik Airport","city":"Aleknagik","column_10":null,"column_7":null,"country":"USA","column_8":null,"geo_score":0.513,"column_9":null,"postal code":null,"id":"acx1l985qmhg","address":"Aleknagik","geo_precision":"street","state":"AK"},"type":"Feature","geometry":{"type":"Point","coordinates":[-158.5682,59.048033]}},{"properties":{"location name":"AED-Aleneva Airport","city":"Aleneva","column_10":null,"column_7":null,"country":"USA","column_8":null,"geo_score":0.0,"column_9":null,"postal code":null,"id":"acx1l98anqo3","address":"Aleneva","geo_precision":"unmatched","state":"AK"},"type":"Feature","geometry":null},{"properties":{"location name":"AKB-Atka Airport","city":"Atka","column_10":null,"column_7":null,"country":"USA","column_8":null,"geo_score":0.5,"column_9":null,"postal code":null,"id":"acx1l9mgwvrl","address":"Atka","geo_precision":"street","state":"AK"},"type":"Feature","geometry":{"type":"Point","coordinates":[-149.519879,61.308374]}},{"properties":{"location name":"CYF-Chefornak Airport","city":"Chefornak","column_10":null,"column_7":null,"country":"USA","column_8":null,"geo_score":0.714,"column_9":null,"postal code":null,"id":"acx1l97wawzu","address":"Chefornak","geo_precision":"city","state":"AK"},"type":"Feature","geometry":{"type":"Point","coordinates":[-163.118947,60.314735]}},{"properties":{"location name":"KCQ-Chignik Lake Airport","city":"Chignick Lake","column_10":null,"column_7":null,"country":"USA","column_8":null,"geo_score":0.0,"column_9":null,"postal code":null,"id":"acx1l98fw4m6","address":"Chignick Lake","geo_precision":"unmatched","state":"AK"},"type":"Feature","geometry":null},{"properties":{"location name":"KCG-Chignik Airport","city":"Chignik","column_10":null,"column_7":null,"country":"USA","column_8":null,"geo_score":0.0,"column_9":null,"postal code":null,"id":"acx1l9aw0w8k","address":"Chignik","geo_precision":"unmatched","state":"AK"},"type":"Feature","geometry":null},{"properties":{"location name":"CFA-Coffee Point Airport","city":"Coffee Point","column_10":null,"column_7":null,"country":"USA","column_8":null,"geo_score":0.0,"column_9":null,"postal code":null,"id":"acx1l9lnvb1b","address":"Coffee Point","geo_precision":"unmatched","state":"AK"},"type":"Feature","geometry":null},{"properties":{"location name":"KPN-Kipnuk Airport","city":"Kipnuk","column_10":null,"column_7":null,"country":"USA","column_8":null,"geo_score":0.571,"column_9":null,"postal code":null,"id":"acx1l9g7ed17","address":"Kipnuk","geo_precision":"street","state":"AK"},"type":"Feature","geometry":{"type":"Point","coordinates":[-151.68964,60.020385]}},{"properties":{"location name":"KLW-Klawock Airport","city":"Klawock","column_10":null,"column_7":null,"country":"USA","column_8":null,"geo_score":0.0,"column_9":null,"postal code":null,"id":"acx1l9mq0m36","address":"Klawock","geo_precision":"unmatched","state":"AK"},"type":"Feature","geometry":null},{"properties":{"location name":"KGK-Koliganek Airport","city":"Koliganex","column_10":null,"column_7":null,"country":"USA","column_8":null,"geo_score":0.714,"column_9":null,"postal code":null,"id":"acx1l9loaw3v","address":"Koliganex","geo_precision":"city","state":"AK"},"type":"Feature","geometry":{"type":"Point","coordinates":[-157.284444,59.728611]}},{"properties":{"location name":"KKH-Kongiganak Airport","city":"Kongiganak","column_10":null,"column_7":null,"country":"USA","column_8":null,"geo_score":0.0,"column_9":null,"postal code":null,"id":"acx1l9gokq0k","address":"Kongiganak","geo_precision":"unmatched","state":"AK"},"type":"Feature","geometry":null},{"properties":{"location name":"KLL-Levelock Airport","city":"Levelock","column_10":null,"column_7":null,"country":"USA","column_8":null,"geo_score":0.0,"column_9":null,"postal code":null,"id":"acx1l9dv9t3x","address":"Levelock","geo_precision":"unmatched","state":"AK"},"type":"Feature","geometry":null},{"properties":{"location name":"KMO-Manokotak Airportt","city":"Manokotak","column_10":"p","column_7":null,"country":"USA","column_8":null,"geo_score":0.6,"column_9":null,"postal code":null,"id":"acx1l9fid6u9","address":"Manokotak","geo_precision":"street","state":"AK"},"type":"Feature","geometry":{"type":"Point","coordinates":[-159.048224,58.971437]}},{"properties":{"location name":"NME-Nightmute Airport","city":"Mightmute","column_10":null,"column_7":null,"country":"USA","column_8":null,"geo_score":0.0,"column_9":null,"postal code":null,"id":"acx1l9llfp5j","address":"Mightmute","geo_precision":"unmatched","state":"AK"},"type":"Feature","geometry":null},{"properties":{"location name":"NLG-Nelson Lagoon Airport","city":"Nelson Lagoon","column_10":null,"column_7":null,"country":"USA","column_8":null,"geo_score":0.777,"column_9":null,"postal code":null,"id":"acx1l9jb6ng3","address":"Nelson Lagoon","geo_precision":"street","state":"AK"},"type":"Feature","geometry":{"type":"Point","coordinates":[-161.206105,56.000135]}},{"properties":{"location name":"KPV-Perryville Airport","city":"Perryville","column_10":null,"column_7":null,"country":"USA","column_8":null,"geo_score":0.714,"column_9":null,"postal code":null,"id":"acx1l973uaw9","address":"Perryville","geo_precision":"city","state":"AK"},"type":"Feature","geometry":{"type":"Point","coordinates":[-156.648418,58.268704]}},{"properties":{"location name":"PIP-Pilot Point Airport","city":"Pilot Point","column_10":null,"column_7":null,"country":"USA","column_8":null,"geo_score":0.393,"column_9":null,"postal code":null,"id":"acx1l9d6830t","address":"Pilot Point","geo_precision":"street","state":"AK"},"type":"Feature","geometry":{"type":"Point","coordinates":[-150.637506,60.513452]}},{"properties":{"location name":"PML-Port Moller Airport","city":"Port Moller","column_10":null,"column_7":null,"country":"USA","column_8":null,"geo_score":0.519,"column_9":null,"postal code":null,"id":"acx1l9ebz8ij","address":"Port Moller","geo_precision":"street","state":"AK"},"type":"Feature","geometry":{"type":"Point","coordinates":[-149.435626,60.121715]}},{"properties":{"location name":"KWN-Quinhagak Airport","city":"Quinhagak","column_10":null,"column_7":null,"country":"USA","column_8":null,"geo_score":0.714,"column_9":null,"postal code":null,"id":"acx1l9eepfno","address":"Quinhagak","geo_precision":"city","state":"AK"},"type":"Feature","geometry":{"type":"Point","coordinates":[-163.118947,60.314735]}},{"properties":{"location name":"WTL-Tuntutuliak Airport","city":"Tuntutuliak","column_10":null,"column_7":null,"country":"USA","column_8":null,"geo_score":0.714,"column_9":null,"postal code":null,"id":"acx1l9fjz9wf","address":"Tuntutuliak","geo_precision":"city","state":"AK"},"type":"Feature","geometry":{"type":"Point","coordinates":[-163.118947,60.314735]}},{"properties":{"location name":"TNK-Tununak Airport","city":"Tununak","column_10":null,"column_7":null,"country":"USA","column_8":null,"geo_score":0.714,"column_9":null,"postal code":null,"id":"acx1l9jwjzc2","address":"Tununak","geo_precision":"city","state":"AK"},"type":"Feature","geometry":{"type":"Point","coordinates":[-163.118947,60.314735]}},{"properties":{"location name":"TWA-Twin Hills Airport","city":"Twin Hills","column_10":null,"column_7":null,"country":"USA","column_8":null,"geo_score":0.286,"column_9":null,"postal code":null,"id":"acx1l9a47yrr","address":"Twin Hills","geo_precision":"street","state":"AK"},"type":"Feature","geometry":{"type":"Point","coordinates":[-132.640881,55.485434]}},{"properties":{"location name":"AIN-Wainright Airport","city":"Wainright","column_10":null,"column_7":null,"country":"USA","column_8":null,"geo_score":0.0,"column_9":null,"postal code":null,"id":"acx1l9ee1unp","address":"Wainright","geo_precision":"unmatched","state":"AK"},"type":"Feature","geometry":null},{"properties":{"location name":"WMH-Mountain Home","city":"Mountain Home","column_10":null,"column_7":null,"country":"USA","column_8":null,"geo_score":0.692,"column_9":null,"postal code":null,"id":"acx1l98j2hvn","address":"Mountain Home","geo_precision":"street","state":"AR"},"type":"Feature","geometry":{"type":"Point","coordinates":[-91.842529,35.422862]}},{"properties":{"location name":"SDX-Sedona","city":"Sedona","column_10":null,"column_7":null,"country":"USA","column_8":null,"geo_score":0.694,"column_9":null,"postal code":null,"id":"acx1l9hg9kfv","address":"Sedona","geo_precision":"street","state":"AZ"},"type":"Feature","geometry":{"type":"Point","coordinates":[-111.718903,34.793728]}},{"properties":{"location name":"CLD-Carlsbad/Palomar Airport","city":"Carlsbad","column_10":null,"column_7":null,"country":"USA","column_8":null,"geo_score":0.692,"column_9":null,"postal code":null,"id":"acx1l9fizj8h","address":"Carlsbad","geo_precision":"street","state":"CA"},"type":"Feature","geometry":{"type":"Point","coordinates":[-117.354398,33.16307]}},{"properties":{"location name":"WBU-Boulder","city":"Boulder","column_10":null,"column_7":null,"country":"USA","column_8":null,"geo_score":0.729,"column_9":null,"postal code":null,"id":"acx1l9m4qr2p","address":"Boulder","geo_precision":"street","state":"CO"},"type":"Feature","geometry":{"type":"Point","coordinates":[-105.406462,40.053006]}},{"properties":{"location name":"QKB-Breckenridge","city":"Breckenridge","column_10":null,"column_7":null,"country":"USA","column_8":null,"geo_score":0.476,"column_9":null,"postal code":null,"id":"acx1l9i5mbp9","address":"Breckenridge","geo_precision":"street","state":"CO"},"type":"Feature","geometry":{"type":"Point","coordinates":[-105.26812,39.507025]}},{"properties":{"location name":"QBF-Vail/Eagle","city":"Vail/Eagle","column_10":null,"column_7":null,"country":"USA","column_8":null,"geo_score":0.0,"column_9":null,"postal code":null,"id":"acx1l978hain","address":"Vail/Eagle","geo_precision":"unmatched","state":"CO"},"type":"Feature","geometry":null},{"properties":{"location name":"DSI-Destin Airport","city":"Destin","column_10":null,"column_7":null,"country":"USA","column_8":null,"geo_score":0.642,"column_9":null,"postal code":null,"id":"acx1l9ftfuwz","address":"Destin","geo_precision":"street","state":"FL"},"type":"Feature","geometry":{"type":"Point","coordinates":[-86.410045,30.381515]}},{"properties":{"location name":"MRK-Marco Island","city":"Marco Island","column_10":null,"column_7":null,"country":"USA","column_8":null,"geo_score":0.56,"column_9":null,"postal code":null,"id":"acx1l9m2synb","address":"Marco Island","geo_precision":"street","state":"FL"},"type":"Feature","geometry":{"type":"Point","coordinates":[-81.727541,25.966731]}},{"properties":{"location name":"MPB-Miami Public Seaplane Base","city":"Miami","column_10":null,"column_7":null,"country":"USA","column_8":null,"geo_score":0.696,"column_9":null,"postal code":null,"id":"acx1l97n57ho","address":"Miami","geo_precision":"street","state":"FL"},"type":"Feature","geometry":{"type":"Point","coordinates":[-80.163666,25.9296]}},{"properties":{"location name":"PFN-Bay County Airport","city":"Panama City","column_10":null,"column_7":null,"country":"USA","column_8":null,"geo_score":0.643,"column_9":null,"postal code":null,"id":"acx1l9jxbcrm","address":"Panama City","geo_precision":"street","state":"FL"},"type":"Feature","geometry":{"type":"Point","coordinates":[-85.770692,30.188485]}},{"properties":{"location name":"HPV-Kauai Island Airport","city":"Kauai Island","column_10":null,"column_7":null,"country":"USA","column_8":null,"geo_score":0.536,"column_9":null,"postal code":null,"id":"acx1l9hs2oqi","address":"Kauai Island","geo_precision":"street","state":"HI"},"type":"Feature","geometry":{"type":"Point","coordinates":[-156.366755,20.927488]}},{"properties":{"location name":"CGX-Merrill C. Meigs Field","city":"Chicago","column_10":null,"column_7":null,"country":"USA","column_8":null,"geo_score":0.762,"column_9":null,"postal code":null,"id":"acx1l9mp04qx","address":"Chicago","geo_precision":"street","state":"IL"},"type":"Feature","geometry":{"type":"Point","coordinates":[-87.603725,41.765812]}},{"properties":{"location name":"CHI-Chicago FSS","city":"Chicago","column_10":null,"column_7":null,"country":"USA","column_8":null,"geo_score":0.762,"column_9":null,"postal code":null,"id":"acx1l9gcpva6","address":"Chicago","geo_precision":"street","state":"IL"},"type":"Feature","geometry":{"type":"Point","coordinates":[-87.603725,41.765812]}},{"properties":{"location name":"MOH-Chicago","city":"Chicago","column_10":null,"column_7":null,"country":"USA","column_8":null,"geo_score":0.762,"column_9":null,"postal code":null,"id":"acx1l9kd8vks","address":"Chicago","geo_precision":"street","state":"IL"},"type":"Feature","geometry":{"type":"Point","coordinates":[-87.603725,41.765812]}},{"properties":{"location name":"ZRF-Rockford","city":"Rockford","column_10":null,"column_7":null,"country":"USA","column_8":null,"geo_score":0.0,"column_9":null,"postal code":null,"id":"acx1l9mcdo8l","address":"Rockford","geo_precision":"unmatched","state":"IL"},"type":"Feature","geometry":null},{"properties":{"location name":"MQT-Marquette county Airport","city":"Marquette","column_10":null,"column_7":null,"country":"USA","column_8":null,"geo_score":0.75,"column_9":null,"postal code":null,"id":"acx1l9fy2dsb","address":"Marquette","geo_precision":"street","state":"MI"},"type":"Feature","geometry":{"type":"Point","coordinates":[-87.394492,46.525887]}},{"properties":{"location name":"LYU-Ely Airport","city":"Ely","column_10":null,"column_7":null,"country":"USA","column_8":null,"geo_score":0.429,"column_9":null,"postal code":null,"id":"acx1l9eddcbm","address":"Ely","geo_precision":"street","state":"MN"},"type":"Feature","geometry":{"type":"Point","coordinates":[-91.829675,47.274885]}},{"properties":{"location name":"FCA-Glacier Park Intl","city":"Kalispell","column_10":null,"column_7":null,"country":"USA","column_8":null,"geo_score":0.582,"column_9":null,"postal code":null,"id":"acx1l9lkm7ys","address":"Kalispell","geo_precision":"street","state":"MT"},"type":"Feature","geometry":{"type":"Point","coordinates":[-115.893948,48.465032]}},{"properties":{"location name":"HIS-Hastings Airport","city":"Hastings","column_10":null,"column_7":null,"country":"USA","column_8":null,"geo_score":0.673,"column_9":null,"postal code":null,"id":"acx1l96bsenk","address":"Hastings","geo_precision":"street","state":"NE"},"type":"Feature","geometry":{"type":"Point","coordinates":[-98.389934,40.585214]}},{"properties":{"location name":"AIY-Atlantic City International","city":"Atlantic City","column_10":null,"column_7":null,"country":"USA","column_8":null,"geo_score":0.738,"column_9":null,"postal code":null,"id":"acx1l9efab3g","address":"Atlantic City","geo_precision":"street","state":"NJ"},"type":"Feature","geometry":{"type":"Point","coordinates":[-74.442095,39.362859]}},{"properties":{"location name":"LLY-Mount Holly Airport","city":"Mount Holly","column_10":null,"column_7":null,"country":"USA","column_8":null,"geo_score":0.857,"column_9":null,"postal code":null,"id":"acx1l9g5isqy","address":"Mount Holly","geo_precision":"street","state":"NJ"},"type":"Feature","geometry":{"type":"Point","coordinates":[-74.801499,40.0009]}},{"properties":{"location name":"PCT-Princeton Municipal","city":"Princeton","column_10":null,"column_7":null,"country":"USA","column_8":null,"geo_score":0.75,"column_9":null,"postal code":null,"id":"acx1l99lrrdn","address":"Princeton","geo_precision":"street","state":"NJ"},"type":"Feature","geometry":{"type":"Point","coordinates":[-74.681602,40.333451]}},{"properties":{"location name":"RUI-Ruidoso","city":"Ruidoso","column_10":null,"column_7":null,"country":"USA","column_8":null,"geo_score":0.393,"column_9":null,"postal code":null,"id":"acx1l9dcts16","address":"Ruidoso","geo_precision":"street","state":"NM"},"type":"Feature","geometry":{"type":"Point","coordinates":[-105.948688,32.911783]}},{"properties":{"location name":"TSM-Taos Regional","city":"Taos","column_10":null,"column_7":null,"country":"USA","column_8":null,"geo_score":0.531,"column_9":null,"postal code":null,"id":"acx1l9bdm83q","address":"Taos","geo_precision":"street","state":"NM"},"type":"Feature","geometry":{"type":"Point","coordinates":[-106.059206,36.008933]}},{"properties":{"location name":"TSS-East 34th Street Heliport","city":"New York","column_10":null,"column_7":null,"country":"USA","column_8":null,"geo_score":0.643,"column_9":null,"postal code":null,"id":"acx1l9gqmvyl","address":"New York","geo_precision":"street","state":"NY"},"type":"Feature","geometry":{"type":"Point","coordinates":[-74.012628,40.705003]}},{"properties":{"location name":"PLB-Plattsburgh","city":"Plattsburgh","column_10":null,"column_7":null,"country":"USA","column_8":null,"geo_score":0.743,"column_9":null,"postal code":null,"id":"acx1l9jojv3g","address":"Plattsburgh","geo_precision":"street","state":"NY"},"type":"Feature","geometry":{"type":"Point","coordinates":[-73.478353,44.699394]}},{"properties":{"location name":"UCA-Oneida County Airport","city":"Utica","column_10":null,"column_7":null,"country":"USA","column_8":null,"geo_score":0.696,"column_9":null,"postal code":null,"id":"acx1l999q9im","address":"Utica","geo_precision":"street","state":"NY"},"type":"Feature","geometry":{"type":"Point","coordinates":[-75.221091,43.12222]}},{"properties":{"location name":"SCE-University Park Airport","city":"State College","column_10":null,"column_7":null,"country":"USA","column_8":null,"geo_score":0.593,"column_9":null,"postal code":null,"id":"acx1l9fanjnv","address":"State College","geo_precision":"street","state":"PA"},"type":"Feature","geometry":{"type":"Point","coordinates":[-77.860446,40.795305]}},{"properties":{"location name":"ARE-Antonio Juarbe Pol Airport","city":"Arecibo","column_10":null,"column_7":null,"country":"USA","column_8":null,"geo_score":0.714,"column_9":null,"postal code":null,"id":"acx1l9ao0rln","address":"Arecibo","geo_precision":"city","state":"Puerto Rico"},"type":"Feature","geometry":{"type":"Point","coordinates":[-66.698262,18.450674]}},{"properties":{"location name":"FAJ-Fajardo Airport","city":"Fajardo","column_10":null,"column_7":null,"country":"USA","column_8":null,"geo_score":0.416,"column_9":null,"postal code":null,"id":"acx1l9hll7lh","address":"Fajardo","geo_precision":"street","state":"Puerto Rico"},"type":"Feature","geometry":{"type":"Point","coordinates":[-66.049965,18.22902]}},{"properties":{"location name":"HUC-Humacao Airport","city":"Humacao","column_10":null,"column_7":null,"country":"USA","column_8":null,"geo_score":0.558,"column_9":null,"postal code":null,"id":"acx1l9fyc0a3","address":"Humacao","geo_precision":"street","state":"Puerto Rico"},"type":"Feature","geometry":{"type":"Point","coordinates":[-66.038838,18.212972]}},{"properties":{"location name":"GDC-Donaldson Center Airport","city":"Greenville","column_10":null,"column_7":null,"country":"USA","column_8":null,"geo_score":0.686,"column_9":null,"postal code":null,"id":"acx1l9elyfuu","address":"Greenville","geo_precision":"street","state":"SC"},"type":"Feature","geometry":{"type":"Point","coordinates":[-82.465538,34.942464]}},{"properties":{"location name":"HHH-Hilton Head Airport","city":"Hilton Head","column_10":null,"column_7":null,"country":"USA","column_8":null,"geo_score":0.687,"column_9":null,"postal code":null,"id":"acx1l9kkbsqe","address":"Hilton Head","geo_precision":"street","state":"SC"},"type":"Feature","geometry":{"type":"Point","coordinates":[-80.702658,32.209744]}},{"properties":{"location name":"ALE-Alpine Airport","city":"Alpine","column_10":null,"column_7":null,"country":"USA","column_8":null,"geo_score":0.714,"column_9":null,"postal code":null,"id":"acx1l9hkghxo","address":"Alpine","geo_precision":"city","state":"TX"},"type":"Feature","geometry":{"type":"Point","coordinates":[-103.66029,30.357926]}},{"properties":{"location name":"SSB-Sea Plane Base","city":"St Croix Island","column_10":null,"column_7":null,"country":"USA","column_8":null,"geo_score":0.0,"column_9":null,"postal code":null,"id":"acx1l9bcg0uz","address":"St Croix Island","geo_precision":"unmatched","state":"VI"},"type":"Feature","geometry":null},{"properties":{"location name":"ESD-Eastsound/Orcas Island Airport","city":"Eastbound","column_10":null,"column_7":null,"country":"USA","column_8":null,"geo_score":0.0,"column_9":null,"postal code":null,"id":"acx1l9loqf56","address":"Eastbound","geo_precision":"unmatched","state":"WA"},"type":"Feature","geometry":null},{"properties":{"location name":"FRD-Friday Harbor Airport","city":"Friday Harbor","column_10":null,"column_7":null,"country":"USA","column_8":null,"geo_score":0.682,"column_9":null,"postal code":null,"id":"acx1l974pnha","address":"Friday Harbor","geo_precision":"street","state":"WA"},"type":"Feature","geometry":{"type":"Point","coordinates":[-123.021722,48.537908]}},{"properties":{"location name":"KEH-Kenmore Air Harbor","city":"Kenmore","column_10":null,"column_7":null,"country":"USA","column_8":null,"geo_score":0.714,"column_9":null,"postal code":null,"id":"acx1l9bh3hpe","address":"Kenmore","geo_precision":"city","state":"WA"},"type":"Feature","geometry":{"type":"Point","coordinates":[-122.124643,47.754219]}},{"properties":{"location name":"LPS-Lopez Island Airport","city":"Lopez Island","column_10":null,"column_7":null,"country":"USA","column_8":null,"geo_score":0.595,"column_9":null,"postal code":null,"id":"acx1l9g6ozrt","address":"Lopez Island","geo_precision":"street","state":"WA"},"type":"Feature","geometry":{"type":"Point","coordinates":[-122.909938,48.522442]}},{"properties":{"location name":"ODW-Oak Harbor","city":"Oak Harbor","column_10":null,"column_7":null,"country":"USA","column_8":null,"geo_score":0.714,"column_9":null,"postal code":null,"id":"acx1l9atrsd9","address":"Oak Harbor","geo_precision":"street","state":"WA"},"type":"Feature","geometry":{"type":"Point","coordinates":[-122.657712,48.298494]}},{"properties":{"location name":"LKE-Lake Union Sea Plane Base","city":"Seattle","column_10":null,"column_7":null,"country":"USA","column_8":null,"geo_score":0.641,"column_9":null,"postal code":null,"id":"acx1l9d4re6s","address":"Seattle","geo_precision":"street","state":"WA"},"type":"Feature","geometry":{"type":"Point","coordinates":[-122.384975,47.589298]}},{"properties":{"location name":"WSX-Westbound Airport","city":"Westbound","column_10":null,"column_7":null,"country":"USA","column_8":null,"geo_score":0.0,"column_9":null,"postal code":null,"id":"acx1l9g6yilu","address":"Westbound","geo_precision":"unmatched","state":"WA"},"type":"Feature","geometry":null},{"properties":{"location name":"ROP-Rota International Airport","city":"Rota Island","column_10":null,"column_7":null,"country":"NMI","column_8":null,"geo_score":0.377,"column_9":null,"postal code":null,"id":"acx1l9ebvvws","address":"Rota Island","geo_precision":"street","state":"Northern Mariana"},"type":"Feature","geometry":{"type":"Point","coordinates":[-82.833429,36.961279]}},{"properties":{"location name":"SPN-Saipan International Airport","city":"Saipan Island","column_10":null,"column_7":null,"country":"NMI","column_8":null,"geo_score":0.31,"column_9":null,"postal code":null,"id":"acx1l9ebbhdg","address":"Saipan Island","geo_precision":"street","state":"Northern Mariana"},"type":"Feature","geometry":{"type":"Point","coordinates":[-85.842353,41.220782]}},{"properties":{"location name":"TIQ-Tinian International Airport","city":"Tiniana Island","column_10":null,"column_7":null,"country":"NMI","column_8":null,"geo_score":0.347,"column_9":null,"postal code":null,"id":"acx1l9kcqdp0","address":"Tiniana Island","geo_precision":"street","state":"Northern Mariana"},"type":"Feature","geometry":{"type":"Point","coordinates":[-71.222411,41.646381]}},{"properties":{"location name":"YBA-Banff","city":"Banff","column_10":null,"column_7":null,"country":"Canada","column_8":null,"geo_score":0.52,"column_9":null,"postal code":null,"id":"acx1l9da4dst","address":"Banff","geo_precision":"street","state":"Alberta"},"type":"Feature","geometry":{"type":"Point","coordinates":[-85.543533,30.786351]}},{"properties":{"location name":"YBW-Bedwell Harbor Airport","city":"Bedwell Harbor","column_10":null,"column_7":null,"country":"Canada","column_8":null,"geo_score":0.296,"column_9":null,"postal code":null,"id":"acx1l9kjf0xb","address":"Bedwell Harbor","geo_precision":"street","state":"Alberta"},"type":"Feature","geometry":{"type":"Point","coordinates":[-80.362009,41.007372]}},{"properties":{"location name":"YYC-Calgary Intl","city":"Calgary","column_10":null,"column_7":null,"country":"Canada","column_8":null,"geo_score":0.388,"column_9":null,"postal code":null,"id":"acx1l99ahteg","address":"Calgary","geo_precision":"street","state":"Alberta"},"type":"Feature","geometry":{"type":"Point","coordinates":[-81.000686,40.465737]}},{"properties":{"location name":"YEG-Edmonton Intl","city":"Edmonton","column_10":null,"column_7":null,"country":"Canada","column_8":null,"geo_score":0.47,"column_9":null,"postal code":null,"id":"acx1l99eunee","address":"Edmonton","geo_precision":"street","state":"Alberta"},"type":"Feature","geometry":{"type":"Point","coordinates":[-97.479858,35.653048]}},{"properties":{"location name":"YXD-Edmonton Municipal","city":"Edmonton","column_10":null,"column_7":null,"country":"Canada","column_8":null,"geo_score":0.47,"column_9":null,"postal code":null,"id":"acx1l9m2jf95","address":"Edmonton","geo_precision":"street","state":"Alberta"},"type":"Feature","geometry":{"type":"Point","coordinates":[-97.479858,35.653048]}},{"properties":{"location name":"YMM-Fort Mcmurray","city":"Fort Mcmurray","column_10":null,"column_7":null,"country":"Canada","column_8":null,"geo_score":0.429,"column_9":null,"postal code":null,"id":"acx1l9e67tmg","address":"Fort Mcmurray","geo_precision":"street","state":"Alberta"},"type":"Feature","geometry":{"type":"Point","coordinates":[-80.123635,40.271177]}},{"properties":{"location name":"YQU-Grande Prairie Airport","city":"Grande Prairie","column_10":null,"column_7":null,"country":"Canada","column_8":null,"geo_score":0.578,"column_9":null,"postal code":null,"id":"acx1l9dzyly5","address":"Grande Prairie","geo_precision":"street","state":"Alberta"},"type":"Feature","geometry":{"type":"Point","coordinates":[-92.145517,30.670251]}},{"properties":{"location name":"YOJ-Footner Lake Muncpl","city":"High Level","column_10":null,"column_7":null,"country":"Canada","column_8":null,"geo_score":0.459,"column_9":null,"postal code":null,"id":"acx1l99zvyt1","address":"High Level","geo_precision":"street","state":"Alberta"},"type":"Feature","geometry":{"type":"Point","coordinates":[-74.460849,41.563716]}},{"properties":{"location name":"YJA-Jasper","city":"Jasper","column_10":null,"column_7":null,"country":"Canada","column_8":null,"geo_score":0.551,"column_9":null,"postal code":null,"id":"acx1l9ezd8hd","address":"Jasper","geo_precision":"street","state":"Alberta"},"type":"Feature","geometry":{"type":"Point","coordinates":[-83.051845,39.048935]}},{"properties":{"location name":"YQL-Lethbridge Airport","city":"Lethbridge","column_10":null,"column_7":null,"country":"Canada","column_8":null,"geo_score":0.0,"column_9":null,"postal code":null,"id":"acx1l9ecf13w","address":"Lethbridge","geo_precision":"unmatched","state":"Alberta"},"type":"Feature","geometry":null},{"properties":{"location name":"YXH-Medicine Hat Airport","city":"Medicine Hat","column_10":null,"column_7":null,"country":"Canada","column_8":null,"geo_score":0.429,"column_9":null,"postal code":null,"id":"acx1l9apcmqt","address":"Medicine Hat","geo_precision":"street","state":"Alberta"},"type":"Feature","geometry":{"type":"Point","coordinates":[-88.818502,35.609072]}},{"properties":{"location name":"YPE-Peace River","city":"Peace River","column_10":null,"column_7":null,"country":"Canada","column_8":null,"geo_score":0.476,"column_9":null,"postal code":null,"id":"acx1l98qn7io","address":"Peace River","geo_precision":"street","state":"Alberta"},"type":"Feature","geometry":{"type":"Point","coordinates":[-87.161487,30.604025]}},{"properties":{"location name":"YOP-Rainbow Lake","city":"Rainbow Lake","column_10":null,"column_7":null,"country":"Canada","column_8":null,"geo_score":0.548,"column_9":null,"postal code":null,"id":"acx1l9ivkc6v","address":"Rainbow Lake","geo_precision":"street","state":"Alberta"},"type":"Feature","geometry":{"type":"Point","coordinates":[-117.147614,33.404572]}},{"properties":{"location name":"YYD-Smithers Intl","city":"Smithers","column_10":null,"column_7":null,"country":"Canada","column_8":null,"geo_score":0.571,"column_9":null,"postal code":null,"id":"acx1l9am6szo","address":"Smithers","geo_precision":"city","state":"Alberta"},"type":"Feature","geometry":{"type":"Point","coordinates":[-81.278012,38.154338]}},{"properties":{"location name":"YUM-Yuma Intl","city":"Yuma","column_10":null,"column_7":null,"country":"Canada","column_8":null,"geo_score":0.531,"column_9":null,"postal code":null,"id":"acx1l99fa141","address":"Yuma","geo_precision":"street","state":"AZ"},"type":"Feature","geometry":{"type":"Point","coordinates":[-112.675692,33.433856]}},{"properties":{"location name":"YXX-Fraser Valley/Abbotsford Airport","city":"Abbotsford","column_10":null,"column_7":null,"country":"Canada","column_8":null,"geo_score":0.579,"column_9":null,"postal code":null,"id":"acx1l97977kh","address":"Abbotsford","geo_precision":"street","state":"British Columbia"},"type":"Feature","geometry":{"type":"Point","coordinates":[-85.184979,33.029286]}},{"properties":{"location name":"ZBF-Bathurst Airport","city":"Bathurst","column_10":null,"column_7":null,"country":"Canada","column_8":null,"geo_score":0.0,"column_9":null,"postal code":null,"id":"acx1l9lcqzll","address":"Bathurst","geo_precision":"unmatched","state":"British Columbia"},"type":"Feature","geometry":null},{"properties":{"location name":"YPZ-Burns Lake","city":"Burns Lake","column_10":null,"column_7":null,"country":"Canada","column_8":null,"geo_score":0.514,"column_9":null,"postal code":null,"id":"acx1l98rtwfu","address":"Burns Lake","geo_precision":"street","state":"British Columbia"},"type":"Feature","geometry":{"type":"Point","coordinates":[-86.020817,36.518283]}},{"properties":{"location name":"YBL-Campbell River","city":"Campbell River","column_10":null,"column_7":null,"country":"Canada","column_8":null,"geo_score":0.592,"column_9":null,"postal code":null,"id":"acx1l975nsk5","address":"Campbell River","geo_precision":"street","state":"British Columbia"},"type":"Feature","geometry":{"type":"Point","coordinates":[-85.371535,37.315126]}},{"properties":{"location name":"YHH-Campbell River Harbor","city":"Campbell River Harbor","column_10":null,"column_7":null,"country":"Canada","column_8":null,"geo_score":0.438,"column_9":null,"postal code":null,"id":"acx1l9lq2z18","address":"Campbell River Harbor","geo_precision":"street","state":"British Columbia"},"type":"Feature","geometry":{"type":"Point","coordinates":[-87.152456,35.324841]}},{"properties":{"location name":"YCG-Castlegar","city":"Castlegar","column_10":null,"column_7":null,"country":"Canada","column_8":null,"geo_score":0.426,"column_9":null,"postal code":null,"id":"acx1l9iv1zy4","address":"Castlegar","geo_precision":"street","state":"British Columbia"},"type":"Feature","geometry":{"type":"Point","coordinates":[-75.918526,42.22828]}},{"properties":{"location name":"XHS-Chemainus","city":"Chemainus","column_10":null,"column_7":null,"country":"Canada","column_8":null,"geo_score":0.332,"column_9":null,"postal code":null,"id":"acx1l9k2dzdo","address":"Chemainus","geo_precision":"street","state":"British Columbia"},"type":"Feature","geometry":{"type":"Point","coordinates":[-79.042661,39.796175]}},{"properties":{"location name":"YQQ-Comox Civil Air Terminal","city":"Comox","column_10":null,"column_7":null,"country":"Canada","column_8":null,"geo_score":0.206,"column_9":null,"postal code":null,"id":"acx1l9ir08fm","address":"Comox","geo_precision":"street","state":"British Columbia"},"type":"Feature","geometry":{"type":"Point","coordinates":[-157.78131,21.267628]}},{"properties":{"location name":"YCA-Courtenay","city":"Courtenay","column_10":null,"column_7":null,"country":"Canada","column_8":null,"geo_score":0.527,"column_9":null,"postal code":null,"id":"acx1l9dl1kdz","address":"Courtenay","geo_precision":"street","state":"British Columbia"},"type":"Feature","geometry":{"type":"Point","coordinates":[-80.700166,28.356987]}},{"properties":{"location name":"YXC-Cranbrook-Kimberley Airport","city":"Cranbrook","column_10":null,"column_7":null,"country":"Canada","column_8":null,"geo_score":0.453,"column_9":null,"postal code":null,"id":"acx1l9lyc0tk","address":"Cranbrook","geo_precision":"street","state":"British Columbia"},"type":"Feature","geometry":{"type":"Point","coordinates":[-74.532341,40.287844]}},{"properties":{"location name":"YDQ-Dawson Creek","city":"Dawson Creek","column_10":null,"column_7":null,"country":"Canada","column_8":null,"geo_score":0.5,"column_9":null,"postal code":null,"id":"acx1l984qxi3","address":"Dawson Creek","geo_precision":"street","state":"British Columbia"},"type":"Feature","geometry":{"type":"Point","coordinates":[-89.463431,39.83179]}},{"properties":{"location name":"YDS-Desolation Sound Airport","city":"Desolation Sound","column_10":null,"column_7":null,"country":"Canada","column_8":null,"geo_score":0.321,"column_9":null,"postal code":null,"id":"acx1l9l6cfo0","address":"Desolation Sound","geo_precision":"street","state":"British Columbia"},"type":"Feature","geometry":{"type":"Point","coordinates":[-82.040792,39.634727]}},{"properties":{"location name":"YPF-Esquimalt","city":"Esquimalt","column_10":null,"column_7":null,"country":"Canada","column_8":null,"geo_score":0.0,"column_9":null,"postal code":null,"id":"acx1l9he8fu7","address":"Esquimalt","geo_precision":"unmatched","state":"British Columbia"},"type":"Feature","geometry":null},{"properties":{"location name":"YYE-Fort Nelson Airport","city":"Fort Nelson","column_10":null,"column_7":null,"country":"Canada","column_8":null,"geo_score":0.403,"column_9":null,"postal code":null,"id":"acx1l9ks4gyk","address":"Fort Nelson","geo_precision":"street","state":"British Columbia"},"type":"Feature","geometry":{"type":"Point","coordinates":[-91.534171,31.715778]}},{"properties":{"location name":"YXJ-Fort St John","city":"Fort St John","column_10":null,"column_7":null,"country":"Canada","column_8":null,"geo_score":0.481,"column_9":null,"postal code":null,"id":"acx1l9c4t0rj","address":"Fort St John","geo_precision":"street","state":"British Columbia"},"type":"Feature","geometry":{"type":"Point","coordinates":[-102.869541,30.89001]}},{"properties":{"location name":"YGG-Ganges Harbor Airport","city":"Ganges Harbor","column_10":null,"column_7":null,"country":"Canada","column_8":null,"geo_score":0.308,"column_9":null,"postal code":null,"id":"acx1l9l1poe1","address":"Ganges Harbor","geo_precision":"street","state":"British Columbia"},"type":"Feature","geometry":{"type":"Point","coordinates":[-80.396304,41.029059]}},{"properties":{"location name":"YGB-Gillies Bay","city":"Gillies Bay","column_10":null,"column_7":null,"country":"Canada","column_8":null,"geo_score":0.442,"column_9":null,"postal code":null,"id":"acx1l9ldb3xs","address":"Gillies Bay","geo_precision":"street","state":"British Columbia"},"type":"Feature","geometry":{"type":"Point","coordinates":[-87.152502,33.234502]}},{"properties":{"location name":"YGN-Greenway Sound Airport","city":"Greenway Sound","column_10":null,"column_7":null,"country":"Canada","column_8":null,"geo_score":0.449,"column_9":null,"postal code":null,"id":"acx1l9ac7b0w","address":"Greenway Sound","geo_precision":"street","state":"British Columbia"},"type":"Feature","geometry":{"type":"Point","coordinates":[-82.09673,33.554793]}},{"properties":{"location name":"ZHO-Houston","city":"Houston","column_10":null,"column_7":null,"country":"Canada","column_8":null,"geo_score":0.619,"column_9":null,"postal code":null,"id":"acx1l9leuc9g","address":"Houston","geo_precision":"street","state":"British Columbia"},"type":"Feature","geometry":{"type":"Point","coordinates":[-89.013913,33.895911]}},{"properties":{"location name":"YKA-Fulton Field","city":"Kamloops","column_10":null,"column_7":null,"country":"Canada","column_8":null,"geo_score":0.0,"column_9":null,"postal code":null,"id":"acx1l9kf4r6j","address":"Kamloops","geo_precision":"unmatched","state":"British Columbia"},"type":"Feature","geometry":null},{"properties":{"location name":"YLW-Ellison Field Airport","city":"Kelowna","column_10":null,"column_7":null,"country":"Canada","column_8":null,"geo_score":0.388,"column_9":null,"postal code":null,"id":"acx1l99qpih9","address":"Kelowna","geo_precision":"street","state":"British Columbia"},"type":"Feature","geometry":{"type":"Point","coordinates":[-94.637059,37.078032]}},{"properties":{"location name":"XEH-Ladysmith","city":"Ladysmith","column_10":null,"column_7":null,"country":"Canada","column_8":null,"geo_score":0.75,"column_9":null,"postal code":null,"id":"acx1l977493r","address":"Ladysmith","geo_precision":"street","state":"British Columbia"},"type":"Feature","geometry":{"type":"Point","coordinates":[-77.589008,37.999262]}},{"properties":{"location name":"XEJ-Langford","city":"Langford","column_10":null,"column_7":null,"country":"Canada","column_8":null,"geo_score":0.597,"column_9":null,"postal code":null,"id":"acx1l96gxwii","address":"Langford","geo_precision":"street","state":"British Columbia"},"type":"Feature","geometry":{"type":"Point","coordinates":[-78.784725,42.588375]}},{"properties":{"location name":"YCD-Cassidy Airport","city":"Nanaimo","column_10":null,"column_7":null,"country":"Canada","column_8":null,"geo_score":0.0,"column_9":null,"postal code":null,"id":"acx1l99qt2km","address":"Nanaimo","geo_precision":"unmatched","state":"British Columbia"},"type":"Feature","geometry":null},{"properties":{"location name":"ZNA-Harbor Airport","city":"Nanaimo","column_10":null,"column_7":null,"country":"Canada","column_8":null,"geo_score":0.0,"column_9":null,"postal code":null,"id":"acx1l976hsva","address":"Nanaimo","geo_precision":"unmatched","state":"British Columbia"},"type":"Feature","geometry":null},{"properties":{"location name":"YYF-Penticton","city":"Penticton","column_10":null,"column_7":null,"country":"Canada","column_8":null,"geo_score":0.0,"column_9":null,"postal code":null,"id":"acx1l9bdpvfs","address":"Penticton","geo_precision":"unmatched","state":"British Columbia"},"type":"Feature","geometry":null},{"properties":{"location name":"YZT-Port Hardy Airport","city":"Port Hardy","column_10":null,"column_7":null,"country":"Canada","column_8":null,"geo_score":0.429,"column_9":null,"postal code":null,"id":"acx1l9mmaf64","address":"Port Hardy","geo_precision":"street","state":"British Columbia"},"type":"Feature","geometry":{"type":"Point","coordinates":[-89.848145,33.835211]}},{"properties":{"location name":"YMP-Port Mcneil","city":"Port Mcneil","column_10":null,"column_7":null,"country":"Canada","column_8":null,"geo_score":0.426,"column_9":null,"postal code":null,"id":"acx1l9ly9vu6","address":"Port Mcneil","geo_precision":"street","state":"British Columbia"},"type":"Feature","geometry":{"type":"Point","coordinates":[-93.235897,33.298342]}},{"properties":{"location name":"YPW-Powell River","city":"Powell River","column_10":null,"column_7":null,"country":"Canada","column_8":null,"geo_score":0.557,"column_9":null,"postal code":null,"id":"acx1l9c99bu9","address":"Powell River","geo_precision":"street","state":"British Columbia"},"type":"Feature","geometry":{"type":"Point","coordinates":[-80.116534,39.413078]}},{"properties":{"location name":"YXS-Prince George","city":"Prince George","column_10":null,"column_7":null,"country":"Canada","column_8":null,"geo_score":0.634,"column_9":null,"postal code":null,"id":"acx1l9ew46e3","address":"Prince George","geo_precision":"street","state":"British Columbia"},"type":"Feature","geometry":{"type":"Point","coordinates":[-77.28683,37.269655]}},{"properties":{"location name":"YPR-Prince Rupert","city":"Prince Rupert","column_10":null,"column_7":null,"country":"Canada","column_8":null,"geo_score":0.434,"column_9":null,"postal code":null,"id":"acx1l9i4u5dx","address":"Prince Rupert","geo_precision":"street","state":"British Columbia"},"type":"Feature","geometry":{"type":"Point","coordinates":[-81.070523,37.855062]}},{"properties":{"location name":"XQU-Qualicum","city":"Qualicum","column_10":null,"column_7":null,"country":"Canada","column_8":null,"geo_score":0.571,"column_9":null,"postal code":null,"id":"acx1l9g93a8z","address":"Qualicum","geo_precision":"city","state":"British Columbia"},"type":"Feature","geometry":{"type":"Point","coordinates":[-94.492453,39.202503]}},{"properties":{"location name":"YQY-Quesnel","city":"Quesnel","column_10":null,"column_7":null,"country":"Canada","column_8":null,"geo_score":0.347,"column_9":null,"postal code":null,"id":"acx1l9bdlxmn","address":"Quesnel","geo_precision":"street","state":"British Columbia"},"type":"Feature","geometry":{"type":"Point","coordinates":[-89.970464,35.972575]}},{"properties":{"location name":"YSN-Salmon Arm","city":"Salmon Arm","column_10":null,"column_7":null,"country":"Canada","column_8":null,"geo_score":0.457,"column_9":null,"postal code":null,"id":"acx1l9i2fngb","address":"Salmon Arm","geo_precision":"street","state":"British Columbia"},"type":"Feature","geometry":{"type":"Point","coordinates":[-97.371495,38.969488]}},{"properties":{"location name":"YZP-Sandspit Airport","city":"Sandspit","column_10":null,"column_7":null,"country":"Canada","column_8":null,"geo_score":0.479,"column_9":null,"postal code":null,"id":"acx1l9jeguy4","address":"Sandspit","geo_precision":"street","state":"British Columbia"},"type":"Feature","geometry":{"type":"Point","coordinates":[-73.712469,40.846861]}},{"properties":{"location name":"XFM-Shawinigan","city":"Shawinigan","column_10":null,"column_7":null,"country":"Canada","column_8":null,"geo_score":0.0,"column_9":null,"postal code":null,"id":"acx1l9fl79ak","address":"Shawinigan","geo_precision":"unmatched","state":"British Columbia"},"type":"Feature","geometry":null},{"properties":{"location name":"YRR-Stuart Island Airport","city":"Stuart Island","column_10":null,"column_7":null,"country":"Canada","column_8":null,"geo_score":0.484,"column_9":null,"postal code":null,"id":"acx1l9a3hzfz","address":"Stuart Island","geo_precision":"street","state":"British Columbia"},"type":"Feature","geometry":{"type":"Point","coordinates":[-79.031213,38.026402]}},{"properties":{"location name":"YXT-Terrace","city":"Terrace","column_10":null,"column_7":null,"country":"Canada","column_8":null,"geo_score":0.403,"column_9":null,"postal code":null,"id":"acx1l9bajnv9","address":"Terrace","geo_precision":"street","state":"British Columbia"},"type":"Feature","geometry":{"type":"Point","coordinates":[-79.890639,40.389874]}},{"properties":{"location name":"YAZ-Tofino","city":"Tofino","column_10":null,"column_7":null,"country":"Canada","column_8":null,"geo_score":0.405,"column_9":null,"postal code":null,"id":"acx1l96xxewx","address":"Tofino","geo_precision":"street","state":"British Columbia"},"type":"Feature","geometry":{"type":"Point","coordinates":[-83.275897,41.132222]}},{"properties":{"location name":"YVR-Vancouver Intl","city":"Vancouver","column_10":null,"column_7":null,"country":"Canada","column_8":null,"geo_score":0.486,"column_9":null,"postal code":null,"id":"acx1l9789zvl","address":"Vancouver","geo_precision":"street","state":"British Columbia"},"type":"Feature","geometry":{"type":"Point","coordinates":[-122.664804,45.626809]}},{"properties":{"location name":"YWH-Victoria Inner Harbour","city":"Victoria","column_10":null,"column_7":null,"country":"Canada","column_8":null,"geo_score":0.597,"column_9":null,"postal code":null,"id":"acx1l9buy6p5","address":"Victoria","geo_precision":"street","state":"British Columbia"},"type":"Feature","geometry":{"type":"Point","coordinates":[-87.503466,37.318321]}},{"properties":{"location name":"YYJ-Victoria Intl Airport","city":"Victoria","column_10":null,"column_7":null,"country":"Canada","column_8":null,"geo_score":0.582,"column_9":null,"postal code":null,"id":"acx1l9b1arzo","address":"Victoria","geo_precision":"street","state":"British Columbia"},"type":"Feature","geometry":{"type":"Point","coordinates":[-87.503466,37.318321]}},{"properties":{"location name":"YWS-Whistler Airport","city":"Whistler","column_10":null,"column_7":null,"country":"Canada","column_8":null,"geo_score":0.549,"column_9":null,"postal code":null,"id":"acx1l97s2ifm","address":"Whistler","geo_precision":"street","state":"British Columbia"},"type":"Feature","geometry":{"type":"Point","coordinates":[-88.09505,30.749793]}},{"properties":{"location name":"YWL-Williams Lake","city":"Williams Lake","column_10":null,"column_7":null,"country":"Canada","column_8":null,"geo_score":0.527,"column_9":null,"postal code":null,"id":"acx1l96b8sam","address":"Williams Lake","geo_precision":"street","state":"British Columbia"},"type":"Feature","geometry":{"type":"Point","coordinates":[-80.842542,33.030997]}},{"properties":{"location name":"ZBV-Vail/Eagle","city":"Vail/Eagle","column_10":null,"column_7":null,"country":"Canada","column_8":null,"geo_score":0.0,"column_9":null,"postal code":null,"id":"acx1l9j2ka08","address":"Vail/Eagle","geo_precision":"unmatched","state":"CO"},"type":"Feature","geometry":null},{"properties":{"location name":"YBR-Brandon","city":"Brandon","column_10":null,"column_7":null,"country":"Canada","column_8":null,"geo_score":0.571,"column_9":null,"postal code":null,"id":"acx1l9fwiav1","address":"Brandon","geo_precision":"city","state":"Manitoba"},"type":"Feature","geometry":{"type":"Point","coordinates":[-86.063874,39.857818]}},{"properties":{"location name":"YYQ-Churchill Airport","city":"Churchill","column_10":null,"column_7":null,"country":"Canada","column_8":null,"geo_score":0.607,"column_9":null,"postal code":null,"id":"acx1l9fx420a","address":"Churchill","geo_precision":"street","state":"Manitoba"},"type":"Feature","geometry":{"type":"Point","coordinates":[-80.661143,41.162282]}},{"properties":{"location name":"YDN-Dauphin","city":"Dauphin","column_10":null,"column_7":null,"country":"Canada","column_8":null,"geo_score":0.474,"column_9":null,"postal code":null,"id":"acx1l9gypreu","address":"Dauphin","geo_precision":"street","state":"Manitoba"},"type":"Feature","geometry":{"type":"Point","coordinates":[-87.902617,30.613916]}},{"properties":{"location name":"YFO-Flin Flon","city":"Flin Flon","column_10":null,"column_7":null,"country":"Canada","column_8":null,"geo_score":0.401,"column_9":null,"postal code":null,"id":"acx1l9lg1p5n","address":"Flin Flon","geo_precision":"street","state":"Manitoba"},"type":"Feature","geometry":{"type":"Point","coordinates":[-105.125727,46.843983]}},{"properties":{"location name":"YGX-Gillam","city":"Gillam","column_10":null,"column_7":null,"country":"Canada","column_8":null,"geo_score":0.286,"column_9":null,"postal code":null,"id":"acx1l9j57lx8","address":"Gillam","geo_precision":"street","state":"Manitoba"},"type":"Feature","geometry":{"type":"Point","coordinates":[-120.411822,34.583737]}},{"properties":{"location name":"YGO-Gods Narrow","city":"Gods Narrow","column_10":null,"column_7":null,"country":"Canada","column_8":null,"geo_score":0.286,"column_9":null,"postal code":null,"id":"acx1l9lm8hdx","address":"Gods Narrow","geo_precision":"street","state":"Manitoba"},"type":"Feature","geometry":{"type":"Point","coordinates":[-79.911639,39.890049]}},{"properties":{"location name":"ZGI-Gods River","city":"Gods River","column_10":null,"column_7":null,"country":"Canada","column_8":null,"geo_score":0.332,"column_9":null,"postal code":null,"id":"acx1l9aj5qkp","address":"Gods River","geo_precision":"street","state":"Manitoba"},"type":"Feature","geometry":{"type":"Point","coordinates":[-79.911639,39.890049]}},{"properties":{"location name":"ILF-Ilford Airport","city":"Ilford","column_10":null,"column_7":null,"country":"Canada","column_8":null,"geo_score":0.0,"column_9":null,"postal code":null,"id":"acx1l9lk7ol3","address":"Ilford","geo_precision":"unmatched","state":"Manitoba"},"type":"Feature","geometry":null},{"properties":{"location name":"YQD-The Pas","city":"The Pas","column_10":null,"column_7":null,"country":"Canada","column_8":null,"geo_score":0.378,"column_9":null,"postal code":null,"id":"acx1l9gnovz6","address":"The Pas","geo_precision":"street","state":"Manitoba"},"type":"Feature","geometry":{"type":"Point","coordinates":[-76.377561,36.999338]}},{"properties":{"location name":"YTD-Thicket Portage","city":"Thicket Portage","column_10":null,"column_7":null,"country":"Canada","column_8":null,"geo_score":0.381,"column_9":null,"postal code":null,"id":"acx1l9ch3ve9","address":"Thicket Portage","geo_precision":"street","state":"Manitoba"},"type":"Feature","geometry":{"type":"Point","coordinates":[-111.177745,47.654534]}},{"properties":{"location name":"YTH-Thompson","city":"Thompson","column_10":null,"column_7":null,"country":"Canada","column_8":null,"geo_score":0.597,"column_9":null,"postal code":null,"id":"acx1l9kvw6n8","address":"Thompson","geo_precision":"street","state":"Manitoba"},"type":"Feature","geometry":{"type":"Point","coordinates":[-71.865792,41.954428]}},{"properties":{"location name":"YWG-Winnipeg Intl","city":"Winnipeg","column_10":null,"column_7":null,"country":"Canada","column_8":null,"geo_score":0.0,"column_9":null,"postal code":null,"id":"acx1l9aeba89","address":"Winnipeg","geo_precision":"unmatched","state":"Manitoba"},"type":"Feature","geometry":null},{"properties":{"location name":"XAZ-Cambellton","city":"Cambellton","column_10":null,"column_7":null,"country":"Canada","column_8":null,"geo_score":0.571,"column_9":null,"postal code":null,"id":"acx1l9i87yts","address":"Cambellton","geo_precision":"city","state":"New Brunswick"},"type":"Feature","geometry":{"type":"Point","coordinates":[-80.677291,37.366234]}},{"properties":{"location name":"YFC-Fredericton Municipal","city":"Fredericton","column_10":null,"column_7":null,"country":"Canada","column_8":null,"geo_score":0.558,"column_9":null,"postal code":null,"id":"acx1l9l9s23n","address":"Fredericton","geo_precision":"street","state":"New Brunswick"},"type":"Feature","geometry":{"type":"Point","coordinates":[-84.755654,44.776112]}},{"properties":{"location name":"YQM-Greater Moncton Intl","city":"Moncton/Lakeburn","column_10":null,"column_7":null,"country":"Canada","column_8":null,"geo_score":0.471,"column_9":null,"postal code":null,"id":"acx1l9732aco","address":"Moncton/Lakeburn","geo_precision":"street","state":"New Brunswick"},"type":"Feature","geometry":{"type":"Point","coordinates":[-73.132649,44.246109]}},{"properties":{"location name":"XEY-Newcastle","city":"Newcastle","column_10":null,"column_7":null,"country":"Canada","column_8":null,"geo_score":0.607,"column_9":null,"postal code":null,"id":"acx1l97xirdt","address":"Newcastle","geo_precision":"street","state":"New Brunswick"},"type":"Feature","geometry":{"type":"Point","coordinates":[-121.131623,38.873205]}},{"properties":{"location name":"YSJ-Saint John","city":"Saint John","column_10":null,"column_7":null,"country":"Canada","column_8":null,"geo_score":0.615,"column_9":null,"postal code":null,"id":"acx1l9ffq3yu","address":"Saint John","geo_precision":"street","state":"New Brunswick"},"type":"Feature","geometry":{"type":"Point","coordinates":[-85.871684,37.703959]}},{"properties":{"location name":"YSL-St Leonard Airport","city":"St Leonard","column_10":null,"column_7":null,"country":"Canada","column_8":null,"geo_score":0.493,"column_9":null,"postal code":null,"id":"acx1l9egyon4","address":"St Leonard","geo_precision":"street","state":"New Brunswick"},"type":"Feature","geometry":{"type":"Point","coordinates":[-83.155324,42.86505]}},{"properties":{"location name":"YDI-Davis Inlet Airport","city":"Davis Inlet","column_10":null,"column_7":null,"country":"Canada","column_8":null,"geo_score":0.481,"column_9":null,"postal code":null,"id":"acx1l9cav1j5","address":"Davis Inlet","geo_precision":"street","state":"Newfoundland"},"type":"Feature","geometry":{"type":"Point","coordinates":[-89.419654,42.424687]}},{"properties":{"location name":"YDF-Deer Lake","city":"Deer Lake","column_10":null,"column_7":null,"country":"Canada","column_8":null,"geo_score":0.582,"column_9":null,"postal code":null,"id":"acx1l9e9f5qj","address":"Deer Lake","geo_precision":"street","state":"Newfoundland"},"type":"Feature","geometry":{"type":"Point","coordinates":[-79.601909,39.84831]}},{"properties":{"location name":"YQX-Gander Intl","city":"Gander","column_10":null,"column_7":null,"country":"Canada","column_8":null,"geo_score":0.5,"column_9":null,"postal code":null,"id":"acx1l9cj75cl","address":"Gander","geo_precision":"street","state":"Newfoundland"},"type":"Feature","geometry":{"type":"Point","coordinates":[-91.548361,43.064545]}},{"properties":{"location name":"YYR-Goose Bay Municipal Airport","city":"Goose Bay","column_10":null,"column_7":null,"country":"Canada","column_8":null,"geo_score":0.452,"column_9":null,"postal code":null,"id":"acx1l99qiszn","address":"Goose Bay","geo_precision":"street","state":"Newfoundland"},"type":"Feature","geometry":{"type":"Point","coordinates":[-124.221043,43.378308]}},{"properties":{"location name":"YAY-St Anthony","city":"St Anthony","column_10":null,"column_7":null,"country":"Canada","column_8":null,"geo_score":0.573,"column_9":null,"postal code":null,"id":"acx1l9biejij","address":"St Anthony","geo_precision":"street","state":"Newfoundland"},"type":"Feature","geometry":{"type":"Point","coordinates":[-106.603539,32.000678]}},{"properties":{"location name":"YYT-St John's Intl","city":"St John's","column_10":null,"column_7":null,"country":"Canada","column_8":null,"geo_score":0.413,"column_9":null,"postal code":null,"id":"acx1l9am2lpb","address":"St John's","geo_precision":"street","state":"Newfoundland"},"type":"Feature","geometry":{"type":"Point","coordinates":[-79.459908,34.779506]}},{"properties":{"location name":"YJT-Stephenville","city":"Stephenville","column_10":null,"column_7":null,"country":"Canada","column_8":null,"geo_score":0.571,"column_9":null,"postal code":null,"id":"acx1l97m2uan","address":"Stephenville","geo_precision":"city","state":"Newfoundland"},"type":"Feature","geometry":{"type":"Point","coordinates":[-98.108828,32.321348]}},{"properties":{"location name":"YWK-Wabush Municipal","city":"Wabush","column_10":null,"column_7":null,"country":"Canada","column_8":null,"geo_score":0.5,"column_9":null,"postal code":null,"id":"acx1l9b3ux8c","address":"Wabush","geo_precision":"street","state":"Newfoundland"},"type":"Feature","geometry":{"type":"Point","coordinates":[-84.750973,40.530941]}},{"properties":{"location name":"YCO-Coppermine","city":"Coppermine","column_10":null,"column_7":null,"country":"Canada","column_8":null,"geo_score":0.571,"column_9":null,"postal code":null,"id":"acx1l9htjrxv","address":"Coppermine","geo_precision":"city","state":"Northwest Territories"},"type":"Feature","geometry":{"type":"Point","coordinates":[-106.142244,39.506653]}},{"properties":{"location name":"YFS-Fort Simpson Airport","city":"Fort Simpson","column_10":null,"column_7":null,"country":"Canada","column_8":null,"geo_score":0.44,"column_9":null,"postal code":null,"id":"acx1l99oiz8g","address":"Fort Simpson","geo_precision":"street","state":"Northwest Territories"},"type":"Feature","geometry":{"type":"Point","coordinates":[-94.384103,35.429385]}},{"properties":{"location name":"YSM-Fort Smith","city":"Fort Smith","column_10":null,"column_7":null,"country":"Canada","column_8":null,"geo_score":0.5,"column_9":null,"postal code":null,"id":"acx1l9kysq06","address":"Fort Smith","geo_precision":"street","state":"Northwest Territories"},"type":"Feature","geometry":{"type":"Point","coordinates":[-94.384103,35.429385]}},{"properties":{"location name":"YHY-Hay River","city":"Hay River","column_10":null,"column_7":null,"country":"Canada","column_8":null,"geo_score":0.416,"column_9":null,"postal code":null,"id":"acx1l9cc1ps6","address":"Hay River","geo_precision":"street","state":"Northwest Territories"},"type":"Feature","geometry":{"type":"Point","coordinates":[-89.13051,31.745929]}},{"properties":{"location name":"YHI-Holman Island","city":"Holman Island","column_10":null,"column_7":null,"country":"Canada","column_8":null,"geo_score":0.484,"column_9":null,"postal code":null,"id":"acx1l969xv6u","address":"Holman Island","geo_precision":"street","state":"Northwest Territories"},"type":"Feature","geometry":{"type":"Point","coordinates":[-74.361618,40.07617]}},{"properties":{"location name":"YGT-Igloolik","city":"Igloolik","column_10":null,"column_7":null,"country":"Canada","column_8":null,"geo_score":0.0,"column_9":null,"postal code":null,"id":"acx1l986rh7w","address":"Igloolik","geo_precision":"unmatched","state":"Northwest Territories"},"type":"Feature","geometry":null},{"properties":{"location name":"YEV-Inuvik Intl","city":"Inuvik","column_10":null,"column_7":null,"country":"Canada","column_8":null,"geo_score":0.0,"column_9":null,"postal code":null,"id":"acx1l9dhpl70","address":"Inuvik","geo_precision":"unmatched","state":"Northwest Territories"},"type":"Feature","geometry":null},{"properties":{"location name":"YFB-Iqaluit-Frobisher Bay Airport","city":"Iqaluit","column_10":null,"column_7":null,"country":"Canada","column_8":null,"geo_score":0.0,"column_9":null,"postal code":null,"id":"acx1l9hja5hd","address":"Iqaluit","geo_precision":"unmatched","state":"Northwest Territories"},"type":"Feature","geometry":null},{"properties":{"location name":"YRB-Resolute","city":"Resolute","column_10":null,"column_7":null,"country":"Canada","column_8":null,"geo_score":0.0,"column_9":null,"postal code":null,"id":"acx1l9ktduc1","address":"Resolute","geo_precision":"unmatched","state":"Northwest Territories"},"type":"Feature","geometry":null},{"properties":{"location name":"YZF-Yellowknife","city":"Yellowknife","column_10":null,"column_7":null,"country":"Canada","column_8":null,"geo_score":0.0,"column_9":null,"postal code":null,"id":"acx1l9juul0z","address":"Yellowknife","geo_precision":"unmatched","state":"Northwest Territories"},"type":"Feature","geometry":null},{"properties":{"location name":"YHZ-Halifax Intl","city":"Halifax","column_10":null,"column_7":null,"country":"Canada","column_8":null,"geo_score":0.0,"column_9":null,"postal code":null,"id":"acx1l9bxa1f0","address":"Halifax","geo_precision":"unmatched","state":"Nova Scotia"},"type":"Feature","geometry":null},{"properties":{"location name":"XLZ-Turo","city":"Turo","column_10":null,"column_7":null,"country":"Canada","column_8":null,"geo_score":0.434,"column_9":null,"postal code":null,"id":"acx1l9btcaux","address":"Turo","geo_precision":"street","state":"Nova Scotia"},"type":"Feature","geometry":{"type":"Point","coordinates":[-93.54746,31.25791]}},{"properties":{"location name":"YQI-Yarmouth","city":"Yarmouth","column_10":null,"column_7":null,"country":"Canada","column_8":null,"geo_score":0.597,"column_9":null,"postal code":null,"id":"acx1l9atwuj2","address":"Yarmouth","geo_precision":"street","state":"Nova Scotia"},"type":"Feature","geometry":{"type":"Point","coordinates":[-70.277675,41.656669]}},{"properties":{"location name":"YEK-Arviat","city":"Arviat","column_10":null,"column_7":null,"country":"Canada","column_8":null,"geo_score":0.571,"column_9":null,"postal code":null,"id":"acx1l9hvs1uh","address":"Arviat","geo_precision":"city","state":"Nunavut"},"type":"Feature","geometry":{"type":"Point","coordinates":[-106.392413,44.731059]}},{"properties":{"location name":"YVM-Broughton Island Airport","city":"Broughton Island","column_10":null,"column_7":null,"country":"Canada","column_8":null,"geo_score":0.268,"column_9":null,"postal code":null,"id":"acx1l9l4ebue","address":"Broughton Island","geo_precision":"street","state":"Nunavut"},"type":"Feature","geometry":{"type":"Point","coordinates":[-85.937142,41.179375]}},{"properties":{"location name":"YCB-Cambridge Bay Airport","city":"Cambridge Bay","column_10":null,"column_7":null,"country":"Canada","column_8":null,"geo_score":0.585,"column_9":null,"postal code":null,"id":"acx1l9jucyb0","address":"Cambridge Bay","geo_precision":"street","state":"Nunavut"},"type":"Feature","geometry":{"type":"Point","coordinates":[-85.163974,39.82313]}},{"properties":{"location name":"YTE-Capre Dorset","city":"Capre Dorset","column_10":null,"column_7":null,"country":"Canada","column_8":null,"geo_score":0.345,"column_9":null,"postal code":null,"id":"acx1l9lgk790","address":"Capre Dorset","geo_precision":"street","state":"Nunavut"},"type":"Feature","geometry":{"type":"Point","coordinates":[-85.545875,35.947448]}},{"properties":{"location name":"YCY-Clyde River Airport","city":"Clyde River","column_10":null,"column_7":null,"country":"Canada","column_8":null,"geo_score":0.541,"column_9":null,"postal code":null,"id":"acx1l9guxxtm","address":"Clyde River","geo_precision":"street","state":"Nunavut"},"type":"Feature","geometry":{"type":"Point","coordinates":[-94.407248,35.890643]}},{"properties":{"location name":"YHK-Goja Haven","city":"Goja Haven","column_10":null,"column_7":null,"country":"Canada","column_8":null,"geo_score":0.343,"column_9":null,"postal code":null,"id":"acx1l99lgynk","address":"Goja Haven","geo_precision":"street","state":"Nunavut"},"type":"Feature","geometry":{"type":"Point","coordinates":[-97.775319,37.911812]}},{"properties":{"location name":"YUX-Hall Beach Airport","city":"Hall Beach","column_10":null,"column_7":null,"country":"Canada","column_8":null,"geo_score":0.535,"column_9":null,"postal code":null,"id":"acx1l9hvsh6w","address":"Hall Beach","geo_precision":"street","state":"Nunavut"},"type":"Feature","geometry":{"type":"Point","coordinates":[-76.390196,39.284879]}},{"properties":{"location name":"YLC-Lake Harbour","city":"Lake Harbour","column_10":null,"column_7":null,"country":"Canada","column_8":null,"geo_score":0.497,"column_9":null,"postal code":null,"id":"acx1l9a2lwxi","address":"Lake Harbour","geo_precision":"street","state":"Nunavut"},"type":"Feature","geometry":{"type":"Point","coordinates":[-90.93497,30.322782]}},{"properties":{"location name":"YSR-Nanisivik","city":"Nanisivik","column_10":null,"column_7":null,"country":"Canada","column_8":null,"geo_score":0.0,"column_9":null,"postal code":null,"id":"acx1l99206dl","address":"Nanisivik","geo_precision":"unmatched","state":"Nunavut"},"type":"Feature","geometry":null},{"properties":{"location name":"YXP-Pangnirtung Airport","city":"Pangnirtung","column_10":null,"column_7":null,"country":"Canada","column_8":null,"geo_score":0.0,"column_9":null,"postal code":null,"id":"acx1l982dce8","address":"Pangnirtung","geo_precision":"unmatched","state":"Nunavut"},"type":"Feature","geometry":null},{"properties":{"location name":"YBB-Townsite Airport","city":"Pelly Bay","column_10":null,"column_7":null,"country":"Canada","column_8":null,"geo_score":0.254,"column_9":null,"postal code":null,"id":"acx1l9gxv5nz","address":"Pelly Bay","geo_precision":"street","state":"Nunavut"},"type":"Feature","geometry":{"type":"Point","coordinates":[-90.807961,45.146895]}},{"properties":{"location name":"YIO-Pond Inlet","city":"Pond Inlet","column_10":null,"column_7":null,"country":"Canada","column_8":null,"geo_score":0.443,"column_9":null,"postal code":null,"id":"acx1l96h5q8c","address":"Pond Inlet","geo_precision":"street","state":"Nunavut"},"type":"Feature","geometry":{"type":"Point","coordinates":[-76.244714,36.816415]}},{"properties":{"location name":"YRT-Rankin Inlet Airport","city":"Rankin Inlet","column_10":null,"column_7":null,"country":"Canada","column_8":null,"geo_score":0.5,"column_9":null,"postal code":null,"id":"acx1l99dfo0z","address":"Rankin Inlet","geo_precision":"street","state":"Nunavut"},"type":"Feature","geometry":{"type":"Point","coordinates":[-79.876291,40.409428]}},{"properties":{"location name":"YSK-Sanikiluaq","city":"Sanikiluaq","column_10":null,"column_7":null,"country":"Canada","column_8":null,"geo_score":0.571,"column_9":null,"postal code":null,"id":"acx1l9mpx97f","address":"Sanikiluaq","geo_precision":"city","state":"Nunavut"},"type":"Feature","geometry":{"type":"Point","coordinates":[-70.570058,43.932573]}},{"properties":{"location name":"YYH-Taloyak Airport","city":"Taloyak","column_10":null,"column_7":null,"country":"Canada","column_8":null,"geo_score":0.0,"column_9":null,"postal code":null,"id":"acx1l9cgrf7k","address":"Taloyak","geo_precision":"unmatched","state":"Nunavut"},"type":"Feature","geometry":null},{"properties":{"location name":"XFS-Alexandria","city":"Alexandria","column_10":null,"column_7":null,"country":"Canada","column_8":null,"geo_score":0.0,"column_9":null,"postal code":null,"id":"acx1l97l3iu4","address":"Alexandria","geo_precision":"unmatched","state":"Ontario"},"type":"Feature","geometry":null},{"properties":{"location name":"YIB-Atikokan","city":"Atikokan","column_10":null,"column_7":null,"country":"Canada","column_8":null,"geo_score":0.0,"column_9":null,"postal code":null,"id":"acx1l9lrqdxn","address":"Atikokan","geo_precision":"unmatched","state":"Ontario"},"type":"Feature","geometry":null},{"properties":{"location name":"YAT-Attawapiskat Airport","city":"Attawapiskat","column_10":null,"column_7":null,"country":"Canada","column_8":null,"geo_score":0.0,"column_9":null,"postal code":null,"id":"acx1l99sjtfx","address":"Attawapiskat","geo_precision":"unmatched","state":"Ontario"},"type":"Feature","geometry":null},{"properties":{"location name":"XVV-Belleville","city":"Belleville","column_10":null,"column_7":null,"country":"Canada","column_8":null,"geo_score":0.615,"column_9":null,"postal code":null,"id":"acx1l9ikaif3","address":"Belleville","geo_precision":"street","state":"Ontario"},"type":"Feature","geometry":{"type":"Point","coordinates":[-77.723408,40.622702]}},{"properties":{"location name":"XPN-Brampton","city":"Brampton","column_10":null,"column_7":null,"country":"Canada","column_8":null,"geo_score":0.714,"column_9":null,"postal code":null,"id":"acx1l99vzmis","address":"Brampton","geo_precision":"street","state":"Ontario"},"type":"Feature","geometry":{"type":"Point","coordinates":[-87.097579,45.933675]}},{"properties":{"location name":"XFV-Brantford","city":"Brantford","column_10":null,"column_7":null,"country":"Canada","column_8":null,"geo_score":0.571,"column_9":null,"postal code":null,"id":"acx1l9j19ijb","address":"Brantford","geo_precision":"city","state":"Ontario"},"type":"Feature","geometry":{"type":"Point","coordinates":[-110.004319,41.02912]}},{"properties":{"location name":"XBR-Brockville","city":"Brockville","column_10":null,"column_7":null,"country":"Canada","column_8":null,"geo_score":0.568,"column_9":null,"postal code":null,"id":"acx1l9js9ga4","address":"Brockville","geo_precision":"street","state":"Ontario"},"type":"Feature","geometry":{"type":"Point","coordinates":[-73.596189,40.838384]}},{"properties":{"location name":"YKZ-Buttonville Municipal Airport","city":"Buttonville","column_10":null,"column_7":null,"country":"Canada","column_8":null,"geo_score":0.521,"column_9":null,"postal code":null,"id":"acx1l9mg1cbi","address":"Buttonville","geo_precision":"street","state":"Ontario"},"type":"Feature","geometry":{"type":"Point","coordinates":[-82.627721,41.052226]}},{"properties":{"location name":"XAW-Capreol","city":"Capreol","column_10":null,"column_7":null,"country":"Canada","column_8":null,"geo_score":0.571,"column_9":null,"postal code":null,"id":"acx1l9m4i101","address":"Capreol","geo_precision":"city","state":"Ontario"},"type":"Feature","geometry":{"type":"Point","coordinates":[-97.64097,31.897381]}},{"properties":{"location name":"XZB-Casselman","city":"Casselman","column_10":null,"column_7":null,"country":"Canada","column_8":null,"geo_score":0.607,"column_9":null,"postal code":null,"id":"acx1l9axrny4","address":"Casselman","geo_precision":"street","state":"Ontario"},"type":"Feature","geometry":{"type":"Point","coordinates":[-79.2391,39.891062]}},{"properties":{"location name":"XCI-Chambord","city":"Chambord","column_10":null,"column_7":null,"country":"Canada","column_8":null,"geo_score":0.0,"column_9":null,"postal code":null,"id":"acx1l9cruusj","address":"Chambord","geo_precision":"unmatched","state":"Ontario"},"type":"Feature","geometry":null},{"properties":{"location name":"YLD-Chapleau","city":"Chapleau","column_10":null,"column_7":null,"country":"Canada","column_8":null,"geo_score":0.489,"column_9":null,"postal code":null,"id":"acx1l9fhysj4","address":"Chapleau","geo_precision":"street","state":"Ontario"},"type":"Feature","geometry":{"type":"Point","coordinates":[-85.587561,30.538573]}},{"properties":{"location name":"XCM-Chatham","city":"Chatham","column_10":null,"column_7":null,"country":"Canada","column_8":null,"geo_score":0.586,"column_9":null,"postal code":null,"id":"acx1l9ae5brx","address":"Chatham","geo_precision":"street","state":"Ontario"},"type":"Feature","geometry":{"type":"Point","coordinates":[-75.824286,39.853539]}},{"properties":{"location name":"XGJ-Cobourg","city":"Cobourg","column_10":null,"column_7":null,"country":"Canada","column_8":null,"geo_score":0.503,"column_9":null,"postal code":null,"id":"acx1l99nn12y","address":"Cobourg","geo_precision":"street","state":"Ontario"},"type":"Feature","geometry":{"type":"Point","coordinates":[-123.080643,44.061759]}},{"properties":{"location name":"YCC-Cornwall","city":"Cornwall","column_10":null,"column_7":null,"country":"Canada","column_8":null,"geo_score":0.597,"column_9":null,"postal code":null,"id":"acx1l9da4ix8","address":"Cornwall","geo_precision":"street","state":"Ontario"},"type":"Feature","geometry":{"type":"Point","coordinates":[-116.857536,46.707922]}},{"properties":{"location name":"YVZ-Deer Lake","city":"Deer Lake","column_10":null,"column_7":null,"country":"Canada","column_8":null,"geo_score":0.582,"column_9":null,"postal code":null,"id":"acx1l995uabm","address":"Deer Lake","geo_precision":"street","state":"Ontario"},"type":"Feature","geometry":{"type":"Point","coordinates":[-79.601909,39.84831]}},{"properties":{"location name":"YHD-Dryden","city":"Dryden","column_10":null,"column_7":null,"country":"Canada","column_8":null,"geo_score":0.571,"column_9":null,"postal code":null,"id":"acx1l99n2o11","address":"Dryden","geo_precision":"street","state":"Ontario"},"type":"Feature","geometry":{"type":"Point","coordinates":[-76.328098,42.489638]}},{"properties":{"location name":"YEL-Elliot Lake","city":"Elliot Lake","column_10":null,"column_7":null,"country":"Canada","column_8":null,"geo_score":0.468,"column_9":null,"postal code":null,"id":"acx1l98l7gia","address":"Elliot Lake","geo_precision":"street","state":"Ontario"},"type":"Feature","geometry":{"type":"Point","coordinates":[-81.434645,41.049555]}},{"properties":{"location name":"YFA-Fort Albany","city":"Fort Albany","column_10":null,"column_7":null,"country":"Canada","column_8":null,"geo_score":0.416,"column_9":null,"postal code":null,"id":"acx1l9ht0oyh","address":"Fort Albany","geo_precision":"street","state":"Ontario"},"type":"Feature","geometry":{"type":"Point","coordinates":[-74.972556,39.772985]}},{"properties":{"location name":"XHM-Georgetown","city":"Georgetown","column_10":null,"column_7":null,"country":"Canada","column_8":null,"geo_score":0.615,"column_9":null,"postal code":null,"id":"acx1l9ge7ige","address":"Georgetown","geo_precision":"street","state":"Ontario"},"type":"Feature","geometry":{"type":"Point","coordinates":[-80.497222,40.626988]}},{"properties":{"location name":"XZC-Glencoe","city":"Glencoe","column_10":null,"column_7":null,"country":"Canada","column_8":null,"geo_score":0.586,"column_9":null,"postal code":null,"id":"acx1l99i819o","address":"Glencoe","geo_precision":"street","state":"Ontario"},"type":"Feature","geometry":{"type":"Point","coordinates":[-96.925572,36.218194]}},{"properties":{"location name":"XGY-Grimsby","city":"Grimsby","column_10":null,"column_7":null,"country":"Canada","column_8":null,"geo_score":0.586,"column_9":null,"postal code":null,"id":"acx1l9ak3g9p","address":"Grimsby","geo_precision":"street","state":"Ontario"},"type":"Feature","geometry":{"type":"Point","coordinates":[-89.443522,37.740241]}},{"properties":{"location name":"XIA-Guelph","city":"Guelph","column_10":null,"column_7":null,"country":"Canada","column_8":null,"geo_score":0.337,"column_9":null,"postal code":null,"id":"acx1l9digl6i","address":"Guelph","geo_precision":"street","state":"Ontario"},"type":"Feature","geometry":{"type":"Point","coordinates":[-79.294994,35.565571]}},{"properties":{"location name":"YHM-Hamilton Civic Airport","city":"Hamilton","column_10":null,"column_7":null,"country":"Canada","column_8":null,"geo_score":0.597,"column_9":null,"postal code":null,"id":"acx1l9klgczr","address":"Hamilton","geo_precision":"street","state":"Ontario"},"type":"Feature","geometry":{"type":"Point","coordinates":[-121.989653,48.521063]}},{"properties":{"location name":"YHN-Hornepayne","city":"Hornepayne","column_10":null,"column_7":null,"country":"Canada","column_8":null,"geo_score":0.0,"column_9":null,"postal code":null,"id":"acx1l96d6agr","address":"Hornepayne","geo_precision":"unmatched","state":"Ontario"},"type":"Feature","geometry":null},{"properties":{"location name":"XIB-Ingersoll","city":"Ingersoll","column_10":null,"column_7":null,"country":"Canada","column_8":null,"geo_score":0.571,"column_9":null,"postal code":null,"id":"acx1l9cryngj","address":"Ingersoll","geo_precision":"city","state":"Ontario"},"type":"Feature","geometry":{"type":"Point","coordinates":[-98.394797,36.796419]}},{"properties":{"location name":"YYU-Kapuskasing","city":"Kapuskasing","column_10":null,"column_7":null,"country":"Canada","column_8":null,"geo_score":0.0,"column_9":null,"postal code":null,"id":"acx1l9bvvhz8","address":"Kapuskasing","geo_precision":"unmatched","state":"Ontario"},"type":"Feature","geometry":null},{"properties":{"location name":"ZKE-Kaschechewan Airport","city":"Kaschechewan","column_10":null,"column_7":null,"country":"Canada","column_8":null,"geo_score":0.0,"column_9":null,"postal code":null,"id":"acx1l9flmnvy","address":"Kaschechewan","geo_precision":"unmatched","state":"Ontario"},"type":"Feature","geometry":null},{"properties":{"location name":"YQK-Kenora","city":"Kenora","column_10":null,"column_7":null,"country":"Canada","column_8":null,"geo_score":0.429,"column_9":null,"postal code":null,"id":"acx1l9bpbxgl","address":"Kenora","geo_precision":"street","state":"Ontario"},"type":"Feature","geometry":{"type":"Point","coordinates":[-90.267378,29.982336]}},{"properties":{"location name":"YGK-Kingston Airport","city":"Kingston","column_10":null,"column_7":null,"country":"Canada","column_8":null,"geo_score":0.597,"column_9":null,"postal code":null,"id":"acx1l9j4q39q","address":"Kingston","geo_precision":"street","state":"Ontario"},"type":"Feature","geometry":{"type":"Point","coordinates":[-70.702491,41.979769]}},{"properties":{"location name":"YKF-Kitchener","city":"Kitchener","column_10":null,"column_7":null,"country":"Canada","column_8":null,"geo_score":0.0,"column_9":null,"postal code":null,"id":"acx1l9ewj38l","address":"Kitchener","geo_precision":"unmatched","state":"Ontario"},"type":"Feature","geometry":null},{"properties":{"location name":"YXU-London Municipal","city":"London","column_10":null,"column_7":null,"country":"Canada","column_8":null,"geo_score":0.571,"column_9":null,"postal code":null,"id":"acx1l9iqspk7","address":"London","geo_precision":"street","state":"Ontario"},"type":"Feature","geometry":{"type":"Point","coordinates":[-89.016515,43.047853]}},{"properties":{"location name":"YSP-Marathon","city":"Marathon","column_10":null,"column_7":null,"country":"Canada","column_8":null,"geo_score":0.597,"column_9":null,"postal code":null,"id":"acx1l9jc94ep","address":"Marathon","geo_precision":"street","state":"Ontario"},"type":"Feature","geometry":{"type":"Point","coordinates":[-89.80855,44.887074]}},{"properties":{"location name":"XID-Maxville","city":"Maxville","column_10":null,"column_7":null,"country":"Canada","column_8":null,"geo_score":0.0,"column_9":null,"postal code":null,"id":"acx1l97rvqgo","address":"Maxville","geo_precision":"unmatched","state":"Ontario"},"type":"Feature","geometry":null},{"properties":{"location name":"YMO-Moosonee","city":"Moosonee","column_10":null,"column_7":null,"country":"Canada","column_8":null,"geo_score":0.445,"column_9":null,"postal code":null,"id":"acx1l9b7xfzp","address":"Moosonee","geo_precision":"street","state":"Ontario"},"type":"Feature","geometry":{"type":"Point","coordinates":[-89.724245,44.789684]}},{"properties":{"location name":"YVA-Moroni(Hahaya/Iconi)","city":"Moroni(Hahaya/Iconi)","column_10":null,"column_7":null,"country":"Canada","column_8":null,"geo_score":0.0,"column_9":null,"postal code":null,"id":"acx1l9kpm728","address":"Moroni(Hahaya/Iconi)","geo_precision":"unmatched","state":"Ontario"},"type":"Feature","geometry":null},{"properties":{"location name":"XLV-Niagara Falls","city":"Niagara Falls","column_10":null,"column_7":null,"country":"Canada","column_8":null,"geo_score":0.585,"column_9":null,"postal code":null,"id":"acx1l98w7uv0","address":"Niagara Falls","geo_precision":"street","state":"Ontario"},"type":"Feature","geometry":{"type":"Point","coordinates":[-78.943987,43.098829]}},{"properties":{"location name":"YYB-Jack Garland Airport","city":"North Bay","column_10":null,"column_7":null,"country":"Canada","column_8":null,"geo_score":0.554,"column_9":null,"postal code":null,"id":"acx1l9ajbmx7","address":"North Bay","geo_precision":"street","state":"Ontario"},"type":"Feature","geometry":{"type":"Point","coordinates":[-87.780192,42.762786]}},{"properties":{"location name":"XOK-Oakville","city":"Oakville","column_10":null,"column_7":null,"country":"Canada","column_8":null,"geo_score":0.714,"column_9":null,"postal code":null,"id":"acx1l9e73uzl","address":"Oakville","geo_precision":"street","state":"Ontario"},"type":"Feature","geometry":{"type":"Point","coordinates":[-83.666345,42.084432]}},{"properties":{"location name":"YOO-Oshawa","city":"Oshawa","column_10":null,"column_7":null,"country":"Canada","column_8":null,"geo_score":0.571,"column_9":null,"postal code":null,"id":"acx1l9c9fzzv","address":"Oshawa","geo_precision":"city","state":"Ontario"},"type":"Feature","geometry":{"type":"Point","coordinates":[-94.10524,44.300244]}},{"properties":{"location name":"YOW-Ottawa Intl","city":"Ottawa","column_10":null,"column_7":null,"country":"Canada","column_8":null,"geo_score":0.571,"column_9":null,"postal code":null,"id":"acx1l96n2boz","address":"Ottawa","geo_precision":"street","state":"Ontario"},"type":"Feature","geometry":{"type":"Point","coordinates":[-84.00555,41.020545]}},{"properties":{"location name":"YTA-Pem And Area Airport","city":"Pembroke","column_10":null,"column_7":null,"country":"Canada","column_8":null,"geo_score":0.597,"column_9":null,"postal code":null,"id":"acx1l9eo9ru2","address":"Pembroke","geo_precision":"street","state":"Ontario"},"type":"Feature","geometry":{"type":"Point","coordinates":[-80.647472,37.319083]}},{"properties":{"location name":"YPT-Pender Harbor Airport","city":"Pender Harbor","column_10":null,"column_7":null,"country":"Canada","column_8":null,"geo_score":0.473,"column_9":null,"postal code":null,"id":"acx1l9ehuvh7","address":"Pender Harbor","geo_precision":"street","state":"Ontario"},"type":"Feature","geometry":{"type":"Point","coordinates":[-77.335134,38.859804]}},{"properties":{"location name":"YRL-Red Lake Federal aiport","city":"Red Lake","column_10":null,"column_7":null,"country":"Canada","column_8":null,"geo_score":0.421,"column_9":null,"postal code":null,"id":"acx1l9j8kb7z","address":"Red Lake","geo_precision":"street","state":"Ontario"},"type":"Feature","geometry":{"type":"Point","coordinates":[-85.084589,43.841059]}},{"properties":{"location name":"YZR-Sarnia Airport","city":"Sarnia","column_10":null,"column_7":null,"country":"Canada","column_8":null,"geo_score":0.262,"column_9":null,"postal code":null,"id":"acx1l9igq7hb","address":"Sarnia","geo_precision":"street","state":"Ontario"},"type":"Feature","geometry":{"type":"Point","coordinates":[-97.975363,29.756135]}},{"properties":{"location name":"YXL-Sioux Lookout","city":"Sioux Lookout","column_10":null,"column_7":null,"country":"Canada","column_8":null,"geo_score":0.297,"column_9":null,"postal code":null,"id":"acx1l9a5zizd","address":"Sioux Lookout","geo_precision":"street","state":"Ontario"},"type":"Feature","geometry":{"type":"Point","coordinates":[-123.692241,39.845965]}},{"properties":{"location name":"YSH-Smith Falls","city":"Smith Falls","column_10":null,"column_7":null,"country":"Canada","column_8":null,"geo_score":0.506,"column_9":null,"postal code":null,"id":"acx1l9gxb6r3","address":"Smith Falls","geo_precision":"street","state":"Ontario"},"type":"Feature","geometry":{"type":"Point","coordinates":[-74.786673,40.007996]}},{"properties":{"location name":"YCM-St Catherines","city":"St Catherines","column_10":null,"column_7":null,"country":"Canada","column_8":null,"geo_score":0.0,"column_9":null,"postal code":null,"id":"acx1l9fxlqlp","address":"St Catherines","geo_precision":"unmatched","state":"Ontario"},"type":"Feature","geometry":null},{"properties":{"location name":"XIO-St Marys","city":"St Marys","column_10":null,"column_7":null,"country":"Canada","column_8":null,"geo_score":0.37,"column_9":null,"postal code":null,"id":"acx1l98c78gd","address":"St Marys","geo_precision":"street","state":"Ontario"},"type":"Feature","geometry":{"type":"Point","coordinates":[-80.080865,40.689831]}},{"properties":{"location name":"XFD-Stratford","city":"Stratford","column_10":null,"column_7":null,"country":"Canada","column_8":null,"geo_score":0.607,"column_9":null,"postal code":null,"id":"acx1l999e0z5","address":"Stratford","geo_precision":"street","state":"Ontario"},"type":"Feature","geometry":{"type":"Point","coordinates":[-83.069163,40.265423]}},{"properties":{"location name":"XTY-Strathroy","city":"Strathroy","column_10":null,"column_7":null,"country":"Canada","column_8":null,"geo_score":0.456,"column_9":null,"postal code":null,"id":"acx1l9kg64gy","address":"Strathroy","geo_precision":"street","state":"Ontario"},"type":"Feature","geometry":{"type":"Point","coordinates":[-81.378104,34.389227]}},{"properties":{"location name":"YSB-Sudbury","city":"Sudbury","column_10":null,"column_7":null,"country":"Canada","column_8":null,"geo_score":0.5,"column_9":null,"postal code":null,"id":"acx1l979ntfg","address":"Sudbury","geo_precision":"street","state":"Ontario"},"type":"Feature","geometry":{"type":"Point","coordinates":[-71.394693,42.376933]}},{"properties":{"location name":"YQT-Thunder Bay","city":"Thunder Bay","column_10":null,"column_7":null,"country":"Canada","column_8":null,"geo_score":0.448,"column_9":null,"postal code":null,"id":"acx1l9lgb0le","address":"Thunder Bay","geo_precision":"street","state":"Ontario"},"type":"Feature","geometry":{"type":"Point","coordinates":[-81.065426,32.03763]}},{"properties":{"location name":"YTS-Timmins Municipal Airport","city":"Timmins","column_10":null,"column_7":null,"country":"Canada","column_8":null,"geo_score":0.0,"column_9":null,"postal code":null,"id":"acx1l97d8i70","address":"Timmins","geo_precision":"unmatched","state":"Ontario"},"type":"Feature","geometry":null},{"properties":{"location name":"YTZ-Toronto City Center Airport","city":"Toronto","column_10":null,"column_7":null,"country":"Canada","column_8":null,"geo_score":0.586,"column_9":null,"postal code":null,"id":"acx1l97d810n","address":"Toronto","geo_precision":"street","state":"Ontario"},"type":"Feature","geometry":{"type":"Point","coordinates":[-89.651189,39.713656]}},{"properties":{"location name":"YYZ-Pearson Intl","city":"Toronto","column_10":null,"column_7":null,"country":"Canada","column_8":null,"geo_score":0.586,"column_9":null,"postal code":null,"id":"acx1l98z518i","address":"Toronto","geo_precision":"street","state":"Ontario"},"type":"Feature","geometry":{"type":"Point","coordinates":[-89.651189,39.713656]}},{"properties":{"location name":"YXZ-Wawa Airport","city":"Wawa","column_10":null,"column_7":null,"country":"Canada","column_8":null,"geo_score":0.673,"column_9":null,"postal code":null,"id":"acx1l99ujuxf","address":"Wawa","geo_precision":"street","state":"Ontario"},"type":"Feature","geometry":{"type":"Point","coordinates":[-75.473857,39.893868]}},{"properties":{"location name":"YWR-White River","city":"White River","column_10":null,"column_7":null,"country":"Canada","column_8":null,"geo_score":0.541,"column_9":null,"postal code":null,"id":"acx1l9gf6pid","address":"White River","geo_precision":"street","state":"Ontario"},"type":"Feature","geometry":{"type":"Point","coordinates":[-79.435679,40.061229]}},{"properties":{"location name":"YQG-Windsor Intl","city":"Windsor","column_10":null,"column_7":null,"country":"Canada","column_8":null,"geo_score":0.586,"column_9":null,"postal code":null,"id":"acx1l9bzwe6f","address":"Windsor","geo_precision":"street","state":"Ontario"},"type":"Feature","geometry":{"type":"Point","coordinates":[-90.444397,41.205538]}},{"properties":{"location name":"XIP-Woodstock","city":"Woodstock","column_10":null,"column_7":null,"country":"Canada","column_8":null,"geo_score":0.607,"column_9":null,"postal code":null,"id":"acx1l99xyuuy","address":"Woodstock","geo_precision":"street","state":"Ontario"},"type":"Feature","geometry":{"type":"Point","coordinates":[-71.992286,41.988495]}},{"properties":{"location name":"XWY-Wyomming","city":"Wyomming","column_10":null,"column_7":null,"country":"Canada","column_8":null,"geo_score":0.525,"column_9":null,"postal code":null,"id":"acx1l9gv1xgv","address":"Wyomming","geo_precision":"street","state":"Ontario"},"type":"Feature","geometry":{"type":"Point","coordinates":[-78.03741,42.860687]}},{"properties":{"location name":"YYG-Charlottetown, Prince Edward Island","city":"Charlottetown","column_10":null,"column_7":null,"country":"Canada","column_8":null,"geo_score":0.0,"column_9":null,"postal code":null,"id":"acx1l9ks3xkb","address":"Charlottetown","geo_precision":"unmatched","state":"Prince Edward Island"},"type":"Feature","geometry":null},{"properties":{"location name":"AKV-Akulivik Airport","city":"Akulivik","column_10":null,"column_7":null,"country":"Canada","column_8":null,"geo_score":0.0,"column_9":null,"postal code":null,"id":"acx1l96lxoxf","address":"Akulivik","geo_precision":"unmatched","state":"Quebec"},"type":"Feature","geometry":null},{"properties":{"location name":"YEY-Amos","city":"Amos","column_10":null,"column_7":null,"country":"Canada","column_8":null,"geo_score":0.434,"column_9":null,"postal code":null,"id":"acx1l9jpxls9","address":"Amos","geo_precision":"street","state":"Quebec"},"type":"Feature","geometry":{"type":"Point","coordinates":[-74.590899,42.889126]}},{"properties":{"location name":"YPJ-Aupaluk","city":"Aupaluk","column_10":null,"column_7":null,"country":"Canada","column_8":null,"geo_score":0.0,"column_9":null,"postal code":null,"id":"acx1l98p3vnm","address":"Aupaluk","geo_precision":"unmatched","state":"Quebec"},"type":"Feature","geometry":null},{"properties":{"location name":"YBG-Bagotville","city":"Bagotville","column_10":null,"column_7":null,"country":"Canada","column_8":null,"geo_score":0.0,"column_9":null,"postal code":null,"id":"acx1l9lu06hg","address":"Bagotville","geo_precision":"unmatched","state":"Quebec"},"type":"Feature","geometry":null},{"properties":{"location name":"YBC-Baie Comeau","city":"Baie Comeau","column_10":null,"column_7":null,"country":"Canada","column_8":null,"geo_score":0.351,"column_9":null,"postal code":null,"id":"acx1l9bsxvn9","address":"Baie Comeau","geo_precision":"street","state":"Quebec"},"type":"Feature","geometry":{"type":"Point","coordinates":[-92.114235,34.743116]}},{"properties":{"location name":"YBX-Blanc Sablon","city":"Blanc Sablon","column_10":null,"column_7":null,"country":"Canada","column_8":null,"geo_score":0.429,"column_9":null,"postal code":null,"id":"acx1l9g8v4tm","address":"Blanc Sablon","geo_precision":"street","state":"Quebec"},"type":"Feature","geometry":{"type":"Point","coordinates":[-98.417694,30.08891]}},{"properties":{"location name":"YVB-Bonaventure","city":"Bonaventure","column_10":null,"column_7":null,"country":"Canada","column_8":null,"geo_score":0.474,"column_9":null,"postal code":null,"id":"acx1l9gfzw8t","address":"Bonaventure","geo_precision":"street","state":"Quebec"},"type":"Feature","geometry":{"type":"Point","coordinates":[-81.362669,28.345399]}},{"properties":{"location name":"XDL-Chandler","city":"Chandler","column_10":null,"column_7":null,"country":"Canada","column_8":null,"geo_score":0.597,"column_9":null,"postal code":null,"id":"acx1l9drybxf","address":"Chandler","geo_precision":"street","state":"Quebec"},"type":"Feature","geometry":{"type":"Point","coordinates":[-94.382069,39.297931]}},{"properties":{"location name":"YHR-Chevery","city":"Chevery","column_10":null,"column_7":null,"country":"Canada","column_8":null,"geo_score":0.502,"column_9":null,"postal code":null,"id":"acx1l9eia5cc","address":"Chevery","geo_precision":"street","state":"Quebec"},"type":"Feature","geometry":{"type":"Point","coordinates":[-71.910215,43.799099]}},{"properties":{"location name":"YMT-Chibougamau","city":"Chibougamau","column_10":null,"column_7":null,"country":"Canada","column_8":null,"geo_score":0.0,"column_9":null,"postal code":null,"id":"acx1l9mg94v0","address":"Chibougamau","geo_precision":"unmatched","state":"Quebec"},"type":"Feature","geometry":null},{"properties":{"location name":"YKU-Chisasibi","city":"Chisasibi","column_10":null,"column_7":null,"country":"Canada","column_8":null,"geo_score":0.0,"column_9":null,"postal code":null,"id":"acx1l97zusqm","address":"Chisasibi","geo_precision":"unmatched","state":"Quebec"},"type":"Feature","geometry":null},{"properties":{"location name":"XGK-Coteau","city":"Coteau","column_10":null,"column_7":null,"country":"Canada","column_8":null,"geo_score":0.396,"column_9":null,"postal code":null,"id":"acx1l9aq3y27","address":"Coteau","geo_precision":"street","state":"Quebec"},"type":"Feature","geometry":{"type":"Point","coordinates":[-92.103661,30.951178]}},{"properties":{"location name":"XDM-Drummondville","city":"Drummondville","column_10":null,"column_7":null,"country":"Canada","column_8":null,"geo_score":0.527,"column_9":null,"postal code":null,"id":"acx1l96p81w6","address":"Drummondville","geo_precision":"street","state":"Quebec"},"type":"Feature","geometry":{"type":"Point","coordinates":[-77.08908,38.969561]}},{"properties":{"location name":"YGP-Gaspe","city":"Gaspe","column_10":null,"column_7":null,"country":"Canada","column_8":null,"geo_score":0.0,"column_9":null,"postal code":null,"id":"acx1l9gwrufo","address":"Gaspe","geo_precision":"unmatched","state":"Quebec"},"type":"Feature","geometry":null},{"properties":{"location name":"YND-Gatineau","city":"Gatineau","column_10":null,"column_7":null,"country":"Canada","column_8":null,"geo_score":0.429,"column_9":null,"postal code":null,"id":"acx1l9jual2g","address":"Gatineau","geo_precision":"street","state":"Quebec"},"type":"Feature","geometry":{"type":"Point","coordinates":[-83.307268,36.873135]}},{"properties":{"location name":"XDU-Hervey","city":"Hervey","column_10":null,"column_7":null,"country":"Canada","column_8":null,"geo_score":0.5,"column_9":null,"postal code":null,"id":"acx1l97aev9t","address":"Hervey","geo_precision":"street","state":"Quebec"},"type":"Feature","geometry":{"type":"Point","coordinates":[-81.133502,37.937067]}},{"properties":{"location name":"YGR-House Harbour Airport","city":"Iles De La Madeleine","column_10":null,"column_7":null,"country":"Canada","column_8":null,"geo_score":0.314,"column_9":null,"postal code":null,"id":"acx1l9j8ckbo","address":"Iles De La Madeleine","geo_precision":"street","state":"Quebec"},"type":"Feature","geometry":{"type":"Point","coordinates":[-84.343567,43.628178]}},{"properties":{"location name":"YPH-inukjuak","city":"inukjuak","column_10":null,"column_7":null,"country":"Canada","column_8":null,"geo_score":0.0,"column_9":null,"postal code":null,"id":"acx1l9frjwrn","address":"inukjuak","geo_precision":"unmatched","state":"Quebec"},"type":"Feature","geometry":null},{"properties":{"location name":"YIK-Ivujivik","city":"Ivujivik","column_10":null,"column_7":null,"country":"Canada","column_8":null,"geo_score":0.0,"column_9":null,"postal code":null,"id":"acx1l97j94bp","address":"Ivujivik","geo_precision":"unmatched","state":"Quebec"},"type":"Feature","geometry":null},{"properties":{"location name":"XJL-Joliette","city":"Joliette","column_10":null,"column_7":null,"country":"Canada","column_8":null,"geo_score":0.568,"column_9":null,"postal code":null,"id":"acx1l9m2t8ck","address":"Joliette","geo_precision":"street","state":"Quebec"},"type":"Feature","geometry":{"type":"Point","coordinates":[-76.454134,40.611312]}},{"properties":{"location name":"XJQ-Jonquiere","city":"Jonquiere","column_10":null,"column_7":null,"country":"Canada","column_8":null,"geo_score":0.0,"column_9":null,"postal code":null,"id":"acx1l96nm15m","address":"Jonquiere","geo_precision":"unmatched","state":"Quebec"},"type":"Feature","geometry":null},{"properties":{"location name":"XGR-Kangiqsualujjuaq","city":"Kangiqsualujjuaq","column_10":null,"column_7":null,"country":"Canada","column_8":null,"geo_score":0.0,"column_9":null,"postal code":null,"id":"acx1l9b7uq8i","address":"Kangiqsualujjuaq","geo_precision":"unmatched","state":"Quebec"},"type":"Feature","geometry":null},{"properties":{"location name":"YWB-Kangiqsujuaq","city":"Kangiqsujuaq","column_10":null,"column_7":null,"country":"Canada","column_8":null,"geo_score":0.0,"column_9":null,"postal code":null,"id":"acx1l977p2b6","address":"Kangiqsujuaq","geo_precision":"unmatched","state":"Quebec"},"type":"Feature","geometry":null},{"properties":{"location name":"YKG-Kangirsuk","city":"Kangirsuk","column_10":null,"column_7":null,"country":"Canada","column_8":null,"geo_score":0.378,"column_9":null,"postal code":null,"id":"acx1l9g9x5vy","address":"Kangirsuk","geo_precision":"street","state":"Quebec"},"type":"Feature","geometry":{"type":"Point","coordinates":[-73.942334,41.150701]}},{"properties":{"location name":"YVP-Fort Chimo Airport","city":"Kuujjuaq","column_10":null,"column_7":null,"country":"Canada","column_8":null,"geo_score":0.0,"column_9":null,"postal code":null,"id":"acx1l98ieqei","address":"Kuujjuaq","geo_precision":"unmatched","state":"Quebec"},"type":"Feature","geometry":null},{"properties":{"location name":"YGW-Kuujjuarpik","city":"Kuujjuarpik","column_10":null,"column_7":null,"country":"Canada","column_8":null,"geo_score":0.0,"column_9":null,"postal code":null,"id":"acx1l9fk7kx3","address":"Kuujjuarpik","geo_precision":"unmatched","state":"Quebec"},"type":"Feature","geometry":null},{"properties":{"location name":"YGL-La Grande Airport","city":"La Grande","column_10":null,"column_7":null,"country":"Canada","column_8":null,"geo_score":0.527,"column_9":null,"postal code":null,"id":"acx1l9lbt22n","address":"La Grande","geo_precision":"street","state":"Quebec"},"type":"Feature","geometry":{"type":"Point","coordinates":[-120.315946,37.229237]}},{"properties":{"location name":"YLQ-La Tuque","city":"La Tuque","column_10":null,"column_7":null,"country":"Canada","column_8":null,"geo_score":0.295,"column_9":null,"postal code":null,"id":"acx1l9jmjhnp","address":"La Tuque","geo_precision":"street","state":"Quebec"},"type":"Feature","geometry":{"type":"Point","coordinates":[-95.455276,29.514259]}},{"properties":{"location name":"XEE-Lac Edouard","city":"Lac Edouard","column_10":null,"column_7":null,"country":"Canada","column_8":null,"geo_score":0.377,"column_9":null,"postal code":null,"id":"acx1l9bgksbd","address":"Lac Edouard","geo_precision":"street","state":"Quebec"},"type":"Feature","geometry":{"type":"Point","coordinates":[-84.922501,43.94601]}},{"properties":{"location name":"YYY-Mont Joli","city":"Mont Joli","column_10":null,"column_7":null,"country":"Canada","column_8":null,"geo_score":0.44,"column_9":null,"postal code":null,"id":"acx1l9le3ym7","address":"Mont Joli","geo_precision":"street","state":"Quebec"},"type":"Feature","geometry":{"type":"Point","coordinates":[-86.513083,36.173601]}},{"properties":{"location name":"YHU-St. Hubert Airport","city":"Montreal","column_10":null,"column_7":null,"country":"Canada","column_8":null,"geo_score":0.597,"column_9":null,"postal code":null,"id":"acx1l9fssr3a","address":"Montreal","geo_precision":"street","state":"Quebec"},"type":"Feature","geometry":{"type":"Point","coordinates":[-90.237529,46.430589]}},{"properties":{"location name":"YMQ-Montreal","city":"Montreal","column_10":null,"column_7":null,"country":"Canada","column_8":null,"geo_score":0.597,"column_9":null,"postal code":null,"id":"acx1l9b10gz5","address":"Montreal","geo_precision":"street","state":"Quebec"},"type":"Feature","geometry":{"type":"Point","coordinates":[-90.237529,46.430589]}},{"properties":{"location name":"YMX-Montreal - Mirabel","city":"Montreal - Mirabel","column_10":null,"column_7":null,"country":"Canada","column_8":null,"geo_score":0.405,"column_9":null,"postal code":null,"id":"acx1l9cwnnph","address":"Montreal - Mirabel","geo_precision":"street","state":"Quebec"},"type":"Feature","geometry":{"type":"Point","coordinates":[-87.80711,44.285312]}},{"properties":{"location name":"YUL-Montreal-Pierre Elliott Trudeau Intl","city":"Montreal-Dorval","column_10":null,"column_7":null,"country":"Canada","column_8":null,"geo_score":0.448,"column_9":null,"postal code":null,"id":"acx1l9bzew6v","address":"Montreal-Dorval","geo_precision":"street","state":"Quebec"},"type":"Feature","geometry":{"type":"Point","coordinates":[-90.237529,46.430589]}},{"properties":{"location name":"YNA-Natashquan","city":"Natashquan","column_10":null,"column_7":null,"country":"Canada","column_8":null,"geo_score":0.0,"column_9":null,"postal code":null,"id":"acx1l9hnl8w0","address":"Natashquan","geo_precision":"unmatched","state":"Quebec"},"type":"Feature","geometry":null},{"properties":{"location name":"XEL-New Carlisle","city":"New Carlisle","column_10":null,"column_7":null,"country":"Canada","column_8":null,"geo_score":0.629,"column_9":null,"postal code":null,"id":"acx1l9edeqkv","address":"New Carlisle","geo_precision":"street","state":"Quebec"},"type":"Feature","geometry":{"type":"Point","coordinates":[-84.08009,39.952551]}},{"properties":{"location name":"XEM-New Richmond","city":"New Richmond","column_10":null,"column_7":null,"country":"Canada","column_8":null,"geo_score":0.595,"column_9":null,"postal code":null,"id":"acx1l9gtkw2o","address":"New Richmond","geo_precision":"street","state":"Quebec"},"type":"Feature","geometry":{"type":"Point","coordinates":[-94.126789,33.670344]}},{"properties":{"location name":"YIF-Pakuashipi","city":"Pakuashipi","column_10":null,"column_7":null,"country":"Canada","column_8":null,"geo_score":0.0,"column_9":null,"postal code":null,"id":"acx1l9mf5fl7","address":"Pakuashipi","geo_precision":"unmatched","state":"Quebec"},"type":"Feature","geometry":null},{"properties":{"location name":"XFE-Parent","city":"Parent","column_10":null,"column_7":null,"country":"Canada","column_8":null,"geo_score":0.571,"column_9":null,"postal code":null,"id":"acx1l9i1714z","address":"Parent","geo_precision":"street","state":"Quebec"},"type":"Feature","geometry":{"type":"Point","coordinates":[-93.913372,45.668179]}},{"properties":{"location name":"XFG-Perce","city":"Perce","column_10":null,"column_7":null,"country":"Canada","column_8":null,"geo_score":0.5,"column_9":null,"postal code":null,"id":"acx1l9dxabo5","address":"Perce","geo_precision":"street","state":"Quebec"},"type":"Feature","geometry":{"type":"Point","coordinates":[-109.822418,31.905253]}},{"properties":{"location name":"XPX-Pointe Aux Trembles","city":"Pointe Aux Trembles","column_10":null,"column_7":null,"country":"Canada","column_8":null,"geo_score":0.353,"column_9":null,"postal code":null,"id":"acx1l9djf7y7","address":"Pointe Aux Trembles","geo_precision":"street","state":"Quebec"},"type":"Feature","geometry":{"type":"Point","coordinates":[-88.502772,46.036771]}},{"properties":{"location name":"YPX-Poungnituk Airport","city":"Poungnituk","column_10":null,"column_7":null,"country":"Canada","column_8":null,"geo_score":0.571,"column_9":null,"postal code":null,"id":"acx1l9dedxfj","address":"Poungnituk","geo_precision":"city","state":"Quebec"},"type":"Feature","geometry":{"type":"Point","coordinates":[-84.502512,36.777331]}},{"properties":{"location name":"YQC-Quaqtag","city":"Quaqtag","column_10":null,"column_7":null,"country":"Canada","column_8":null,"geo_score":0.0,"column_9":null,"postal code":null,"id":"acx1l9mr0x82","address":"Quaqtag","geo_precision":"unmatched","state":"Quebec"},"type":"Feature","geometry":null},{"properties":{"location name":"SSQ-Quebec","city":"Quebec","column_10":null,"column_7":null,"country":"Canada","column_8":null,"geo_score":0.484,"column_9":null,"postal code":null,"id":"acx1l9l81qf2","address":"Quebec","geo_precision":"street","state":"Quebec"},"type":"Feature","geometry":{"type":"Point","coordinates":[-82.894573,35.13267]}},{"properties":{"location name":"YQB-Sainte Foy Airport","city":"Quebec","column_10":null,"column_7":null,"country":"Canada","column_8":null,"geo_score":0.484,"column_9":null,"postal code":null,"id":"acx1l9gsm7dw","address":"Quebec","geo_precision":"street","state":"Quebec"},"type":"Feature","geometry":{"type":"Point","coordinates":[-82.894573,35.13267]}},{"properties":{"location name":"XRP-Riviere A Pierre","city":"Riviere A Pierre","column_10":null,"column_7":null,"country":"Canada","column_8":null,"geo_score":0.42,"column_9":null,"postal code":null,"id":"acx1l98unusd","address":"Riviere A Pierre","geo_precision":"street","state":"Quebec"},"type":"Feature","geometry":{"type":"Point","coordinates":[-114.627625,35.094608]}},{"properties":{"location name":"YRI-Ville de Riviere-du-Loup Airport","city":"Riviere-du-Loup","column_10":null,"column_7":null,"country":"Canada","column_8":null,"geo_score":0.41,"column_9":null,"postal code":null,"id":"acx1l9cbc5ce","address":"Riviere-du-Loup","geo_precision":"street","state":"Quebec"},"type":"Feature","geometry":{"type":"Point","coordinates":[-70.676628,42.632867]}},{"properties":{"location name":"YRJ-Roberval Airport","city":"Roberval","column_10":null,"column_7":null,"country":"Canada","column_8":null,"geo_score":0.0,"column_9":null,"postal code":null,"id":"acx1l9m6n9mc","address":"Roberval","geo_precision":"unmatched","state":"Quebec"},"type":"Feature","geometry":null},{"properties":{"location name":"YUY-Rouyn Noranda","city":"Rouyn Noranda","column_10":null,"column_7":null,"country":"Canada","column_8":null,"geo_score":0.352,"column_9":null,"postal code":null,"id":"acx1l9ia8cjh","address":"Rouyn Noranda","geo_precision":"street","state":"Quebec"},"type":"Feature","geometry":{"type":"Point","coordinates":[-81.769339,34.473676]}},{"properties":{"location name":"XIM-Saint Hyacinthe","city":"Saint Hyacinthe","column_10":null,"column_7":null,"country":"Canada","column_8":null,"geo_score":0.381,"column_9":null,"postal code":null,"id":"acx1l988ule2","address":"Saint Hyacinthe","geo_precision":"street","state":"Quebec"},"type":"Feature","geometry":{"type":"Point","coordinates":[-111.857776,40.561565]}},{"properties":{"location name":"YZG-Salluit Airport","city":"Salluit","column_10":null,"column_7":null,"country":"Canada","column_8":null,"geo_score":0.396,"column_9":null,"postal code":null,"id":"acx1l9fnjszf","address":"Salluit","geo_precision":"street","state":"Quebec"},"type":"Feature","geometry":{"type":"Point","coordinates":[-87.635132,41.293392]}},{"properties":{"location name":"YZV-Sept-Iles","city":"Sept-Iles","column_10":null,"column_7":null,"country":"Canada","column_8":null,"geo_score":0.0,"column_9":null,"postal code":null,"id":"acx1l9hzyk5q","address":"Sept-Iles","geo_precision":"unmatched","state":"Quebec"},"type":"Feature","geometry":null},{"properties":{"location name":"XFL-Shawinigan","city":"Shawinigan","column_10":null,"column_7":null,"country":"Canada","column_8":null,"geo_score":0.0,"column_9":null,"postal code":null,"id":"acx1l9m5ylrf","address":"Shawinigan","geo_precision":"unmatched","state":"Quebec"},"type":"Feature","geometry":null},{"properties":{"location name":"YKL-Shefferville","city":"Shefferville","column_10":null,"column_7":null,"country":"Canada","column_8":null,"geo_score":0.0,"column_9":null,"postal code":null,"id":"acx1l9jpfxwz","address":"Shefferville","geo_precision":"unmatched","state":"Quebec"},"type":"Feature","geometry":null},{"properties":{"location name":"XFO-Taschereau","city":"Taschereau","column_10":null,"column_7":null,"country":"Canada","column_8":null,"geo_score":0.0,"column_9":null,"postal code":null,"id":"acx1l9envcyp","address":"Taschereau","geo_precision":"unmatched","state":"Quebec"},"type":"Feature","geometry":null},{"properties":{"location name":"YTQ-Tasiujuaq","city":"Tasiujuaq","column_10":null,"column_7":null,"country":"Canada","column_8":null,"geo_score":0.0,"column_9":null,"postal code":null,"id":"acx1l9mm1pq4","address":"Tasiujuaq","geo_precision":"unmatched","state":"Quebec"},"type":"Feature","geometry":null},{"properties":{"location name":"YUD-Umiujaq","city":"Umiujaq","column_10":null,"column_7":null,"country":"Canada","column_8":null,"geo_score":0.0,"column_9":null,"postal code":null,"id":"acx1l9f2sh4n","address":"Umiujaq","geo_precision":"unmatched","state":"Quebec"},"type":"Feature","geometry":null},{"properties":{"location name":"YVO-Val D'Or","city":"Val D'Or","column_10":null,"column_7":null,"country":"Canada","column_8":null,"geo_score":0.387,"column_9":null,"postal code":null,"id":"acx1l9c1p0tu","address":"Val D'Or","geo_precision":"street","state":"Quebec"},"type":"Feature","geometry":{"type":"Point","coordinates":[-80.952627,40.901377]}},{"properties":{"location name":"YKQ-Waskaganish","city":"Waskaganish","column_10":null,"column_7":null,"country":"Canada","column_8":null,"geo_score":0.0,"column_9":null,"postal code":null,"id":"acx1l9e0y850","address":"Waskaganish","geo_precision":"unmatched","state":"Quebec"},"type":"Feature","geometry":null},{"properties":{"location name":"XFQ-Weymont","city":"Weymont","column_10":null,"column_7":null,"country":"Canada","column_8":null,"geo_score":0.571,"column_9":null,"postal code":null,"id":"acx1l9lce2zc","address":"Weymont","geo_precision":"city","state":"Quebec"},"type":"Feature","geometry":{"type":"Point","coordinates":[-91.70571,44.30302]}},{"properties":{"location name":"YHB-Hudson Bay","city":"Hudson Bay","column_10":null,"column_7":null,"country":"Canada","column_8":null,"geo_score":0.529,"column_9":null,"postal code":null,"id":"acx1l9b7qjdy","address":"Hudson Bay","geo_precision":"street","state":"Saskatchewan"},"type":"Feature","geometry":{"type":"Point","coordinates":[-81.437529,41.246552]}},{"properties":{"location name":"YVC-La Ronge, Saskatchewan","city":"La Ronge, Saskatchewan","column_10":null,"column_7":null,"country":"Canada","column_8":null,"geo_score":0.222,"column_9":null,"postal code":null,"id":"acx1l9egwc92","address":"La Ronge, Saskatchewan","geo_precision":"street","state":"Saskatchewan"},"type":"Feature","geometry":{"type":"Point","coordinates":[-83.423126,39.731913]}},{"properties":{"location name":"XEK-Melville","city":"Melville","column_10":null,"column_7":null,"country":"Canada","column_8":null,"geo_score":0.597,"column_9":null,"postal code":null,"id":"acx1l9lhjenr","address":"Melville","geo_precision":"street","state":"Saskatchewan"},"type":"Feature","geometry":{"type":"Point","coordinates":[-110.006,46.104188]}},{"properties":{"location name":"YPA-Prince Albert","city":"Prince Albert","column_10":null,"column_7":null,"country":"Canada","column_8":null,"geo_score":0.273,"column_9":null,"postal code":null,"id":"acx1l9mn4n3m","address":"Prince Albert","geo_precision":"street","state":"Saskatchewan"},"type":"Feature","geometry":{"type":"Point","coordinates":[-87.414316,32.227542]}},{"properties":{"location name":"YQR-Regina Intl","city":"Regina, Saskatchewan","column_10":null,"column_7":null,"country":"Canada","column_8":null,"geo_score":0.714,"column_9":null,"postal code":null,"id":"acx1l9760sdb","address":"Regina, Saskatchewan","geo_precision":"street","state":"Saskatchewan"},"type":"Feature","geometry":{"type":"Point","coordinates":[-76.435177,37.799355]}},{"properties":{"location name":"YXE-Sasakatoon, Saskatchewan","city":"Sasakatoon","column_10":null,"column_7":null,"country":"Canada","column_8":null,"geo_score":0.0,"column_9":null,"postal code":null,"id":"acx1l9j7i8s6","address":"Sasakatoon","geo_precision":"unmatched","state":"Saskatchewan"},"type":"Feature","geometry":null},{"properties":{"location name":"YSF-Stony Rapids, Saskatchewan","city":"Stony Rapids","column_10":null,"column_7":null,"country":"Canada","column_8":null,"geo_score":0.464,"column_9":null,"postal code":null,"id":"acx1l9de43vo","address":"Stony Rapids","geo_precision":"street","state":"Saskatchewan"},"type":"Feature","geometry":{"type":"Point","coordinates":[-78.754621,43.216056]}},{"properties":{"location name":"YTG-Sullivan Bay","city":"Sullivan Bay","column_10":null,"column_7":null,"country":"Canada","column_8":null,"geo_score":0.56,"column_9":null,"postal code":null,"id":"acx1l984qydc","address":"Sullivan Bay","geo_precision":"street","state":"Yukon"},"type":"Feature","geometry":{"type":"Point","coordinates":[-87.947931,37.494552]}},{"properties":{"location name":"YQH-Watson Lake Airport","city":"Watson Lake, Yukon Territory","column_10":null,"column_7":null,"country":"Canada","column_8":null,"geo_score":0.524,"column_9":null,"postal code":null,"id":"acx1l995mvu7","address":"Watson Lake, Yukon Territory","geo_precision":"street","state":"Yukon"},"type":"Feature","geometry":{"type":"Point","coordinates":[-80.148246,39.485912]}},{"properties":{"location name":"YXY-Whitehorse Airport","city":"Whitehorse","column_10":null,"column_7":null,"country":"Canada","column_8":null,"geo_score":0.615,"column_9":null,"postal code":null,"id":"acx1l9eybqua","address":"Whitehorse","geo_precision":"street","state":"Yukon Territory"},"type":"Feature","geometry":{"type":"Point","coordinates":[-75.428823,40.010494]}}],"is_temporal":false,"author":{"url":"","metadata":null,"contact_name":null,"contact_address":null,"source":null,"contact_phone":null},"source":"","pagination":{"sort":null,"start":0,"total":314,"limit":1000000},"state":"complete","tags":"","published":"2014-08-16T17:11:44-04:00","id":333101}