{"type":"FeatureCollection","data_type":"Dataset","url_type":null,"permissions":[{"permissions":{"download":true,"view":true},"group_id":"everyone"}],"classification":null,"title":"Westchester County Senior Centers","count":120,"stream_id":334090,"contributor":{"url":"http://geocommons.com/users/34264","name":"RenataPS"},"data_attributes":null,"calculation_params":null,"icon_link":null,"link":"http://geocommons.com/overlays/334090.json","extent":[360.0,180.0,360.0,180.0],"geometry_types":["point"],"unique_name":null,"name":"Westchester County Senior Centers","feature_count":120,"description":"This data is from Westchester County's GIS Warehouse: http://giswww.westchestergov.com/wcgis/Facility.htm","next_feature":null,"is_raster":false,"short_classification":"Y","stats":{"PERIMETER":{"max":0.0,"variance":0.0,"mean":0.0,"stdev":0.0,"min":0.0,"median":0.0},"AV_SCORE":{"max":100.0,"variance":32.7674369747899,"mean":98.425,"stdev":5.72428484395998,"min":70.0,"median":100.0},"AV_ZONE":{"max":10805.0,"variance":6318.40644257703,"mean":10616.7833333333,"stdev":79.488404453587,"min":10504.0,"median":10595.0},"AREA":{"max":0.0,"variance":0.0,"mean":0.0,"stdev":0.0,"min":0.0,"median":0.0},"SR_CTRSN_1":{"max":126.0,"variance":1571.98816526611,"mean":61.6083333333333,"stdev":39.6483059570785,"min":0.0,"median":64.0},"SR_CTRSNCL":{"max":0.0,"variance":0.0,"mean":0.0,"stdev":0.0,"min":0.0,"median":0.0}},"features":[{"properties":{"PERIMETER":0.0,"NAME":"AARP Chapter 1814- Croton Chapter","CITY":"Croton","ZIP":10520.0,"AV_SCORE":100.0,"AV_SIDE":"R","AV_ZONE":10520.0,"AV_ADD":"44 GRAND STREET","AREA":0.0,"STATE":"NY","AV_STATUS":"M","SR_CTRSN_1":1.0,"SOURCETHM":"Sr_ctrsnclubs","id":"acznheokhn9r","SR_CTRSNCL":0.0,"ADDRESS":"44 Grand Street"},"type":"Feature","geometry":{"type":"Point","coordinates":[660329.937473538,864351.624978408]}},{"properties":{"PERIMETER":0.0,"NAME":"AARP Chapter 2619","CITY":"Mount Vernon","ZIP":10553.0,"AV_SCORE":100.0,"AV_SIDE":"L","AV_ZONE":10553.0,"AV_ADD":"311 EAST FOURTH STREET","AREA":0.0,"STATE":"NY","AV_STATUS":"M","SR_CTRSN_1":2.0,"SOURCETHM":"Sr_ctrsnclubs","id":"acznheo9rrhg","SR_CTRSNCL":0.0,"ADDRESS":"311 East Fourth Street"},"type":"Feature","geometry":{"type":"Point","coordinates":[679303.500115208,755833.562541342]}},{"properties":{"PERIMETER":0.0,"NAME":"AARP Chapter 2028- Hudson Chapter","CITY":"Yonkers","ZIP":10701.0,"AV_SCORE":100.0,"AV_SIDE":"R","AV_ZONE":10701.0,"AV_ADD":"58 OAK STREET","AREA":0.0,"STATE":"NY","AV_STATUS":"M","SR_CTRSN_1":3.0,"SOURCETHM":"Sr_ctrsnclubs","id":"acznhec1utgk","SR_CTRSNCL":0.0,"ADDRESS":"58 Oak Street"},"type":"Feature","geometry":{"type":"Point","coordinates":[660691.125057874,765490.187446336]}},{"properties":{"PERIMETER":0.0,"NAME":"AARP- St. John's Episcopal Church","CITY":"Yonkers","ZIP":10701.0,"AV_SCORE":100.0,"AV_SIDE":"R","AV_ZONE":10701.0,"AV_ADD":"1 HUDSON STREET","AREA":0.0,"STATE":"NY","AV_STATUS":"M","SR_CTRSN_1":4.0,"SOURCETHM":"Sr_ctrsnclubs","id":"acznhem8gfml","SR_CTRSNCL":0.0,"ADDRESS":"1 Hudson Street"},"type":"Feature","geometry":{"type":"Point","coordinates":[658250.250047601,765390.375094243]}},{"properties":{"PERIMETER":0.0,"NAME":"AARP Chapter 3297","CITY":"Yorktown Heights","ZIP":10598.0,"AV_SCORE":70.0,"AV_SIDE":null,"AV_ZONE":10598.0,"AV_ADD":"188 LONGHILL DRIVE","AREA":0.0,"STATE":"NY","AV_STATUS":"M","SR_CTRSN_1":5.0,"SOURCETHM":"Sr_ctrsnclubs","id":"acznhef7przj","SR_CTRSNCL":0.0,"ADDRESS":"188A Longhill Drive"},"type":"Feature","geometry":{"type":"Point","coordinates":[685374.750040863,909805.31257274]}},{"properties":{"PERIMETER":0.0,"NAME":"Ardsley Senior Citizens Center","CITY":"Elmsford","ZIP":10523.0,"AV_SCORE":100.0,"AV_SIDE":"R","AV_ZONE":10523.0,"AV_ADD":"12 NORTH GOODWIN AVENUE","AREA":0.0,"STATE":"NY","AV_STATUS":"M","SR_CTRSN_1":6.0,"SOURCETHM":"Sr_ctrsnclubs","id":"acznhed2k2ox","SR_CTRSNCL":0.0,"ADDRESS":"12 North Goodwin Avenue"},"type":"Feature","geometry":{"type":"Point","coordinates":[680897.375060693,809647.499999461]}},{"properties":{"PERIMETER":0.0,"NAME":"Town of Bedford- R&amp;P Senior Program","CITY":"Bedford Hills","ZIP":10507.0,"AV_SCORE":100.0,"AV_SIDE":"R","AV_ZONE":10507.0,"AV_ADD":"21 PARK AVENUE","AREA":0.0,"STATE":"NY","AV_STATUS":"M","SR_CTRSN_1":10.0,"SOURCETHM":"Sr_ctrsnclubs","id":"acznheaj5pil","SR_CTRSNCL":0.0,"ADDRESS":"21 Park Avenue"},"type":"Feature","geometry":{"type":"Point","coordinates":[712449.687410078,877917.687583042]}},{"properties":{"PERIMETER":0.0,"NAME":"Briarcliff Manor Senior Citizens","CITY":"Briarcliff Manor","ZIP":10510.0,"AV_SCORE":100.0,"AV_SIDE":"L","AV_ZONE":10510.0,"AV_ADD":"48 MACY ROAD","AREA":0.0,"STATE":"NY","AV_STATUS":"M","SR_CTRSN_1":11.0,"SOURCETHM":"Sr_ctrsnclubs","id":"acznhegfn13k","SR_CTRSNCL":0.0,"ADDRESS":"48 Macy Road"},"type":"Feature","geometry":{"type":"Point","coordinates":[669936.437578485,846792.812546055]}},{"properties":{"PERIMETER":0.0,"NAME":"Bronxville Seniors- Reformed Church","CITY":"Bronxville","ZIP":10708.0,"AV_SCORE":100.0,"AV_SIDE":"L","AV_ZONE":10708.0,"AV_ADD":"198 PONDFIELD ROAD","AREA":0.0,"STATE":"NY","AV_STATUS":"M","SR_CTRSN_1":13.0,"SOURCETHM":"Sr_ctrsnclubs","id":"acznhec2jonk","SR_CTRSNCL":0.0,"ADDRESS":"198 Pondfield Road"},"type":"Feature","geometry":{"type":"Point","coordinates":[676850.874960924,766723.437495484]}},{"properties":{"PERIMETER":0.0,"NAME":"Senior Citizens of Bronxville","CITY":"Bronxville","ZIP":10708.0,"AV_SCORE":100.0,"AV_SIDE":"L","AV_ZONE":10708.0,"AV_ADD":"200 PONDFIELD ROAD","AREA":0.0,"STATE":"NY","AV_STATUS":"M","SR_CTRSN_1":14.0,"SOURCETHM":"Sr_ctrsnclubs","id":"acznhekc6emo","SR_CTRSNCL":0.0,"ADDRESS":"200 Pondfield Road"},"type":"Feature","geometry":{"type":"Point","coordinates":[676855.625040929,766711.124919473]}},{"properties":{"PERIMETER":0.0,"NAME":"Buchanan Senior Citizens Club","CITY":"Buchanan","ZIP":10511.0,"AV_SCORE":100.0,"AV_SIDE":"L","AV_ZONE":10511.0,"AV_ADD":"236 TATE AVENUE","AREA":0.0,"STATE":"NY","AV_STATUS":"M","SR_CTRSN_1":15.0,"SOURCETHM":"Sr_ctrsnclubs","id":"acznhek0r5w4","SR_CTRSNCL":0.0,"ADDRESS":"236 Tate Avenue"},"type":"Feature","geometry":{"type":"Point","coordinates":[646209.312564387,884774.062373428]}},{"properties":{"PERIMETER":0.0,"NAME":"Senior Citizens Club- Bethel Springvale Inn","CITY":"Croton-on-Hudson","ZIP":10520.0,"AV_SCORE":100.0,"AV_SIDE":"L","AV_ZONE":10520.0,"AV_ADD":"500 ALBANY POST ROAD","AREA":0.0,"STATE":"NY","AV_STATUS":"M","SR_CTRSN_1":16.0,"SOURCETHM":"Sr_ctrsnclubs","id":"acznhen5avy6","SR_CTRSNCL":0.0,"ADDRESS":"500 Albany Post Road"},"type":"Feature","geometry":{"type":"Point","coordinates":[663050.187588071,860387.062542716]}},{"properties":{"PERIMETER":0.0,"NAME":"Cortlandt Seniors- Cortlandt Community Center","CITY":"Cortlandt Manor","ZIP":10567.0,"AV_SCORE":100.0,"AV_SIDE":"L","AV_ZONE":10567.0,"AV_ADD":"29 WESTBROOK DRIVE","AREA":0.0,"STATE":"NY","AV_STATUS":"M","SR_CTRSN_1":17.0,"SOURCETHM":"Sr_ctrsnclubs","id":"acznheoq9uxs","SR_CTRSNCL":0.0,"ADDRESS":"29 Westbrook Drive"},"type":"Feature","geometry":{"type":"Point","coordinates":[661930.062403028,906791.562553933]}},{"properties":{"PERIMETER":0.0,"NAME":"Crompond Seniors- Cortlandt Community Center","CITY":"Cortlandt Manor","ZIP":10567.0,"AV_SCORE":100.0,"AV_SIDE":"L","AV_ZONE":10567.0,"AV_ADD":"29 WESTBROOK DRIVE","AREA":0.0,"STATE":"NY","AV_STATUS":"M","SR_CTRSN_1":18.0,"SOURCETHM":"Sr_ctrsnclubs","id":"acznhec0kmub","SR_CTRSNCL":0.0,"ADDRESS":"29 Westbrook Drive"},"type":"Feature","geometry":{"type":"Point","coordinates":[661930.062403028,906791.562553933]}},{"properties":{"PERIMETER":0.0,"NAME":"Nor-Cort Seniors- Cortlandt Community Center","CITY":"Cortlandt Manor","ZIP":10567.0,"AV_SCORE":100.0,"AV_SIDE":"L","AV_ZONE":10567.0,"AV_ADD":"29 WESTBROOK DRIVE","AREA":0.0,"STATE":"NY","AV_STATUS":"M","SR_CTRSN_1":19.0,"SOURCETHM":"Sr_ctrsnclubs","id":"acznheory5i6","SR_CTRSNCL":0.0,"ADDRESS":"29 Westbrook Drive"},"type":"Feature","geometry":{"type":"Point","coordinates":[661930.062403028,906791.562553933]}},{"properties":{"PERIMETER":0.0,"NAME":"Verplanck Seniors- Cortlandt Community Center","CITY":"Cortlandt Manor","ZIP":10567.0,"AV_SCORE":100.0,"AV_SIDE":"L","AV_ZONE":10567.0,"AV_ADD":"29 WESTBROOK DRIVE","AREA":0.0,"STATE":"NY","AV_STATUS":"M","SR_CTRSN_1":20.0,"SOURCETHM":"Sr_ctrsnclubs","id":"acznheeyxi9q","SR_CTRSNCL":0.0,"ADDRESS":"29 Westbrook Drive"},"type":"Feature","geometry":{"type":"Point","coordinates":[661930.062403028,906791.562553933]}},{"properties":{"PERIMETER":0.0,"NAME":"Croton Senior Citizens- Municipal Building","CITY":"Croton-on-Hudson","ZIP":10520.0,"AV_SCORE":100.0,"AV_SIDE":"L","AV_ZONE":10520.0,"AV_ADD":"1 VAN WYCK STREET","AREA":0.0,"STATE":"NY","AV_STATUS":"M","SR_CTRSN_1":21.0,"SOURCETHM":"Sr_ctrsnclubs","id":"acznhebime0i","SR_CTRSNCL":0.0,"ADDRESS":"1 Van Wyck Street"},"type":"Feature","geometry":{"type":"Point","coordinates":[660783.12505796,865799.062547756]}},{"properties":{"PERIMETER":0.0,"NAME":"Dobbs Ferry Senior Citizens Center","CITY":"Dobbs Ferry","ZIP":10522.0,"AV_SCORE":100.0,"AV_SIDE":"R","AV_ZONE":10522.0,"AV_ADD":"156 PALISADE STREET","AREA":0.0,"STATE":"NY","AV_STATUS":"M","SR_CTRSN_1":24.0,"SOURCETHM":"Sr_ctrsnclubs","id":"acznhebej8ov","SR_CTRSNCL":0.0,"ADDRESS":"156 Palisade Street"},"type":"Feature","geometry":{"type":"Point","coordinates":[664461.624901386,795634.93755441]}},{"properties":{"PERIMETER":0.0,"NAME":"Sacred Heart Seniors- Sacred Heart Church","CITY":"Dobbs Ferry","ZIP":10522.0,"AV_SCORE":100.0,"AV_SIDE":"R","AV_ZONE":10522.0,"AV_ADD":"18 BELLWOOD AVENUE","AREA":0.0,"STATE":"NY","AV_STATUS":"M","SR_CTRSN_1":25.0,"SOURCETHM":"Sr_ctrsnclubs","id":"acznheqmzug3","SR_CTRSNCL":0.0,"ADDRESS":"18 Bellwood Avenue"},"type":"Feature","geometry":{"type":"Point","coordinates":[666604.249927381,795343.999954139]}},{"properties":{"PERIMETER":0.0,"NAME":"Sundays Alive","CITY":"Eastchester","ZIP":10709.0,"AV_SCORE":100.0,"AV_SIDE":"L","AV_ZONE":10709.0,"AV_ADD":"40 MILL ROAD","AREA":0.0,"STATE":"NY","AV_STATUS":"M","SR_CTRSN_1":26.0,"SOURCETHM":"Sr_ctrsnclubs","id":"acznhenubv56","SR_CTRSNCL":0.0,"ADDRESS":"40 Mill Road"},"type":"Feature","geometry":{"type":"Point","coordinates":[682353.562454049,774032.750014292]}},{"properties":{"PERIMETER":0.0,"NAME":"Fairview-Greenburgh Community Center","CITY":"White Plains","ZIP":10607.0,"AV_SCORE":100.0,"AV_SIDE":"L","AV_ZONE":10607.0,"AV_ADD":"32 MANHATTAN AVENUE","AREA":0.0,"STATE":"NY","AV_STATUS":"M","SR_CTRSN_1":29.0,"SOURCETHM":"Sr_ctrsnclubs","id":"acznhelaqytr","SR_CTRSNCL":0.0,"ADDRESS":"32 Manhattan Avenue"},"type":"Feature","geometry":{"type":"Point","coordinates":[685972.062553419,806117.562588173]}},{"properties":{"PERIMETER":0.0,"NAME":"Harrison Community Center","CITY":"Harrison","ZIP":10528.0,"AV_SCORE":100.0,"AV_SIDE":"L","AV_ZONE":10528.0,"AV_ADD":"216 HALSTEAD AVENUE","AREA":0.0,"STATE":"NY","AV_STATUS":"M","SR_CTRSN_1":30.0,"SOURCETHM":"Sr_ctrsnclubs","id":"acznheb4cabt","SR_CTRSNCL":0.0,"ADDRESS":"216 Halstead Avenue"},"type":"Feature","geometry":{"type":"Point","coordinates":[708863.187566738,778354.937538317]}},{"properties":{"PERIMETER":0.0,"NAME":"West Harrison Senior Citizens","CITY":"White Plains","ZIP":10604.0,"AV_SCORE":100.0,"AV_SIDE":"L","AV_ZONE":10604.0,"AV_ADD":"251 UNDERHILL AVENUE","AREA":0.0,"STATE":"NY","AV_STATUS":"M","SR_CTRSN_1":31.0,"SOURCETHM":"Sr_ctrsnclubs","id":"acznheldk4w7","SR_CTRSNCL":0.0,"ADDRESS":"251 Underhill Avenue"},"type":"Feature","geometry":{"type":"Point","coordinates":[699118.625125663,805113.749979238]}},{"properties":{"PERIMETER":0.0,"NAME":"Sacred Heart Leisure Club","CITY":"Hartsdale","ZIP":10530.0,"AV_SCORE":100.0,"AV_SIDE":"L","AV_ZONE":10530.0,"AV_ADD":"10 LAWTON AVENUE","AREA":0.0,"STATE":"NY","AV_STATUS":"M","SR_CTRSN_1":32.0,"SOURCETHM":"Sr_ctrsnclubs","id":"acznhen4otw3","SR_CTRSNCL":0.0,"ADDRESS":"10 Lawton Avenue"},"type":"Feature","geometry":{"type":"Point","coordinates":[686398.187609816,797558.062548201]}},{"properties":{"PERIMETER":0.0,"NAME":"Senior Canteen","CITY":"Hastings-on-Hudson","ZIP":10706.0,"AV_SCORE":100.0,"AV_SIDE":"R","AV_ZONE":10706.0,"AV_ADD":"44 MAIN STREET","AREA":0.0,"STATE":"NY","AV_STATUS":"M","SR_CTRSN_1":33.0,"SOURCETHM":"Sr_ctrsnclubs","id":"acznhecu3j5e","SR_CTRSNCL":0.0,"ADDRESS":"44 Main Street"},"type":"Feature","geometry":{"type":"Point","coordinates":[663168.500036182,787680.437451002]}},{"properties":{"PERIMETER":0.0,"NAME":"Hastings Busy Bees","CITY":"Hastings-on-Hudson","ZIP":10706.0,"AV_SCORE":100.0,"AV_SIDE":"R","AV_ZONE":10706.0,"AV_ADD":"44 MAIN STREET","AREA":0.0,"STATE":"NY","AV_STATUS":"M","SR_CTRSN_1":34.0,"SOURCETHM":"Sr_ctrsnclubs","id":"acznhefjr1du","SR_CTRSNCL":0.0,"ADDRESS":"44 Main Street"},"type":"Feature","geometry":{"type":"Point","coordinates":[663168.500036182,787680.437451002]}},{"properties":{"PERIMETER":0.0,"NAME":"Leisure Time Club","CITY":"Irvington","ZIP":10533.0,"AV_SCORE":100.0,"AV_SIDE":"R","AV_ZONE":10533.0,"AV_ADD":"71 MAIN STREET","AREA":0.0,"STATE":"NY","AV_STATUS":"M","SR_CTRSN_1":35.0,"SOURCETHM":"Sr_ctrsnclubs","id":"acznhek6um3m","SR_CTRSNCL":0.0,"ADDRESS":"71 Main Street"},"type":"Feature","geometry":{"type":"Point","coordinates":[666259.24999106,804162.374874352]}},{"properties":{"PERIMETER":0.0,"NAME":"Jewish Interest Group","CITY":"Larchmont","ZIP":10538.0,"AV_SCORE":100.0,"AV_SIDE":"R","AV_ZONE":10538.0,"AV_ADD":"75 LARCHMONT AVENUE","AREA":0.0,"STATE":"NY","AV_STATUS":"M","SR_CTRSN_1":36.0,"SOURCETHM":"Sr_ctrsnclubs","id":"acznheb78pyb","SR_CTRSNCL":0.0,"ADDRESS":"75 Larchmont Avenue"},"type":"Feature","geometry":{"type":"Point","coordinates":[699468.187493988,762606.812595651]}},{"properties":{"PERIMETER":0.0,"NAME":"Larchmont-Mamaroneck Senior Center","CITY":"Larchmont","ZIP":10538.0,"AV_SCORE":100.0,"AV_SIDE":"R","AV_ZONE":10538.0,"AV_ADD":"119 LARCHMONT AVENUE","AREA":0.0,"STATE":"NY","AV_STATUS":"M","SR_CTRSN_1":37.0,"SOURCETHM":"Sr_ctrsnclubs","id":"acznhenwbyw3","SR_CTRSNCL":0.0,"ADDRESS":"119 Larchmont Avenue"},"type":"Feature","geometry":{"type":"Point","coordinates":[699021.187429572,763557.062580536]}},{"properties":{"PERIMETER":0.0,"NAME":"Lewisboro Senior Citizens","CITY":"Goldens Bridge","ZIP":10526.0,"AV_SCORE":100.0,"AV_SIDE":"R","AV_ZONE":10526.0,"AV_ADD":"65 OLD BEDFORD ROAD","AREA":0.0,"STATE":"NY","AV_STATUS":"M","SR_CTRSN_1":38.0,"SOURCETHM":"Sr_ctrsnclubs","id":"acznhee07e4n","SR_CTRSNCL":0.0,"ADDRESS":"65 Old Bedford Road"},"type":"Feature","geometry":{"type":"Point","coordinates":[717292.125046588,896566.75000041]}},{"properties":{"PERIMETER":0.0,"NAME":"Mamaroneck Senior Center","CITY":"Mamaroneck","ZIP":10543.0,"AV_SCORE":100.0,"AV_SIDE":"L","AV_ZONE":10543.0,"AV_ADD":"740 WEST BOSTON POST ROAD","AREA":0.0,"STATE":"NY","AV_STATUS":"M","SR_CTRSN_1":39.0,"SOURCETHM":"Sr_ctrsnclubs","id":"acznhegplwy3","SR_CTRSNCL":0.0,"ADDRESS":"740 West Boston Post Road"},"type":"Feature","geometry":{"type":"Point","coordinates":[702041.124968385,769352.125113933]}},{"properties":{"PERIMETER":0.0,"NAME":"Mount Kisco Senior Group","CITY":"Mount Kisco","ZIP":10549.0,"AV_SCORE":82.0,"AV_SIDE":"R","AV_ZONE":10549.0,"AV_ADD":"351 MAIN STREET","AREA":0.0,"STATE":"NY","AV_STATUS":"M","SR_CTRSN_1":41.0,"SOURCETHM":"Sr_ctrsnclubs","id":"acznhefqex0j","SR_CTRSNCL":0.0,"ADDRESS":"351 Main Street"},"type":"Feature","geometry":{"type":"Point","coordinates":[705423.374955534,862484.687376669]}},{"properties":{"PERIMETER":0.0,"NAME":"Drop In Club","CITY":"Valhalla","ZIP":10595.0,"AV_SCORE":100.0,"AV_SIDE":"L","AV_ZONE":10595.0,"AV_ADD":"ONE TOWN HALL PLAZA","AREA":0.0,"STATE":"NY","AV_STATUS":"M","SR_CTRSN_1":42.0,"SOURCETHM":"Sr_ctrsnclubs","id":"acznheopj9wz","SR_CTRSNCL":0.0,"ADDRESS":"One Town Hall Plaza"},"type":"Feature","geometry":{"type":"Point","coordinates":[691231.562590317,823997.250028825]}},{"properties":{"PERIMETER":0.0,"NAME":"Mount Pleasant Seniors","CITY":"Valhalla","ZIP":10595.0,"AV_SCORE":100.0,"AV_SIDE":"L","AV_ZONE":10595.0,"AV_ADD":"ONE TOWN HALL PLAZA","AREA":0.0,"STATE":"NY","AV_STATUS":"M","SR_CTRSN_1":43.0,"SOURCETHM":"Sr_ctrsnclubs","id":"acznhej67fmd","SR_CTRSNCL":0.0,"ADDRESS":"One Town Hall Plaza"},"type":"Feature","geometry":{"type":"Point","coordinates":[691231.562590317,823997.250028825]}},{"properties":{"PERIMETER":0.0,"NAME":"Thornwood Neighborhood Group","CITY":"Valhalla","ZIP":10595.0,"AV_SCORE":100.0,"AV_SIDE":"L","AV_ZONE":10595.0,"AV_ADD":"ONE TOWN HALL PLAZA","AREA":0.0,"STATE":"NY","AV_STATUS":"M","SR_CTRSN_1":44.0,"SOURCETHM":"Sr_ctrsnclubs","id":"acznhednjgp8","SR_CTRSNCL":0.0,"ADDRESS":"One Town Hall Plaza"},"type":"Feature","geometry":{"type":"Point","coordinates":[691231.562590317,823997.250028825]}},{"properties":{"PERIMETER":0.0,"NAME":"Armory Senior Citizens","CITY":"Mount Vernon","ZIP":10550.0,"AV_SCORE":100.0,"AV_SIDE":"L","AV_ZONE":10550.0,"AV_ADD":"144 SOUTH THOMAS SHARP BLVD","AREA":0.0,"STATE":"NY","AV_STATUS":"M","SR_CTRSN_1":45.0,"SOURCETHM":"Sr_ctrsnclubs","id":"acznheh6fsl3","SR_CTRSNCL":0.0,"ADDRESS":"144 North Fifth Avenue"},"type":"Feature","geometry":{"type":"Point","coordinates":[675484.875087652,756334.249901809]}},{"properties":{"PERIMETER":0.0,"NAME":"Doles Senior Citizens Center","CITY":"Mount Vernon","ZIP":10550.0,"AV_SCORE":100.0,"AV_SIDE":"L","AV_ZONE":10550.0,"AV_ADD":"250 SOUTH SIXTH AVENUE","AREA":0.0,"STATE":"NY","AV_STATUS":"M","SR_CTRSN_1":46.0,"SOURCETHM":"Sr_ctrsnclubs","id":"acznhee2ithe","SR_CTRSNCL":0.0,"ADDRESS":"250 South Sixth Avenue"},"type":"Feature","geometry":{"type":"Point","coordinates":[675523.374927688,755315.06244486]}},{"properties":{"PERIMETER":0.0,"NAME":"St. Peter and St. Paul Church- Seniors Leisure Club","CITY":"Mount Vernon","ZIP":10552.0,"AV_SCORE":100.0,"AV_SIDE":"R","AV_ZONE":10552.0,"AV_ADD":"21 VILLA STREET","AREA":0.0,"STATE":"NY","AV_STATUS":"M","SR_CTRSN_1":47.0,"SOURCETHM":"Sr_ctrsnclubs","id":"acznhecnvd0e","SR_CTRSNCL":0.0,"ADDRESS":"21 Villa Street"},"type":"Feature","geometry":{"type":"Point","coordinates":[675637.437519794,761942.124979032]}},{"properties":{"PERIMETER":0.0,"NAME":"St. Mary's Leisure Club","CITY":"Mount Vernon","ZIP":10550.0,"AV_SCORE":100.0,"AV_SIDE":"R","AV_ZONE":10550.0,"AV_ADD":"23 SOUTH HIGH STREET","AREA":0.0,"STATE":"NY","AV_STATUS":"M","SR_CTRSN_1":48.0,"SOURCETHM":"Sr_ctrsnclubs","id":"acznheg1x33o","SR_CTRSNCL":0.0,"ADDRESS":"23 South High Street"},"type":"Feature","geometry":{"type":"Point","coordinates":[672497.12494087,757628.187567014]}},{"properties":{"PERIMETER":0.0,"NAME":"The Rose YM-YWHA- Senior Canteen","CITY":"Mount Vernon","ZIP":10550.0,"AV_SCORE":100.0,"AV_SIDE":"R","AV_ZONE":10550.0,"AV_ADD":"30 OAKLEY AVENUE","AREA":0.0,"STATE":"NY","AV_STATUS":"M","SR_CTRSN_1":51.0,"SOURCETHM":"Sr_ctrsnclubs","id":"acznhecw8zlr","SR_CTRSNCL":0.0,"ADDRESS":"30 Oakley Avenue"},"type":"Feature","geometry":{"type":"Point","coordinates":[675650.312527806,759361.749936628]}},{"properties":{"PERIMETER":0.0,"NAME":"New Castle Senior Citizens Program","CITY":"Chappaqua","ZIP":10514.0,"AV_SCORE":100.0,"AV_SIDE":"L","AV_ZONE":10514.0,"AV_ADD":"200 SOUTH GREELEY AVENUE","AREA":0.0,"STATE":"NY","AV_STATUS":"M","SR_CTRSN_1":53.0,"SOURCETHM":"Sr_ctrsnclubs","id":"acznhee17sim","SR_CTRSNCL":0.0,"ADDRESS":"200 South Greeley Avenue"},"type":"Feature","geometry":{"type":"Point","coordinates":[691983.125087017,846178.437377483]}},{"properties":{"PERIMETER":0.0,"NAME":"Ever Ready Sunshine Club","CITY":"New Rochelle","ZIP":10801.0,"AV_SCORE":100.0,"AV_SIDE":"L","AV_ZONE":10801.0,"AV_ADD":"95 LINCOLN AVENUE","AREA":0.0,"STATE":"NY","AV_STATUS":"M","SR_CTRSN_1":55.0,"SOURCETHM":"Sr_ctrsnclubs","id":"acznheppmix9","SR_CTRSNCL":0.0,"ADDRESS":"95 Lincoln Avenue"},"type":"Feature","geometry":{"type":"Point","coordinates":[688239.25001153,759758.624944998]}},{"properties":{"PERIMETER":0.0,"NAME":"Friendship Club- Temple Israel","CITY":"New Rochelle","ZIP":10804.0,"AV_SCORE":100.0,"AV_SIDE":"L","AV_ZONE":10804.0,"AV_ADD":"1000 PINEBROOK BOULEVARD","AREA":0.0,"STATE":"NY","AV_STATUS":"M","SR_CTRSN_1":56.0,"SOURCETHM":"Sr_ctrsnclubs","id":"acznheag2j8e","SR_CTRSNCL":0.0,"ADDRESS":"1000 Pinebrook Boulevard"},"type":"Feature","geometry":{"type":"Point","coordinates":[690848.749917961,777233.312449272]}},{"properties":{"PERIMETER":0.0,"NAME":"Hugh A. Doyle Senior Center","CITY":"New Rochelle","ZIP":10805.0,"AV_SCORE":100.0,"AV_SIDE":"R","AV_ZONE":10805.0,"AV_ADD":"94 DAVIS AVENUE","AREA":0.0,"STATE":"NY","AV_STATUS":"M","SR_CTRSN_1":57.0,"SOURCETHM":"Sr_ctrsnclubs","id":"acznhemy8wo8","SR_CTRSNCL":0.0,"ADDRESS":"94 Davis Avenue"},"type":"Feature","geometry":{"type":"Point","coordinates":[690446.499933586,755095.874988655]}},{"properties":{"PERIMETER":0.0,"NAME":"North Castle Adult Club","CITY":"Armonk","ZIP":10504.0,"AV_SCORE":100.0,"AV_SIDE":"L","AV_ZONE":10504.0,"AV_ADD":"85 COX AVENUE","AREA":0.0,"STATE":"NY","AV_STATUS":"M","SR_CTRSN_1":58.0,"SOURCETHM":"Sr_ctrsnclubs","id":"acznhefq5ns8","SR_CTRSNCL":0.0,"ADDRESS":"85 Cox Avenue"},"type":"Feature","geometry":{"type":"Point","coordinates":[711270.06244898,838431.437562268]}},{"properties":{"PERIMETER":0.0,"NAME":"North Salem Senior Citizens Club-Purdy's Methodist Church","CITY":"Purdys","ZIP":10560.0,"AV_SCORE":100.0,"AV_SIDE":"L","AV_ZONE":10560.0,"AV_ADD":"106 TITICUS ROAD","AREA":0.0,"STATE":"NY","AV_STATUS":"M","SR_CTRSN_1":59.0,"SOURCETHM":"Sr_ctrsnclubs","id":"acznhebjkaya","SR_CTRSNCL":0.0,"ADDRESS":"106 Titicus Road"},"type":"Feature","geometry":{"type":"Point","coordinates":[724537.187453336,909755.374908693]}},{"properties":{"PERIMETER":0.0,"NAME":"North Salem Senior Citizens Club- Town Hall","CITY":"North Salem","ZIP":10560.0,"AV_SCORE":100.0,"AV_SIDE":"R","AV_ZONE":10560.0,"AV_ADD":"266 TITICUS ROAD","AREA":0.0,"STATE":"NY","AV_STATUS":"M","SR_CTRSN_1":60.0,"SOURCETHM":"Sr_ctrsnclubs","id":"acznheavyecx","SR_CTRSNCL":0.0,"ADDRESS":"266 Titicus Road"},"type":"Feature","geometry":{"type":"Point","coordinates":[739851.437451598,910291.874877193]}},{"properties":{"PERIMETER":0.0,"NAME":"Bethel's Adult Day Care","CITY":"Ossining","ZIP":10562.0,"AV_SCORE":100.0,"AV_SIDE":"L","AV_ZONE":10562.0,"AV_ADD":"17 NARRAGANSETT AVENUE","AREA":0.0,"STATE":"NY","AV_STATUS":"M","SR_CTRSN_1":61.0,"SOURCETHM":"Sr_ctrsnclubs","id":"acznheplqwjo","SR_CTRSNCL":0.0,"ADDRESS":"17 Narragansett Avenue"},"type":"Feature","geometry":{"type":"Point","coordinates":[673123.562573453,852715.500039571]}},{"properties":{"PERIMETER":0.0,"NAME":"Golden Age Club- Ossining Community Center","CITY":"Ossining","ZIP":10562.0,"AV_SCORE":100.0,"AV_SIDE":"L","AV_ZONE":10562.0,"AV_ADD":"95 BROADWAY","AREA":0.0,"STATE":"NY","AV_STATUS":"M","SR_CTRSN_1":62.0,"SOURCETHM":"Sr_ctrsnclubs","id":"acznheam4vra","SR_CTRSNCL":0.0,"ADDRESS":"95 Broadway"},"type":"Feature","geometry":{"type":"Point","coordinates":[667271.312456003,849274.937604367]}},{"properties":{"PERIMETER":0.0,"NAME":"Ossining Golden Agers","CITY":"Ossining","ZIP":10562.0,"AV_SCORE":100.0,"AV_SIDE":"R","AV_ZONE":10562.0,"AV_ADD":"6 PARK AVENUE","AREA":0.0,"STATE":"NY","AV_STATUS":"M","SR_CTRSN_1":63.0,"SOURCETHM":"Sr_ctrsnclubs","id":"acznhef5ry2u","SR_CTRSNCL":0.0,"ADDRESS":"6 Park Avenue"},"type":"Feature","geometry":{"type":"Point","coordinates":[670820.749899308,850976.375045951]}},{"properties":{"PERIMETER":0.0,"NAME":"Senior Community Coalition- Mariandale Center","CITY":"Ossining","ZIP":10562.0,"AV_SCORE":82.0,"AV_SIDE":"R","AV_ZONE":10562.0,"AV_ADD":"299 NORTH HIGHLAND AVE","AREA":0.0,"STATE":"NY","AV_STATUS":"M","SR_CTRSN_1":64.0,"SOURCETHM":"Sr_ctrsnclubs","id":"acznhekghyh9","SR_CTRSNCL":0.0,"ADDRESS":"299 North Highland Ave"},"type":"Feature","geometry":{"type":"Point","coordinates":[668034.750024714,841926.812413523]}},{"properties":{"PERIMETER":0.0,"NAME":"Golden Age Club- First Hebrew Congregation","CITY":"Peekskill","ZIP":10566.0,"AV_SCORE":100.0,"AV_SIDE":"R","AV_ZONE":10566.0,"AV_ADD":"1821 EAST MAIN STREET","AREA":0.0,"STATE":"NY","AV_STATUS":"M","SR_CTRSN_1":65.0,"SOURCETHM":"Sr_ctrsnclubs","id":"acznhebl1hp5","SR_CTRSNCL":0.0,"ADDRESS":"1821 East Main Street"},"type":"Feature","geometry":{"type":"Point","coordinates":[655931.374909441,897142.374960947]}},{"properties":{"PERIMETER":0.0,"NAME":"Peekskill Senior Citizens Club","CITY":"Peekskill","ZIP":10566.0,"AV_SCORE":100.0,"AV_SIDE":"L","AV_ZONE":10566.0,"AV_ADD":"4 NELSON AVENUE","AREA":0.0,"STATE":"NY","AV_STATUS":"M","SR_CTRSN_1":66.0,"SOURCETHM":"Sr_ctrsnclubs","id":"acznheaey3u0","SR_CTRSNCL":0.0,"ADDRESS":"4 Nelson Avenue"},"type":"Feature","geometry":{"type":"Point","coordinates":[650989.375032839,895528.562479444]}},{"properties":{"PERIMETER":0.0,"NAME":"Pelham Seniors","CITY":"Pelham","ZIP":10803.0,"AV_SCORE":100.0,"AV_SIDE":"R","AV_ZONE":10803.0,"AV_ADD":"34 FIFTH AVENUE","AREA":0.0,"STATE":"NY","AV_STATUS":"M","SR_CTRSN_1":67.0,"SOURCETHM":"Sr_ctrsnclubs","id":"acznhecivgcg","SR_CTRSNCL":0.0,"ADDRESS":"34 Fifth Avenue"},"type":"Feature","geometry":{"type":"Point","coordinates":[682893.937494552,757585.000110974]}},{"properties":{"PERIMETER":0.0,"NAME":"Pleasantville Senior Services","CITY":"Pleasantville","ZIP":10570.0,"AV_SCORE":100.0,"AV_SIDE":"L","AV_ZONE":10570.0,"AV_ADD":"359 BEDFORD ROAD","AREA":0.0,"STATE":"NY","AV_STATUS":"M","SR_CTRSN_1":68.0,"SOURCETHM":"Sr_ctrsnclubs","id":"acznheaxnlu2","SR_CTRSNCL":0.0,"ADDRESS":"359 Bedford Road"},"type":"Feature","geometry":{"type":"Point","coordinates":[688418.874971698,839252.875003033]}},{"properties":{"PERIMETER":0.0,"NAME":"Telephone Pioneers of America","CITY":"Pleasantville","ZIP":10570.0,"AV_SCORE":100.0,"AV_SIDE":"R","AV_ZONE":10570.0,"AV_ADD":"53 BROOKFIELD PLACE","AREA":0.0,"STATE":"NY","AV_STATUS":"M","SR_CTRSN_1":69.0,"SOURCETHM":"Sr_ctrsnclubs","id":"acznhej73sim","SR_CTRSNCL":0.0,"ADDRESS":"53 Brookfield Place"},"type":"Feature","geometry":{"type":"Point","coordinates":[688493.499995767,839812.937467554]}},{"properties":{"PERIMETER":0.0,"NAME":"Pound Ridge Seniors","CITY":"Pound Ridge","ZIP":10576.0,"AV_SCORE":100.0,"AV_SIDE":"R","AV_ZONE":10576.0,"AV_ADD":"79 WESTCHESTER AVENUE","AREA":0.0,"STATE":"NY","AV_STATUS":"M","SR_CTRSN_1":71.0,"SOURCETHM":"Sr_ctrsnclubs","id":"acznheb3ajqk","SR_CTRSNCL":0.0,"ADDRESS":"79 Westchester Avenue"},"type":"Feature","geometry":{"type":"Point","coordinates":[752752.374935613,860217.874958558]}},{"properties":{"PERIMETER":0.0,"NAME":"Rye Senior Citizens Program","CITY":"Rye","ZIP":10580.0,"AV_SCORE":100.0,"AV_SIDE":"L","AV_ZONE":10580.0,"AV_ADD":"281 MIDLAND AVENUE","AREA":0.0,"STATE":"NY","AV_STATUS":"M","SR_CTRSN_1":72.0,"SOURCETHM":"Sr_ctrsnclubs","id":"acznhepy23kr","SR_CTRSNCL":0.0,"ADDRESS":"281 Midland Avenue"},"type":"Feature","geometry":{"type":"Point","coordinates":[718069.875063312,780674.187460477]}},{"properties":{"PERIMETER":0.0,"NAME":"Rye Brook Senior Center","CITY":"Rye Brook","ZIP":10573.0,"AV_SCORE":100.0,"AV_SIDE":"R","AV_ZONE":10573.0,"AV_ADD":"32 GARIBALDI PLACE","AREA":0.0,"STATE":"NY","AV_STATUS":"M","SR_CTRSN_1":73.0,"SOURCETHM":"Sr_ctrsnclubs","id":"acznheh8k622","SR_CTRSNCL":0.0,"ADDRESS":"32 Garibaldi Place"},"type":"Feature","geometry":{"type":"Point","coordinates":[718292.000119519,789939.812557106]}},{"properties":{"PERIMETER":0.0,"NAME":"Ganon Road Seniors","CITY":"Scarsdale","ZIP":10583.0,"AV_SCORE":100.0,"AV_SIDE":"L","AV_ZONE":10583.0,"AV_ADD":"235 GARTH ROAD","AREA":0.0,"STATE":"NY","AV_STATUS":"M","SR_CTRSN_1":74.0,"SOURCETHM":"Sr_ctrsnclubs","id":"acznhem4e88g","SR_CTRSNCL":0.0,"ADDRESS":"235 Garth Road"},"type":"Feature","geometry":{"type":"Point","coordinates":[681981.562453703,783346.812614966]}},{"properties":{"PERIMETER":0.0,"NAME":"Senior Citizens Club","CITY":"Scarsdale","ZIP":10583.0,"AV_SCORE":100.0,"AV_SIDE":"L","AV_ZONE":10583.0,"AV_ADD":"1001 WHITE PLAINS POST ROAD","AREA":0.0,"STATE":"NY","AV_STATUS":"M","SR_CTRSN_1":75.0,"SOURCETHM":"Sr_ctrsnclubs","id":"acznhemjcy7p","SR_CTRSNCL":0.0,"ADDRESS":"1001 White Plains Post Road"},"type":"Feature","geometry":{"type":"Point","coordinates":[686243.187545672,785697.500105155]}},{"properties":{"PERIMETER":0.0,"NAME":"Sprain Brook Manor Nursing Home","CITY":"Scarsdale","ZIP":10583.0,"AV_SCORE":100.0,"AV_SIDE":"L","AV_ZONE":10583.0,"AV_ADD":"77 JACKSON AVENUE","AREA":0.0,"STATE":"NY","AV_STATUS":"M","SR_CTRSN_1":76.0,"SOURCETHM":"Sr_ctrsnclubs","id":"acznhegn7p4s","SR_CTRSNCL":0.0,"ADDRESS":"77 Jackson Avenue"},"type":"Feature","geometry":{"type":"Point","coordinates":[675286.812495468,785213.874888705]}},{"properties":{"PERIMETER":0.0,"NAME":"YM-YWHA of Midwestchester- Senior Citizens Program","CITY":"Scarsdale","ZIP":10583.0,"AV_SCORE":80.0,"AV_SIDE":"R","AV_ZONE":10583.0,"AV_ADD":"999 WILMOT AVENUE","AREA":0.0,"STATE":"NY","AV_STATUS":"M","SR_CTRSN_1":78.0,"SOURCETHM":"Sr_ctrsnclubs","id":"acznhefh12bj","SR_CTRSNCL":0.0,"ADDRESS":"999 Wilmot Avenue"},"type":"Feature","geometry":{"type":"Point","coordinates":[691346.687582425,783940.562375519]}},{"properties":{"PERIMETER":0.0,"NAME":"Shrub Oak Seniors- Yorktown Community Center","CITY":"Yorktown","ZIP":10598.0,"AV_SCORE":100.0,"AV_SIDE":"R","AV_ZONE":10598.0,"AV_ADD":"1974 COMMERCE STREET","AREA":0.0,"STATE":"NY","AV_STATUS":"M","SR_CTRSN_1":79.0,"SOURCETHM":"Sr_ctrsnclubs","id":"acznhefweijt","SR_CTRSNCL":0.0,"ADDRESS":"1974 Commerce Street"},"type":"Feature","geometry":{"type":"Point","coordinates":[689880.437597059,889692.124970008]}},{"properties":{"PERIMETER":0.0,"NAME":"Leisure Club- Tarrytown Library","CITY":"Tarrytown","ZIP":10591.0,"AV_SCORE":100.0,"AV_SIDE":"L","AV_ZONE":10591.0,"AV_ADD":"121 NORTH BROADWAY","AREA":0.0,"STATE":"NY","AV_STATUS":"M","SR_CTRSN_1":81.0,"SOURCETHM":"Sr_ctrsnclubs","id":"acznhej6ped0","SR_CTRSNCL":0.0,"ADDRESS":"121 North Broadway"},"type":"Feature","geometry":{"type":"Point","coordinates":[669167.187529768,819161.437416321]}},{"properties":{"PERIMETER":0.0,"NAME":"Neighborhood House","CITY":"Tarrytown","ZIP":10592.0,"AV_SCORE":100.0,"AV_SIDE":"R","AV_ZONE":10591.0,"AV_ADD":"114 NORTH WASHINGTON STREET","AREA":0.0,"STATE":"NY","AV_STATUS":"M","SR_CTRSN_1":82.0,"SOURCETHM":"Sr_ctrsnclubs","id":"acznheq25gzf","SR_CTRSNCL":0.0,"ADDRESS":"114 North Washington Street"},"type":"Feature","geometry":{"type":"Point","coordinates":[668683.562569318,819191.249896349]}},{"properties":{"PERIMETER":0.0,"NAME":"Senior Canteen","CITY":"Tarrytown","ZIP":10591.0,"AV_SCORE":100.0,"AV_SIDE":"R","AV_ZONE":10591.0,"AV_ADD":"13 JOHN STREET","AREA":0.0,"STATE":"NY","AV_STATUS":"M","SR_CTRSN_1":83.0,"SOURCETHM":"Sr_ctrsnclubs","id":"acznhemami5a","SR_CTRSNCL":0.0,"ADDRESS":"13 John Street"},"type":"Feature","geometry":{"type":"Point","coordinates":[668775.874889404,817527.6873988]}},{"properties":{"PERIMETER":0.0,"NAME":"Tarrytown Seniors","CITY":"Tarrytown","ZIP":10591.0,"AV_SCORE":100.0,"AV_SIDE":"R","AV_ZONE":10591.0,"AV_ADD":"13 JOHN STREET","AREA":0.0,"STATE":"NY","AV_STATUS":"M","SR_CTRSN_1":84.0,"SOURCETHM":"Sr_ctrsnclubs","id":"acznhebtys92","SR_CTRSNCL":0.0,"ADDRESS":"13 John Street"},"type":"Feature","geometry":{"type":"Point","coordinates":[668775.874889404,817527.6873988]}},{"properties":{"PERIMETER":0.0,"NAME":"Transfiguration Seniors- Church of the Transfiguration","CITY":"Tarrytown","ZIP":10591.0,"AV_SCORE":100.0,"AV_SIDE":"R","AV_ZONE":10591.0,"AV_ADD":"268 SOUTH BROADWAY","AREA":0.0,"STATE":"NY","AV_STATUS":"M","SR_CTRSN_1":85.0,"SOURCETHM":"Sr_ctrsnclubs","id":"acznhei7t0ic","SR_CTRSNCL":0.0,"ADDRESS":"268 South Broadway"},"type":"Feature","geometry":{"type":"Point","coordinates":[667934.37498462,814389.312483877]}},{"properties":{"PERIMETER":0.0,"NAME":"Tuckahoe Seniors","CITY":"Tuckahoe","ZIP":10707.0,"AV_SCORE":100.0,"AV_SIDE":"L","AV_ZONE":10707.0,"AV_ADD":"4 UNION PLACE","AREA":0.0,"STATE":"NY","AV_STATUS":"M","SR_CTRSN_1":86.0,"SOURCETHM":"Sr_ctrsnclubs","id":"acznheeaz84a","SR_CTRSNCL":0.0,"ADDRESS":"4 Union Place"},"type":"Feature","geometry":{"type":"Point","coordinates":[678794.999890735,770778.312379261]}},{"properties":{"PERIMETER":0.0,"NAME":"Hebrew Institute Senior Citizens Club","CITY":"White Plains","ZIP":10605.0,"AV_SCORE":100.0,"AV_SIDE":"L","AV_ZONE":10605.0,"AV_ADD":"20 GREENRIDGE AVENUE","AREA":0.0,"STATE":"NY","AV_STATUS":"M","SR_CTRSN_1":87.0,"SOURCETHM":"Sr_ctrsnclubs","id":"acznhellnn4f","SR_CTRSNCL":0.0,"ADDRESS":"20 Greenridge Avenue"},"type":"Feature","geometry":{"type":"Point","coordinates":[694825.062497664,799258.187477785]}},{"properties":{"PERIMETER":0.0,"NAME":"Old Guard of White Plains YMCA","CITY":"White Plains","ZIP":10605.0,"AV_SCORE":100.0,"AV_SIDE":"L","AV_ZONE":10605.0,"AV_ADD":"250 MAMARONECK   AVENUE","AREA":0.0,"STATE":"NY","AV_STATUS":"M","SR_CTRSN_1":88.0,"SOURCETHM":"Sr_ctrsnclubs","id":"acznhefb5xga","SR_CTRSNCL":0.0,"ADDRESS":"250 Mamaroneck   Avenue"},"type":"Feature","geometry":{"type":"Point","coordinates":[695149.000033966,799777.312470268]}},{"properties":{"PERIMETER":0.0,"NAME":"Open Door Community Center","CITY":"White Plains","ZIP":10607.0,"AV_SCORE":100.0,"AV_SIDE":"L","AV_ZONE":10607.0,"AV_ADD":"32 MANHATTAN AVE","AREA":0.0,"STATE":"NY","AV_STATUS":"M","SR_CTRSN_1":89.0,"SOURCETHM":"Sr_ctrsnclubs","id":"acznhei9lgj3","SR_CTRSNCL":0.0,"ADDRESS":"32 Manhattan Ave"},"type":"Feature","geometry":{"type":"Point","coordinates":[685972.062553419,806117.562588173]}},{"properties":{"PERIMETER":0.0,"NAME":"Westchester Lighthouse","CITY":"White Plains","ZIP":10601.0,"AV_SCORE":100.0,"AV_SIDE":"R","AV_ZONE":10601.0,"AV_ADD":"44 CHURCH STREET","AREA":0.0,"STATE":"NY","AV_STATUS":"M","SR_CTRSN_1":90.0,"SOURCETHM":"Sr_ctrsnclubs","id":"acznhel9jtp3","SR_CTRSNCL":0.0,"ADDRESS":"44 Church Street"},"type":"Feature","geometry":{"type":"Point","coordinates":[694368.062561238,802264.812504585]}},{"properties":{"PERIMETER":0.0,"NAME":"White Plains Hadassah","CITY":"White Plains","ZIP":10605.0,"AV_SCORE":89.0,"AV_SIDE":"L","AV_ZONE":10605.0,"AV_ADD":"233 ALBERMARLE ROAD","AREA":0.0,"STATE":"NY","AV_STATUS":"M","SR_CTRSN_1":91.0,"SOURCETHM":"Sr_ctrsnclubs","id":"acznheos5q7j","SR_CTRSNCL":0.0,"ADDRESS":"233 Albermarle Road"},"type":"Feature","geometry":{"type":"Point","coordinates":[695789.187426562,791741.437390784]}},{"properties":{"PERIMETER":0.0,"NAME":"White Plains Senior Center","CITY":"White Plains","ZIP":10601.0,"AV_SCORE":100.0,"AV_SIDE":"R","AV_ZONE":10601.0,"AV_ADD":"65 MITCHELL PLACE","AREA":0.0,"STATE":"NY","AV_STATUS":"M","SR_CTRSN_1":92.0,"SOURCETHM":"Sr_ctrsnclubs","id":"acznhelzfmby","SR_CTRSNCL":0.0,"ADDRESS":"65 Mitchell Place"},"type":"Feature","geometry":{"type":"Point","coordinates":[695336.749922141,801467.000023842]}},{"properties":{"PERIMETER":0.0,"NAME":"YWCA of White Plains and Central Westchester","CITY":"White Plains","ZIP":10605.0,"AV_SCORE":100.0,"AV_SIDE":"L","AV_ZONE":10605.0,"AV_ADD":"515 NORTH STREET","AREA":0.0,"STATE":"NY","AV_STATUS":"M","SR_CTRSN_1":93.0,"SOURCETHM":"Sr_ctrsnclubs","id":"acznhenjlnct","SR_CTRSNCL":0.0,"ADDRESS":"515 North Street"},"type":"Feature","geometry":{"type":"Point","coordinates":[702022.999912368,797320.06241998]}},{"properties":{"PERIMETER":0.0,"NAME":"Bronx River Road Community Center","CITY":"Yonkers","ZIP":10704.0,"AV_SCORE":100.0,"AV_SIDE":"R","AV_ZONE":10704.0,"AV_ADD":"680 BRONX RIVER ROAD","AREA":0.0,"STATE":"NY","AV_STATUS":"M","SR_CTRSN_1":94.0,"SOURCETHM":"Sr_ctrsnclubs","id":"acznhekozctc","SR_CTRSNCL":0.0,"ADDRESS":"680 Bronx River Road"},"type":"Feature","geometry":{"type":"Point","coordinates":[672844.562509193,762012.125107097]}},{"properties":{"PERIMETER":0.0,"NAME":"Bryn Mawr Presbyterian Church","CITY":"Yonkers","ZIP":10701.0,"AV_SCORE":100.0,"AV_SIDE":"R","AV_ZONE":10701.0,"AV_ADD":"20 BUCKINGHAM ROAD","AREA":0.0,"STATE":"NY","AV_STATUS":"M","SR_CTRSN_1":95.0,"SOURCETHM":"Sr_ctrsnclubs","id":"acznhed5p1it","SR_CTRSNCL":0.0,"ADDRESS":"20 Buckingham Road"},"type":"Feature","geometry":{"type":"Point","coordinates":[666493.000007278,771224.937403677]}},{"properties":{"PERIMETER":0.0,"NAME":"Charles S. Cola Community Center","CITY":"Yonkers","ZIP":10701.0,"AV_SCORE":100.0,"AV_SIDE":"L","AV_ZONE":10701.0,"AV_ADD":"945 NORTH BROADWAY","AREA":0.0,"STATE":"NY","AV_STATUS":"M","SR_CTRSN_1":96.0,"SOURCETHM":"Sr_ctrsnclubs","id":"acznheh89ydc","SR_CTRSNCL":0.0,"ADDRESS":"945 North Broadway"},"type":"Feature","geometry":{"type":"Point","coordinates":[661871.500098974,777833.374913831]}},{"properties":{"PERIMETER":0.0,"NAME":"Coyne Park Senior Center","CITY":"Yonkers","ZIP":10704.0,"AV_SCORE":100.0,"AV_SIDE":"L","AV_ZONE":10704.0,"AV_ADD":"777 MCLEAN AVENUE","AREA":0.0,"STATE":"NY","AV_STATUS":"M","SR_CTRSN_1":97.0,"SOURCETHM":"Sr_ctrsnclubs","id":"acznhebs0run","SR_CTRSNCL":0.0,"ADDRESS":"777 Mclean Avenue"},"type":"Feature","geometry":{"type":"Point","coordinates":[665433.499974291,756332.937389808]}},{"properties":{"PERIMETER":0.0,"NAME":"Crisfield Park and Civic Center","CITY":"Yonkers","ZIP":10710.0,"AV_SCORE":100.0,"AV_SIDE":"R","AV_ZONE":10710.0,"AV_ADD":"38 EISENHOWER DRIVE","AREA":0.0,"STATE":"NY","AV_STATUS":"M","SR_CTRSN_1":98.0,"SOURCETHM":"Sr_ctrsnclubs","id":"acznhepgyqfq","SR_CTRSNCL":0.0,"ADDRESS":"38 Eisenhower Drive"},"type":"Feature","geometry":{"type":"Point","coordinates":[677916.624977917,781560.874949303]}},{"properties":{"PERIMETER":0.0,"NAME":"Embur Golden Age Club","CITY":"Yonkers","ZIP":10710.0,"AV_SCORE":100.0,"AV_SIDE":"L","AV_ZONE":10710.0,"AV_ADD":"1511 CENTRAL PARK AVENUE","AREA":0.0,"STATE":"NY","AV_STATUS":"M","SR_CTRSN_1":99.0,"SOURCETHM":"Sr_ctrsnclubs","id":"acznhems8vz5","SR_CTRSNCL":0.0,"ADDRESS":"1511 Central Park Avenue"},"type":"Feature","geometry":{"type":"Point","coordinates":[673008.624973346,772292.250044671]}},{"properties":{"PERIMETER":0.0,"NAME":"Grinton I. Will Library","CITY":"Yonkers","ZIP":10710.0,"AV_SCORE":100.0,"AV_SIDE":"R","AV_ZONE":10710.0,"AV_ADD":"1500 CENTRAL PARK AVENUE","AREA":0.0,"STATE":"NY","AV_STATUS":"M","SR_CTRSN_1":100.0,"SOURCETHM":"Sr_ctrsnclubs","id":"acznhenu45xc","SR_CTRSNCL":0.0,"ADDRESS":"1500 Central Park Avenue"},"type":"Feature","geometry":{"type":"Point","coordinates":[672708.562509066,771860.562620269]}},{"properties":{"PERIMETER":0.0,"NAME":"Kubasek Trinity Manor","CITY":"Yonkers","ZIP":10701.0,"AV_SCORE":80.0,"AV_SIDE":"R","AV_ZONE":10701.0,"AV_ADD":"ONE TRINITY DRIVE","AREA":0.0,"STATE":"NY","AV_STATUS":"M","SR_CTRSN_1":101.0,"SOURCETHM":"Sr_ctrsnclubs","id":"acznhefok9or","SR_CTRSNCL":0.0,"ADDRESS":"One Trinity Drive"},"type":"Feature","geometry":{"type":"Point","coordinates":[662205.562435285,767178.812599909]}},{"properties":{"PERIMETER":0.0,"NAME":"Nepperhan Community Center","CITY":"Yonkers","ZIP":10701.0,"AV_SCORE":100.0,"AV_SIDE":"R","AV_ZONE":10701.0,"AV_ADD":"342 WARBURTON AVENUE","AREA":0.0,"STATE":"NY","AV_STATUS":"M","SR_CTRSN_1":102.0,"SOURCETHM":"Sr_ctrsnclubs","id":"acznhebvi34t","SR_CTRSNCL":0.0,"ADDRESS":"342 Warburton Avenue"},"type":"Feature","geometry":{"type":"Point","coordinates":[658861.937472171,770632.312507125]}},{"properties":{"PERIMETER":0.0,"NAME":"Northeast Jewish Center","CITY":"Yonkers","ZIP":10710.0,"AV_SCORE":100.0,"AV_SIDE":"L","AV_ZONE":10710.0,"AV_ADD":"11 SALISBURY ROAD","AREA":0.0,"STATE":"NY","AV_STATUS":"M","SR_CTRSN_1":103.0,"SOURCETHM":"Sr_ctrsnclubs","id":"acznheemzfjg","SR_CTRSNCL":0.0,"ADDRESS":"11 Salisbury Road"},"type":"Feature","geometry":{"type":"Point","coordinates":[672453.562444829,773072.187581397]}},{"properties":{"PERIMETER":0.0,"NAME":"Our Lady of Fatima Church","CITY":"Yonkers","ZIP":10707.0,"AV_SCORE":100.0,"AV_SIDE":"L","AV_ZONE":10583.0,"AV_ADD":"963 SCARSDALE ROAD","AREA":0.0,"STATE":"NY","AV_STATUS":"M","SR_CTRSN_1":104.0,"SOURCETHM":"Sr_ctrsnclubs","id":"acznheqfse6l","SR_CTRSNCL":0.0,"ADDRESS":"963 Scarsdale Road"},"type":"Feature","geometry":{"type":"Point","coordinates":[680896.000084692,783314.437574936]}},{"properties":{"PERIMETER":0.0,"NAME":"Parkledge Apartments","CITY":"Yonkers","ZIP":10701.0,"AV_SCORE":100.0,"AV_SIDE":"L","AV_ZONE":10701.0,"AV_ADD":"220 YONKERS AVENUE","AREA":0.0,"STATE":"NY","AV_STATUS":"M","SR_CTRSN_1":105.0,"SOURCETHM":"Sr_ctrsnclubs","id":"acznheieprhl","SR_CTRSNCL":0.0,"ADDRESS":"220 Yonkers Avenue"},"type":"Feature","geometry":{"type":"Point","coordinates":[663421.750084417,766106.74987891]}},{"properties":{"PERIMETER":0.0,"NAME":"Peter Chema Seniors- Community Center","CITY":"Yonkers","ZIP":10705.0,"AV_SCORE":100.0,"AV_SIDE":"L","AV_ZONE":10705.0,"AV_ADD":"435 RIVERDALE AVENUE","AREA":0.0,"STATE":"NY","AV_STATUS":"M","SR_CTRSN_1":106.0,"SOURCETHM":"Sr_ctrsnclubs","id":"acznheldqk8i","SR_CTRSNCL":0.0,"ADDRESS":"435 Riverdale Avenue"},"type":"Feature","geometry":{"type":"Point","coordinates":[657479.437374883,759615.812528865]}},{"properties":{"PERIMETER":0.0,"NAME":"Rauso Post","CITY":"Yonkers","ZIP":10701.0,"AV_SCORE":100.0,"AV_SIDE":"R","AV_ZONE":10701.0,"AV_ADD":"178 WAVERLY STREET","AREA":0.0,"STATE":"NY","AV_STATUS":"M","SR_CTRSN_1":107.0,"SOURCETHM":"Sr_ctrsnclubs","id":"acznhebqpbd1","SR_CTRSNCL":0.0,"ADDRESS":"178 Waverly Street"},"type":"Feature","geometry":{"type":"Point","coordinates":[659714.812480965,764156.937397094]}},{"properties":{"PERIMETER":0.0,"NAME":"Renee Burke Manor Senior Citizens Club","CITY":"Yonkers","ZIP":10701.0,"AV_SCORE":100.0,"AV_SIDE":"L","AV_ZONE":10705.0,"AV_ADD":"15 HAMILTON AVENUE","AREA":0.0,"STATE":"NY","AV_STATUS":"M","SR_CTRSN_1":108.0,"SOURCETHM":"Sr_ctrsnclubs","id":"acznhemixn0x","SR_CTRSNCL":0.0,"ADDRESS":"15 Hamilton Avenue"},"type":"Feature","geometry":{"type":"Point","coordinates":[658590.125119918,761759.124914861]}},{"properties":{"PERIMETER":0.0,"NAME":"Riverview Towers","CITY":"Yonkers","ZIP":10701.0,"AV_SCORE":100.0,"AV_SIDE":"L","AV_ZONE":10701.0,"AV_ADD":"95 RIVERDALE AVENUE","AREA":0.0,"STATE":"NY","AV_STATUS":"M","SR_CTRSN_1":109.0,"SOURCETHM":"Sr_ctrsnclubs","id":"acznhecx38nr","SR_CTRSNCL":0.0,"ADDRESS":"95 Riverdale Avenue"},"type":"Feature","geometry":{"type":"Point","coordinates":[657736.249919122,764214.624949148]}},{"properties":{"PERIMETER":0.0,"NAME":"Runyon Heights Civic Association","CITY":"Yonkers","ZIP":10710.0,"AV_SCORE":100.0,"AV_SIDE":"L","AV_ZONE":10710.0,"AV_ADD":"21 RUNYON AVENUE","AREA":0.0,"STATE":"NY","AV_STATUS":"M","SR_CTRSN_1":110.0,"SOURCETHM":"Sr_ctrsnclubs","id":"acznhem3cjie","SR_CTRSNCL":0.0,"ADDRESS":"21 Runyon Avenue"},"type":"Feature","geometry":{"type":"Point","coordinates":[666430.374983219,774710.375102923]}},{"properties":{"PERIMETER":0.0,"NAME":"St. Casimir Apartments","CITY":"Yonkers","ZIP":10701.0,"AV_SCORE":100.0,"AV_SIDE":"L","AV_ZONE":10701.0,"AV_ADD":"289 NEPPERHAN AVENUE","AREA":0.0,"STATE":"NY","AV_STATUS":"M","SR_CTRSN_1":111.0,"SOURCETHM":"Sr_ctrsnclubs","id":"acznhej0xfbt","SR_CTRSNCL":0.0,"ADDRESS":"289 Nepperhan Avenue"},"type":"Feature","geometry":{"type":"Point","coordinates":[660919.187522087,766653.125047419]}},{"properties":{"PERIMETER":0.0,"NAME":"St. John the Baptist Seniors","CITY":"Yonkers","ZIP":10704.0,"AV_SCORE":100.0,"AV_SIDE":"L","AV_ZONE":10704.0,"AV_ADD":"17 DUNWOODIE STREET","AREA":0.0,"STATE":"NY","AV_STATUS":"M","SR_CTRSN_1":112.0,"SOURCETHM":"Sr_ctrsnclubs","id":"acznhem1xva1","SR_CTRSNCL":0.0,"ADDRESS":"17 Dunwoodie Street"},"type":"Feature","geometry":{"type":"Point","coordinates":[666214.562375018,762708.750003746]}},{"properties":{"PERIMETER":0.0,"NAME":"St. Joseph's Geriatric Day Care","CITY":"Yonkers","ZIP":10701.0,"AV_SCORE":100.0,"AV_SIDE":"L","AV_ZONE":10701.0,"AV_ADD":"127 SOUTH BROADWAY","AREA":0.0,"STATE":"NY","AV_STATUS":"M","SR_CTRSN_1":113.0,"SOURCETHM":"Sr_ctrsnclubs","id":"acznheappcv2","SR_CTRSNCL":0.0,"ADDRESS":"127 South Broadway"},"type":"Feature","geometry":{"type":"Point","coordinates":[658765.437504081,764107.562421048]}},{"properties":{"PERIMETER":0.0,"NAME":"St. Joseph's Hospital Home/Aging","CITY":"Yonkers","ZIP":10701.0,"AV_SCORE":100.0,"AV_SIDE":"L","AV_ZONE":10701.0,"AV_ADD":"127 SOUTH BROADWAY","AREA":0.0,"STATE":"NY","AV_STATUS":"M","SR_CTRSN_1":114.0,"SOURCETHM":"Sr_ctrsnclubs","id":"acznheku9s4r","SR_CTRSNCL":0.0,"ADDRESS":"127 South Broadway"},"type":"Feature","geometry":{"type":"Point","coordinates":[658765.437504081,764107.562421048]}},{"properties":{"PERIMETER":0.0,"NAME":"St. Mark's Episcopal Church","CITY":"Yonkers","ZIP":10703.0,"AV_SCORE":100.0,"AV_SIDE":"L","AV_ZONE":10703.0,"AV_ADD":"1373 NEPPERHAN AVENUE","AREA":0.0,"STATE":"NY","AV_STATUS":"M","SR_CTRSN_1":115.0,"SOURCETHM":"Sr_ctrsnclubs","id":"acznhenqlf97","SR_CTRSNCL":0.0,"ADDRESS":"1373 Nepperhan Avenue"},"type":"Feature","geometry":{"type":"Point","coordinates":[665683.874886524,779267.250115167]}},{"properties":{"PERIMETER":0.0,"NAME":"William A. Walsh Golden Age Club","CITY":"Yonkers","ZIP":10701.0,"AV_SCORE":100.0,"AV_SIDE":"R","AV_ZONE":10701.0,"AV_ADD":"75 WALSH ROAD","AREA":0.0,"STATE":"NY","AV_STATUS":"M","SR_CTRSN_1":116.0,"SOURCETHM":"Sr_ctrsnclubs","id":"acznhef2xt4c","SR_CTRSNCL":0.0,"ADDRESS":"75 Walsh Road"},"type":"Feature","geometry":{"type":"Point","coordinates":[660827.812418002,767231.124919957]}},{"properties":{"PERIMETER":0.0,"NAME":"Yonkers Community Action Program","CITY":"Yonkers","ZIP":10701.0,"AV_SCORE":100.0,"AV_SIDE":"R","AV_ZONE":10701.0,"AV_ADD":"164 ASHBURTON AVENUE","AREA":0.0,"STATE":"NY","AV_STATUS":"M","SR_CTRSN_1":117.0,"SOURCETHM":"Sr_ctrsnclubs","id":"acznhegvcl4l","SR_CTRSNCL":0.0,"ADDRESS":"164 Ashburton Avenue"},"type":"Feature","geometry":{"type":"Point","coordinates":[660640.249921827,767756.874936447]}},{"properties":{"PERIMETER":0.0,"NAME":"Yonkers Recreation Department","CITY":"Yonkers","ZIP":10701.0,"AV_SCORE":100.0,"AV_SIDE":"L","AV_ZONE":10701.0,"AV_ADD":"285 NEPPERHAN AVENUE","AREA":0.0,"STATE":"NY","AV_STATUS":"M","SR_CTRSN_1":118.0,"SOURCETHM":"Sr_ctrsnclubs","id":"acznhectoko7","SR_CTRSNCL":0.0,"ADDRESS":"285 Nepperhan Avenue"},"type":"Feature","geometry":{"type":"Point","coordinates":[660879.87488205,766586.124983357]}},{"properties":{"PERIMETER":0.0,"NAME":"Yonkers Senior Center Group #5","CITY":"Yonkers","ZIP":10701.0,"AV_SCORE":100.0,"AV_SIDE":"R","AV_ZONE":10701.0,"AV_ADD":"178 WAVERLY STREET","AREA":0.0,"STATE":"NY","AV_STATUS":"M","SR_CTRSN_1":119.0,"SOURCETHM":"Sr_ctrsnclubs","id":"acznhegkv335","SR_CTRSNCL":0.0,"ADDRESS":"178 Waverly Street"},"type":"Feature","geometry":{"type":"Point","coordinates":[659714.812480965,764156.937397094]}},{"properties":{"PERIMETER":0.0,"NAME":"Yonkers Seniors Group #9","CITY":"Yonkers","ZIP":10701.0,"AV_SCORE":100.0,"AV_SIDE":"L","AV_ZONE":10701.0,"AV_ADD":"220 YONKERS AVENUE","AREA":0.0,"STATE":"NY","AV_STATUS":"M","SR_CTRSN_1":120.0,"SOURCETHM":"Sr_ctrsnclubs","id":"acznhed4g9py","SR_CTRSNCL":0.0,"ADDRESS":"220 Yonkers Avenue"},"type":"Feature","geometry":{"type":"Point","coordinates":[663421.750084417,766106.74987891]}},{"properties":{"PERIMETER":0.0,"NAME":"YWCA - Bilingual Seniors Group","CITY":"Yonkers","ZIP":10701.0,"AV_SCORE":100.0,"AV_SIDE":"L","AV_ZONE":10701.0,"AV_ADD":"87 SOUTH BROADWAY","AREA":0.0,"STATE":"NY","AV_STATUS":"M","SR_CTRSN_1":121.0,"SOURCETHM":"Sr_ctrsnclubs","id":"acznhehmrt1w","SR_CTRSNCL":0.0,"ADDRESS":"87 South Broadway"},"type":"Feature","geometry":{"type":"Point","coordinates":[658400.500031741,764542.500021453]}},{"properties":{"PERIMETER":0.0,"NAME":"Yorktown Nutrition Center","CITY":"Yorktown","ZIP":10598.0,"AV_SCORE":100.0,"AV_SIDE":"R","AV_ZONE":10598.0,"AV_ADD":"1974 COMMERCE STREET","AREA":0.0,"STATE":"NY","AV_STATUS":"M","SR_CTRSN_1":122.0,"SOURCETHM":"Sr_ctrsnclubs","id":"acznheau28am","SR_CTRSNCL":0.0,"ADDRESS":"1974 Commerce Street"},"type":"Feature","geometry":{"type":"Point","coordinates":[689880.437597059,889692.124970008]}},{"properties":{"PERIMETER":0.0,"NAME":"Yorktown Chapter I","CITY":"Yorktown Heights","ZIP":10598.0,"AV_SCORE":100.0,"AV_SIDE":"R","AV_ZONE":10598.0,"AV_ADD":"1965 ALLAN AVENUE","AREA":0.0,"STATE":"NY","AV_STATUS":"M","SR_CTRSN_1":123.0,"SOURCETHM":"Sr_ctrsnclubs","id":"acznheddrg5f","SR_CTRSNCL":0.0,"ADDRESS":"1965 Allan Avenue"},"type":"Feature","geometry":{"type":"Point","coordinates":[688724.374875982,888886.937385258]}},{"properties":{"PERIMETER":0.0,"NAME":"Yorktown Chapter II- Yorktown Community Center","CITY":"Yorktown","ZIP":10598.0,"AV_SCORE":100.0,"AV_SIDE":"R","AV_ZONE":10598.0,"AV_ADD":"1974 COMMERCE STREET","AREA":0.0,"STATE":"NY","AV_STATUS":"M","SR_CTRSN_1":124.0,"SOURCETHM":"Sr_ctrsnclubs","id":"acznhenebxey","SR_CTRSNCL":0.0,"ADDRESS":"1974 Commerce Street"},"type":"Feature","geometry":{"type":"Point","coordinates":[689880.437597059,889692.124970008]}},{"properties":{"PERIMETER":0.0,"NAME":"Yorktown Seniors - New Horizon","CITY":"Yorktown","ZIP":10598.0,"AV_SCORE":100.0,"AV_SIDE":"R","AV_ZONE":10598.0,"AV_ADD":"36B SUSSEX DRIVE","AREA":0.0,"STATE":"NY","AV_STATUS":"M","SR_CTRSN_1":125.0,"SOURCETHM":"Sr_ctrsnclubs","id":"acznhecf0bxr","SR_CTRSNCL":0.0,"ADDRESS":"36B Sussex Drive"},"type":"Feature","geometry":{"type":"Point","coordinates":[684598.62511214,907339.249978443]}},{"properties":{"PERIMETER":0.0,"NAME":"Yorktown Seniors - Shrub Oak","CITY":"Yorktown","ZIP":10598.0,"AV_SCORE":100.0,"AV_SIDE":"L","AV_ZONE":10598.0,"AV_ADD":"56A KIRBY CLOSE","AREA":0.0,"STATE":"NY","AV_STATUS":"M","SR_CTRSN_1":126.0,"SOURCETHM":"Sr_ctrsnclubs","id":"acznheh5mzsl","SR_CTRSNCL":0.0,"ADDRESS":"56A Kirby Close"},"type":"Feature","geometry":{"type":"Point","coordinates":[684924.000088443,908231.437627274]}},{"properties":{"PERIMETER":0.0,"NAME":"Bedford Village Senior Citizen - Presbyterian Church","CITY":"Bedford","ZIP":10506.0,"AV_SCORE":100.0,"AV_SIDE":"R","AV_ZONE":10506.0,"AV_ADD":"VILLAGE GRN","AREA":0.0,"STATE":"NY","AV_STATUS":"M","SR_CTRSN_1":0.0,"SOURCETHM":"Wcsrcenters1103_","id":"acznhem4iwc0","SR_CTRSNCL":0.0,"ADDRESS":"44 Village Green"},"type":"Feature","geometry":{"type":"Point","coordinates":[727896.632448464,864382.789650437]}},{"properties":{"PERIMETER":0.0,"NAME":"Brandeis Women","CITY":"Bronxville","ZIP":10708.0,"AV_SCORE":76.0,"AV_SIDE":null,"AV_ZONE":10708.0,"AV_ADD":"LOUISIANA AVENUE","AREA":0.0,"STATE":"NY","AV_STATUS":"M","SR_CTRSN_1":0.0,"SOURCETHM":"Wcsrcenters1103_","id":"acznhephcve3","SR_CTRSNCL":0.0,"ADDRESS":"Louisiana Avenue"},"type":"Feature","geometry":{"type":"Point","coordinates":[674303.327310552,765184.831158052]}},{"properties":{"PERIMETER":0.0,"NAME":"Springvale Senior Citizens Club","CITY":"Croton-on-Hudson","ZIP":10520.0,"AV_SCORE":76.0,"AV_SIDE":null,"AV_ZONE":10520.0,"AV_ADD":"Skytop Drive","AREA":0.0,"STATE":"NY","AV_STATUS":"M","SR_CTRSN_1":0.0,"SOURCETHM":"Wcsrcenters1103_","id":"acznhefncp0b","SR_CTRSNCL":0.0,"ADDRESS":"Skytop Drive"},"type":"Feature","geometry":{"type":"Point","coordinates":[651047.705656893,874082.978075471]}},{"properties":{"PERIMETER":0.0,"NAME":"St. Lukes' Church - The Golden Years","CITY":"Eastchester","ZIP":10709.0,"AV_SCORE":100.0,"AV_SIDE":"L","AV_ZONE":10709.0,"AV_ADD":"98 STEWART AVENUE","AREA":0.0,"STATE":"NY","AV_STATUS":"M","SR_CTRSN_1":0.0,"SOURCETHM":"Wcsrcenters1103_","id":"acznhegtnsn2","SR_CTRSNCL":0.0,"ADDRESS":"100 Stewart Avenue"},"type":"Feature","geometry":{"type":"Point","coordinates":[682066.492757782,775305.273279477]}},{"properties":{"PERIMETER":0.0,"NAME":"Elmsford Senior Citizens","CITY":"Elmsford","ZIP":10523.0,"AV_SCORE":76.0,"AV_SIDE":null,"AV_ZONE":10523.0,"AV_ADD":"NORTH PERKINS AVE","AREA":0.0,"STATE":"NY","AV_STATUS":"M","SR_CTRSN_1":0.0,"SOURCETHM":"Wcsrcenters1103_","id":"acznhedcoz9g","SR_CTRSNCL":0.0,"ADDRESS":"North Perkins Ave"},"type":"Feature","geometry":{"type":"Point","coordinates":[681485.16949324,809744.021983551]}},{"properties":{"PERIMETER":0.0,"NAME":"Westchester jewish Center - Senior citizens Club","CITY":"Mamaroneck","ZIP":10543.0,"AV_SCORE":100.0,"AV_SIDE":null,"AV_ZONE":10543.0,"AV_ADD":"ROCKLAND AVE &amp; PALMER AVENUE","AREA":0.0,"STATE":"NY","AV_STATUS":"M","SR_CTRSN_1":0.0,"SOURCETHM":"Wcsrcenters1103_","id":"acznheibqs1r","SR_CTRSNCL":0.0,"ADDRESS":"Rockland and Palmer Avenue"},"type":"Feature","geometry":{"type":"Point","coordinates":[700867.443815291,769868.372666413]}},{"properties":{"PERIMETER":0.0,"NAME":"Swinging Seniors of Sacred Heart","CITY":"Mount Vernon","ZIP":10550.0,"AV_SCORE":100.0,"AV_SIDE":"R","AV_ZONE":10550.0,"AV_ADD":"115 S THOMAS SHARP BLVD","AREA":0.0,"STATE":"NY","AV_STATUS":"M","SR_CTRSN_1":0.0,"SOURCETHM":"Wcsrcenters1103_","id":"acznhedw0xc8","SR_CTRSNCL":0.0,"ADDRESS":"115 Thomas Sharp Boulevard"},"type":"Feature","geometry":{"type":"Point","coordinates":[675411.309647584,756589.566126047]}},{"properties":{"PERIMETER":0.0,"NAME":"Trinity Church Seniors","CITY":"Mount Vernon","ZIP":10550.0,"AV_SCORE":100.0,"AV_SIDE":"L","AV_ZONE":10550.0,"AV_ADD":"324 TRINITY PLACE E","AREA":0.0,"STATE":"NY","AV_STATUS":"M","SR_CTRSN_1":0.0,"SOURCETHM":"Wcsrcenters1103_","id":"acznhela3g1k","SR_CTRSNCL":0.0,"ADDRESS":"324 South Third Avenue"},"type":"Feature","geometry":{"type":"Point","coordinates":[676473.612112573,754874.205868449]}},{"properties":{"PERIMETER":0.0,"NAME":"Beth-El Senior Citizen Center - Beth-El Community Ce","CITY":"New Rochelle","ZIP":10801.0,"AV_SCORE":100.0,"AV_SIDE":null,"AV_ZONE":10801.0,"AV_ADD":"NORTH AVENUE &amp; NORTHFIELD RD","AREA":0.0,"STATE":"NY","AV_STATUS":"M","SR_CTRSN_1":0.0,"SOURCETHM":"Wcsrcenters1103_","id":"acznhedcqn1d","SR_CTRSNCL":0.0,"ADDRESS":"North Avenue and Northfield Rd"},"type":"Feature","geometry":{"type":"Point","coordinates":[686712.321626108,770504.349883006]}},{"properties":{"PERIMETER":0.0,"NAME":"Port Chester Senior Citizen","CITY":"Port Chester","ZIP":10573.0,"AV_SCORE":100.0,"AV_SIDE":"R","AV_ZONE":10573.0,"AV_ADD":"22 BRICK OVEN ROAD","AREA":0.0,"STATE":"NY","AV_STATUS":"M","SR_CTRSN_1":0.0,"SOURCETHM":"Wcsrcenters1103_","id":"acznhele4ls5","SR_CTRSNCL":0.0,"ADDRESS":"22 Don Bosco Place"},"type":"Feature","geometry":{"type":"Point","coordinates":[722875.598203788,789429.066188631]}}],"is_temporal":false,"author":{"url":"http://giswww.westchestergov.com/wcgis/Facility.htm","metadata":"","contact_name":"","contact_address":"","source":"Westchester County GIS","contact_phone":""},"source":"http://giswww.westchestergov.com/wcgis/Facility.htm","pagination":{"sort":null,"start":0,"total":120,"limit":1000000},"state":"complete","tags":"","published":"2014-08-16T18:21:04-04:00","id":334090}