{"type":"FeatureCollection","data_type":"Dataset","url_type":null,"permissions":[{"permissions":{"download":true,"view":true},"group_id":"everyone"}],"classification":null,"title":"North Africa","count":517,"stream_id":334315,"contributor":{"url":"http://geocommons.com/users/66397","name":"ISalehyan"},"data_attributes":null,"calculation_params":null,"icon_link":null,"link":"http://geocommons.com/overlays/334315.json","extent":[-76.85,18.2833,34.6599,37.2769],"geometry_types":["point"],"unique_name":null,"name":"North Africa","feature_count":517,"description":"","next_feature":null,"is_raster":false,"short_classification":"Y","stats":{"latitude":{"max":37.276939,"variance":10.1466485749623,"mean":31.6726383384914,"stdev":3.18538044430524,"min":18.2833,"median":31.19224},"longitude":{"max":34.65986,"variance":111.780341049943,"mean":21.2673878878142,"stdev":10.5726222409553,"min":-76.850002,"median":20.08152}},"features":[{"properties":{"city":"Cairo","name":"Cairo, Egypt","latitude":30.08374,"country":"Egypt","desc":"-","color":null,"longitude":31.25536,"id":"aczrx3o2s5e3"},"type":"Feature","geometry":{"type":"Point","coordinates":[31.25536,30.08374]}},{"properties":{"city":"Cairo","name":"Cairo, Egypt","latitude":30.08374,"country":"Egypt","desc":"-","color":null,"longitude":31.25536,"id":"aczrx3zb8q9x"},"type":"Feature","geometry":{"type":"Point","coordinates":[31.25536,30.08374]}},{"properties":{"city":"Cairo","name":"Cairo, Egypt","latitude":30.08374,"country":"Egypt","desc":"-","color":null,"longitude":31.25536,"id":"aczrx3pzkl8d"},"type":"Feature","geometry":{"type":"Point","coordinates":[31.25536,30.08374]}},{"properties":{"city":"Cairo","name":"Cairo, Egypt","latitude":30.08374,"country":"Egypt","desc":"-","color":null,"longitude":31.25536,"id":"aczrx3njncdw"},"type":"Feature","geometry":{"type":"Point","coordinates":[31.25536,30.08374]}},{"properties":{"city":"Cairo","name":"Cairo, Egypt","latitude":30.08374,"country":"Egypt","desc":"-","color":null,"longitude":31.25536,"id":"aczrx3rvlnvr"},"type":"Feature","geometry":{"type":"Point","coordinates":[31.25536,30.08374]}},{"properties":{"city":"Cairo","name":"Cairo, Egypt","latitude":30.08374,"country":"Egypt","desc":"-","color":null,"longitude":31.25536,"id":"aczrx3nvuaap"},"type":"Feature","geometry":{"type":"Point","coordinates":[31.25536,30.08374]}},{"properties":{"city":"Cairo","name":"Cairo, Egypt","latitude":30.08374,"country":"Egypt","desc":"-","color":null,"longitude":31.25536,"id":"aczrx3myo2ar"},"type":"Feature","geometry":{"type":"Point","coordinates":[31.25536,30.08374]}},{"properties":{"city":"Cairo","name":"Cairo, Egypt","latitude":30.08374,"country":"Egypt","desc":"-","color":null,"longitude":31.25536,"id":"aczrx3skocay"},"type":"Feature","geometry":{"type":"Point","coordinates":[31.25536,30.08374]}},{"properties":{"city":"Alexandria","name":"Alexandria, Egypt","latitude":31.19224,"country":"Egypt","desc":"-","color":null,"longitude":29.88987,"id":"aczrx3qudjgn"},"type":"Feature","geometry":{"type":"Point","coordinates":[29.88987,31.19224]}},{"properties":{"city":"Port Said","name":"Port Said, Egypt","latitude":31.259279,"country":"Egypt","desc":"-","color":null,"longitude":32.284458,"id":"aczrx3ofn2m5"},"type":"Feature","geometry":{"type":"Point","coordinates":[32.284458,31.259279]}},{"properties":{"city":"Port Said","name":"Port Said, Egypt","latitude":31.259279,"country":"Egypt","desc":"-","color":null,"longitude":32.284458,"id":"aczrx3nux3c9"},"type":"Feature","geometry":{"type":"Point","coordinates":[32.284458,31.259279]}},{"properties":{"city":"Port Said","name":"Port Said, Egypt","latitude":31.259279,"country":"Egypt","desc":"-","color":null,"longitude":32.284458,"id":"aczrx3q9npju"},"type":"Feature","geometry":{"type":"Point","coordinates":[32.284458,31.259279]}},{"properties":{"city":"El Arish","name":"El Arish, Egypt","latitude":31.14502,"country":"Egypt","desc":"-","color":null,"longitude":33.831902,"id":"aczrx3rmk0ef"},"type":"Feature","geometry":{"type":"Point","coordinates":[33.831902,31.14502]}},{"properties":{"city":"Cairo","name":"Cairo, Egypt","latitude":30.08374,"country":"Egypt","desc":"-","color":null,"longitude":31.25536,"id":"aczrx3nts8gj"},"type":"Feature","geometry":{"type":"Point","coordinates":[31.25536,30.08374]}},{"properties":{"city":"Cairo","name":"Cairo, Egypt","latitude":30.08374,"country":"Egypt","desc":"-","color":null,"longitude":31.25536,"id":"aczrx3r06wj7"},"type":"Feature","geometry":{"type":"Point","coordinates":[31.25536,30.08374]}},{"properties":{"city":"Cairo","name":"Cairo, Egypt","latitude":30.08374,"country":"Egypt","desc":"-","color":null,"longitude":31.25536,"id":"aczrx3vclkx6"},"type":"Feature","geometry":{"type":"Point","coordinates":[31.25536,30.08374]}},{"properties":{"city":"Ain Sokhna","name":"Ain Sokhna, Egypt","latitude":26.69636,"country":"Egypt","desc":"-","color":null,"longitude":30.465961,"id":"aczrx41gz74w"},"type":"Feature","geometry":{"type":"Point","coordinates":[30.465961,26.69636]}},{"properties":{"city":"Ismailiya","name":"Ismailiya, Egypt","latitude":30.592649,"country":"Egypt","desc":"-","color":null,"longitude":32.257011,"id":"aczrx3uf7cal"},"type":"Feature","geometry":{"type":"Point","coordinates":[32.257011,30.592649]}},{"properties":{"city":"Cairo","name":"Cairo, Egypt","latitude":30.08374,"country":"Egypt","desc":"-","color":null,"longitude":31.25536,"id":"aczrx3yv1tqx"},"type":"Feature","geometry":{"type":"Point","coordinates":[31.25536,30.08374]}},{"properties":{"city":"Abu Kibeer","name":"Abu Kibeer, Egypt","latitude":31.1833,"country":"Egypt","desc":"-","color":null,"longitude":29.883301,"id":"aczrx3npxlex"},"type":"Feature","geometry":{"type":"Point","coordinates":[29.883301,31.1833]}},{"properties":{"city":"Alexandria","name":"Alexandria, Egypt","latitude":31.19224,"country":"Egypt","desc":"-","color":null,"longitude":29.88987,"id":"aczrx3u14hdz"},"type":"Feature","geometry":{"type":"Point","coordinates":[29.88987,31.19224]}},{"properties":{"city":"Nagaa Hammadi","name":"Nagaa Hammadi, Egypt","latitude":26.69636,"country":"Egypt","desc":"-","color":null,"longitude":30.465961,"id":"aczrx3vff2po"},"type":"Feature","geometry":{"type":"Point","coordinates":[30.465961,26.69636]}},{"properties":{"city":"Beni Suef","name":"Beni Suef, Egypt","latitude":29.07847,"country":"Egypt","desc":"-","color":null,"longitude":31.08655,"id":"aczrx3tg3llr"},"type":"Feature","geometry":{"type":"Point","coordinates":[31.08655,29.07847]}},{"properties":{"city":"Cairo","name":"Cairo, Egypt","latitude":30.08374,"country":"Egypt","desc":"-","color":null,"longitude":31.25536,"id":"aczrx3otwmww"},"type":"Feature","geometry":{"type":"Point","coordinates":[31.25536,30.08374]}},{"properties":{"city":"Cairo","name":"Cairo, Egypt","latitude":30.08374,"country":"Egypt","desc":"-","color":null,"longitude":31.25536,"id":"aczrx3m6rcfb"},"type":"Feature","geometry":{"type":"Point","coordinates":[31.25536,30.08374]}},{"properties":{"city":"Cairo","name":"Cairo, Egypt","latitude":30.08374,"country":"Egypt","desc":"-","color":null,"longitude":31.25536,"id":"aczrx3q36mme"},"type":"Feature","geometry":{"type":"Point","coordinates":[31.25536,30.08374]}},{"properties":{"city":"Cairo","name":"Cairo, Egypt","latitude":30.08374,"country":"Egypt","desc":"-","color":null,"longitude":31.25536,"id":"aczrx3ra9jyl"},"type":"Feature","geometry":{"type":"Point","coordinates":[31.25536,30.08374]}},{"properties":{"city":"Cairo","name":"Cairo, Egypt","latitude":30.08374,"country":"Egypt","desc":"-","color":null,"longitude":31.25536,"id":"aczrx3nnxb0u"},"type":"Feature","geometry":{"type":"Point","coordinates":[31.25536,30.08374]}},{"properties":{"city":"Cairo","name":"Cairo, Egypt","latitude":30.08374,"country":"Egypt","desc":"-","color":null,"longitude":31.25536,"id":"aczrx3pb2saa"},"type":"Feature","geometry":{"type":"Point","coordinates":[31.25536,30.08374]}},{"properties":{"city":"Cairo","name":"Cairo, Egypt","latitude":30.08374,"country":"Egypt","desc":"-","color":null,"longitude":31.25536,"id":"aczrx3vsnwjv"},"type":"Feature","geometry":{"type":"Point","coordinates":[31.25536,30.08374]}},{"properties":{"city":"Cairo","name":"Cairo, Egypt","latitude":30.08374,"country":"Egypt","desc":"-","color":null,"longitude":31.25536,"id":"aczrx3tdk0mb"},"type":"Feature","geometry":{"type":"Point","coordinates":[31.25536,30.08374]}},{"properties":{"city":"Cairo","name":"Cairo, Egypt","latitude":30.08374,"country":"Egypt","desc":"-","color":null,"longitude":31.25536,"id":"aczrx3ze7632"},"type":"Feature","geometry":{"type":"Point","coordinates":[31.25536,30.08374]}},{"properties":{"city":"Cairo","name":"Cairo, Egypt","latitude":30.08374,"country":"Egypt","desc":"-","color":null,"longitude":31.25536,"id":"aczrx3sfxvil"},"type":"Feature","geometry":{"type":"Point","coordinates":[31.25536,30.08374]}},{"properties":{"city":"Cairo","name":"Cairo, Egypt","latitude":30.08374,"country":"Egypt","desc":"-","color":null,"longitude":31.25536,"id":"aczrx3w57pv7"},"type":"Feature","geometry":{"type":"Point","coordinates":[31.25536,30.08374]}},{"properties":{"city":"Cairo","name":"Cairo, Egypt","latitude":30.08374,"country":"Egypt","desc":"-","color":null,"longitude":31.25536,"id":"aczrx3rxzf3k"},"type":"Feature","geometry":{"type":"Point","coordinates":[31.25536,30.08374]}},{"properties":{"city":"Cairo","name":"Cairo, Egypt","latitude":30.08374,"country":"Egypt","desc":"-","color":null,"longitude":31.25536,"id":"aczrx3zzd9bc"},"type":"Feature","geometry":{"type":"Point","coordinates":[31.25536,30.08374]}},{"properties":{"city":"Cairo","name":"Cairo, Egypt","latitude":30.08374,"country":"Egypt","desc":"-","color":null,"longitude":31.25536,"id":"aczrx3twfnpp"},"type":"Feature","geometry":{"type":"Point","coordinates":[31.25536,30.08374]}},{"properties":{"city":"Cairo","name":"Cairo, Egypt","latitude":30.08374,"country":"Egypt","desc":"-","color":null,"longitude":31.25536,"id":"aczrx3vlxpd3"},"type":"Feature","geometry":{"type":"Point","coordinates":[31.25536,30.08374]}},{"properties":{"city":"Cairo","name":"Cairo, Egypt","latitude":30.08374,"country":"Egypt","desc":"-","color":null,"longitude":31.25536,"id":"aczrx3sr326x"},"type":"Feature","geometry":{"type":"Point","coordinates":[31.25536,30.08374]}},{"properties":{"city":"Cairo","name":"Cairo, Egypt","latitude":30.08374,"country":"Egypt","desc":"-","color":null,"longitude":31.25536,"id":"aczrx3lpwp0o"},"type":"Feature","geometry":{"type":"Point","coordinates":[31.25536,30.08374]}},{"properties":{"city":"Cairo","name":"Cairo, Egypt","latitude":30.08374,"country":"Egypt","desc":"-","color":null,"longitude":31.25536,"id":"aczrx3xttck7"},"type":"Feature","geometry":{"type":"Point","coordinates":[31.25536,30.08374]}},{"properties":{"city":"Cairo","name":"Cairo, Egypt","latitude":30.08374,"country":"Egypt","desc":"-","color":null,"longitude":31.25536,"id":"aczrx3mivmm9"},"type":"Feature","geometry":{"type":"Point","coordinates":[31.25536,30.08374]}},{"properties":{"city":"Cairo","name":"Cairo, Egypt","latitude":30.08374,"country":"Egypt","desc":"-","color":null,"longitude":31.25536,"id":"aczrx3qeh404"},"type":"Feature","geometry":{"type":"Point","coordinates":[31.25536,30.08374]}},{"properties":{"city":"Cairo","name":"Cairo, Egypt","latitude":30.08374,"country":"Egypt","desc":"-","color":null,"longitude":31.25536,"id":"aczrx3lqmpvi"},"type":"Feature","geometry":{"type":"Point","coordinates":[31.25536,30.08374]}},{"properties":{"city":"Cairo","name":"Cairo, Egypt","latitude":30.08374,"country":"Egypt","desc":"-","color":null,"longitude":31.25536,"id":"aczrx3ytneim"},"type":"Feature","geometry":{"type":"Point","coordinates":[31.25536,30.08374]}},{"properties":{"city":"Cairo","name":"Cairo, Egypt","latitude":30.08374,"country":"Egypt","desc":"-","color":null,"longitude":31.25536,"id":"aczrx3rdxide"},"type":"Feature","geometry":{"type":"Point","coordinates":[31.25536,30.08374]}},{"properties":{"city":"Cairo","name":"Cairo, Egypt","latitude":30.08374,"country":"Egypt","desc":"-","color":null,"longitude":31.25536,"id":"aczrx3ueykxy"},"type":"Feature","geometry":{"type":"Point","coordinates":[31.25536,30.08374]}},{"properties":{"city":"Cairo","name":"Cairo, Egypt","latitude":30.08374,"country":"Egypt","desc":"-","color":null,"longitude":31.25536,"id":"aczrx3vnt626"},"type":"Feature","geometry":{"type":"Point","coordinates":[31.25536,30.08374]}},{"properties":{"city":"Cairo","name":"Cairo, Egypt","latitude":30.08374,"country":"Egypt","desc":"-","color":null,"longitude":31.25536,"id":"aczrx3otuupb"},"type":"Feature","geometry":{"type":"Point","coordinates":[31.25536,30.08374]}},{"properties":{"city":"Cairo","name":"Cairo, Egypt","latitude":30.08374,"country":"Egypt","desc":"-","color":null,"longitude":31.25536,"id":"aczrx3rqogff"},"type":"Feature","geometry":{"type":"Point","coordinates":[31.25536,30.08374]}},{"properties":{"city":"Cairo","name":"Cairo, Egypt","latitude":30.08374,"country":"Egypt","desc":"-","color":null,"longitude":31.25536,"id":"aczrx3zfxrjs"},"type":"Feature","geometry":{"type":"Point","coordinates":[31.25536,30.08374]}},{"properties":{"city":"Cairo","name":"Cairo, Egypt","latitude":30.08374,"country":"Egypt","desc":"-","color":null,"longitude":31.25536,"id":"aczrx3s89apv"},"type":"Feature","geometry":{"type":"Point","coordinates":[31.25536,30.08374]}},{"properties":{"city":"Alexandria","name":"Alexandria, Egypt","latitude":31.19224,"country":"Egypt","desc":"-","color":null,"longitude":29.88987,"id":"aczrx4028dnw"},"type":"Feature","geometry":{"type":"Point","coordinates":[29.88987,31.19224]}},{"properties":{"city":"Suez","name":"Suez, Egypt","latitude":29.97262,"country":"Egypt","desc":"-","color":null,"longitude":32.530022,"id":"aczrx3rn0rq5"},"type":"Feature","geometry":{"type":"Point","coordinates":[32.530022,29.97262]}},{"properties":{"city":"Cairo,","name":"Cairo,, Egypt","latitude":30.08374,"country":"Egypt","desc":"-","color":null,"longitude":31.25536,"id":"aczrx3tebgce"},"type":"Feature","geometry":{"type":"Point","coordinates":[31.25536,30.08374]}},{"properties":{"city":"Cairo","name":"Cairo, Egypt","latitude":30.08374,"country":"Egypt","desc":"-","color":null,"longitude":31.25536,"id":"aczrx3uedr8q"},"type":"Feature","geometry":{"type":"Point","coordinates":[31.25536,30.08374]}},{"properties":{"city":"Alexandria","name":"Alexandria, Egypt","latitude":31.19224,"country":"Egypt","desc":"-","color":null,"longitude":29.88987,"id":"aczrx3z4kcb9"},"type":"Feature","geometry":{"type":"Point","coordinates":[29.88987,31.19224]}},{"properties":{"city":"Ismailiya","name":"Ismailiya, Egypt","latitude":30.592649,"country":"Egypt","desc":"-","color":null,"longitude":32.257011,"id":"aczrx3v0ulqa"},"type":"Feature","geometry":{"type":"Point","coordinates":[32.257011,30.592649]}},{"properties":{"city":"Suez","name":"Suez, Egypt","latitude":29.97262,"country":"Egypt","desc":"-","color":null,"longitude":32.530022,"id":"aczrx3xi9vzh"},"type":"Feature","geometry":{"type":"Point","coordinates":[32.530022,29.97262]}},{"properties":{"city":"Cairo","name":"Cairo, Egypt","latitude":30.08374,"country":"Egypt","desc":"-","color":null,"longitude":31.25536,"id":"aczrx3rbamhz"},"type":"Feature","geometry":{"type":"Point","coordinates":[31.25536,30.08374]}},{"properties":{"city":"Mansoura","name":"Mansoura, Egypt","latitude":31.04122,"country":"Egypt","desc":"-","color":null,"longitude":31.369289,"id":"aczrx3zdg3a0"},"type":"Feature","geometry":{"type":"Point","coordinates":[31.369289,31.04122]}},{"properties":{"city":"Dakahliya","name":"Dakahliya, Egypt","latitude":31.131001,"country":"Egypt","desc":"-","color":null,"longitude":29.81815,"id":"aczrx3pw5yu7"},"type":"Feature","geometry":{"type":"Point","coordinates":[29.81815,31.131001]}},{"properties":{"city":"Alexandria","name":"Alexandria, Egypt","latitude":31.19224,"country":"Egypt","desc":"-","color":null,"longitude":29.88987,"id":"aczrx3pywfog"},"type":"Feature","geometry":{"type":"Point","coordinates":[29.88987,31.19224]}},{"properties":{"city":"Cairo","name":"Cairo, Egypt","latitude":30.08374,"country":"Egypt","desc":"-","color":null,"longitude":31.25536,"id":"aczrx3vmxz30"},"type":"Feature","geometry":{"type":"Point","coordinates":[31.25536,30.08374]}},{"properties":{"city":"Hurghada","name":"Hurghada, Egypt","latitude":27.23527,"country":"Egypt","desc":"-","color":null,"longitude":33.841049,"id":"aczrx41f6rr1"},"type":"Feature","geometry":{"type":"Point","coordinates":[33.841049,27.23527]}},{"properties":{"city":"Fayyoum","name":"Fayyoum, Egypt","latitude":29.3167,"country":"Egypt","desc":"-","color":null,"longitude":30.8333,"id":"aczrx3x9om5t"},"type":"Feature","geometry":{"type":"Point","coordinates":[30.8333,29.3167]}},{"properties":{"city":"Cairo","name":"Cairo, Egypt","latitude":30.08374,"country":"Egypt","desc":"-","color":null,"longitude":31.25536,"id":"aczrx3r7aq5m"},"type":"Feature","geometry":{"type":"Point","coordinates":[31.25536,30.08374]}},{"properties":{"city":"Suez","name":"Suez, Egypt","latitude":29.97262,"country":"Egypt","desc":"-","color":null,"longitude":32.530022,"id":"aczrx3wdi5bw"},"type":"Feature","geometry":{"type":"Point","coordinates":[32.530022,29.97262]}},{"properties":{"city":"Ismailiya","name":"Ismailiya, Egypt","latitude":30.592649,"country":"Egypt","desc":"-","color":null,"longitude":32.257011,"id":"aczrx3xsllcj"},"type":"Feature","geometry":{"type":"Point","coordinates":[32.257011,30.592649]}},{"properties":{"city":"Damanhour","name":"Damanhour, Egypt","latitude":31.040835,"country":"Egypt","desc":"-","color":null,"longitude":30.466385,"id":"aczrx3p2j0z7"},"type":"Feature","geometry":{"type":"Point","coordinates":[30.466385,31.040835]}},{"properties":{"city":"Assiut","name":"Assiut, Egypt","latitude":27.18593,"country":"Egypt","desc":"-","color":null,"longitude":31.174669,"id":"aczrx3pfflq0"},"type":"Feature","geometry":{"type":"Point","coordinates":[31.174669,27.18593]}},{"properties":{"city":"Port Said","name":"Port Said, Egypt","latitude":31.259279,"country":"Egypt","desc":"-","color":null,"longitude":32.284458,"id":"aczrx3pwxr19"},"type":"Feature","geometry":{"type":"Point","coordinates":[32.284458,31.259279]}},{"properties":{"city":"Mansoura","name":"Mansoura, Egypt","latitude":31.04122,"country":"Egypt","desc":"-","color":null,"longitude":31.369289,"id":"aczrx40hixzn"},"type":"Feature","geometry":{"type":"Point","coordinates":[31.369289,31.04122]}},{"properties":{"city":"Alexandria","name":"Alexandria, Egypt","latitude":31.19224,"country":"Egypt","desc":"-","color":null,"longitude":29.88987,"id":"aczrx3s9sj9u"},"type":"Feature","geometry":{"type":"Point","coordinates":[29.88987,31.19224]}},{"properties":{"city":"Central and Southern Egypt","name":"Central and Southern Egypt, Egypt","latitude":26.69636,"country":"Egypt","desc":"-","color":null,"longitude":30.465961,"id":"aczrx3n8u0vj"},"type":"Feature","geometry":{"type":"Point","coordinates":[30.465961,26.69636]}},{"properties":{"city":"Giza","name":"Giza, Egypt","latitude":30.009575,"country":"Egypt","desc":"-","color":null,"longitude":31.213825,"id":"aczrx3s0zuqw"},"type":"Feature","geometry":{"type":"Point","coordinates":[31.213825,30.009575]}},{"properties":{"city":"Giza","name":"Giza, Egypt","latitude":30.009575,"country":"Egypt","desc":"-","color":null,"longitude":31.213825,"id":"aczrx3ur8rff"},"type":"Feature","geometry":{"type":"Point","coordinates":[31.213825,30.009575]}},{"properties":{"city":"Manfalut","name":"Manfalut, Egypt","latitude":27.30687,"country":"Egypt","desc":"-","color":null,"longitude":30.96063,"id":"aczrx3t95xpj"},"type":"Feature","geometry":{"type":"Point","coordinates":[30.96063,27.30687]}},{"properties":{"city":"Menoufia","name":"Menoufia, Egypt","latitude":30.465245,"country":"Egypt","desc":"-","color":null,"longitude":30.80559,"id":"aczrx3t5eckm"},"type":"Feature","geometry":{"type":"Point","coordinates":[30.80559,30.465245]}},{"properties":{"city":"Nationwide","name":"Nationwide, Egypt","latitude":26.69636,"country":"Egypt","desc":"-","color":null,"longitude":30.465961,"id":"aczrx3v3j5rh"},"type":"Feature","geometry":{"type":"Point","coordinates":[30.465961,26.69636]}},{"properties":{"city":"Sallum","name":"Sallum, Egypt","latitude":26.69636,"country":"Egypt","desc":"-","color":null,"longitude":30.465961,"id":"aczrx3p9qj94"},"type":"Feature","geometry":{"type":"Point","coordinates":[30.465961,26.69636]}},{"properties":{"city":"Sharm el-Sheikh","name":"Sharm el-Sheikh, Egypt","latitude":27.869585,"country":"Egypt","desc":"-","color":null,"longitude":34.30408,"id":"aczrx3up0aj5"},"type":"Feature","geometry":{"type":"Point","coordinates":[34.30408,27.869585]}},{"properties":{"city":"Sinai","name":"Sinai, Egypt","latitude":29.52709,"country":"Egypt","desc":"-","color":null,"longitude":33.604675,"id":"aczrx3zgeysv"},"type":"Feature","geometry":{"type":"Point","coordinates":[33.604675,29.52709]}},{"properties":{"city":"Cairo","name":"Cairo, Egypt","latitude":30.08374,"country":"Egypt","desc":"-","color":null,"longitude":31.25536,"id":"aczrx3xl1edw"},"type":"Feature","geometry":{"type":"Point","coordinates":[31.25536,30.08374]}},{"properties":{"city":"Cairo","name":"Cairo, Egypt","latitude":30.08374,"country":"Egypt","desc":"-","color":null,"longitude":31.25536,"id":"aczrx3n8jsqs"},"type":"Feature","geometry":{"type":"Point","coordinates":[31.25536,30.08374]}},{"properties":{"city":"Cairo","name":"Cairo, Egypt","latitude":30.08374,"country":"Egypt","desc":"-","color":null,"longitude":31.25536,"id":"aczrx3recdde"},"type":"Feature","geometry":{"type":"Point","coordinates":[31.25536,30.08374]}},{"properties":{"city":"Cairo","name":"Cairo, Egypt","latitude":30.08374,"country":"Egypt","desc":"-","color":null,"longitude":31.25536,"id":"aczrx3ta74rj"},"type":"Feature","geometry":{"type":"Point","coordinates":[31.25536,30.08374]}},{"properties":{"city":"Cairo","name":"Cairo, Egypt","latitude":30.08374,"country":"Egypt","desc":"-","color":null,"longitude":31.25536,"id":"aczrx3thaeic"},"type":"Feature","geometry":{"type":"Point","coordinates":[31.25536,30.08374]}},{"properties":{"city":"Cairo","name":"Cairo, Egypt","latitude":30.08374,"country":"Egypt","desc":"-","color":null,"longitude":31.25536,"id":"aczrx3rh1ku4"},"type":"Feature","geometry":{"type":"Point","coordinates":[31.25536,30.08374]}},{"properties":{"city":"Cairo","name":"Cairo, Egypt","latitude":30.08374,"country":"Egypt","desc":"-","color":null,"longitude":31.25536,"id":"aczrx3vmyac9"},"type":"Feature","geometry":{"type":"Point","coordinates":[31.25536,30.08374]}},{"properties":{"city":"Cairo","name":"Cairo, Egypt","latitude":30.08374,"country":"Egypt","desc":"-","color":null,"longitude":31.25536,"id":"aczrx3xvv9u2"},"type":"Feature","geometry":{"type":"Point","coordinates":[31.25536,30.08374]}},{"properties":{"city":"Cairo","name":"Cairo, Egypt","latitude":30.08374,"country":"Egypt","desc":"-","color":null,"longitude":31.25536,"id":"aczrx3wlgznv"},"type":"Feature","geometry":{"type":"Point","coordinates":[31.25536,30.08374]}},{"properties":{"city":"Cairo","name":"Cairo, Egypt","latitude":30.08374,"country":"Egypt","desc":"-","color":null,"longitude":31.25536,"id":"aczrx3y7kq4s"},"type":"Feature","geometry":{"type":"Point","coordinates":[31.25536,30.08374]}},{"properties":{"city":"Ismailiya","name":"Ismailiya, Egypt","latitude":30.592649,"country":"Egypt","desc":"-","color":null,"longitude":32.257011,"id":"aczrx40exhjd"},"type":"Feature","geometry":{"type":"Point","coordinates":[32.257011,30.592649]}},{"properties":{"city":"Nationwide","name":"Nationwide, Egypt","latitude":26.69636,"country":"Egypt","desc":"-","color":null,"longitude":30.465961,"id":"aczrx3xcguyv"},"type":"Feature","geometry":{"type":"Point","coordinates":[30.465961,26.69636]}},{"properties":{"city":"Suez","name":"Suez, Egypt","latitude":29.97262,"country":"Egypt","desc":"-","color":null,"longitude":32.530022,"id":"aczrx3lor6tk"},"type":"Feature","geometry":{"type":"Point","coordinates":[32.530022,29.97262]}},{"properties":{"city":"Asyut","name":"Asyut, Egypt","latitude":27.18593,"country":"Egypt","desc":"-","color":null,"longitude":31.174669,"id":"aczrx3qwv696"},"type":"Feature","geometry":{"type":"Point","coordinates":[31.174669,27.18593]}},{"properties":{"city":"Cairo","name":"Cairo, Egypt","latitude":30.08374,"country":"Egypt","desc":"-","color":null,"longitude":31.25536,"id":"aczrx3whhzu1"},"type":"Feature","geometry":{"type":"Point","coordinates":[31.25536,30.08374]}},{"properties":{"city":"Cairo","name":"Cairo, Egypt","latitude":30.08374,"country":"Egypt","desc":"-","color":null,"longitude":31.25536,"id":"aczrx3pc6coj"},"type":"Feature","geometry":{"type":"Point","coordinates":[31.25536,30.08374]}},{"properties":{"city":"Cairo","name":"Cairo, Egypt","latitude":30.08374,"country":"Egypt","desc":"-","color":null,"longitude":31.25536,"id":"aczrx3rxa1cm"},"type":"Feature","geometry":{"type":"Point","coordinates":[31.25536,30.08374]}},{"properties":{"city":"Cairo","name":"Cairo, Egypt","latitude":30.08374,"country":"Egypt","desc":"-","color":null,"longitude":31.25536,"id":"aczrx3uzoeaz"},"type":"Feature","geometry":{"type":"Point","coordinates":[31.25536,30.08374]}},{"properties":{"city":"Cairo","name":"Cairo, Egypt","latitude":30.08374,"country":"Egypt","desc":"-","color":null,"longitude":31.25536,"id":"aczrx3qqjz5i"},"type":"Feature","geometry":{"type":"Point","coordinates":[31.25536,30.08374]}},{"properties":{"city":"Fargallah","name":"Fargallah, Egypt","latitude":26.69636,"country":"Egypt","desc":"-","color":null,"longitude":30.465961,"id":"aczrx3zw2fis"},"type":"Feature","geometry":{"type":"Point","coordinates":[30.465961,26.69636]}},{"properties":{"city":"Cairo","name":"Cairo, Egypt","latitude":30.08374,"country":"Egypt","desc":"-","color":null,"longitude":31.25536,"id":"aczrx3rkqa8r"},"type":"Feature","geometry":{"type":"Point","coordinates":[31.25536,30.08374]}},{"properties":{"city":"Nationwide","name":"Nationwide, Egypt","latitude":26.69636,"country":"Egypt","desc":"-","color":null,"longitude":30.465961,"id":"aczrx3q8nmxd"},"type":"Feature","geometry":{"type":"Point","coordinates":[30.465961,26.69636]}},{"properties":{"city":"Nationwide","name":"Nationwide, Egypt","latitude":26.69636,"country":"Egypt","desc":"-","color":null,"longitude":30.465961,"id":"aczrx3sev5mh"},"type":"Feature","geometry":{"type":"Point","coordinates":[30.465961,26.69636]}},{"properties":{"city":"Al-Goura","name":"Al-Goura, Egypt","latitude":26.69636,"country":"Egypt","desc":"-","color":null,"longitude":30.465961,"id":"aczrx3zjimvm"},"type":"Feature","geometry":{"type":"Point","coordinates":[30.465961,26.69636]}},{"properties":{"city":"Dahab","name":"Dahab, Egypt","latitude":28.98237,"country":"Egypt","desc":"-","color":null,"longitude":34.65986,"id":"aczrx3prj17y"},"type":"Feature","geometry":{"type":"Point","coordinates":[34.65986,28.98237]}},{"properties":{"city":"Israeli Border","name":"Israeli Border, Egypt","latitude":26.69636,"country":"Egypt","desc":"-","color":null,"longitude":30.465961,"id":"aczrx405ym75"},"type":"Feature","geometry":{"type":"Point","coordinates":[30.465961,26.69636]}},{"properties":{"city":"Nakhl","name":"Nakhl, Egypt","latitude":29.90266,"country":"Egypt","desc":"-","color":null,"longitude":33.746311,"id":"aczrx40xz8k3"},"type":"Feature","geometry":{"type":"Point","coordinates":[33.746311,29.90266]}},{"properties":{"city":"Northern Sinai","name":"Northern Sinai, Egypt","latitude":29.52709,"country":"Egypt","desc":"-","color":null,"longitude":33.604675,"id":"aczrx3rgcbbs"},"type":"Feature","geometry":{"type":"Point","coordinates":[33.604675,29.52709]}},{"properties":{"city":"Sinai","name":"Sinai, Egypt","latitude":29.52709,"country":"Egypt","desc":"-","color":null,"longitude":33.604675,"id":"aczrx40j9jrx"},"type":"Feature","geometry":{"type":"Point","coordinates":[33.604675,29.52709]}},{"properties":{"city":"Sinai","name":"Sinai, Egypt","latitude":29.52709,"country":"Egypt","desc":"-","color":null,"longitude":33.604675,"id":"aczrx3my7bky"},"type":"Feature","geometry":{"type":"Point","coordinates":[33.604675,29.52709]}},{"properties":{"city":"Sinai","name":"Sinai, Egypt","latitude":29.52709,"country":"Egypt","desc":"-","color":null,"longitude":33.604675,"id":"aczrx3rod9dv"},"type":"Feature","geometry":{"type":"Point","coordinates":[33.604675,29.52709]}},{"properties":{"city":"Sinai","name":"Sinai, Egypt","latitude":29.52709,"country":"Egypt","desc":"-","color":null,"longitude":33.604675,"id":"aczrx3qde4nl"},"type":"Feature","geometry":{"type":"Point","coordinates":[33.604675,29.52709]}},{"properties":{"city":"Sinai","name":"Sinai, Egypt","latitude":29.52709,"country":"Egypt","desc":"-","color":null,"longitude":33.604675,"id":"aczrx3s3pr6i"},"type":"Feature","geometry":{"type":"Point","coordinates":[33.604675,29.52709]}},{"properties":{"city":"Sinai","name":"Sinai, Egypt","latitude":29.52709,"country":"Egypt","desc":"-","color":null,"longitude":33.604675,"id":"aczrx3zynk0h"},"type":"Feature","geometry":{"type":"Point","coordinates":[33.604675,29.52709]}},{"properties":{"city":"Wadi-al Soal","name":"Wadi-al Soal, Egypt","latitude":26.69636,"country":"Egypt","desc":"-","color":null,"longitude":30.465961,"id":"aczrx40lww55"},"type":"Feature","geometry":{"type":"Point","coordinates":[30.465961,26.69636]}},{"properties":{"city":"al-Samata","name":"al-Samata, Egypt","latitude":26.69636,"country":"Egypt","desc":"-","color":null,"longitude":30.465961,"id":"aczrx3lt88t3"},"type":"Feature","geometry":{"type":"Point","coordinates":[30.465961,26.69636]}},{"properties":{"city":"Cairo","name":"Cairo, Egypt","latitude":30.08374,"country":"Egypt","desc":"-","color":null,"longitude":31.25536,"id":"aczrx3ssoib2"},"type":"Feature","geometry":{"type":"Point","coordinates":[31.25536,30.08374]}},{"properties":{"city":"Cairo","name":"Cairo, Egypt","latitude":30.08374,"country":"Egypt","desc":"-","color":null,"longitude":31.25536,"id":"aczrx3r64dr7"},"type":"Feature","geometry":{"type":"Point","coordinates":[31.25536,30.08374]}},{"properties":{"city":"Cairo","name":"Cairo, Egypt","latitude":30.08374,"country":"Egypt","desc":"-","color":null,"longitude":31.25536,"id":"aczrx3luxr4l"},"type":"Feature","geometry":{"type":"Point","coordinates":[31.25536,30.08374]}},{"properties":{"city":"Cairo","name":"Cairo, Egypt","latitude":30.08374,"country":"Egypt","desc":"-","color":null,"longitude":31.25536,"id":"aczrx3wpanlx"},"type":"Feature","geometry":{"type":"Point","coordinates":[31.25536,30.08374]}},{"properties":{"city":"Cairo","name":"Cairo, Egypt","latitude":30.08374,"country":"Egypt","desc":"-","color":null,"longitude":31.25536,"id":"aczrx3zbx2eu"},"type":"Feature","geometry":{"type":"Point","coordinates":[31.25536,30.08374]}},{"properties":{"city":"Suez","name":"Suez, Egypt","latitude":29.97262,"country":"Egypt","desc":"-","color":null,"longitude":32.530022,"id":"aczrx3wdhxit"},"type":"Feature","geometry":{"type":"Point","coordinates":[32.530022,29.97262]}},{"properties":{"city":"Hurghada","name":"Hurghada, Egypt","latitude":27.23527,"country":"Egypt","desc":"-","color":null,"longitude":33.841049,"id":"aczrx3w4atzp"},"type":"Feature","geometry":{"type":"Point","coordinates":[33.841049,27.23527]}},{"properties":{"city":"Nationwide","name":"Nationwide, Egypt","latitude":26.69636,"country":"Egypt","desc":"-","color":null,"longitude":30.465961,"id":"aczrx3mpyxkv"},"type":"Feature","geometry":{"type":"Point","coordinates":[30.465961,26.69636]}},{"properties":{"city":"Cairo","name":"Cairo, Egypt","latitude":30.08374,"country":"Egypt","desc":"-","color":null,"longitude":31.25536,"id":"aczrx3llcuuc"},"type":"Feature","geometry":{"type":"Point","coordinates":[31.25536,30.08374]}},{"properties":{"city":"El Arish","name":"El Arish, Egypt","latitude":31.14502,"country":"Egypt","desc":"-","color":null,"longitude":33.831902,"id":"aczrx3q8y93l"},"type":"Feature","geometry":{"type":"Point","coordinates":[33.831902,31.14502]}},{"properties":{"city":"El-Arish","name":"El-Arish, Egypt","latitude":31.14502,"country":"Egypt","desc":"-","color":null,"longitude":33.831902,"id":"aczrx3vm57fb"},"type":"Feature","geometry":{"type":"Point","coordinates":[33.831902,31.14502]}},{"properties":{"city":"Karm Abu Salem","name":"Karm Abu Salem, Egypt","latitude":18.2833,"country":"Egypt","desc":"-","color":null,"longitude":-76.850002,"id":"aczrx3ru2jt6"},"type":"Feature","geometry":{"type":"Point","coordinates":[-76.850002,18.2833]}},{"properties":{"city":"Rafah","name":"Rafah, Egypt","latitude":31.24863,"country":"Egypt","desc":"-","color":null,"longitude":34.256661,"id":"aczrx3np41ae"},"type":"Feature","geometry":{"type":"Point","coordinates":[34.256661,31.24863]}},{"properties":{"city":"Rafah","name":"Rafah, Egypt","latitude":31.24863,"country":"Egypt","desc":"-","color":null,"longitude":34.256661,"id":"aczrx3zlh851"},"type":"Feature","geometry":{"type":"Point","coordinates":[34.256661,31.24863]}},{"properties":{"city":"Sheikh Zweid","name":"Sheikh Zweid, Egypt","latitude":31.2806,"country":"Egypt","desc":"-","color":null,"longitude":32.243099,"id":"aczrx3rt4mih"},"type":"Feature","geometry":{"type":"Point","coordinates":[32.243099,31.2806]}},{"properties":{"city":"Sinai","name":"Sinai, Egypt","latitude":29.52709,"country":"Egypt","desc":"-","color":null,"longitude":33.604675,"id":"aczrx3y4sajx"},"type":"Feature","geometry":{"type":"Point","coordinates":[33.604675,29.52709]}},{"properties":{"city":"El-Arish","name":"El-Arish, Egypt","latitude":31.14502,"country":"Egypt","desc":"-","color":null,"longitude":33.831902,"id":"aczrx3z7m8vk"},"type":"Feature","geometry":{"type":"Point","coordinates":[33.831902,31.14502]}},{"properties":{"city":"Cairo","name":"Cairo, Egypt","latitude":30.08374,"country":"Egypt","desc":"-","color":null,"longitude":31.25536,"id":"aczrx40t1f8y"},"type":"Feature","geometry":{"type":"Point","coordinates":[31.25536,30.08374]}},{"properties":{"city":"Alexandria","name":"Alexandria, Egypt","latitude":31.19224,"country":"Egypt","desc":"-","color":null,"longitude":29.88987,"id":"aczrx3sx2uc8"},"type":"Feature","geometry":{"type":"Point","coordinates":[29.88987,31.19224]}},{"properties":{"city":"Cairo","name":"Cairo, Egypt","latitude":30.08374,"country":"Egypt","desc":"-","color":null,"longitude":31.25536,"id":"aczrx3yjq7so"},"type":"Feature","geometry":{"type":"Point","coordinates":[31.25536,30.08374]}},{"properties":{"city":"Cairo","name":"Cairo, Egypt","latitude":30.08374,"country":"Egypt","desc":"-","color":null,"longitude":31.25536,"id":"aczrx3vl7kft"},"type":"Feature","geometry":{"type":"Point","coordinates":[31.25536,30.08374]}},{"properties":{"city":"Cairo","name":"Cairo, Egypt","latitude":30.08374,"country":"Egypt","desc":"-","color":null,"longitude":31.25536,"id":"aczrx3n5y1os"},"type":"Feature","geometry":{"type":"Point","coordinates":[31.25536,30.08374]}},{"properties":{"city":"Cairo","name":"Cairo, Egypt","latitude":30.08374,"country":"Egypt","desc":"-","color":null,"longitude":31.25536,"id":"aczrx3vyuc7u"},"type":"Feature","geometry":{"type":"Point","coordinates":[31.25536,30.08374]}},{"properties":{"city":"Cairo","name":"Cairo, Egypt","latitude":30.08374,"country":"Egypt","desc":"-","color":null,"longitude":31.25536,"id":"aczrx3w020c2"},"type":"Feature","geometry":{"type":"Point","coordinates":[31.25536,30.08374]}},{"properties":{"city":"Cairo","name":"Cairo, Egypt","latitude":30.08374,"country":"Egypt","desc":"-","color":null,"longitude":31.25536,"id":"aczrx3rsqwx1"},"type":"Feature","geometry":{"type":"Point","coordinates":[31.25536,30.08374]}},{"properties":{"city":"Cairo","name":"Cairo, Egypt","latitude":30.08374,"country":"Egypt","desc":"-","color":null,"longitude":31.25536,"id":"aczrx3m1szms"},"type":"Feature","geometry":{"type":"Point","coordinates":[31.25536,30.08374]}},{"properties":{"city":"Qena","name":"Qena, Egypt","latitude":26.1667,"country":"Egypt","desc":"-","color":null,"longitude":32.716702,"id":"aczrx3vssu8v"},"type":"Feature","geometry":{"type":"Point","coordinates":[32.716702,26.1667]}},{"properties":{"city":"Nationwide","name":"Nationwide, Egypt","latitude":26.69636,"country":"Egypt","desc":"-","color":null,"longitude":30.465961,"id":"aczrx40fkdbq"},"type":"Feature","geometry":{"type":"Point","coordinates":[30.465961,26.69636]}},{"properties":{"city":"Nationwide","name":"Nationwide, Egypt","latitude":26.69636,"country":"Egypt","desc":"-","color":null,"longitude":30.465961,"id":"aczrx3rug7o0"},"type":"Feature","geometry":{"type":"Point","coordinates":[30.465961,26.69636]}},{"properties":{"city":"Alexandria","name":"Alexandria, Egypt","latitude":31.19224,"country":"Egypt","desc":"-","color":null,"longitude":29.88987,"id":"aczrx3q5vbi8"},"type":"Feature","geometry":{"type":"Point","coordinates":[29.88987,31.19224]}},{"properties":{"city":"Cairo","name":"Cairo, Egypt","latitude":30.08374,"country":"Egypt","desc":"-","color":null,"longitude":31.25536,"id":"aczrx3o7sbqi"},"type":"Feature","geometry":{"type":"Point","coordinates":[31.25536,30.08374]}},{"properties":{"city":"Cairo","name":"Cairo, Egypt","latitude":30.08374,"country":"Egypt","desc":"-","color":null,"longitude":31.25536,"id":"aczrx3ubzldi"},"type":"Feature","geometry":{"type":"Point","coordinates":[31.25536,30.08374]}},{"properties":{"city":"Cairo","name":"Cairo, Egypt","latitude":30.08374,"country":"Egypt","desc":"-","color":null,"longitude":31.25536,"id":"aczrx3y6p899"},"type":"Feature","geometry":{"type":"Point","coordinates":[31.25536,30.08374]}},{"properties":{"city":"Cairo","name":"Cairo, Egypt","latitude":30.08374,"country":"Egypt","desc":"-","color":null,"longitude":31.25536,"id":"aczrx3w354qm"},"type":"Feature","geometry":{"type":"Point","coordinates":[31.25536,30.08374]}},{"properties":{"city":"Cairo","name":"Cairo, Egypt","latitude":30.08374,"country":"Egypt","desc":"-","color":null,"longitude":31.25536,"id":"aczrx3z61y2f"},"type":"Feature","geometry":{"type":"Point","coordinates":[31.25536,30.08374]}},{"properties":{"city":"Cairo","name":"Cairo, Egypt","latitude":30.08374,"country":"Egypt","desc":"-","color":null,"longitude":31.25536,"id":"aczrx3xlhe9j"},"type":"Feature","geometry":{"type":"Point","coordinates":[31.25536,30.08374]}},{"properties":{"city":"Cairo","name":"Cairo, Egypt","latitude":30.08374,"country":"Egypt","desc":"-","color":null,"longitude":31.25536,"id":"aczrx3vdt19i"},"type":"Feature","geometry":{"type":"Point","coordinates":[31.25536,30.08374]}},{"properties":{"city":"Cairo","name":"Cairo, Egypt","latitude":30.08374,"country":"Egypt","desc":"-","color":null,"longitude":31.25536,"id":"aczrx3mke5kt"},"type":"Feature","geometry":{"type":"Point","coordinates":[31.25536,30.08374]}},{"properties":{"city":"Cairo","name":"Cairo, Egypt","latitude":30.08374,"country":"Egypt","desc":"-","color":null,"longitude":31.25536,"id":"aczrx3v37xdd"},"type":"Feature","geometry":{"type":"Point","coordinates":[31.25536,30.08374]}},{"properties":{"city":"Cairo","name":"Cairo, Egypt","latitude":30.08374,"country":"Egypt","desc":"-","color":null,"longitude":31.25536,"id":"aczrx41bi7kc"},"type":"Feature","geometry":{"type":"Point","coordinates":[31.25536,30.08374]}},{"properties":{"city":"Cairo","name":"Cairo, Egypt","latitude":30.08374,"country":"Egypt","desc":"-","color":null,"longitude":31.25536,"id":"aczrx40cpnc2"},"type":"Feature","geometry":{"type":"Point","coordinates":[31.25536,30.08374]}},{"properties":{"city":"Assiut","name":"Assiut, Egypt","latitude":27.18593,"country":"Egypt","desc":"-","color":null,"longitude":31.174669,"id":"aczrx3w3ro08"},"type":"Feature","geometry":{"type":"Point","coordinates":[31.174669,27.18593]}},{"properties":{"city":"Cairo","name":"Cairo, Egypt","latitude":30.08374,"country":"Egypt","desc":"-","color":null,"longitude":31.25536,"id":"aczrx3yewpdc"},"type":"Feature","geometry":{"type":"Point","coordinates":[31.25536,30.08374]}},{"properties":{"city":"al-Ghureizat","name":"al-Ghureizat, Egypt","latitude":26.69636,"country":"Egypt","desc":"-","color":null,"longitude":30.465961,"id":"aczrx407wvxn"},"type":"Feature","geometry":{"type":"Point","coordinates":[30.465961,26.69636]}},{"properties":{"city":"Assuit province","name":"Assuit province, Egypt","latitude":27.18593,"country":"Egypt","desc":"-","color":null,"longitude":31.174669,"id":"aczrx3u6n3d1"},"type":"Feature","geometry":{"type":"Point","coordinates":[31.174669,27.18593]}},{"properties":{"city":"Cairo","name":"Cairo, Egypt","latitude":30.08374,"country":"Egypt","desc":"-","color":null,"longitude":31.25536,"id":"aczrx3magjty"},"type":"Feature","geometry":{"type":"Point","coordinates":[31.25536,30.08374]}},{"properties":{"city":"Cairo","name":"Cairo, Egypt","latitude":30.08374,"country":"Egypt","desc":"-","color":null,"longitude":31.25536,"id":"aczrx3xiwjid"},"type":"Feature","geometry":{"type":"Point","coordinates":[31.25536,30.08374]}},{"properties":{"city":"Cairo","name":"Cairo, Egypt","latitude":30.08374,"country":"Egypt","desc":"-","color":null,"longitude":31.25536,"id":"aczrx41gwizr"},"type":"Feature","geometry":{"type":"Point","coordinates":[31.25536,30.08374]}},{"properties":{"city":"Dashour","name":"Dashour, Egypt","latitude":26.69636,"country":"Egypt","desc":"-","color":null,"longitude":30.465961,"id":"aczrx3spaarc"},"type":"Feature","geometry":{"type":"Point","coordinates":[30.465961,26.69636]}},{"properties":{"city":"Merinab","name":"Merinab, Egypt","latitude":26.69636,"country":"Egypt","desc":"-","color":null,"longitude":30.465961,"id":"aczrx3m1fxsz"},"type":"Feature","geometry":{"type":"Point","coordinates":[30.465961,26.69636]}},{"properties":{"city":"Sharbat","name":"Sharbat, Egypt","latitude":26.69636,"country":"Egypt","desc":"-","color":null,"longitude":30.465961,"id":"aczrx3qslacq"},"type":"Feature","geometry":{"type":"Point","coordinates":[30.465961,26.69636]}},{"properties":{"city":"Cairo","name":"Cairo, Egypt","latitude":30.08374,"country":"Egypt","desc":"-","color":null,"longitude":31.25536,"id":"aczrx3olykiu"},"type":"Feature","geometry":{"type":"Point","coordinates":[31.25536,30.08374]}},{"properties":{"city":"Cairo","name":"Cairo, Egypt","latitude":30.08374,"country":"Egypt","desc":"-","color":null,"longitude":31.25536,"id":"aczrx41hf5v4"},"type":"Feature","geometry":{"type":"Point","coordinates":[31.25536,30.08374]}},{"properties":{"city":"Cairo","name":"Cairo, Egypt","latitude":30.08374,"country":"Egypt","desc":"-","color":null,"longitude":31.25536,"id":"aczrx415w2zm"},"type":"Feature","geometry":{"type":"Point","coordinates":[31.25536,30.08374]}},{"properties":{"city":"Alexandria","name":"Alexandria, Egypt","latitude":31.19224,"country":"Egypt","desc":"-","color":null,"longitude":29.88987,"id":"aczrx3yikfxr"},"type":"Feature","geometry":{"type":"Point","coordinates":[29.88987,31.19224]}},{"properties":{"city":"Cairo","name":"Cairo, Egypt","latitude":30.08374,"country":"Egypt","desc":"-","color":null,"longitude":31.25536,"id":"aczrx3swpc2c"},"type":"Feature","geometry":{"type":"Point","coordinates":[31.25536,30.08374]}},{"properties":{"city":"Cairo","name":"Cairo, Egypt","latitude":30.08374,"country":"Egypt","desc":"-","color":null,"longitude":31.25536,"id":"aczrx3qs4kjw"},"type":"Feature","geometry":{"type":"Point","coordinates":[31.25536,30.08374]}},{"properties":{"city":"El-Arish","name":"El-Arish, Egypt","latitude":31.14502,"country":"Egypt","desc":"-","color":null,"longitude":33.831902,"id":"aczrx3rxjeo8"},"type":"Feature","geometry":{"type":"Point","coordinates":[33.831902,31.14502]}},{"properties":{"city":"Ismailiya","name":"Ismailiya, Egypt","latitude":30.592649,"country":"Egypt","desc":"-","color":null,"longitude":32.257011,"id":"aczrx3o5mkz3"},"type":"Feature","geometry":{"type":"Point","coordinates":[32.257011,30.592649]}},{"properties":{"city":"Cairo","name":"Cairo, Egypt","latitude":30.08374,"country":"Egypt","desc":"-","color":null,"longitude":31.25536,"id":"aczrx3tx079j"},"type":"Feature","geometry":{"type":"Point","coordinates":[31.25536,30.08374]}},{"properties":{"city":"Alexandria","name":"Alexandria, Egypt","latitude":31.19224,"country":"Egypt","desc":"-","color":null,"longitude":29.88987,"id":"aczrx3w179zl"},"type":"Feature","geometry":{"type":"Point","coordinates":[29.88987,31.19224]}},{"properties":{"city":"Cairo","name":"Cairo, Egypt","latitude":30.08374,"country":"Egypt","desc":"-","color":null,"longitude":31.25536,"id":"aczrx3wxkvva"},"type":"Feature","geometry":{"type":"Point","coordinates":[31.25536,30.08374]}},{"properties":{"city":"Alexandria","name":"Alexandria, Egypt","latitude":31.19224,"country":"Egypt","desc":"-","color":null,"longitude":29.88987,"id":"aczrx3vy333v"},"type":"Feature","geometry":{"type":"Point","coordinates":[29.88987,31.19224]}},{"properties":{"city":"Cairo","name":"Cairo, Egypt","latitude":30.08374,"country":"Egypt","desc":"-","color":null,"longitude":31.25536,"id":"aczrx3xgptf6"},"type":"Feature","geometry":{"type":"Point","coordinates":[31.25536,30.08374]}},{"properties":{"city":"Cairo","name":"Cairo, Egypt","latitude":30.08374,"country":"Egypt","desc":"-","color":null,"longitude":31.25536,"id":"aczrx3y3337g"},"type":"Feature","geometry":{"type":"Point","coordinates":[31.25536,30.08374]}},{"properties":{"city":"Cairo","name":"Cairo, Egypt","latitude":30.08374,"country":"Egypt","desc":"-","color":null,"longitude":31.25536,"id":"aczrx44x2act"},"type":"Feature","geometry":{"type":"Point","coordinates":[31.25536,30.08374]}},{"properties":{"city":"Cairo","name":"Cairo, Egypt","latitude":30.08374,"country":"Egypt","desc":"-","color":null,"longitude":31.25536,"id":"aczrx4i32gwt"},"type":"Feature","geometry":{"type":"Point","coordinates":[31.25536,30.08374]}},{"properties":{"city":"Nationwide","name":"Nationwide, Egypt","latitude":26.69636,"country":"Egypt","desc":"-","color":null,"longitude":30.465961,"id":"aczrx4ihwg6a"},"type":"Feature","geometry":{"type":"Point","coordinates":[30.465961,26.69636]}},{"properties":{"city":"Cairo","name":"Cairo, Egypt","latitude":30.08374,"country":"Egypt","desc":"-","color":null,"longitude":31.25536,"id":"aczrx44jfeus"},"type":"Feature","geometry":{"type":"Point","coordinates":[31.25536,30.08374]}},{"properties":{"city":"Awlad Khalifa","name":"Awlad Khalifa, Egypt","latitude":30.027465,"country":"Egypt","desc":"-","color":null,"longitude":31.251935,"id":"aczrx4h0u1gk"},"type":"Feature","geometry":{"type":"Point","coordinates":[31.251935,30.027465]}},{"properties":{"city":"Awlad Yehiya","name":"Awlad Yehiya, Egypt","latitude":26.69636,"country":"Egypt","desc":"-","color":null,"longitude":30.465961,"id":"aczrx4b5itvn"},"type":"Feature","geometry":{"type":"Point","coordinates":[30.465961,26.69636]}},{"properties":{"city":"40 km west of El Arish","name":"40 km west of El Arish, Egypt","latitude":31.145024,"country":"Egypt","desc":"-","color":null,"longitude":33.831902,"id":"aczrx4fviqse"},"type":"Feature","geometry":{"type":"Point","coordinates":[33.831902,31.145024]}},{"properties":{"city":"Bir al-Abd","name":"Bir al-Abd, Egypt","latitude":26.69636,"country":"Egypt","desc":"-","color":null,"longitude":30.465961,"id":"aczrx4g4vk5n"},"type":"Feature","geometry":{"type":"Point","coordinates":[30.465961,26.69636]}},{"properties":{"city":"El Arish","name":"El Arish, Egypt","latitude":31.14502,"country":"Egypt","desc":"-","color":null,"longitude":33.831902,"id":"aczrx4icnyii"},"type":"Feature","geometry":{"type":"Point","coordinates":[33.831902,31.14502]}},{"properties":{"city":"Sinai","name":"Sinai, Egypt","latitude":29.52709,"country":"Egypt","desc":"-","color":null,"longitude":33.604675,"id":"aczrx464wnkq"},"type":"Feature","geometry":{"type":"Point","coordinates":[33.604675,29.52709]}},{"properties":{"city":"Sinai","name":"Sinai, Egypt","latitude":29.52709,"country":"Egypt","desc":"-","color":null,"longitude":33.604675,"id":"aczrx4aaodfk"},"type":"Feature","geometry":{"type":"Point","coordinates":[33.604675,29.52709]}},{"properties":{"city":"El Arish","name":"El Arish, Egypt","latitude":31.14502,"country":"Egypt","desc":"-","color":null,"longitude":33.831902,"id":"aczrx43qgllj"},"type":"Feature","geometry":{"type":"Point","coordinates":[33.831902,31.14502]}},{"properties":{"city":"Cairo","name":"Cairo, Egypt","latitude":30.08374,"country":"Egypt","desc":"-","color":null,"longitude":31.25536,"id":"aczrx4agiqdy"},"type":"Feature","geometry":{"type":"Point","coordinates":[31.25536,30.08374]}},{"properties":{"city":"Cairo","name":"Cairo, Egypt","latitude":30.08374,"country":"Egypt","desc":"-","color":null,"longitude":31.25536,"id":"aczrx4ete1lb"},"type":"Feature","geometry":{"type":"Point","coordinates":[31.25536,30.08374]}},{"properties":{"city":"Cairo","name":"Cairo, Egypt","latitude":30.08374,"country":"Egypt","desc":"-","color":null,"longitude":31.25536,"id":"aczrx488jve3"},"type":"Feature","geometry":{"type":"Point","coordinates":[31.25536,30.08374]}},{"properties":{"city":"Cairo","name":"Cairo, Egypt","latitude":30.08374,"country":"Egypt","desc":"-","color":null,"longitude":31.25536,"id":"aczrx48mdhle"},"type":"Feature","geometry":{"type":"Point","coordinates":[31.25536,30.08374]}},{"properties":{"city":"Cairo","name":"Cairo, Egypt","latitude":30.08374,"country":"Egypt","desc":"-","color":null,"longitude":31.25536,"id":"aczrx46y2g00"},"type":"Feature","geometry":{"type":"Point","coordinates":[31.25536,30.08374]}},{"properties":{"city":"Alexandria","name":"Alexandria, Egypt","latitude":31.19224,"country":"Egypt","desc":"-","color":null,"longitude":29.88987,"id":"aczrx435gkui"},"type":"Feature","geometry":{"type":"Point","coordinates":[29.88987,31.19224]}},{"properties":{"city":"Cairo","name":"Cairo, Egypt","latitude":30.08374,"country":"Egypt","desc":"-","color":null,"longitude":31.25536,"id":"aczrx4932f91"},"type":"Feature","geometry":{"type":"Point","coordinates":[31.25536,30.08374]}},{"properties":{"city":"Cairo","name":"Cairo, Egypt","latitude":30.08374,"country":"Egypt","desc":"-","color":null,"longitude":31.25536,"id":"aczrx4dsbqym"},"type":"Feature","geometry":{"type":"Point","coordinates":[31.25536,30.08374]}},{"properties":{"city":"Cairo","name":"Cairo, Egypt","latitude":30.08374,"country":"Egypt","desc":"-","color":null,"longitude":31.25536,"id":"aczrx44zga94"},"type":"Feature","geometry":{"type":"Point","coordinates":[31.25536,30.08374]}},{"properties":{"city":"Cairo and Suez","name":"Cairo and Suez, Egypt","latitude":30.04995,"country":"Egypt","desc":"-","color":null,"longitude":31.248605,"id":"aczrx4ghxbu4"},"type":"Feature","geometry":{"type":"Point","coordinates":[31.248605,30.04995]}},{"properties":{"city":"Cairo","name":"Cairo, Egypt","latitude":30.08374,"country":"Egypt","desc":"-","color":null,"longitude":31.25536,"id":"aczrx45smq2i"},"type":"Feature","geometry":{"type":"Point","coordinates":[31.25536,30.08374]}},{"properties":{"city":"Ismailiya","name":"Ismailiya, Egypt","latitude":30.592649,"country":"Egypt","desc":"-","color":null,"longitude":32.257011,"id":"aczrx4arm27k"},"type":"Feature","geometry":{"type":"Point","coordinates":[32.257011,30.592649]}},{"properties":{"city":"Alexandria","name":"Alexandria, Egypt","latitude":31.19224,"country":"Egypt","desc":"-","color":null,"longitude":29.88987,"id":"aczrx4f297re"},"type":"Feature","geometry":{"type":"Point","coordinates":[29.88987,31.19224]}},{"properties":{"city":"Zagazig","name":"Zagazig, Egypt","latitude":30.5833,"country":"Egypt","desc":"-","color":null,"longitude":31.516701,"id":"aczrx4c0e9jb"},"type":"Feature","geometry":{"type":"Point","coordinates":[31.516701,30.5833]}},{"properties":{"city":"Suez","name":"Suez, Egypt","latitude":29.97262,"country":"Egypt","desc":"-","color":null,"longitude":32.530022,"id":"aczrx4c7h76v"},"type":"Feature","geometry":{"type":"Point","coordinates":[32.530022,29.97262]}},{"properties":{"city":"Cairo","name":"Cairo, Egypt","latitude":30.08374,"country":"Egypt","desc":"-","color":null,"longitude":31.25536,"id":"aczrx4aeaewx"},"type":"Feature","geometry":{"type":"Point","coordinates":[31.25536,30.08374]}},{"properties":{"city":"Nationwide","name":"Nationwide, Egypt","latitude":26.69636,"country":"Egypt","desc":"-","color":null,"longitude":30.465961,"id":"aczrx48dntvr"},"type":"Feature","geometry":{"type":"Point","coordinates":[30.465961,26.69636]}},{"properties":{"city":"Nationwide","name":"Nationwide, Egypt","latitude":26.69636,"country":"Egypt","desc":"-","color":null,"longitude":30.465961,"id":"aczrx4auvhdq"},"type":"Feature","geometry":{"type":"Point","coordinates":[30.465961,26.69636]}},{"properties":{"city":"Cairo","name":"Cairo, Egypt","latitude":30.08374,"country":"Egypt","desc":"-","color":null,"longitude":31.25536,"id":"aczrx48bef96"},"type":"Feature","geometry":{"type":"Point","coordinates":[31.25536,30.08374]}},{"properties":{"city":"Cairo","name":"Cairo, Egypt","latitude":30.08374,"country":"Egypt","desc":"-","color":null,"longitude":31.25536,"id":"aczrx47ippu7"},"type":"Feature","geometry":{"type":"Point","coordinates":[31.25536,30.08374]}},{"properties":{"city":"Mahalla al-Kubra","name":"Mahalla al-Kubra, Egypt","latitude":26.69636,"country":"Egypt","desc":"-","color":null,"longitude":30.465961,"id":"aczrx49ayz9w"},"type":"Feature","geometry":{"type":"Point","coordinates":[30.465961,26.69636]}},{"properties":{"city":"Cairo","name":"Cairo, Egypt","latitude":30.08374,"country":"Egypt","desc":"-","color":null,"longitude":31.25536,"id":"aczrx47f2n08"},"type":"Feature","geometry":{"type":"Point","coordinates":[31.25536,30.08374]}},{"properties":{"city":"Al-Midan","name":"Al-Midan, Egypt","latitude":26.69636,"country":"Egypt","desc":"-","color":null,"longitude":30.465961,"id":"aczrx4dwhdyl"},"type":"Feature","geometry":{"type":"Point","coordinates":[30.465961,26.69636]}},{"properties":{"city":"Cairo","name":"Cairo, Egypt","latitude":30.08374,"country":"Egypt","desc":"-","color":null,"longitude":31.25536,"id":"aczrx4hozt3t"},"type":"Feature","geometry":{"type":"Point","coordinates":[31.25536,30.08374]}},{"properties":{"city":"El-Arish","name":"El-Arish, Egypt","latitude":31.14502,"country":"Egypt","desc":"-","color":null,"longitude":33.831902,"id":"aczrx4h16uu7"},"type":"Feature","geometry":{"type":"Point","coordinates":[33.831902,31.14502]}},{"properties":{"city":"El-Arish","name":"El-Arish, Egypt","latitude":31.14502,"country":"Egypt","desc":"-","color":null,"longitude":33.831902,"id":"aczrx49cpnzp"},"type":"Feature","geometry":{"type":"Point","coordinates":[33.831902,31.14502]}},{"properties":{"city":"El-Arish","name":"El-Arish, Egypt","latitude":31.14502,"country":"Egypt","desc":"-","color":null,"longitude":33.831902,"id":"aczrx46jk43g"},"type":"Feature","geometry":{"type":"Point","coordinates":[33.831902,31.14502]}},{"properties":{"city":"El-Arish","name":"El-Arish, Egypt","latitude":31.14502,"country":"Egypt","desc":"-","color":null,"longitude":33.831902,"id":"aczrx4eyor44"},"type":"Feature","geometry":{"type":"Point","coordinates":[33.831902,31.14502]}},{"properties":{"city":"Sheikh Zuwayyid","name":"Sheikh Zuwayyid, Egypt","latitude":31.2806,"country":"Egypt","desc":"-","color":null,"longitude":32.243099,"id":"aczrx4cnti9o"},"type":"Feature","geometry":{"type":"Point","coordinates":[32.243099,31.2806]}},{"properties":{"city":"Sinai","name":"Sinai, Egypt","latitude":29.52709,"country":"Egypt","desc":"-","color":null,"longitude":33.604675,"id":"aczrx47acgnv"},"type":"Feature","geometry":{"type":"Point","coordinates":[33.604675,29.52709]}},{"properties":{"city":"Assuit province","name":"Assuit province, Egypt","latitude":27.18593,"country":"Egypt","desc":"-","color":null,"longitude":31.174669,"id":"aczrx49aw7bz"},"type":"Feature","geometry":{"type":"Point","coordinates":[31.174669,27.18593]}},{"properties":{"city":"Alexandria","name":"Alexandria, Egypt","latitude":31.19224,"country":"Egypt","desc":"-","color":null,"longitude":29.88987,"id":"aczrx4eh44v1"},"type":"Feature","geometry":{"type":"Point","coordinates":[29.88987,31.19224]}},{"properties":{"city":"Cairo","name":"Cairo, Egypt","latitude":30.08374,"country":"Egypt","desc":"-","color":null,"longitude":31.25536,"id":"aczrx4gy3oqf"},"type":"Feature","geometry":{"type":"Point","coordinates":[31.25536,30.08374]}},{"properties":{"city":"Cairo","name":"Cairo, Egypt","latitude":30.08374,"country":"Egypt","desc":"-","color":null,"longitude":31.25536,"id":"aczrx47gry0o"},"type":"Feature","geometry":{"type":"Point","coordinates":[31.25536,30.08374]}},{"properties":{"city":"Cairo","name":"Cairo, Egypt","latitude":30.08374,"country":"Egypt","desc":"-","color":null,"longitude":31.25536,"id":"aczrx4i5crm5"},"type":"Feature","geometry":{"type":"Point","coordinates":[31.25536,30.08374]}},{"properties":{"city":"Nationwide","name":"Nationwide, Egypt","latitude":26.69636,"country":"Egypt","desc":"-","color":null,"longitude":30.465961,"id":"aczrx44k9tjg"},"type":"Feature","geometry":{"type":"Point","coordinates":[30.465961,26.69636]}},{"properties":{"city":"Tripoli","name":"Tripoli, Libya","latitude":32.877708,"country":"Libya","desc":"-","color":null,"longitude":13.18732,"id":"aczrx48ikqwd"},"type":"Feature","geometry":{"type":"Point","coordinates":[13.18732,32.877708]}},{"properties":{"city":"Benghazi","name":"Benghazi, Libya","latitude":32.11034,"country":"Libya","desc":"-","color":null,"longitude":20.08152,"id":"aczrx4ace7lh"},"type":"Feature","geometry":{"type":"Point","coordinates":[20.08152,32.11034]}},{"properties":{"city":"Benghazi","name":"Benghazi, Libya","latitude":32.11034,"country":"Libya","desc":"-","color":null,"longitude":20.08152,"id":"aczrx4h3b0nv"},"type":"Feature","geometry":{"type":"Point","coordinates":[20.08152,32.11034]}},{"properties":{"city":"Benghazi","name":"Benghazi, Libya","latitude":32.11034,"country":"Libya","desc":"-","color":null,"longitude":20.08152,"id":"aczrx491i8ow"},"type":"Feature","geometry":{"type":"Point","coordinates":[20.08152,32.11034]}},{"properties":{"city":"Tripoli","name":"Tripoli, Libya","latitude":32.877708,"country":"Libya","desc":"-","color":null,"longitude":13.18732,"id":"aczrx471v7o2"},"type":"Feature","geometry":{"type":"Point","coordinates":[13.18732,32.877708]}},{"properties":{"city":"Tripoli","name":"Tripoli, Libya","latitude":32.877708,"country":"Libya","desc":"-","color":null,"longitude":13.18732,"id":"aczrx4gn7ebc"},"type":"Feature","geometry":{"type":"Point","coordinates":[13.18732,32.877708]}},{"properties":{"city":"Benghazi","name":"Benghazi, Libya","latitude":32.11034,"country":"Libya","desc":"-","color":null,"longitude":20.08152,"id":"aczrx44v25lj"},"type":"Feature","geometry":{"type":"Point","coordinates":[20.08152,32.11034]}},{"properties":{"city":"Derna","name":"Derna, Libya","latitude":32.763821,"country":"Libya","desc":"-","color":null,"longitude":22.63924,"id":"aczrx4fq6uzu"},"type":"Feature","geometry":{"type":"Point","coordinates":[22.63924,32.763821]}},{"properties":{"city":"Benghazi","name":"Benghazi, Libya","latitude":32.11034,"country":"Libya","desc":"-","color":null,"longitude":20.08152,"id":"aczrx444b6p9"},"type":"Feature","geometry":{"type":"Point","coordinates":[20.08152,32.11034]}},{"properties":{"city":"Sabha","name":"Sabha, Libya","latitude":27.024719,"country":"Libya","desc":"-","color":null,"longitude":14.45924,"id":"aczrx4aillfw"},"type":"Feature","geometry":{"type":"Point","coordinates":[14.45924,27.024719]}},{"properties":{"city":"Ubari","name":"Ubari, Libya","latitude":26.679131,"country":"Libya","desc":"-","color":null,"longitude":12.72949,"id":"aczrx4e3fk28"},"type":"Feature","geometry":{"type":"Point","coordinates":[12.72949,26.679131]}},{"properties":{"city":"Benghazi","name":"Benghazi, Libya","latitude":32.11034,"country":"Libya","desc":"-","color":null,"longitude":20.08152,"id":"aczrx42tzapf"},"type":"Feature","geometry":{"type":"Point","coordinates":[20.08152,32.11034]}},{"properties":{"city":"Tripoli","name":"Tripoli, Libya","latitude":32.877708,"country":"Libya","desc":"-","color":null,"longitude":13.18732,"id":"aczrx4dftulv"},"type":"Feature","geometry":{"type":"Point","coordinates":[13.18732,32.877708]}},{"properties":{"city":"Bani Walid","name":"Bani Walid, Libya","latitude":31.758051,"country":"Libya","desc":"-","color":null,"longitude":13.99229,"id":"aczrx4ad9lmk"},"type":"Feature","geometry":{"type":"Point","coordinates":[13.99229,31.758051]}},{"properties":{"city":"Tripoli","name":"Tripoli, Libya","latitude":32.877708,"country":"Libya","desc":"-","color":null,"longitude":13.18732,"id":"aczrx42sxw64"},"type":"Feature","geometry":{"type":"Point","coordinates":[13.18732,32.877708]}},{"properties":{"city":"Derna","name":"Derna, Libya","latitude":32.763821,"country":"Libya","desc":"-","color":null,"longitude":22.63924,"id":"aczrx4bhu49u"},"type":"Feature","geometry":{"type":"Point","coordinates":[22.63924,32.763821]}},{"properties":{"city":"Benghazi","name":"Benghazi, Libya","latitude":32.11034,"country":"Libya","desc":"-","color":null,"longitude":20.08152,"id":"aczrx4g0mhir"},"type":"Feature","geometry":{"type":"Point","coordinates":[20.08152,32.11034]}},{"properties":{"city":"Benghazi","name":"Benghazi, Libya","latitude":32.11034,"country":"Libya","desc":"-","color":null,"longitude":20.08152,"id":"aczrx464de84"},"type":"Feature","geometry":{"type":"Point","coordinates":[20.08152,32.11034]}},{"properties":{"city":"Tripoli","name":"Tripoli, Libya","latitude":32.877708,"country":"Libya","desc":"-","color":null,"longitude":13.18732,"id":"aczrx441u8f3"},"type":"Feature","geometry":{"type":"Point","coordinates":[13.18732,32.877708]}},{"properties":{"city":"Tripoli","name":"Tripoli, Libya","latitude":32.877708,"country":"Libya","desc":"-","color":null,"longitude":13.18732,"id":"aczrx4g8siug"},"type":"Feature","geometry":{"type":"Point","coordinates":[13.18732,32.877708]}},{"properties":{"city":"Tripoli","name":"Tripoli, Libya","latitude":32.877708,"country":"Libya","desc":"-","color":null,"longitude":13.18732,"id":"aczrx456ymxf"},"type":"Feature","geometry":{"type":"Point","coordinates":[13.18732,32.877708]}},{"properties":{"city":"Zueitina","name":"Zueitina, Libya","latitude":26.338519,"country":"Libya","desc":"-","color":null,"longitude":17.268815,"id":"aczrx4c1nvnp"},"type":"Feature","geometry":{"type":"Point","coordinates":[17.268815,26.338519]}},{"properties":{"city":"Zintan","name":"Zintan, Libya","latitude":26.338519,"country":"Libya","desc":"-","color":null,"longitude":17.268815,"id":"aczrx44jb62z"},"type":"Feature","geometry":{"type":"Point","coordinates":[17.268815,26.338519]}},{"properties":{"city":"Sheguiga","name":"Sheguiga, LIbya","latitude":26.338519,"country":"LIbya","desc":"-","color":null,"longitude":17.268815,"id":"aczrx4hw8h5v"},"type":"Feature","geometry":{"type":"Point","coordinates":[17.268815,26.338519]}},{"properties":{"city":"Mizdah","name":"Mizdah, Libya","latitude":31.44792,"country":"Libya","desc":"-","color":null,"longitude":12.99032,"id":"aczrx4861zei"},"type":"Feature","geometry":{"type":"Point","coordinates":[12.99032,31.44792]}},{"properties":{"city":"Ajdabiya","name":"Ajdabiya, Libya","latitude":30.75967,"country":"Libya","desc":"-","color":null,"longitude":20.223749,"id":"aczrx44cavmt"},"type":"Feature","geometry":{"type":"Point","coordinates":[20.223749,30.75967]}},{"properties":{"city":"Benghazi","name":"Benghazi, Libya","latitude":32.11034,"country":"Libya","desc":"-","color":null,"longitude":20.08152,"id":"aczrx4b77bd5"},"type":"Feature","geometry":{"type":"Point","coordinates":[20.08152,32.11034]}},{"properties":{"city":"Benghazi","name":"Benghazi, Libya","latitude":32.11034,"country":"Libya","desc":"-","color":null,"longitude":20.08152,"id":"aczrx48l1wel"},"type":"Feature","geometry":{"type":"Point","coordinates":[20.08152,32.11034]}},{"properties":{"city":"Tripoli","name":"Tripoli, Libya","latitude":32.877708,"country":"Libya","desc":"-","color":null,"longitude":13.18732,"id":"aczrx4c45rt6"},"type":"Feature","geometry":{"type":"Point","coordinates":[13.18732,32.877708]}},{"properties":{"city":"Zawiya","name":"Zawiya, Libya","latitude":26.338519,"country":"Libya","desc":"-","color":null,"longitude":17.268815,"id":"aczrx4hlahpo"},"type":"Feature","geometry":{"type":"Point","coordinates":[17.268815,26.338519]}},{"properties":{"city":"Bani Walid","name":"Bani Walid, Libya","latitude":31.758051,"country":"Libya","desc":"-","color":null,"longitude":13.99229,"id":"aczrx4ayew6o"},"type":"Feature","geometry":{"type":"Point","coordinates":[13.99229,31.758051]}},{"properties":{"city":"Barek al-Shati","name":"Barek al-Shati, Libya","latitude":26.338519,"country":"Libya","desc":"-","color":null,"longitude":17.268815,"id":"aczrx4aby3nx"},"type":"Feature","geometry":{"type":"Point","coordinates":[17.268815,26.338519]}},{"properties":{"city":"Mardun","name":"Mardun, Libya","latitude":26.338519,"country":"Libya","desc":"-","color":null,"longitude":17.268815,"id":"aczrx46bxqnw"},"type":"Feature","geometry":{"type":"Point","coordinates":[17.268815,26.338519]}},{"properties":{"city":"Tripoli","name":"Tripoli, Libya","latitude":32.877708,"country":"Libya","desc":"-","color":null,"longitude":13.18732,"id":"aczrx4hnz016"},"type":"Feature","geometry":{"type":"Point","coordinates":[13.18732,32.877708]}},{"properties":{"city":"Susa","name":"Susa, Libya","latitude":32.88876,"country":"Libya","desc":"-","color":null,"longitude":21.9596,"id":"aczrx4hnxs90"},"type":"Feature","geometry":{"type":"Point","coordinates":[21.9596,32.88876]}},{"properties":{"city":"Al-Aziziya","name":"Al-Aziziya, Libya","latitude":26.338519,"country":"Libya","desc":"-","color":null,"longitude":17.268815,"id":"aczrx4g2aw1h"},"type":"Feature","geometry":{"type":"Point","coordinates":[17.268815,26.338519]}},{"properties":{"city":"Benghazi","name":"Benghazi, Libya","latitude":32.11034,"country":"Libya","desc":"-","color":null,"longitude":20.08152,"id":"aczrx42nbkbo"},"type":"Feature","geometry":{"type":"Point","coordinates":[20.08152,32.11034]}},{"properties":{"city":"Rajma","name":"Rajma, Libya","latitude":26.338519,"country":"Libya","desc":"-","color":null,"longitude":17.268815,"id":"aczrx45zid97"},"type":"Feature","geometry":{"type":"Point","coordinates":[17.268815,26.338519]}},{"properties":{"city":"Zliten","name":"Zliten, Libya","latitude":32.466091,"country":"Libya","desc":"-","color":null,"longitude":14.57461,"id":"aczrx48j9mad"},"type":"Feature","geometry":{"type":"Point","coordinates":[14.57461,32.466091]}},{"properties":{"city":"Benghazi","name":"Benghazi, Libya","latitude":32.11034,"country":"Libya","desc":"-","color":null,"longitude":20.08152,"id":"aczrx4hdkfig"},"type":"Feature","geometry":{"type":"Point","coordinates":[20.08152,32.11034]}},{"properties":{"city":"Tripoli","name":"Tripoli, Libya","latitude":32.877708,"country":"Libya","desc":"-","color":null,"longitude":13.18732,"id":"aczrx47nu825"},"type":"Feature","geometry":{"type":"Point","coordinates":[13.18732,32.877708]}},{"properties":{"city":"Benghazi","name":"Benghazi, Libya","latitude":32.11034,"country":"Libya","desc":"-","color":null,"longitude":20.08152,"id":"aczrx4hgtemb"},"type":"Feature","geometry":{"type":"Point","coordinates":[20.08152,32.11034]}},{"properties":{"city":"Bani Walid","name":"Bani Walid, Libya","latitude":31.758051,"country":"Libya","desc":"-","color":null,"longitude":13.99229,"id":"aczrx485ixpx"},"type":"Feature","geometry":{"type":"Point","coordinates":[13.99229,31.758051]}},{"properties":{"city":"Bani Walid","name":"Bani Walid, Libya","latitude":31.758051,"country":"Libya","desc":"-","color":null,"longitude":13.99229,"id":"aczrx46bifpg"},"type":"Feature","geometry":{"type":"Point","coordinates":[13.99229,31.758051]}},{"properties":{"city":"Tripoli","name":"Tripoli, Libya","latitude":32.877708,"country":"Libya","desc":"-","color":null,"longitude":13.18732,"id":"aczrx4aej9vi"},"type":"Feature","geometry":{"type":"Point","coordinates":[13.18732,32.877708]}},{"properties":{"city":"Tripoli","name":"Tripoli, Libya","latitude":32.877708,"country":"Libya","desc":"-","color":null,"longitude":13.18732,"id":"aczrx44yrkgr"},"type":"Feature","geometry":{"type":"Point","coordinates":[13.18732,32.877708]}},{"properties":{"city":"Tripoli","name":"Tripoli, Libya","latitude":32.877708,"country":"Libya","desc":"-","color":null,"longitude":13.18732,"id":"aczrx43gn30r"},"type":"Feature","geometry":{"type":"Point","coordinates":[13.18732,32.877708]}},{"properties":{"city":"Tripoli","name":"Tripoli, Libya","latitude":32.877708,"country":"Libya","desc":"-","color":null,"longitude":13.18732,"id":"aczrx45s0dso"},"type":"Feature","geometry":{"type":"Point","coordinates":[13.18732,32.877708]}},{"properties":{"city":"Kufra","name":"Kufra, Libya","latitude":24.1989,"country":"Libya","desc":"-","color":null,"longitude":23.2932,"id":"aczrx49wnuue"},"type":"Feature","geometry":{"type":"Point","coordinates":[23.2932,24.1989]}},{"properties":{"city":"Benghazi","name":"Benghazi, Libya","latitude":32.11034,"country":"Libya","desc":"-","color":null,"longitude":20.08152,"id":"aczrx47oca37"},"type":"Feature","geometry":{"type":"Point","coordinates":[20.08152,32.11034]}},{"properties":{"city":"Tripoli","name":"Tripoli, Libya","latitude":32.877708,"country":"Libya","desc":"-","color":null,"longitude":13.18732,"id":"aczrx49ozxt5"},"type":"Feature","geometry":{"type":"Point","coordinates":[13.18732,32.877708]}},{"properties":{"city":"Benghazi","name":"Benghazi, Libya","latitude":32.11034,"country":"Libya","desc":"-","color":null,"longitude":20.08152,"id":"aczrx4hlepp0"},"type":"Feature","geometry":{"type":"Point","coordinates":[20.08152,32.11034]}},{"properties":{"city":"Benghazi","name":"Benghazi, Libya","latitude":32.11034,"country":"Libya","desc":"-","color":null,"longitude":20.08152,"id":"aczrx4ge4y9l"},"type":"Feature","geometry":{"type":"Point","coordinates":[20.08152,32.11034]}},{"properties":{"city":"Benghazi","name":"Benghazi, Libya","latitude":32.11034,"country":"Libya","desc":"-","color":null,"longitude":20.08152,"id":"aczrx436w6vp"},"type":"Feature","geometry":{"type":"Point","coordinates":[20.08152,32.11034]}},{"properties":{"city":"Benghazi","name":"Benghazi, Libya","latitude":32.11034,"country":"Libya","desc":"-","color":null,"longitude":20.08152,"id":"aczrx4d8kklp"},"type":"Feature","geometry":{"type":"Point","coordinates":[20.08152,32.11034]}},{"properties":{"city":"Benghazi","name":"Benghazi, Libya","latitude":32.11034,"country":"Libya","desc":"-","color":null,"longitude":20.08152,"id":"aczrx45tm6po"},"type":"Feature","geometry":{"type":"Point","coordinates":[20.08152,32.11034]}},{"properties":{"city":"Bin Jawwad","name":"Bin Jawwad, Libya","latitude":26.338519,"country":"Libya","desc":"-","color":null,"longitude":17.268815,"id":"aczrx47q5xvl"},"type":"Feature","geometry":{"type":"Point","coordinates":[17.268815,26.338519]}},{"properties":{"city":"Benghazi","name":"Benghazi, Libya","latitude":32.11034,"country":"Libya","desc":"-","color":null,"longitude":20.08152,"id":"aczrx4bvlaz2"},"type":"Feature","geometry":{"type":"Point","coordinates":[20.08152,32.11034]}},{"properties":{"city":"Benghazi","name":"Benghazi, Libya","latitude":32.11034,"country":"Libya","desc":"-","color":null,"longitude":20.08152,"id":"aczrx45wtyva"},"type":"Feature","geometry":{"type":"Point","coordinates":[20.08152,32.11034]}},{"properties":{"city":"Benghazi","name":"Benghazi, Libya","latitude":32.11034,"country":"Libya","desc":"-","color":null,"longitude":20.08152,"id":"aczrx4g4jj33"},"type":"Feature","geometry":{"type":"Point","coordinates":[20.08152,32.11034]}},{"properties":{"city":"Benghazi","name":"Benghazi, Libya","latitude":32.11034,"country":"Libya","desc":"-","color":null,"longitude":20.08152,"id":"aczrx4dq4lea"},"type":"Feature","geometry":{"type":"Point","coordinates":[20.08152,32.11034]}},{"properties":{"city":"Sirte","name":"Sirte, Libya","latitude":31.20602,"country":"Libya","desc":"-","color":null,"longitude":16.592409,"id":"aczrx4fgh32a"},"type":"Feature","geometry":{"type":"Point","coordinates":[16.592409,31.20602]}},{"properties":{"city":"Tripoli","name":"Tripoli, Libya","latitude":32.877708,"country":"Libya","desc":"-","color":null,"longitude":13.18732,"id":"aczrx4g3vs8z"},"type":"Feature","geometry":{"type":"Point","coordinates":[13.18732,32.877708]}},{"properties":{"city":"Tripoli","name":"Tripoli, Libya","latitude":32.877708,"country":"Libya","desc":"-","color":null,"longitude":13.18732,"id":"aczrx4443rgf"},"type":"Feature","geometry":{"type":"Point","coordinates":[13.18732,32.877708]}},{"properties":{"city":"Tripoli","name":"Tripoli, Libya","latitude":32.877708,"country":"Libya","desc":"-","color":null,"longitude":13.18732,"id":"aczrx457nv4o"},"type":"Feature","geometry":{"type":"Point","coordinates":[13.18732,32.877708]}},{"properties":{"city":"Tripoli","name":"Tripoli, Libya","latitude":32.877708,"country":"Libya","desc":"-","color":null,"longitude":13.18732,"id":"aczrx4f55bwd"},"type":"Feature","geometry":{"type":"Point","coordinates":[13.18732,32.877708]}},{"properties":{"city":"Tripoli","name":"Tripoli, Libya","latitude":32.877708,"country":"Libya","desc":"-","color":null,"longitude":13.18732,"id":"aczrx476fck6"},"type":"Feature","geometry":{"type":"Point","coordinates":[13.18732,32.877708]}},{"properties":{"city":"Zawiya","name":"Zawiya, Libya","latitude":26.338519,"country":"Libya","desc":"-","color":null,"longitude":17.268815,"id":"aczrx49hykzp"},"type":"Feature","geometry":{"type":"Point","coordinates":[17.268815,26.338519]}},{"properties":{"city":"Benghazi","name":"Benghazi, Libya","latitude":32.11034,"country":"Libya","desc":"-","color":null,"longitude":20.08152,"id":"aczrx45ba4sc"},"type":"Feature","geometry":{"type":"Point","coordinates":[20.08152,32.11034]}},{"properties":{"city":"Benghazi","name":"Benghazi, Libya","latitude":32.11034,"country":"Libya","desc":"-","color":null,"longitude":20.08152,"id":"aczrx4geha4q"},"type":"Feature","geometry":{"type":"Point","coordinates":[20.08152,32.11034]}},{"properties":{"city":"Zwara","name":"Zwara, Libya","latitude":26.338519,"country":"Libya","desc":"-","color":null,"longitude":17.268815,"id":"aczrx4ful1la"},"type":"Feature","geometry":{"type":"Point","coordinates":[17.268815,26.338519]}},{"properties":{"city":"Ragdalein","name":"Ragdalein, Libya","latitude":26.338519,"country":"Libya","desc":"-","color":null,"longitude":17.268815,"id":"aczrx4hq5si5"},"type":"Feature","geometry":{"type":"Point","coordinates":[17.268815,26.338519]}},{"properties":{"city":"Zawiya","name":"Zawiya, Libya","latitude":26.338519,"country":"Libya","desc":"-","color":null,"longitude":17.268815,"id":"aczrx4d06b67"},"type":"Feature","geometry":{"type":"Point","coordinates":[17.268815,26.338519]}},{"properties":{"city":"Tripoli","name":"Tripoli, Libya","latitude":32.877708,"country":"Libya","desc":"-","color":null,"longitude":13.18732,"id":"aczrx43ozl61"},"type":"Feature","geometry":{"type":"Point","coordinates":[13.18732,32.877708]}},{"properties":{"city":"Benghazi","name":"Benghazi, Libya","latitude":32.11034,"country":"Libya","desc":"-","color":null,"longitude":20.08152,"id":"aczrx43gz70w"},"type":"Feature","geometry":{"type":"Point","coordinates":[20.08152,32.11034]}},{"properties":{"city":"Benghazi","name":"Benghazi, Libya","latitude":32.11034,"country":"Libya","desc":"-","color":null,"longitude":20.08152,"id":"aczrx4h7neh0"},"type":"Feature","geometry":{"type":"Point","coordinates":[20.08152,32.11034]}},{"properties":{"city":"Unknown","name":"Unknown, Libya","latitude":26.338519,"country":"Libya","desc":"-","color":null,"longitude":17.268815,"id":"aczrx49woe07"},"type":"Feature","geometry":{"type":"Point","coordinates":[17.268815,26.338519]}},{"properties":{"city":"Benghazi","name":"Benghazi, Libya","latitude":32.11034,"country":"Libya","desc":"-","color":null,"longitude":20.08152,"id":"aczrx472szsw"},"type":"Feature","geometry":{"type":"Point","coordinates":[20.08152,32.11034]}},{"properties":{"city":"Tarhuna","name":"Tarhuna, Libya","latitude":32.43454,"country":"Libya","desc":"-","color":null,"longitude":13.63936,"id":"aczrx47uode4"},"type":"Feature","geometry":{"type":"Point","coordinates":[13.63936,32.43454]}},{"properties":{"city":"Tripoli","name":"Tripoli, Libya","latitude":32.877708,"country":"Libya","desc":"-","color":null,"longitude":13.18732,"id":"aczrx44wavei"},"type":"Feature","geometry":{"type":"Point","coordinates":[13.18732,32.877708]}},{"properties":{"city":"Tripoli","name":"Tripoli, Libya","latitude":32.877708,"country":"Libya","desc":"-","color":null,"longitude":13.18732,"id":"aczrx43etw02"},"type":"Feature","geometry":{"type":"Point","coordinates":[13.18732,32.877708]}},{"properties":{"city":"Tripoli","name":"Tripoli, Libya","latitude":32.877708,"country":"Libya","desc":"-","color":null,"longitude":13.18732,"id":"aczrx45v8crz"},"type":"Feature","geometry":{"type":"Point","coordinates":[13.18732,32.877708]}},{"properties":{"city":"Al-Asabia","name":"Al-Asabia, Libya","latitude":26.338519,"country":"Libya","desc":"-","color":null,"longitude":17.268815,"id":"aczrx46r986q"},"type":"Feature","geometry":{"type":"Point","coordinates":[17.268815,26.338519]}},{"properties":{"city":"Kufra","name":"Kufra, Libya","latitude":24.1989,"country":"Libya","desc":"-","color":null,"longitude":23.2932,"id":"aczrx44o9l9a"},"type":"Feature","geometry":{"type":"Point","coordinates":[23.2932,24.1989]}},{"properties":{"city":"Kufra","name":"Kufra, Libya","latitude":24.1989,"country":"Libya","desc":"-","color":null,"longitude":23.2932,"id":"aczrx44gyj5n"},"type":"Feature","geometry":{"type":"Point","coordinates":[23.2932,24.1989]}},{"properties":{"city":"Kufra","name":"Kufra, Libya","latitude":24.1989,"country":"Libya","desc":"-","color":null,"longitude":23.2932,"id":"aczrx4el7adb"},"type":"Feature","geometry":{"type":"Point","coordinates":[23.2932,24.1989]}},{"properties":{"city":"Zliten","name":"Zliten, Libya","latitude":32.466091,"country":"Libya","desc":"-","color":null,"longitude":14.57461,"id":"aczrx4dwhxb0"},"type":"Feature","geometry":{"type":"Point","coordinates":[14.57461,32.466091]}},{"properties":{"city":"Tripoli","name":"Tripoli, Libya","latitude":32.877708,"country":"Libya","desc":"-","color":null,"longitude":13.18732,"id":"aczrx470qio5"},"type":"Feature","geometry":{"type":"Point","coordinates":[13.18732,32.877708]}},{"properties":{"city":"Ghadames","name":"Ghadames, Libya","latitude":30.14699,"country":"Libya","desc":"-","color":null,"longitude":9.50288,"id":"aczrx490fqpn"},"type":"Feature","geometry":{"type":"Point","coordinates":[9.50288,30.14699]}},{"properties":{"city":"Bani Walid","name":"Bani Walid, Libya","latitude":31.758051,"country":"Libya","desc":"-","color":null,"longitude":13.99229,"id":"aczrx4edwfuq"},"type":"Feature","geometry":{"type":"Point","coordinates":[13.99229,31.758051]}},{"properties":{"city":"Benghazi","name":"Benghazi, Libya","latitude":32.11034,"country":"Libya","desc":"-","color":null,"longitude":20.08152,"id":"aczrx4bzjsow"},"type":"Feature","geometry":{"type":"Point","coordinates":[20.08152,32.11034]}},{"properties":{"city":"Benghazi","name":"Benghazi, Libya","latitude":32.11034,"country":"Libya","desc":"-","color":null,"longitude":20.08152,"id":"aczrx4ddt5k8"},"type":"Feature","geometry":{"type":"Point","coordinates":[20.08152,32.11034]}},{"properties":{"city":"Benghazi","name":"Benghazi, Libya","latitude":32.11034,"country":"Libya","desc":"-","color":null,"longitude":20.08152,"id":"aczrx49oukcw"},"type":"Feature","geometry":{"type":"Point","coordinates":[20.08152,32.11034]}},{"properties":{"city":"Ajdabiya","name":"Ajdabiya, Libya","latitude":30.75967,"country":"Libya","desc":"-","color":null,"longitude":20.223749,"id":"aczrx4glpbyw"},"type":"Feature","geometry":{"type":"Point","coordinates":[20.223749,30.75967]}},{"properties":{"city":"Brega","name":"Brega, Libya","latitude":26.338519,"country":"Libya","desc":"-","color":null,"longitude":17.268815,"id":"aczrx43n118q"},"type":"Feature","geometry":{"type":"Point","coordinates":[17.268815,26.338519]}},{"properties":{"city":"Benghazi","name":"Benghazi, Libya","latitude":32.11034,"country":"Libya","desc":"-","color":null,"longitude":20.08152,"id":"aczrx4ffwo2n"},"type":"Feature","geometry":{"type":"Point","coordinates":[20.08152,32.11034]}},{"properties":{"city":"Ras Lanouf","name":"Ras Lanouf, Libya","latitude":26.338519,"country":"Libya","desc":"-","color":null,"longitude":17.268815,"id":"aczrx4dda7dn"},"type":"Feature","geometry":{"type":"Point","coordinates":[17.268815,26.338519]}},{"properties":{"city":"Benghazi","name":"Benghazi, Libya","latitude":32.11034,"country":"Libya","desc":"-","color":null,"longitude":20.08152,"id":"aczrx458hw5g"},"type":"Feature","geometry":{"type":"Point","coordinates":[20.08152,32.11034]}},{"properties":{"city":"Benghazi","name":"Benghazi, Libya","latitude":32.11034,"country":"Libya","desc":"-","color":null,"longitude":20.08152,"id":"aczrx4cra410"},"type":"Feature","geometry":{"type":"Point","coordinates":[20.08152,32.11034]}},{"properties":{"city":"Benghazi","name":"Benghazi, Libya","latitude":32.11034,"country":"Libya","desc":"-","color":null,"longitude":20.08152,"id":"aczrx44in69a"},"type":"Feature","geometry":{"type":"Point","coordinates":[20.08152,32.11034]}},{"properties":{"city":"Benghazi","name":"Benghazi, Libya","latitude":32.11034,"country":"Libya","desc":"-","color":null,"longitude":20.08152,"id":"aczrx4h07frv"},"type":"Feature","geometry":{"type":"Point","coordinates":[20.08152,32.11034]}},{"properties":{"city":"Benghazi","name":"Benghazi, Libya","latitude":32.11034,"country":"Libya","desc":"-","color":null,"longitude":20.08152,"id":"aczrx49lpgk9"},"type":"Feature","geometry":{"type":"Point","coordinates":[20.08152,32.11034]}},{"properties":{"city":"Benghazi","name":"Benghazi, Libya","latitude":32.11034,"country":"Libya","desc":"-","color":null,"longitude":20.08152,"id":"aczrx4gbxkjg"},"type":"Feature","geometry":{"type":"Point","coordinates":[20.08152,32.11034]}},{"properties":{"city":"Benghazi","name":"Benghazi, Libya","latitude":32.11034,"country":"Libya","desc":"-","color":null,"longitude":20.08152,"id":"aczrx45ep35i"},"type":"Feature","geometry":{"type":"Point","coordinates":[20.08152,32.11034]}},{"properties":{"city":"Benghazi","name":"Benghazi, Libya","latitude":32.11034,"country":"Libya","desc":"-","color":null,"longitude":20.08152,"id":"aczrx46ujush"},"type":"Feature","geometry":{"type":"Point","coordinates":[20.08152,32.11034]}},{"properties":{"city":"Benghazi","name":"Benghazi, Libya","latitude":32.11034,"country":"Libya","desc":"-","color":null,"longitude":20.08152,"id":"aczrx42kyqqb"},"type":"Feature","geometry":{"type":"Point","coordinates":[20.08152,32.11034]}},{"properties":{"city":"Benghazi","name":"Benghazi, Libya","latitude":32.11034,"country":"Libya","desc":"-","color":null,"longitude":20.08152,"id":"aczrx4basewb"},"type":"Feature","geometry":{"type":"Point","coordinates":[20.08152,32.11034]}},{"properties":{"city":"Benghazi","name":"Benghazi, Libya","latitude":32.11034,"country":"Libya","desc":"-","color":null,"longitude":20.08152,"id":"aczrx4eklx1g"},"type":"Feature","geometry":{"type":"Point","coordinates":[20.08152,32.11034]}},{"properties":{"city":"Benghazi","name":"Benghazi, Libya","latitude":32.11034,"country":"Libya","desc":"-","color":null,"longitude":20.08152,"id":"aczrx431i2f4"},"type":"Feature","geometry":{"type":"Point","coordinates":[20.08152,32.11034]}},{"properties":{"city":"Benghazi","name":"Benghazi, Libya","latitude":32.11034,"country":"Libya","desc":"-","color":null,"longitude":20.08152,"id":"aczrx4ex8zh1"},"type":"Feature","geometry":{"type":"Point","coordinates":[20.08152,32.11034]}},{"properties":{"city":"Benghazi","name":"Benghazi, Libya","latitude":32.11034,"country":"Libya","desc":"-","color":null,"longitude":20.08152,"id":"aczrx46ar9dv"},"type":"Feature","geometry":{"type":"Point","coordinates":[20.08152,32.11034]}},{"properties":{"city":"Benghazi","name":"Benghazi, Libya","latitude":32.11034,"country":"Libya","desc":"-","color":null,"longitude":20.08152,"id":"aczrx46mtt3u"},"type":"Feature","geometry":{"type":"Point","coordinates":[20.08152,32.11034]}},{"properties":{"city":"Dafniya","name":"Dafniya, Libya","latitude":26.338519,"country":"Libya","desc":"-","color":null,"longitude":17.268815,"id":"aczrx4a565fx"},"type":"Feature","geometry":{"type":"Point","coordinates":[17.268815,26.338519]}},{"properties":{"city":"Derna","name":"Derna, Libya","latitude":32.763821,"country":"Libya","desc":"-","color":null,"longitude":22.63924,"id":"aczrx47x5f18"},"type":"Feature","geometry":{"type":"Point","coordinates":[22.63924,32.763821]}},{"properties":{"city":"Derna","name":"Derna, Libya","latitude":32.763821,"country":"Libya","desc":"-","color":null,"longitude":22.63924,"id":"aczrx4g2ionq"},"type":"Feature","geometry":{"type":"Point","coordinates":[22.63924,32.763821]}},{"properties":{"city":"Derna","name":"Derna, Libya","latitude":32.763821,"country":"Libya","desc":"-","color":null,"longitude":22.63924,"id":"aczrx4bmxo1c"},"type":"Feature","geometry":{"type":"Point","coordinates":[22.63924,32.763821]}},{"properties":{"city":"Khoms","name":"Khoms, Libya","latitude":32.652599,"country":"Libya","desc":"-","color":null,"longitude":14.27167,"id":"aczrx4h30tu2"},"type":"Feature","geometry":{"type":"Point","coordinates":[14.27167,32.652599]}},{"properties":{"city":"Misrata","name":"Misrata, Libya","latitude":26.338519,"country":"Libya","desc":"-","color":null,"longitude":17.268815,"id":"aczrx4dgm12q"},"type":"Feature","geometry":{"type":"Point","coordinates":[17.268815,26.338519]}},{"properties":{"city":"Misrata","name":"Misrata, Libya","latitude":26.338519,"country":"Libya","desc":"-","color":null,"longitude":17.268815,"id":"aczrx4f9yj0h"},"type":"Feature","geometry":{"type":"Point","coordinates":[17.268815,26.338519]}},{"properties":{"city":"Sabha","name":"Sabha, Libya","latitude":27.024719,"country":"Libya","desc":"-","color":null,"longitude":14.45924,"id":"aczrx49tvzud"},"type":"Feature","geometry":{"type":"Point","coordinates":[14.45924,27.024719]}},{"properties":{"city":"Tripoli","name":"Tripoli, Libya","latitude":32.877708,"country":"Libya","desc":"-","color":null,"longitude":13.18732,"id":"aczrx4ieu8yd"},"type":"Feature","geometry":{"type":"Point","coordinates":[13.18732,32.877708]}},{"properties":{"city":"Tunisian-Libyan border","name":"Tunisian-Libyan border, Libya","latitude":26.338519,"country":"Libya","desc":"-","color":null,"longitude":17.268815,"id":"aczrx4gyn4mr"},"type":"Feature","geometry":{"type":"Point","coordinates":[17.268815,26.338519]}},{"properties":{"city":"Tripoli","name":"Tripoli, Libya","latitude":32.877708,"country":"Libya","desc":"-","color":null,"longitude":13.18732,"id":"aczrx4aqmx7j"},"type":"Feature","geometry":{"type":"Point","coordinates":[13.18732,32.877708]}},{"properties":{"city":"Al-Sedra","name":"Al-Sedra, Libya","latitude":26.338519,"country":"Libya","desc":"-","color":null,"longitude":17.268815,"id":"aczrx4g2rxbz"},"type":"Feature","geometry":{"type":"Point","coordinates":[17.268815,26.338519]}},{"properties":{"city":"Haruj","name":"Haruj, Libya","latitude":26.338519,"country":"Libya","desc":"-","color":null,"longitude":17.268815,"id":"aczrx47yh5lc"},"type":"Feature","geometry":{"type":"Point","coordinates":[17.268815,26.338519]}},{"properties":{"city":"Zuwaytina","name":"Zuwaytina, Libya","latitude":26.338519,"country":"Libya","desc":"-","color":null,"longitude":17.268815,"id":"aczrx4hfr2ik"},"type":"Feature","geometry":{"type":"Point","coordinates":[17.268815,26.338519]}},{"properties":{"city":"Brega","name":"Brega, Libya","latitude":26.338519,"country":"Libya","desc":"-","color":null,"longitude":17.268815,"id":"aczrx4e38qjn"},"type":"Feature","geometry":{"type":"Point","coordinates":[17.268815,26.338519]}},{"properties":{"city":"Al-Hariga","name":"Al-Hariga, Libya","latitude":26.338519,"country":"Libya","desc":"-","color":null,"longitude":17.268815,"id":"aczrx4f16frz"},"type":"Feature","geometry":{"type":"Point","coordinates":[17.268815,26.338519]}},{"properties":{"city":"Tripoli","name":"Tripoli, Libya","latitude":32.877708,"country":"Libya","desc":"-","color":null,"longitude":13.18732,"id":"aczrx45o3jxz"},"type":"Feature","geometry":{"type":"Point","coordinates":[13.18732,32.877708]}},{"properties":{"city":"Tripoli","name":"Tripoli, Libya","latitude":32.877708,"country":"Libya","desc":"-","color":null,"longitude":13.18732,"id":"aczrx4chs52q"},"type":"Feature","geometry":{"type":"Point","coordinates":[13.18732,32.877708]}},{"properties":{"city":"Tripoli","name":"Tripoli, Libya","latitude":32.877708,"country":"Libya","desc":"-","color":null,"longitude":13.18732,"id":"aczrx44nbyhg"},"type":"Feature","geometry":{"type":"Point","coordinates":[13.18732,32.877708]}},{"properties":{"city":"Kufra","name":"Kufra, Libya","latitude":24.1989,"country":"Libya","desc":"-","color":null,"longitude":23.2932,"id":"aczrx4grer4q"},"type":"Feature","geometry":{"type":"Point","coordinates":[23.2932,24.1989]}},{"properties":{"city":"Rouhia","name":"Rouhia, Tunisia","latitude":35.650002,"country":"Tunisia","desc":"-","color":null,"longitude":9.05,"id":"aczrx4athcxp"},"type":"Feature","geometry":{"type":"Point","coordinates":[9.05,35.650002]}},{"properties":{"city":"Bou Chebka","name":"Bou Chebka, Tunisia","latitude":35.165878,"country":"Tunisia","desc":"-","color":null,"longitude":8.42363,"id":"aczrx47cca41"},"type":"Feature","geometry":{"type":"Point","coordinates":[8.42363,35.165878]}},{"properties":{"city":"Tunis","name":"Tunis, Tunisia","latitude":36.798672,"country":"Tunisia","desc":"-","color":null,"longitude":10.17263,"id":"aczrx47yd6mv"},"type":"Feature","geometry":{"type":"Point","coordinates":[10.17263,36.798672]}},{"properties":{"city":"Ras Ajdir","name":"Ras Ajdir, Tunisia","latitude":33.903775,"country":"Tunisia","desc":"-","color":null,"longitude":9.56154,"id":"aczrx4e0xgxe"},"type":"Feature","geometry":{"type":"Point","coordinates":[9.56154,33.903775]}},{"properties":{"city":"Kasserine","name":"Kasserine, Tunisia","latitude":35.171532,"country":"Tunisia","desc":"-","color":null,"longitude":8.82874,"id":"aczrx4bgdol0"},"type":"Feature","geometry":{"type":"Point","coordinates":[8.82874,35.171532]}},{"properties":{"city":"Nationwide","name":"Nationwide, Tunisia","latitude":33.903775,"country":"Tunisia","desc":"-","color":null,"longitude":9.56154,"id":"aczrx4ct5ee9"},"type":"Feature","geometry":{"type":"Point","coordinates":[9.56154,33.903775]}},{"properties":{"city":"Tunis","name":"Tunis, Tunisia","latitude":36.798672,"country":"Tunisia","desc":"-","color":null,"longitude":10.17263,"id":"aczrx46hcl55"},"type":"Feature","geometry":{"type":"Point","coordinates":[10.17263,36.798672]}},{"properties":{"city":"Tunis","name":"Tunis, Tunisia","latitude":36.798672,"country":"Tunisia","desc":"-","color":null,"longitude":10.17263,"id":"aczrx47itmfd"},"type":"Feature","geometry":{"type":"Point","coordinates":[10.17263,36.798672]}},{"properties":{"city":"Tunis","name":"Tunis, Tunisia","latitude":36.798672,"country":"Tunisia","desc":"-","color":null,"longitude":10.17263,"id":"aczrx4bhnppd"},"type":"Feature","geometry":{"type":"Point","coordinates":[10.17263,36.798672]}},{"properties":{"city":"Tunis","name":"Tunis, Tunisia","latitude":36.798672,"country":"Tunisia","desc":"-","color":null,"longitude":10.17263,"id":"aczrx44b5hnr"},"type":"Feature","geometry":{"type":"Point","coordinates":[10.17263,36.798672]}},{"properties":{"city":"Tunis","name":"Tunis, Tunisia","latitude":36.798672,"country":"Tunisia","desc":"-","color":null,"longitude":10.17263,"id":"aczrx4224qro"},"type":"Feature","geometry":{"type":"Point","coordinates":[10.17263,36.798672]}},{"properties":{"city":"Nationwide","name":"Nationwide, Tunisia","latitude":33.903775,"country":"Tunisia","desc":"-","color":null,"longitude":9.56154,"id":"aczrx48rgp65"},"type":"Feature","geometry":{"type":"Point","coordinates":[9.56154,33.903775]}},{"properties":{"city":"Unknown","name":"Unknown, Tunisia","latitude":33.903775,"country":"Tunisia","desc":"-","color":null,"longitude":9.56154,"id":"aczrx42z22v1"},"type":"Feature","geometry":{"type":"Point","coordinates":[9.56154,33.903775]}},{"properties":{"city":"Tajerouine","name":"Tajerouine, Tunisia","latitude":35.894531,"country":"Tunisia","desc":"-","color":null,"longitude":8.54088,"id":"aczrx44py6bf"},"type":"Feature","geometry":{"type":"Point","coordinates":[8.54088,35.894531]}},{"properties":{"city":"Tunis","name":"Tunis, Tunisia","latitude":36.798672,"country":"Tunisia","desc":"-","color":null,"longitude":10.17263,"id":"aczrx45yt2aa"},"type":"Feature","geometry":{"type":"Point","coordinates":[10.17263,36.798672]}},{"properties":{"city":"Nationwide","name":"Nationwide, Tunisia","latitude":33.903775,"country":"Tunisia","desc":"-","color":null,"longitude":9.56154,"id":"aczrx43njx2x"},"type":"Feature","geometry":{"type":"Point","coordinates":[9.56154,33.903775]}},{"properties":{"city":"Tunis","name":"Tunis, Tunisia","latitude":36.798672,"country":"Tunisia","desc":"-","color":null,"longitude":10.17263,"id":"aczrx4hqg49t"},"type":"Feature","geometry":{"type":"Point","coordinates":[10.17263,36.798672]}},{"properties":{"city":"Tunis","name":"Tunis, Tunisia","latitude":36.798672,"country":"Tunisia","desc":"-","color":null,"longitude":10.17263,"id":"aczrx44qygff"},"type":"Feature","geometry":{"type":"Point","coordinates":[10.17263,36.798672]}},{"properties":{"city":"Tunis","name":"Tunis, Tunisia","latitude":36.798672,"country":"Tunisia","desc":"-","color":null,"longitude":10.17263,"id":"aczrx4e50y6l"},"type":"Feature","geometry":{"type":"Point","coordinates":[10.17263,36.798672]}},{"properties":{"city":"Metlaoui","name":"Metlaoui, Tunisia","latitude":34.325081,"country":"Tunisia","desc":"-","color":null,"longitude":8.41017,"id":"aczrx44bo0yu"},"type":"Feature","geometry":{"type":"Point","coordinates":[8.41017,34.325081]}},{"properties":{"city":"Oum Larayes","name":"Oum Larayes, Tunisia","latitude":33.903775,"country":"Tunisia","desc":"-","color":null,"longitude":9.56154,"id":"aczrx442eb4h"},"type":"Feature","geometry":{"type":"Point","coordinates":[9.56154,33.903775]}},{"properties":{"city":"Redayef","name":"Redayef, Tunisia","latitude":34.383331,"country":"Tunisia","desc":"-","color":null,"longitude":8.15,"id":"aczrx4531c5l"},"type":"Feature","geometry":{"type":"Point","coordinates":[8.15,34.383331]}},{"properties":{"city":"Mdhilla","name":"Mdhilla, Tunisia","latitude":33.903775,"country":"Tunisia","desc":"-","color":null,"longitude":9.56154,"id":"aczrx48jna0w"},"type":"Feature","geometry":{"type":"Point","coordinates":[9.56154,33.903775]}},{"properties":{"city":"Gafsa","name":"Gafsa, Tunisia","latitude":34.421638,"country":"Tunisia","desc":"-","color":null,"longitude":8.78665,"id":"aczrx4ic73w1"},"type":"Feature","geometry":{"type":"Point","coordinates":[8.78665,34.421638]}},{"properties":{"city":"Nationwide","name":"Nationwide, Tunisia","latitude":33.903775,"country":"Tunisia","desc":"-","color":null,"longitude":9.56154,"id":"aczrx47bgsjv"},"type":"Feature","geometry":{"type":"Point","coordinates":[9.56154,33.903775]}},{"properties":{"city":"Djerba","name":"Djerba, Tunisia","latitude":33.880779,"country":"Tunisia","desc":"-","color":null,"longitude":10.85313,"id":"aczrx421u97d"},"type":"Feature","geometry":{"type":"Point","coordinates":[10.85313,33.880779]}},{"properties":{"city":"Tunis","name":"Tunis, Tunisia","latitude":36.798672,"country":"Tunisia","desc":"-","color":null,"longitude":10.17263,"id":"aczrx4fcc0e8"},"type":"Feature","geometry":{"type":"Point","coordinates":[10.17263,36.798672]}},{"properties":{"city":"Sousse","name":"Sousse, Tunisia","latitude":35.832981,"country":"Tunisia","desc":"-","color":null,"longitude":10.63875,"id":"aczrx4den42x"},"type":"Feature","geometry":{"type":"Point","coordinates":[10.63875,35.832981]}},{"properties":{"city":"Tunis","name":"Tunis, Tunisia","latitude":36.798672,"country":"Tunisia","desc":"-","color":null,"longitude":10.17263,"id":"aczrx44wp514"},"type":"Feature","geometry":{"type":"Point","coordinates":[10.17263,36.798672]}},{"properties":{"city":"Tunis","name":"Tunis, Tunisia","latitude":36.798672,"country":"Tunisia","desc":"-","color":null,"longitude":10.17263,"id":"aczrx4e99hqd"},"type":"Feature","geometry":{"type":"Point","coordinates":[10.17263,36.798672]}},{"properties":{"city":"Tunis","name":"Tunis, Tunisia","latitude":36.798672,"country":"Tunisia","desc":"-","color":null,"longitude":10.17263,"id":"aczrx4e26eej"},"type":"Feature","geometry":{"type":"Point","coordinates":[10.17263,36.798672]}},{"properties":{"city":"Tunis","name":"Tunis, Tunisia","latitude":36.798672,"country":"Tunisia","desc":"-","color":null,"longitude":10.17263,"id":"aczrx4g6demh"},"type":"Feature","geometry":{"type":"Point","coordinates":[10.17263,36.798672]}},{"properties":{"city":"Tunis","name":"Tunis, Tunisia","latitude":36.798672,"country":"Tunisia","desc":"-","color":null,"longitude":10.17263,"id":"aczrx438vq79"},"type":"Feature","geometry":{"type":"Point","coordinates":[10.17263,36.798672]}},{"properties":{"city":"Nationwide","name":"Nationwide, Tunisia","latitude":33.903775,"country":"Tunisia","desc":"-","color":null,"longitude":9.56154,"id":"aczrx48ldd7k"},"type":"Feature","geometry":{"type":"Point","coordinates":[9.56154,33.903775]}},{"properties":{"city":"Tunis","name":"Tunis, Tunisia","latitude":36.798672,"country":"Tunisia","desc":"-","color":null,"longitude":10.17263,"id":"aczrx48dhch3"},"type":"Feature","geometry":{"type":"Point","coordinates":[10.17263,36.798672]}},{"properties":{"city":"Tunis","name":"Tunis, Tunisia","latitude":36.798672,"country":"Tunisia","desc":"-","color":null,"longitude":10.17263,"id":"aczrx4gbwbw8"},"type":"Feature","geometry":{"type":"Point","coordinates":[10.17263,36.798672]}},{"properties":{"city":"Tunis","name":"Tunis, Tunisia","latitude":36.798672,"country":"Tunisia","desc":"-","color":null,"longitude":10.17263,"id":"aczrx44q43bk"},"type":"Feature","geometry":{"type":"Point","coordinates":[10.17263,36.798672]}},{"properties":{"city":"Tunis","name":"Tunis, Tunisia","latitude":36.798672,"country":"Tunisia","desc":"-","color":null,"longitude":10.17263,"id":"aczrx45gkwal"},"type":"Feature","geometry":{"type":"Point","coordinates":[10.17263,36.798672]}},{"properties":{"city":"Tunis","name":"Tunis, Tunisia","latitude":36.798672,"country":"Tunisia","desc":"-","color":null,"longitude":10.17263,"id":"aczrx472stoq"},"type":"Feature","geometry":{"type":"Point","coordinates":[10.17263,36.798672]}},{"properties":{"city":"Siliana","name":"Siliana, Tunisia","latitude":36.090618,"country":"Tunisia","desc":"-","color":null,"longitude":9.36999,"id":"aczrx4b0q94d"},"type":"Feature","geometry":{"type":"Point","coordinates":[9.36999,36.090618]}},{"properties":{"city":"Kesra","name":"Kesra, Tunisia","latitude":35.811939,"country":"Tunisia","desc":"-","color":null,"longitude":9.36417,"id":"aczrx4dutkyv"},"type":"Feature","geometry":{"type":"Point","coordinates":[9.36417,35.811939]}},{"properties":{"city":"Gaafour","name":"Gaafour, Tunisia","latitude":36.32114,"country":"Tunisia","desc":"-","color":null,"longitude":9.31936,"id":"aczrx4578nwj"},"type":"Feature","geometry":{"type":"Point","coordinates":[9.31936,36.32114]}},{"properties":{"city":"Bargou","name":"Bargou, Tunisia","latitude":33.903775,"country":"Tunisia","desc":"-","color":null,"longitude":9.56154,"id":"aczrx44hurti"},"type":"Feature","geometry":{"type":"Point","coordinates":[9.56154,33.903775]}},{"properties":{"city":"Sbeitla","name":"Sbeitla, Tunisia","latitude":35.23431,"country":"Tunisia","desc":"-","color":null,"longitude":9.13039,"id":"aczrx4716jil"},"type":"Feature","geometry":{"type":"Point","coordinates":[9.13039,35.23431]}},{"properties":{"city":"Nationwide","name":"Nationwide, Tunisia","latitude":33.903775,"country":"Tunisia","desc":"-","color":null,"longitude":9.56154,"id":"aczrx4g9vedn"},"type":"Feature","geometry":{"type":"Point","coordinates":[9.56154,33.903775]}},{"properties":{"city":"Makhtar","name":"Makhtar, Tunisia","latitude":35.86729,"country":"Tunisia","desc":"-","color":null,"longitude":9.20514,"id":"aczrx4dd0ryv"},"type":"Feature","geometry":{"type":"Point","coordinates":[9.20514,35.86729]}},{"properties":{"city":"Tunis","name":"Tunis, Tunisia","latitude":36.798672,"country":"Tunisia","desc":"-","color":null,"longitude":10.17263,"id":"aczrx4csxujk"},"type":"Feature","geometry":{"type":"Point","coordinates":[10.17263,36.798672]}},{"properties":{"city":"Nationwide","name":"Nationwide, Tunisia","latitude":33.903775,"country":"Tunisia","desc":"-","color":null,"longitude":9.56154,"id":"aczrx4c5a67j"},"type":"Feature","geometry":{"type":"Point","coordinates":[9.56154,33.903775]}},{"properties":{"city":"Unknown","name":"Unknown, Tunisia","latitude":33.903775,"country":"Tunisia","desc":"-","color":null,"longitude":9.56154,"id":"aczrx44s24v1"},"type":"Feature","geometry":{"type":"Point","coordinates":[9.56154,33.903775]}},{"properties":{"city":"Nationwide","name":"Nationwide, Tunisia","latitude":33.903775,"country":"Tunisia","desc":"-","color":null,"longitude":9.56154,"id":"aczrx47s6tot"},"type":"Feature","geometry":{"type":"Point","coordinates":[9.56154,33.903775]}},{"properties":{"city":"Tozeur","name":"Tozeur, Tunisia","latitude":33.924042,"country":"Tunisia","desc":"-","color":null,"longitude":8.13121,"id":"aczrx42my2m0"},"type":"Feature","geometry":{"type":"Point","coordinates":[8.13121,33.924042]}},{"properties":{"city":"Tunis","name":"Tunis, Tunisia","latitude":36.798672,"country":"Tunisia","desc":"-","color":null,"longitude":10.17263,"id":"aczrx47wguxl"},"type":"Feature","geometry":{"type":"Point","coordinates":[10.17263,36.798672]}},{"properties":{"city":"Tunis","name":"Tunis, Tunisia","latitude":36.798672,"country":"Tunisia","desc":"-","color":null,"longitude":10.17263,"id":"aczrx4f8o5g6"},"type":"Feature","geometry":{"type":"Point","coordinates":[10.17263,36.798672]}},{"properties":{"city":"Tunis","name":"Tunis, Tunisia","latitude":36.798672,"country":"Tunisia","desc":"-","color":null,"longitude":10.17263,"id":"aczrx4h6k6wl"},"type":"Feature","geometry":{"type":"Point","coordinates":[10.17263,36.798672]}},{"properties":{"city":"Metlaoui","name":"Metlaoui, Tunisia","latitude":34.325081,"country":"Tunisia","desc":"-","color":null,"longitude":8.41017,"id":"aczrx4dtun2z"},"type":"Feature","geometry":{"type":"Point","coordinates":[8.41017,34.325081]}},{"properties":{"city":"Sousse","name":"Sousse, Tunisia","latitude":35.832981,"country":"Tunisia","desc":"-","color":null,"longitude":10.63875,"id":"aczrx4ejtils"},"type":"Feature","geometry":{"type":"Point","coordinates":[10.63875,35.832981]}},{"properties":{"city":"Kairouan","name":"Kairouan, Tunisia","latitude":35.677139,"country":"Tunisia","desc":"-","color":null,"longitude":10.09724,"id":"aczrx4gwnegu"},"type":"Feature","geometry":{"type":"Point","coordinates":[10.09724,35.677139]}},{"properties":{"city":"Bizerte","name":"Bizerte, Tunisia","latitude":37.276939,"country":"Tunisia","desc":"-","color":null,"longitude":9.86728,"id":"aczrx4ehf7x7"},"type":"Feature","geometry":{"type":"Point","coordinates":[9.86728,37.276939]}},{"properties":{"city":"Tunis","name":"Tunis, Tunisia","latitude":36.798672,"country":"Tunisia","desc":"-","color":null,"longitude":10.17263,"id":"aczrx461msrk"},"type":"Feature","geometry":{"type":"Point","coordinates":[10.17263,36.798672]}},{"properties":{"city":"Tunis","name":"Tunis, Tunisia","latitude":36.798672,"country":"Tunisia","desc":"-","color":null,"longitude":10.17263,"id":"aczrx4fgtm51"},"type":"Feature","geometry":{"type":"Point","coordinates":[10.17263,36.798672]}},{"properties":{"city":"Tunis","name":"Tunis, Tunisia","latitude":36.798672,"country":"Tunisia","desc":"-","color":null,"longitude":10.17263,"id":"aczrx45rjunz"},"type":"Feature","geometry":{"type":"Point","coordinates":[10.17263,36.798672]}},{"properties":{"city":"Tunis","name":"Tunis, Tunisia","latitude":36.798672,"country":"Tunisia","desc":"-","color":null,"longitude":10.17263,"id":"aczrx461ddah"},"type":"Feature","geometry":{"type":"Point","coordinates":[10.17263,36.798672]}},{"properties":{"city":"Nationwide","name":"Nationwide, Tunisia","latitude":33.903775,"country":"Tunisia","desc":"-","color":null,"longitude":9.56154,"id":"aczrx4e2pv0l"},"type":"Feature","geometry":{"type":"Point","coordinates":[9.56154,33.903775]}},{"properties":{"city":"Sidi Bouzid","name":"Sidi Bouzid, Tunisia","latitude":33.903775,"country":"Tunisia","desc":"-","color":null,"longitude":9.56154,"id":"aczrx48t8c6s"},"type":"Feature","geometry":{"type":"Point","coordinates":[9.56154,33.903775]}},{"properties":{"city":"Douz","name":"Douz, Tunisia","latitude":33.466671,"country":"Tunisia","desc":"-","color":null,"longitude":9.01667,"id":"aczrx4c3k5sc"},"type":"Feature","geometry":{"type":"Point","coordinates":[9.01667,33.466671]}},{"properties":{"city":"Kasserine","name":"Kasserine, Tunisia","latitude":35.171532,"country":"Tunisia","desc":"-","color":null,"longitude":8.82874,"id":"aczrx4fs7cxm"},"type":"Feature","geometry":{"type":"Point","coordinates":[8.82874,35.171532]}},{"properties":{"city":"Tunis","name":"Tunis, Tunisia","latitude":36.798672,"country":"Tunisia","desc":"-","color":null,"longitude":10.17263,"id":"aczrx44j5xod"},"type":"Feature","geometry":{"type":"Point","coordinates":[10.17263,36.798672]}},{"properties":{"city":"Gafsa","name":"Gafsa, Tunisia","latitude":34.421638,"country":"Tunisia","desc":"-","color":null,"longitude":8.78665,"id":"aczrx4chjq3f"},"type":"Feature","geometry":{"type":"Point","coordinates":[8.78665,34.421638]}},{"properties":{"city":"Silania","name":"Silania, Tunisia","latitude":35.75,"country":"Tunisia","desc":"-","color":null,"longitude":10.71667,"id":"aczrx4841a49"},"type":"Feature","geometry":{"type":"Point","coordinates":[10.71667,35.75]}},{"properties":{"city":"Bizerte","name":"Bizerte, Tunisia","latitude":37.276939,"country":"Tunisia","desc":"-","color":null,"longitude":9.86728,"id":"aczrx47kv6kq"},"type":"Feature","geometry":{"type":"Point","coordinates":[9.86728,37.276939]}},{"properties":{"city":"Tunis","name":"Tunis, Tunisia","latitude":36.798672,"country":"Tunisia","desc":"-","color":null,"longitude":10.17263,"id":"aczrx4g22kg4"},"type":"Feature","geometry":{"type":"Point","coordinates":[10.17263,36.798672]}},{"properties":{"city":"Siliana","name":"Siliana, Tunisia","latitude":36.090618,"country":"Tunisia","desc":"-","color":null,"longitude":9.36999,"id":"aczrx466508a"},"type":"Feature","geometry":{"type":"Point","coordinates":[9.36999,36.090618]}},{"properties":{"city":"Tunis","name":"Tunis, Tunisia","latitude":36.798672,"country":"Tunisia","desc":"-","color":null,"longitude":10.17263,"id":"aczrx4d7gwzg"},"type":"Feature","geometry":{"type":"Point","coordinates":[10.17263,36.798672]}},{"properties":{"city":"Tunis","name":"Tunis, Tunisia","latitude":36.798672,"country":"Tunisia","desc":"-","color":null,"longitude":10.17263,"id":"aczrx4bsy7zk"},"type":"Feature","geometry":{"type":"Point","coordinates":[10.17263,36.798672]}},{"properties":{"city":"Tunis","name":"Tunis, Tunisia","latitude":36.798672,"country":"Tunisia","desc":"-","color":null,"longitude":10.17263,"id":"aczrx4cmdbxs"},"type":"Feature","geometry":{"type":"Point","coordinates":[10.17263,36.798672]}},{"properties":{"city":"Tunis","name":"Tunis, Tunisia","latitude":36.798672,"country":"Tunisia","desc":"-","color":null,"longitude":10.17263,"id":"aczrx46p3i8j"},"type":"Feature","geometry":{"type":"Point","coordinates":[10.17263,36.798672]}},{"properties":{"city":"Tunis","name":"Tunis, Tunisia","latitude":36.798672,"country":"Tunisia","desc":"-","color":null,"longitude":10.17263,"id":"aczrx4e0qhae"},"type":"Feature","geometry":{"type":"Point","coordinates":[10.17263,36.798672]}},{"properties":{"city":"Tunis","name":"Tunis, Tunisia","latitude":36.798672,"country":"Tunisia","desc":"-","color":null,"longitude":10.17263,"id":"aczrx4a1z7wc"},"type":"Feature","geometry":{"type":"Point","coordinates":[10.17263,36.798672]}},{"properties":{"city":"Monastir","name":"Monastir, Tunisia","latitude":35.77718,"country":"Tunisia","desc":"-","color":null,"longitude":10.8261,"id":"aczrx48akvr2"},"type":"Feature","geometry":{"type":"Point","coordinates":[10.8261,35.77718]}},{"properties":{"city":"Tunis","name":"Tunis, Tunisia","latitude":36.798672,"country":"Tunisia","desc":"-","color":null,"longitude":10.17263,"id":"aczrx446f818"},"type":"Feature","geometry":{"type":"Point","coordinates":[10.17263,36.798672]}},{"properties":{"city":"Bizerte","name":"Bizerte, Tunisia","latitude":37.276939,"country":"Tunisia","desc":"-","color":null,"longitude":9.86728,"id":"aczrx4csa0xy"},"type":"Feature","geometry":{"type":"Point","coordinates":[9.86728,37.276939]}},{"properties":{"city":"Sfax Region","name":"Sfax Region, Tunisia","latitude":34.745159,"country":"Tunisia","desc":"-","color":null,"longitude":10.7613,"id":"aczrx49jnw43"},"type":"Feature","geometry":{"type":"Point","coordinates":[10.7613,34.745159]}},{"properties":{"city":"Tunis","name":"Tunis, Tunisia","latitude":36.798672,"country":"Tunisia","desc":"-","color":null,"longitude":10.17263,"id":"aczrx4ay541q"},"type":"Feature","geometry":{"type":"Point","coordinates":[10.17263,36.798672]}},{"properties":{"city":"Menzel Bouzaine","name":"Menzel Bouzaine, TUnisia","latitude":33.883331,"country":"TUnisia","desc":"-","color":null,"longitude":10.08333,"id":"aczrx48xr222"},"type":"Feature","geometry":{"type":"Point","coordinates":[10.08333,33.883331]}},{"properties":{"city":"Sidi Bouzid","name":"Sidi Bouzid, Tunisia","latitude":33.903775,"country":"Tunisia","desc":"-","color":null,"longitude":9.56154,"id":"aczrx42se66k"},"type":"Feature","geometry":{"type":"Point","coordinates":[9.56154,33.903775]}},{"properties":{"city":"Sidi Bouzid","name":"Sidi Bouzid, Tunisia","latitude":33.903775,"country":"Tunisia","desc":"-","color":null,"longitude":9.56154,"id":"aczrx4echkw4"},"type":"Feature","geometry":{"type":"Point","coordinates":[9.56154,33.903775]}},{"properties":{"city":"Guellala","name":"Guellala, Tunisia","latitude":33.73333,"country":"Tunisia","desc":"-","color":null,"longitude":10.85,"id":"aczrx4hy6y9r"},"type":"Feature","geometry":{"type":"Point","coordinates":[10.85,33.73333]}},{"properties":{"city":"Tataouine","name":"Tataouine, Tunisia","latitude":32.930801,"country":"Tunisia","desc":"-","color":null,"longitude":10.45365,"id":"aczrx42mr5e4"},"type":"Feature","geometry":{"type":"Point","coordinates":[10.45365,32.930801]}},{"properties":{"city":"Gabes","name":"Gabes, Tunisia","latitude":33.893269,"country":"Tunisia","desc":"-","color":null,"longitude":10.10291,"id":"aczrx47a1n22"},"type":"Feature","geometry":{"type":"Point","coordinates":[10.10291,33.893269]}},{"properties":{"city":"Sidi Bouzid","name":"Sidi Bouzid, Tunisia","latitude":33.903775,"country":"Tunisia","desc":"-","color":null,"longitude":9.56154,"id":"aczrx4hcxh50"},"type":"Feature","geometry":{"type":"Point","coordinates":[9.56154,33.903775]}},{"properties":{"city":"Kasserine","name":"Kasserine, Tunisia","latitude":35.171532,"country":"Tunisia","desc":"-","color":null,"longitude":8.82874,"id":"aczrx45ickjx"},"type":"Feature","geometry":{"type":"Point","coordinates":[8.82874,35.171532]}},{"properties":{"city":"Gafsa","name":"Gafsa, Tunisia","latitude":34.421638,"country":"Tunisia","desc":"-","color":null,"longitude":8.78665,"id":"aczrx4h7vpyz"},"type":"Feature","geometry":{"type":"Point","coordinates":[8.78665,34.421638]}},{"properties":{"city":"Sfax","name":"Sfax, Tunisia","latitude":34.745159,"country":"Tunisia","desc":"-","color":null,"longitude":10.7613,"id":"aczrx4h9e97m"},"type":"Feature","geometry":{"type":"Point","coordinates":[10.7613,34.745159]}},{"properties":{"city":"Sidi Bouzid","name":"Sidi Bouzid, Tunisia","latitude":33.903775,"country":"Tunisia","desc":"-","color":null,"longitude":9.56154,"id":"aczrx46vy6dg"},"type":"Feature","geometry":{"type":"Point","coordinates":[9.56154,33.903775]}},{"properties":{"city":"Tunis","name":"Tunis, Tunisia","latitude":36.798672,"country":"Tunisia","desc":"-","color":null,"longitude":10.17263,"id":"aczrx4c35j34"},"type":"Feature","geometry":{"type":"Point","coordinates":[10.17263,36.798672]}},{"properties":{"city":"Tunis","name":"Tunis, Tunisia","latitude":36.798672,"country":"Tunisia","desc":"-","color":null,"longitude":10.17263,"id":"aczrx4bxyvdt"},"type":"Feature","geometry":{"type":"Point","coordinates":[10.17263,36.798672]}},{"properties":{"city":"Sidi Bouzid","name":"Sidi Bouzid, Tunisia","latitude":33.903775,"country":"Tunisia","desc":"-","color":null,"longitude":9.56154,"id":"aczrx42k21bt"},"type":"Feature","geometry":{"type":"Point","coordinates":[9.56154,33.903775]}},{"properties":{"city":"Kasserine","name":"Kasserine, Tunisia","latitude":35.171532,"country":"Tunisia","desc":"-","color":null,"longitude":8.82874,"id":"aczrx4fjdcim"},"type":"Feature","geometry":{"type":"Point","coordinates":[8.82874,35.171532]}},{"properties":{"city":"Ras Ajdir","name":"Ras Ajdir, Tunisia","latitude":33.903775,"country":"Tunisia","desc":"-","color":null,"longitude":9.56154,"id":"aczrx45rk7zo"},"type":"Feature","geometry":{"type":"Point","coordinates":[9.56154,33.903775]}},{"properties":{"city":"Tunis","name":"Tunis, Tunisia","latitude":36.798672,"country":"Tunisia","desc":"-","color":null,"longitude":10.17263,"id":"aczrx48hmg0h"},"type":"Feature","geometry":{"type":"Point","coordinates":[10.17263,36.798672]}},{"properties":{"city":"Sidi Bouzid","name":"Sidi Bouzid, Tunisia","latitude":33.903775,"country":"Tunisia","desc":"-","color":null,"longitude":9.56154,"id":"aczrx4hvjorz"},"type":"Feature","geometry":{"type":"Point","coordinates":[9.56154,33.903775]}},{"properties":{"city":"Tunis","name":"Tunis, Tunisia","latitude":36.798672,"country":"Tunisia","desc":"-","color":null,"longitude":10.17263,"id":"aczrx4epdbj2"},"type":"Feature","geometry":{"type":"Point","coordinates":[10.17263,36.798672]}},{"properties":{"city":"Tunis","name":"Tunis, Tunisia","latitude":36.798672,"country":"Tunisia","desc":"-","color":null,"longitude":10.17263,"id":"aczrx4fmcz4i"},"type":"Feature","geometry":{"type":"Point","coordinates":[10.17263,36.798672]}},{"properties":{"city":"Southern Tunisia","name":"Southern Tunisia, Tunisia","latitude":33.903775,"country":"Tunisia","desc":"-","color":null,"longitude":9.56154,"id":"aczrx4axoepz"},"type":"Feature","geometry":{"type":"Point","coordinates":[9.56154,33.903775]}},{"properties":{"city":"Tunis","name":"Tunis, Tunisia","latitude":36.798672,"country":"Tunisia","desc":"-","color":null,"longitude":10.17263,"id":"aczrx4710jb3"},"type":"Feature","geometry":{"type":"Point","coordinates":[10.17263,36.798672]}},{"properties":{"city":"Jendouba","name":"Jendouba, Tunisia","latitude":36.520081,"country":"Tunisia","desc":"-","color":null,"longitude":8.78561,"id":"aczrx4fh87ck"},"type":"Feature","geometry":{"type":"Point","coordinates":[8.78561,36.520081]}},{"properties":{"city":"Tunis","name":"Tunis, Tunisia","latitude":36.798672,"country":"Tunisia","desc":"-","color":null,"longitude":10.17263,"id":"aczrx47klute"},"type":"Feature","geometry":{"type":"Point","coordinates":[10.17263,36.798672]}},{"properties":{"city":"Tunis","name":"Tunis, Tunisia","latitude":36.798672,"country":"Tunisia","desc":"-","color":null,"longitude":10.17263,"id":"aczrx4fxh80r"},"type":"Feature","geometry":{"type":"Point","coordinates":[10.17263,36.798672]}},{"properties":{"city":"Kairouan","name":"Kairouan, Tunisia","latitude":35.677139,"country":"Tunisia","desc":"-","color":null,"longitude":10.09724,"id":"aczrx45n76fj"},"type":"Feature","geometry":{"type":"Point","coordinates":[10.09724,35.677139]}},{"properties":{"city":"Jendouba","name":"Jendouba, Tunisia","latitude":36.520081,"country":"Tunisia","desc":"-","color":null,"longitude":8.78561,"id":"aczrx4g6bph0"},"type":"Feature","geometry":{"type":"Point","coordinates":[8.78561,36.520081]}},{"properties":{"city":"Ghardimaou","name":"Ghardimaou, Tunisia","latitude":36.449261,"country":"Tunisia","desc":"-","color":null,"longitude":8.43641,"id":"aczrx4535eht"},"type":"Feature","geometry":{"type":"Point","coordinates":[8.43641,36.449261]}},{"properties":{"city":"Tunis","name":"Tunis, Tunisia","latitude":36.798672,"country":"Tunisia","desc":"-","color":null,"longitude":10.17263,"id":"aczrx46kw9gu"},"type":"Feature","geometry":{"type":"Point","coordinates":[10.17263,36.798672]}},{"properties":{"city":"Jendouba","name":"Jendouba, Tunisia","latitude":36.520081,"country":"Tunisia","desc":"-","color":null,"longitude":8.78561,"id":"aczrx4cc37m4"},"type":"Feature","geometry":{"type":"Point","coordinates":[8.78561,36.520081]}},{"properties":{"city":"Sousse","name":"Sousse, Tunisia","latitude":35.832981,"country":"Tunisia","desc":"-","color":null,"longitude":10.63875,"id":"aczrx42sz6h3"},"type":"Feature","geometry":{"type":"Point","coordinates":[10.63875,35.832981]}},{"properties":{"city":"Monastir","name":"Monastir, Tunisia","latitude":35.77718,"country":"Tunisia","desc":"-","color":null,"longitude":10.8261,"id":"aczrx45vtdhg"},"type":"Feature","geometry":{"type":"Point","coordinates":[10.8261,35.77718]}},{"properties":{"city":"Ben Guerdane","name":"Ben Guerdane, Tunisia","latitude":33.133331,"country":"Tunisia","desc":"-","color":null,"longitude":11.21667,"id":"aczrx4gd7th1"},"type":"Feature","geometry":{"type":"Point","coordinates":[11.21667,33.133331]}},{"properties":{"city":"Menzel Bourguiba","name":"Menzel Bourguiba, Tunisia","latitude":37.153599,"country":"Tunisia","desc":"-","color":null,"longitude":9.78906,"id":"aczrx45vkws5"},"type":"Feature","geometry":{"type":"Point","coordinates":[9.78906,37.153599]}},{"properties":{"city":"Kairouan","name":"Kairouan, Tunisia","latitude":35.677139,"country":"Tunisia","desc":"-","color":null,"longitude":10.09724,"id":"aczrx4gxc134"},"type":"Feature","geometry":{"type":"Point","coordinates":[10.09724,35.677139]}},{"properties":{"city":"Tunis","name":"Tunis, Tunisia","latitude":36.798672,"country":"Tunisia","desc":"-","color":null,"longitude":10.17263,"id":"aczrx4e60hw8"},"type":"Feature","geometry":{"type":"Point","coordinates":[10.17263,36.798672]}},{"properties":{"city":"Tunis","name":"Tunis, Tunisia","latitude":36.798672,"country":"Tunisia","desc":"-","color":null,"longitude":10.17263,"id":"aczrx44wcqby"},"type":"Feature","geometry":{"type":"Point","coordinates":[10.17263,36.798672]}},{"properties":{"city":"Tunis","name":"Tunis, Tunisia","latitude":36.798672,"country":"Tunisia","desc":"-","color":null,"longitude":10.17263,"id":"aczrx46qodeg"},"type":"Feature","geometry":{"type":"Point","coordinates":[10.17263,36.798672]}},{"properties":{"city":"Tunis","name":"Tunis, Tunisia","latitude":36.798672,"country":"Tunisia","desc":"-","color":null,"longitude":10.17263,"id":"aczrx44n7fwg"},"type":"Feature","geometry":{"type":"Point","coordinates":[10.17263,36.798672]}},{"properties":{"city":"Tunis","name":"Tunis, Tunisia","latitude":36.798672,"country":"Tunisia","desc":"-","color":null,"longitude":10.17263,"id":"aczrx4edxnev"},"type":"Feature","geometry":{"type":"Point","coordinates":[10.17263,36.798672]}},{"properties":{"city":"Tunis","name":"Tunis, Tunisia","latitude":36.798672,"country":"Tunisia","desc":"-","color":null,"longitude":10.17263,"id":"aczrx484vqu0"},"type":"Feature","geometry":{"type":"Point","coordinates":[10.17263,36.798672]}},{"properties":{"city":"Sidi Bouzid","name":"Sidi Bouzid, Tunisia","latitude":33.903775,"country":"Tunisia","desc":"-","color":null,"longitude":9.56154,"id":"aczrx4ep63gf"},"type":"Feature","geometry":{"type":"Point","coordinates":[9.56154,33.903775]}},{"properties":{"city":"Tozeur","name":"Tozeur, Tunisia","latitude":33.924042,"country":"Tunisia","desc":"-","color":null,"longitude":8.13121,"id":"aczrx4h96a7o"},"type":"Feature","geometry":{"type":"Point","coordinates":[8.13121,33.924042]}},{"properties":{"city":"Nationwide","name":"Nationwide, Tunisia","latitude":33.903775,"country":"Tunisia","desc":"-","color":null,"longitude":9.56154,"id":"aczrx470bsge"},"type":"Feature","geometry":{"type":"Point","coordinates":[9.56154,33.903775]}},{"properties":{"city":"Nationwide","name":"Nationwide, Tunisia","latitude":33.903775,"country":"Tunisia","desc":"-","color":null,"longitude":9.56154,"id":"aczrx49o48mv"},"type":"Feature","geometry":{"type":"Point","coordinates":[9.56154,33.903775]}},{"properties":{"city":"Tunis","name":"Tunis, Tunisia","latitude":36.798672,"country":"Tunisia","desc":"-","color":null,"longitude":10.17263,"id":"aczrx4h5ixgx"},"type":"Feature","geometry":{"type":"Point","coordinates":[10.17263,36.798672]}},{"properties":{"city":"Metlaoui","name":"Metlaoui, Tunisia","latitude":34.325081,"country":"Tunisia","desc":"-","color":null,"longitude":8.41017,"id":"aczrx4b7fn2u"},"type":"Feature","geometry":{"type":"Point","coordinates":[8.41017,34.325081]}},{"properties":{"city":"Metlaoui","name":"Metlaoui, Tunisia","latitude":34.325081,"country":"Tunisia","desc":"-","color":null,"longitude":8.41017,"id":"aczrx44qfp7v"},"type":"Feature","geometry":{"type":"Point","coordinates":[8.41017,34.325081]}},{"properties":{"city":"Tunis","name":"Tunis, Tunisia","latitude":36.798672,"country":"Tunisia","desc":"-","color":null,"longitude":10.17263,"id":"aczrx4df66i4"},"type":"Feature","geometry":{"type":"Point","coordinates":[10.17263,36.798672]}},{"properties":{"city":"Sidi Bouzid","name":"Sidi Bouzid, Tunisia","latitude":33.903775,"country":"Tunisia","desc":"-","color":null,"longitude":9.56154,"id":"aczrx49pnm25"},"type":"Feature","geometry":{"type":"Point","coordinates":[9.56154,33.903775]}},{"properties":{"city":"Sidi Bouzid","name":"Sidi Bouzid, Tunisia","latitude":33.903775,"country":"Tunisia","desc":"-","color":null,"longitude":9.56154,"id":"aczrx43jn6io"},"type":"Feature","geometry":{"type":"Point","coordinates":[9.56154,33.903775]}},{"properties":{"city":"Nationwide","name":"Nationwide, Tunisia","latitude":33.903775,"country":"Tunisia","desc":"-","color":null,"longitude":9.56154,"id":"aczrx4cyr36y"},"type":"Feature","geometry":{"type":"Point","coordinates":[9.56154,33.903775]}},{"properties":{"city":"Nationwide","name":"Nationwide, Tunisia","latitude":33.903775,"country":"Tunisia","desc":"-","color":null,"longitude":9.56154,"id":"aczrx4a0j66v"},"type":"Feature","geometry":{"type":"Point","coordinates":[9.56154,33.903775]}},{"properties":{"city":"Tunis","name":"Tunis, Tunisia","latitude":36.798672,"country":"Tunisia","desc":"-","color":null,"longitude":10.17263,"id":"aczrx4cp1ywd"},"type":"Feature","geometry":{"type":"Point","coordinates":[10.17263,36.798672]}},{"properties":{"city":"El-Guettar","name":"El-Guettar, Tunisia","latitude":34.337219,"country":"Tunisia","desc":"-","color":null,"longitude":8.95278,"id":"aczrx46yfr7s"},"type":"Feature","geometry":{"type":"Point","coordinates":[8.95278,34.337219]}},{"properties":{"city":"Tunis","name":"Tunis, Tunisia","latitude":36.798672,"country":"Tunisia","desc":"-","color":null,"longitude":10.17263,"id":"aczrx49ypsqo"},"type":"Feature","geometry":{"type":"Point","coordinates":[10.17263,36.798672]}},{"properties":{"city":"Tunis","name":"Tunis, Tunisia","latitude":36.798672,"country":"Tunisia","desc":"-","color":null,"longitude":10.17263,"id":"aczrx4c3p314"},"type":"Feature","geometry":{"type":"Point","coordinates":[10.17263,36.798672]}},{"properties":{"city":"Tunis","name":"Tunis, Tunisia","latitude":36.798672,"country":"Tunisia","desc":"-","color":null,"longitude":10.17263,"id":"aczrx48gnf09"},"type":"Feature","geometry":{"type":"Point","coordinates":[10.17263,36.798672]}},{"properties":{"city":"Ben Guerdane","name":"Ben Guerdane, TUnisia","latitude":33.133331,"country":"TUnisia","desc":"-","color":null,"longitude":11.21667,"id":"aczrx4assdj0"},"type":"Feature","geometry":{"type":"Point","coordinates":[11.21667,33.133331]}},{"properties":{"city":"Tunis","name":"Tunis, Tunisia","latitude":36.798672,"country":"Tunisia","desc":"-","color":null,"longitude":10.17263,"id":"aczrx4det63d"},"type":"Feature","geometry":{"type":"Point","coordinates":[10.17263,36.798672]}},{"properties":{"city":"Tunis","name":"Tunis, Tunisia","latitude":36.798672,"country":"Tunisia","desc":"-","color":null,"longitude":10.17263,"id":"aczrx4hhf7ff"},"type":"Feature","geometry":{"type":"Point","coordinates":[10.17263,36.798672]}},{"properties":{"city":"Kairouan","name":"Kairouan, Tunisia","latitude":35.677139,"country":"Tunisia","desc":"-","color":null,"longitude":10.09724,"id":"aczrx4hbi0ee"},"type":"Feature","geometry":{"type":"Point","coordinates":[10.09724,35.677139]}},{"properties":{"city":"Sidi Bouszid","name":"Sidi Bouszid, Tunisia","latitude":33.903775,"country":"Tunisia","desc":"-","color":null,"longitude":9.56154,"id":"aczrx4cby5wh"},"type":"Feature","geometry":{"type":"Point","coordinates":[9.56154,33.903775]}},{"properties":{"city":"Tunis","name":"Tunis, Tunisia","latitude":36.798672,"country":"Tunisia","desc":"-","color":null,"longitude":10.17263,"id":"aczrx477dmdl"},"type":"Feature","geometry":{"type":"Point","coordinates":[10.17263,36.798672]}},{"properties":{"city":"Sidi Bouzid","name":"Sidi Bouzid, Tunisia","latitude":33.903775,"country":"Tunisia","desc":"-","color":null,"longitude":9.56154,"id":"aczrx47gracs"},"type":"Feature","geometry":{"type":"Point","coordinates":[9.56154,33.903775]}},{"properties":{"city":"Kasserine","name":"Kasserine, Tunisia","latitude":35.171532,"country":"Tunisia","desc":"-","color":null,"longitude":8.82874,"id":"aczrx4d1d8dz"},"type":"Feature","geometry":{"type":"Point","coordinates":[8.82874,35.171532]}},{"properties":{"city":"Om Larayes","name":"Om Larayes, Tunisia","latitude":33.903775,"country":"Tunisia","desc":"-","color":null,"longitude":9.56154,"id":"aczrx42crosm"},"type":"Feature","geometry":{"type":"Point","coordinates":[9.56154,33.903775]}},{"properties":{"city":"Sbeitla","name":"Sbeitla, Tunisia","latitude":35.23431,"country":"Tunisia","desc":"-","color":null,"longitude":9.13039,"id":"aczrx43wjide"},"type":"Feature","geometry":{"type":"Point","coordinates":[9.13039,35.23431]}},{"properties":{"city":"Kebili","name":"Kebili, Tunisia","latitude":33.697208,"country":"Tunisia","desc":"-","color":null,"longitude":8.98677,"id":"aczrx4ctblwu"},"type":"Feature","geometry":{"type":"Point","coordinates":[8.98677,33.697208]}},{"properties":{"city":"Kasserine","name":"Kasserine, Tunisia","latitude":35.171532,"country":"Tunisia","desc":"-","color":null,"longitude":8.82874,"id":"aczrx48xnrzt"},"type":"Feature","geometry":{"type":"Point","coordinates":[8.82874,35.171532]}}],"is_temporal":false,"author":{"url":"","metadata":"","contact_name":"","contact_address":"","source":"","contact_phone":""},"source":"","pagination":{"sort":null,"start":0,"total":517,"limit":1000000},"state":"complete","tags":"","published":"2014-08-16T18:32:35-04:00","id":334315}