{"type":"FeatureCollection","data_type":"Dataset","url_type":null,"permissions":[{"permissions":{"download":true,"view":true},"group_id":"everyone"}],"classification":null,"title":"dpcfri2","count":61,"stream_id":33568,"contributor":{"url":"http://geocommons.com/users/11204","name":"joegravellese"},"data_attributes":null,"calculation_params":null,"icon_link":null,"link":"http://geocommons.com/overlays/33568.json","extent":[-73.2481,41.6334,-70.4386,42.8535],"geometry_types":["point"],"unique_name":null,"name":"dpcfri2","feature_count":61,"description":"","next_feature":null,"is_raster":false,"short_classification":"Y","stats":{"Bostonpress":{"max":22.0,"mean":0.360655737704918,"variance":7.9344262295082,"stdev":2.81681135852371,"min":0.0,"median":0.0},"Governor":{"max":43.0,"mean":1.21311475409836,"variance":30.4371584699454,"stdev":5.51698817018356,"min":0.0,"median":0.0},"Schoolvisit":{"max":2.0,"mean":0.163934426229508,"variance":0.206010928961749,"stdev":0.453884268246597,"min":0.0,"median":0.0},"Mapped":{"max":95.0,"mean":3.34426229508197,"variance":145.762841530055,"stdev":12.0732282977692,"min":0.0,"median":1.0},"Localpress":{"max":1.0,"mean":0.0655737704918033,"variance":0.0622950819672131,"stdev":0.249589827451387,"min":0.0,"median":0.0},"Fieldevent":{"max":9.0,"mean":0.622950819672131,"variance":1.57213114754098,"stdev":1.25384654066635,"min":0.0,"median":0.0},"Jobs":{"max":12.0,"mean":0.590163934426229,"variance":2.6792349726776,"stdev":1.63683688029003,"min":0.0,"median":0.0},"DPCfund":{"max":42.0,"mean":0.934426229508197,"variance":28.8622950819672,"stdev":5.37236401242202,"min":0.0,"median":0.0},"Seniors":{"max":1.0,"mean":0.0163934426229508,"variance":0.0163934426229508,"stdev":0.128036879932896,"min":0.0,"median":0.0},"Statehouse":{"max":51.0,"mean":0.836065573770492,"variance":42.6393442622951,"stdev":6.5298808765777,"min":0.0,"median":0.0},"Laborjobsite":{"max":1.0,"mean":0.0983606557377049,"variance":0.0901639344262295,"stdev":0.300273099737938,"min":0.0,"median":0.0},"Advocacy":{"max":5.0,"mean":0.163934426229508,"variance":0.472677595628415,"stdev":0.687515523918126,"min":0.0,"median":0.0},"Teachers":{"max":1.0,"mean":0.0491803278688525,"variance":0.0475409836065574,"stdev":0.218038949746501,"min":0.0,"median":0.0}},"features":[{"properties":{"Bostonpress":0.0,"Governor":0.0,"City":"Newburyport","Schoolvisit":0.0,"Mapped":0.0,"Localpress":0.0,"geo_score":0.857,"Fieldevent":0.0,"Jobs":0.0,"DPCfund":1.0,"State":"Massachusetts","Seniors":0.0,"Statehouse":0.0,"Total":null,"id":"a6b3xsxekvzs","geo_precision":"city","Laborjobsite":0.0,"Advocacy":0.0,"Teachers":0.0},"type":"Feature","geometry":{"type":"Point","coordinates":[-70.873196,42.80965]}},{"properties":{"Bostonpress":0.0,"Governor":0.0,"City":"Medford","Schoolvisit":0.0,"Mapped":0.0,"Localpress":0.0,"geo_score":0.781,"Fieldevent":0.0,"Jobs":0.0,"DPCfund":1.0,"State":"Massachusetts","Seniors":0.0,"Statehouse":0.0,"Total":null,"id":"a6b3xsrtx3gs","geo_precision":"city","Laborjobsite":0.0,"Advocacy":0.0,"Teachers":0.0},"type":"Feature","geometry":{"type":"Point","coordinates":[-71.125331,42.412596]}},{"properties":{"Bostonpress":0.0,"Governor":0.0,"City":"Concord","Schoolvisit":0.0,"Mapped":0.0,"Localpress":0.0,"geo_score":0.857,"Fieldevent":0.0,"Jobs":0.0,"DPCfund":1.0,"State":"Massachusetts","Seniors":0.0,"Statehouse":0.0,"Total":null,"id":"a6b3xsyg2b8t","geo_precision":"city","Laborjobsite":0.0,"Advocacy":0.0,"Teachers":0.0},"type":"Feature","geometry":{"type":"Point","coordinates":[-71.459405,42.446396]}},{"properties":{"Bostonpress":0.0,"Governor":0.0,"City":"Wellesley","Schoolvisit":0.0,"Mapped":0.0,"Localpress":0.0,"geo_score":0.857,"Fieldevent":0.0,"Jobs":0.0,"DPCfund":1.0,"State":"Massachusetts","Seniors":0.0,"Statehouse":0.0,"Total":null,"id":"a6b3xsrogqmb","geo_precision":"city","Laborjobsite":0.0,"Advocacy":0.0,"Teachers":0.0},"type":"Feature","geometry":{"type":"Point","coordinates":[-71.27875,42.300596]}},{"properties":{"Bostonpress":0.0,"Governor":0.0,"City":"Attleboro","Schoolvisit":0.0,"Mapped":0.0,"Localpress":0.0,"geo_score":0.857,"Fieldevent":0.0,"Jobs":0.0,"DPCfund":1.0,"State":"Massachusetts","Seniors":0.0,"Statehouse":0.0,"Total":null,"id":"a6b3xswz4pxa","geo_precision":"city","Laborjobsite":0.0,"Advocacy":0.0,"Teachers":0.0},"type":"Feature","geometry":{"type":"Point","coordinates":[-71.302297,41.938976]}},{"properties":{"Bostonpress":0.0,"Governor":0.0,"City":"Westwood","Schoolvisit":0.0,"Mapped":0.0,"Localpress":0.0,"geo_score":0.857,"Fieldevent":0.0,"Jobs":0.0,"DPCfund":1.0,"State":"Massachusetts","Seniors":0.0,"Statehouse":0.0,"Total":null,"id":"a6b3xsngoif4","geo_precision":"city","Laborjobsite":0.0,"Advocacy":0.0,"Teachers":0.0},"type":"Feature","geometry":{"type":"Point","coordinates":[-71.199238,42.220548]}},{"properties":{"Bostonpress":0.0,"Governor":0.0,"City":"Saugus","Schoolvisit":0.0,"Mapped":1.0,"Localpress":0.0,"geo_score":0.857,"Fieldevent":1.0,"Jobs":0.0,"DPCfund":0.0,"State":"Massachusetts","Seniors":0.0,"Statehouse":0.0,"Total":null,"id":"a6b3xsimb69x","geo_precision":"city","Laborjobsite":0.0,"Advocacy":0.0,"Teachers":0.0},"type":"Feature","geometry":{"type":"Point","coordinates":[-70.997794,42.472112]}},{"properties":{"Bostonpress":0.0,"Governor":0.0,"City":"Bedford","Schoolvisit":0.0,"Mapped":1.0,"Localpress":0.0,"geo_score":0.786,"Fieldevent":0.0,"Jobs":1.0,"DPCfund":0.0,"State":"Massachusetts","Seniors":0.0,"Statehouse":0.0,"Total":null,"id":"a6b3xssghemf","geo_precision":"city","Laborjobsite":0.0,"Advocacy":0.0,"Teachers":0.0},"type":"Feature","geometry":{"type":"Point","coordinates":[-71.270891,42.516205]}},{"properties":{"Bostonpress":0.0,"Governor":0.0,"City":"Westford","Schoolvisit":0.0,"Mapped":1.0,"Localpress":0.0,"geo_score":0.81,"Fieldevent":0.0,"Jobs":1.0,"DPCfund":0.0,"State":"Massachusetts","Seniors":0.0,"Statehouse":0.0,"Total":null,"id":"a6b3xsqfsj7z","geo_precision":"city","Laborjobsite":0.0,"Advocacy":0.0,"Teachers":0.0},"type":"Feature","geometry":{"type":"Point","coordinates":[-72.714814,42.309811]}},{"properties":{"Bostonpress":0.0,"Governor":1.0,"City":"Woburn","Schoolvisit":0.0,"Mapped":1.0,"Localpress":0.0,"geo_score":0.857,"Fieldevent":0.0,"Jobs":0.0,"DPCfund":0.0,"State":"Massachusetts","Seniors":0.0,"Statehouse":0.0,"Total":null,"id":"a6b3xswf9fgg","geo_precision":"city","Laborjobsite":0.0,"Advocacy":0.0,"Teachers":0.0},"type":"Feature","geometry":{"type":"Point","coordinates":[-71.157271,42.488595]}},{"properties":{"Bostonpress":0.0,"Governor":0.0,"City":"Burlington","Schoolvisit":0.0,"Mapped":1.0,"Localpress":0.0,"geo_score":0.857,"Fieldevent":0.0,"Jobs":1.0,"DPCfund":0.0,"State":"Massachusetts","Seniors":0.0,"Statehouse":0.0,"Total":null,"id":"a6b3xsyg5r1h","geo_precision":"city","Laborjobsite":0.0,"Advocacy":0.0,"Teachers":0.0},"type":"Feature","geometry":{"type":"Point","coordinates":[-71.201539,42.504844]}},{"properties":{"Bostonpress":0.0,"Governor":0.0,"City":"Walpole","Schoolvisit":0.0,"Mapped":1.0,"Localpress":0.0,"geo_score":0.857,"Fieldevent":1.0,"Jobs":0.0,"DPCfund":0.0,"State":"Massachusetts","Seniors":0.0,"Statehouse":0.0,"Total":null,"id":"a6b3xsn2y3s2","geo_precision":"city","Laborjobsite":0.0,"Advocacy":0.0,"Teachers":0.0},"type":"Feature","geometry":{"type":"Point","coordinates":[-71.255533,42.148624]}},{"properties":{"Bostonpress":0.0,"Governor":0.0,"City":"Canton","Schoolvisit":0.0,"Mapped":1.0,"Localpress":0.0,"geo_score":0.857,"Fieldevent":1.0,"Jobs":0.0,"DPCfund":0.0,"State":"Massachusetts","Seniors":0.0,"Statehouse":0.0,"Total":null,"id":"a6b3xsqjh03p","geo_precision":"city","Laborjobsite":0.0,"Advocacy":0.0,"Teachers":0.0},"type":"Feature","geometry":{"type":"Point","coordinates":[-71.121185,42.179146]}},{"properties":{"Bostonpress":0.0,"Governor":0.0,"City":"Chelmsford","Schoolvisit":0.0,"Mapped":1.0,"Localpress":0.0,"geo_score":0.857,"Fieldevent":1.0,"Jobs":0.0,"DPCfund":0.0,"State":"Massachusetts","Seniors":0.0,"Statehouse":0.0,"Total":null,"id":"a6b3xssmlnjy","geo_precision":"city","Laborjobsite":0.0,"Advocacy":0.0,"Teachers":0.0},"type":"Feature","geometry":{"type":"Point","coordinates":[-71.459405,42.446396]}},{"properties":{"Bostonpress":0.0,"Governor":0.0,"City":"Swampscott","Schoolvisit":0.0,"Mapped":1.0,"Localpress":0.0,"geo_score":0.857,"Fieldevent":1.0,"Jobs":0.0,"DPCfund":0.0,"State":"Massachusetts","Seniors":0.0,"Statehouse":0.0,"Total":null,"id":"a6b3xsq18ngs","geo_precision":"city","Laborjobsite":0.0,"Advocacy":0.0,"Teachers":0.0},"type":"Feature","geometry":{"type":"Point","coordinates":[-70.905893,42.513295]}},{"properties":{"Bostonpress":0.0,"Governor":1.0,"City":"Clinton","Schoolvisit":0.0,"Mapped":1.0,"Localpress":0.0,"geo_score":0.857,"Fieldevent":0.0,"Jobs":0.0,"DPCfund":0.0,"State":"Massachusetts","Seniors":0.0,"Statehouse":0.0,"Total":null,"id":"a6b3xsoblj7o","geo_precision":"city","Laborjobsite":0.0,"Advocacy":0.0,"Teachers":0.0},"type":"Feature","geometry":{"type":"Point","coordinates":[-71.687523,42.413972]}},{"properties":{"Bostonpress":0.0,"Governor":0.0,"City":"Andover","Schoolvisit":0.0,"Mapped":1.0,"Localpress":0.0,"geo_score":0.857,"Fieldevent":1.0,"Jobs":0.0,"DPCfund":0.0,"State":"Massachusetts","Seniors":0.0,"Statehouse":0.0,"Total":null,"id":"a6b3xsvognkp","geo_precision":"city","Laborjobsite":0.0,"Advocacy":0.0,"Teachers":0.0},"type":"Feature","geometry":{"type":"Point","coordinates":[-71.165685,42.647991]}},{"properties":{"Bostonpress":0.0,"Governor":0.0,"City":"Sturbridge","Schoolvisit":0.0,"Mapped":1.0,"Localpress":0.0,"geo_score":0.857,"Fieldevent":0.0,"Jobs":1.0,"DPCfund":0.0,"State":"Massachusetts","Seniors":0.0,"Statehouse":0.0,"Total":null,"id":"a6b3xsvuek8i","geo_precision":"city","Laborjobsite":0.0,"Advocacy":0.0,"Teachers":0.0},"type":"Feature","geometry":{"type":"Point","coordinates":[-72.080996,42.10273]}},{"properties":{"Bostonpress":0.0,"Governor":0.0,"City":"Easthampton","Schoolvisit":0.0,"Mapped":1.0,"Localpress":0.0,"geo_score":0.857,"Fieldevent":1.0,"Jobs":0.0,"DPCfund":0.0,"State":"Massachusetts","Seniors":0.0,"Statehouse":0.0,"Total":null,"id":"a6b3xsu9n7dv","geo_precision":"city","Laborjobsite":0.0,"Advocacy":0.0,"Teachers":0.0},"type":"Feature","geometry":{"type":"Point","coordinates":[-72.768839,42.368303]}},{"properties":{"Bostonpress":0.0,"Governor":0.0,"City":"Belmont","Schoolvisit":0.0,"Mapped":1.0,"Localpress":0.0,"geo_score":0.857,"Fieldevent":1.0,"Jobs":0.0,"DPCfund":0.0,"State":"Massachusetts","Seniors":0.0,"Statehouse":0.0,"Total":null,"id":"a6b3xsog4lzd","geo_precision":"city","Laborjobsite":0.0,"Advocacy":0.0,"Teachers":0.0},"type":"Feature","geometry":{"type":"Point","coordinates":[-71.459405,42.446396]}},{"properties":{"Bostonpress":0.0,"Governor":1.0,"City":"Pittsfield","Schoolvisit":0.0,"Mapped":1.0,"Localpress":0.0,"geo_score":0.857,"Fieldevent":0.0,"Jobs":0.0,"DPCfund":0.0,"State":"Massachusetts","Seniors":0.0,"Statehouse":0.0,"Total":null,"id":"a6b3xsj2muhk","geo_precision":"city","Laborjobsite":0.0,"Advocacy":0.0,"Teachers":0.0},"type":"Feature","geometry":{"type":"Point","coordinates":[-73.24807,42.479475]}},{"properties":{"Bostonpress":0.0,"Governor":0.0,"City":"Grafton","Schoolvisit":0.0,"Mapped":1.0,"Localpress":0.0,"geo_score":0.857,"Fieldevent":1.0,"Jobs":0.0,"DPCfund":0.0,"State":"Massachusetts","Seniors":0.0,"Statehouse":0.0,"Total":null,"id":"a6b3xsmro646","geo_precision":"city","Laborjobsite":0.0,"Advocacy":0.0,"Teachers":0.0},"type":"Feature","geometry":{"type":"Point","coordinates":[-71.682862,42.203944]}},{"properties":{"Bostonpress":0.0,"Governor":0.0,"City":"Greenfield","Schoolvisit":0.0,"Mapped":1.0,"Localpress":0.0,"geo_score":0.752,"Fieldevent":0.0,"Jobs":0.0,"DPCfund":0.0,"State":"Massachusetts","Seniors":0.0,"Statehouse":0.0,"Total":null,"id":"a6b3xsm6zniu","geo_precision":"city","Laborjobsite":1.0,"Advocacy":0.0,"Teachers":0.0},"type":"Feature","geometry":{"type":"Point","coordinates":[-72.87871,42.067316]}},{"properties":{"Bostonpress":0.0,"Governor":0.0,"City":"Holyoke","Schoolvisit":0.0,"Mapped":1.0,"Localpress":0.0,"geo_score":0.857,"Fieldevent":1.0,"Jobs":0.0,"DPCfund":0.0,"State":"Massachusetts","Seniors":0.0,"Statehouse":0.0,"Total":null,"id":"a6b3xsxck2qf","geo_precision":"city","Laborjobsite":0.0,"Advocacy":0.0,"Teachers":0.0},"type":"Feature","geometry":{"type":"Point","coordinates":[-72.64207,42.198291]}},{"properties":{"Bostonpress":0.0,"Governor":1.0,"City":"Lawrence","Schoolvisit":0.0,"Mapped":1.0,"Localpress":0.0,"geo_score":0.857,"Fieldevent":0.0,"Jobs":0.0,"DPCfund":0.0,"State":"Massachusetts","Seniors":0.0,"Statehouse":0.0,"Total":null,"id":"a6b3xsy5g9fe","geo_precision":"city","Laborjobsite":0.0,"Advocacy":0.0,"Teachers":0.0},"type":"Feature","geometry":{"type":"Point","coordinates":[-71.161052,42.70734]}},{"properties":{"Bostonpress":0.0,"Governor":0.0,"City":"Northampton","Schoolvisit":0.0,"Mapped":1.0,"Localpress":0.0,"geo_score":0.857,"Fieldevent":1.0,"Jobs":0.0,"DPCfund":0.0,"State":"Massachusetts","Seniors":0.0,"Statehouse":0.0,"Total":null,"id":"a6b3xsj51xbg","geo_precision":"city","Laborjobsite":0.0,"Advocacy":0.0,"Teachers":0.0},"type":"Feature","geometry":{"type":"Point","coordinates":[-72.76927,42.415154]}},{"properties":{"Bostonpress":0.0,"Governor":0.0,"City":"North Chelmsford","Schoolvisit":1.0,"Mapped":1.0,"Localpress":0.0,"geo_score":0.857,"Fieldevent":0.0,"Jobs":0.0,"DPCfund":0.0,"State":"Massachusetts","Seniors":0.0,"Statehouse":0.0,"Total":null,"id":"a6b3xsyaibml","geo_precision":"city","Laborjobsite":0.0,"Advocacy":0.0,"Teachers":0.0},"type":"Feature","geometry":{"type":"Point","coordinates":[-71.459405,42.446396]}},{"properties":{"Bostonpress":0.0,"Governor":0.0,"City":"Lowell","Schoolvisit":0.0,"Mapped":1.0,"Localpress":0.0,"geo_score":0.857,"Fieldevent":0.0,"Jobs":1.0,"DPCfund":0.0,"State":"Massachusetts","Seniors":0.0,"Statehouse":0.0,"Total":null,"id":"a6b3xsl4kuwn","geo_precision":"city","Laborjobsite":0.0,"Advocacy":0.0,"Teachers":0.0},"type":"Feature","geometry":{"type":"Point","coordinates":[-71.459405,42.446396]}},{"properties":{"Bostonpress":0.0,"Governor":0.0,"City":"Ludlow","Schoolvisit":0.0,"Mapped":1.0,"Localpress":0.0,"geo_score":0.857,"Fieldevent":1.0,"Jobs":0.0,"DPCfund":0.0,"State":"Massachusetts","Seniors":0.0,"Statehouse":0.0,"Total":null,"id":"a6b3xss6p3d7","geo_precision":"city","Laborjobsite":0.0,"Advocacy":0.0,"Teachers":0.0},"type":"Feature","geometry":{"type":"Point","coordinates":[-72.627038,42.173276]}},{"properties":{"Bostonpress":0.0,"Governor":0.0,"City":"North Andover","Schoolvisit":0.0,"Mapped":1.0,"Localpress":0.0,"geo_score":0.786,"Fieldevent":0.0,"Jobs":1.0,"DPCfund":0.0,"State":"Massachusetts","Seniors":0.0,"Statehouse":0.0,"Total":null,"id":"a6b3xswlme4q","geo_precision":"city","Laborjobsite":0.0,"Advocacy":0.0,"Teachers":0.0},"type":"Feature","geometry":{"type":"Point","coordinates":[-71.357837,42.301485]}},{"properties":{"Bostonpress":0.0,"Governor":0.0,"City":"Malden","Schoolvisit":0.0,"Mapped":1.0,"Localpress":0.0,"geo_score":0.857,"Fieldevent":1.0,"Jobs":0.0,"DPCfund":0.0,"State":"Massachusetts","Seniors":0.0,"Statehouse":0.0,"Total":null,"id":"a6b3xspt7rph","geo_precision":"city","Laborjobsite":0.0,"Advocacy":0.0,"Teachers":0.0},"type":"Feature","geometry":{"type":"Point","coordinates":[-71.085396,42.436545]}},{"properties":{"Bostonpress":0.0,"Governor":0.0,"City":"Marlborough","Schoolvisit":0.0,"Mapped":1.0,"Localpress":0.0,"geo_score":0.818,"Fieldevent":0.0,"Jobs":1.0,"DPCfund":0.0,"State":"Massachusetts","Seniors":0.0,"Statehouse":0.0,"Total":null,"id":"a6b3xsrd1lhm","geo_precision":"city","Laborjobsite":0.0,"Advocacy":0.0,"Teachers":0.0},"type":"Feature","geometry":{"type":"Point","coordinates":[-70.97311,42.716759]}},{"properties":{"Bostonpress":0.0,"Governor":0.0,"City":"Maynard","Schoolvisit":0.0,"Mapped":1.0,"Localpress":0.0,"geo_score":0.857,"Fieldevent":0.0,"Jobs":1.0,"DPCfund":0.0,"State":"Massachusetts","Seniors":0.0,"Statehouse":0.0,"Total":null,"id":"a6b3xsnrjwp7","geo_precision":"city","Laborjobsite":0.0,"Advocacy":0.0,"Teachers":0.0},"type":"Feature","geometry":{"type":"Point","coordinates":[-71.459405,42.446396]}},{"properties":{"Bostonpress":0.0,"Governor":1.0,"City":"Amesbury","Schoolvisit":0.0,"Mapped":1.0,"Localpress":0.0,"geo_score":0.857,"Fieldevent":0.0,"Jobs":0.0,"DPCfund":0.0,"State":"Massachusetts","Seniors":0.0,"Statehouse":0.0,"Total":null,"id":"a6b3xsy82kgr","geo_precision":"city","Laborjobsite":0.0,"Advocacy":0.0,"Teachers":0.0},"type":"Feature","geometry":{"type":"Point","coordinates":[-70.948211,42.853539]}},{"properties":{"Bostonpress":0.0,"Governor":0.0,"City":"Melrose","Schoolvisit":0.0,"Mapped":1.0,"Localpress":0.0,"geo_score":0.857,"Fieldevent":0.0,"Jobs":1.0,"DPCfund":0.0,"State":"Massachusetts","Seniors":0.0,"Statehouse":0.0,"Total":null,"id":"a6b3xsvbf16f","geo_precision":"city","Laborjobsite":0.0,"Advocacy":0.0,"Teachers":0.0},"type":"Feature","geometry":{"type":"Point","coordinates":[-71.053095,42.458995]}},{"properties":{"Bostonpress":0.0,"Governor":1.0,"City":"Milton","Schoolvisit":0.0,"Mapped":1.0,"Localpress":0.0,"geo_score":0.786,"Fieldevent":0.0,"Jobs":0.0,"DPCfund":3.0,"State":"Massachusetts","Seniors":0.0,"Statehouse":0.0,"Total":null,"id":"a6b3xslqrs0z","geo_precision":"city","Laborjobsite":0.0,"Advocacy":0.0,"Teachers":0.0},"type":"Feature","geometry":{"type":"Point","coordinates":[-71.085396,42.436545]}},{"properties":{"Bostonpress":0.0,"Governor":0.0,"City":"Natick","Schoolvisit":0.0,"Mapped":1.0,"Localpress":0.0,"geo_score":0.857,"Fieldevent":0.0,"Jobs":0.0,"DPCfund":0.0,"State":"Massachusetts","Seniors":1.0,"Statehouse":0.0,"Total":null,"id":"a6b3xss9pzji","geo_precision":"city","Laborjobsite":0.0,"Advocacy":0.0,"Teachers":0.0},"type":"Feature","geometry":{"type":"Point","coordinates":[-71.459405,42.446396]}},{"properties":{"Bostonpress":0.0,"Governor":0.0,"City":"Needham","Schoolvisit":0.0,"Mapped":1.0,"Localpress":0.0,"geo_score":0.857,"Fieldevent":0.0,"Jobs":0.0,"DPCfund":0.0,"State":"Massachusetts","Seniors":0.0,"Statehouse":0.0,"Total":null,"id":"a6b3xsvkg2ep","geo_precision":"city","Laborjobsite":0.0,"Advocacy":0.0,"Teachers":1.0},"type":"Feature","geometry":{"type":"Point","coordinates":[-71.08923,42.180048]}},{"properties":{"Bostonpress":0.0,"Governor":0.0,"City":"Plymouth","Schoolvisit":0.0,"Mapped":1.0,"Localpress":0.0,"geo_score":0.857,"Fieldevent":0.0,"Jobs":0.0,"DPCfund":0.0,"State":"Massachusetts","Seniors":0.0,"Statehouse":0.0,"Total":null,"id":"a6b3xsmtuptq","geo_precision":"city","Laborjobsite":1.0,"Advocacy":0.0,"Teachers":0.0},"type":"Feature","geometry":{"type":"Point","coordinates":[-70.638717,41.886207]}},{"properties":{"Bostonpress":0.0,"Governor":0.0,"City":"Agawam","Schoolvisit":0.0,"Mapped":2.0,"Localpress":0.0,"geo_score":0.857,"Fieldevent":0.0,"Jobs":1.0,"DPCfund":0.0,"State":"Massachusetts","Seniors":0.0,"Statehouse":0.0,"Total":null,"id":"a6b3xsv072d3","geo_precision":"city","Laborjobsite":0.0,"Advocacy":1.0,"Teachers":0.0},"type":"Feature","geometry":{"type":"Point","coordinates":[-72.788661,42.140549]}},{"properties":{"Bostonpress":0.0,"Governor":0.0,"City":"Danvers","Schoolvisit":0.0,"Mapped":2.0,"Localpress":0.0,"geo_score":0.805,"Fieldevent":1.0,"Jobs":1.0,"DPCfund":0.0,"State":"Massachusetts","Seniors":0.0,"Statehouse":0.0,"Total":null,"id":"a6b3xsv5na00","geo_precision":"city","Laborjobsite":0.0,"Advocacy":0.0,"Teachers":0.0},"type":"Feature","geometry":{"type":"Point","coordinates":[-70.920328,42.548428]}},{"properties":{"Bostonpress":0.0,"Governor":1.0,"City":"Lynn","Schoolvisit":0.0,"Mapped":2.0,"Localpress":0.0,"geo_score":0.857,"Fieldevent":0.0,"Jobs":1.0,"DPCfund":0.0,"State":"Massachusetts","Seniors":0.0,"Statehouse":0.0,"Total":null,"id":"a6b3xsuzbx6t","geo_precision":"city","Laborjobsite":0.0,"Advocacy":0.0,"Teachers":0.0},"type":"Feature","geometry":{"type":"Point","coordinates":[-70.946743,42.461246]}},{"properties":{"Bostonpress":0.0,"Governor":0.0,"City":"Lexington","Schoolvisit":0.0,"Mapped":2.0,"Localpress":0.0,"geo_score":0.857,"Fieldevent":1.0,"Jobs":0.0,"DPCfund":1.0,"State":"Massachusetts","Seniors":0.0,"Statehouse":0.0,"Total":null,"id":"a6b3xsv86gm0","geo_precision":"city","Laborjobsite":1.0,"Advocacy":0.0,"Teachers":0.0},"type":"Feature","geometry":{"type":"Point","coordinates":[-71.459405,42.446396]}},{"properties":{"Bostonpress":0.0,"Governor":0.0,"City":"Leominster","Schoolvisit":0.0,"Mapped":2.0,"Localpress":1.0,"geo_score":0.857,"Fieldevent":0.0,"Jobs":0.0,"DPCfund":0.0,"State":"Massachusetts","Seniors":0.0,"Statehouse":0.0,"Total":null,"id":"a6b3xsjmyksr","geo_precision":"city","Laborjobsite":1.0,"Advocacy":0.0,"Teachers":0.0},"type":"Feature","geometry":{"type":"Point","coordinates":[-71.837509,42.471316]}},{"properties":{"Bostonpress":0.0,"Governor":0.0,"City":"Arlington","Schoolvisit":1.0,"Mapped":2.0,"Localpress":0.0,"geo_score":0.857,"Fieldevent":1.0,"Jobs":0.0,"DPCfund":0.0,"State":"Massachusetts","Seniors":0.0,"Statehouse":0.0,"Total":null,"id":"a6b3xsycrgkr","geo_precision":"city","Laborjobsite":0.0,"Advocacy":0.0,"Teachers":0.0},"type":"Feature","geometry":{"type":"Point","coordinates":[-71.167083,42.417695]}},{"properties":{"Bostonpress":0.0,"Governor":1.0,"City":"Brookline","Schoolvisit":0.0,"Mapped":2.0,"Localpress":0.0,"geo_score":0.857,"Fieldevent":1.0,"Jobs":0.0,"DPCfund":0.0,"State":"Massachusetts","Seniors":0.0,"Statehouse":0.0,"Total":null,"id":"a6b3xsyhc06y","geo_precision":"city","Laborjobsite":0.0,"Advocacy":0.0,"Teachers":0.0},"type":"Feature","geometry":{"type":"Point","coordinates":[-71.088745,42.308198]}},{"properties":{"Bostonpress":0.0,"Governor":1.0,"City":"Quincy","Schoolvisit":0.0,"Mapped":2.0,"Localpress":0.0,"geo_score":0.857,"Fieldevent":0.0,"Jobs":1.0,"DPCfund":0.0,"State":"Massachusetts","Seniors":0.0,"Statehouse":0.0,"Total":null,"id":"a6b3xsmchsyc","geo_precision":"city","Laborjobsite":0.0,"Advocacy":0.0,"Teachers":0.0},"type":"Feature","geometry":{"type":"Point","coordinates":[-71.006042,42.241799]}},{"properties":{"Bostonpress":0.0,"Governor":0.0,"City":"Watertown","Schoolvisit":0.0,"Mapped":2.0,"Localpress":0.0,"geo_score":0.857,"Fieldevent":1.0,"Jobs":0.0,"DPCfund":0.0,"State":"Massachusetts","Seniors":0.0,"Statehouse":0.0,"Total":null,"id":"a6b3xswvctv8","geo_precision":"city","Laborjobsite":0.0,"Advocacy":1.0,"Teachers":0.0},"type":"Feature","geometry":{"type":"Point","coordinates":[-71.177998,42.372596]}},{"properties":{"Bostonpress":0.0,"Governor":1.0,"City":"Fall River","Schoolvisit":0.0,"Mapped":2.0,"Localpress":0.0,"geo_score":0.857,"Fieldevent":1.0,"Jobs":0.0,"DPCfund":1.0,"State":"Massachusetts","Seniors":0.0,"Statehouse":0.0,"Total":null,"id":"a6b3xsytynh9","geo_precision":"city","Laborjobsite":0.0,"Advocacy":0.0,"Teachers":0.0},"type":"Feature","geometry":{"type":"Point","coordinates":[-71.165971,41.819766]}},{"properties":{"Bostonpress":0.0,"Governor":0.0,"City":"Chelsea","Schoolvisit":0.0,"Mapped":2.0,"Localpress":0.0,"geo_score":0.857,"Fieldevent":2.0,"Jobs":0.0,"DPCfund":0.0,"State":"Massachusetts","Seniors":0.0,"Statehouse":0.0,"Total":null,"id":"a6b3xsq5jmki","geo_precision":"city","Laborjobsite":0.0,"Advocacy":0.0,"Teachers":0.0},"type":"Feature","geometry":{"type":"Point","coordinates":[-71.038894,42.378197]}},{"properties":{"Bostonpress":0.0,"Governor":3.0,"City":"Newton","Schoolvisit":0.0,"Mapped":3.0,"Localpress":0.0,"geo_score":0.837,"Fieldevent":0.0,"Jobs":0.0,"DPCfund":1.0,"State":"Massachusetts","Seniors":0.0,"Statehouse":0.0,"Total":null,"id":"a6b3xsur4t8i","geo_precision":"city","Laborjobsite":0.0,"Advocacy":0.0,"Teachers":0.0},"type":"Feature","geometry":{"type":"Point","coordinates":[-70.438637,41.671776]}},{"properties":{"Bostonpress":0.0,"Governor":0.0,"City":"Revere","Schoolvisit":0.0,"Mapped":3.0,"Localpress":0.0,"geo_score":0.857,"Fieldevent":0.0,"Jobs":3.0,"DPCfund":0.0,"State":"Massachusetts","Seniors":0.0,"Statehouse":0.0,"Total":null,"id":"a6b3xsun38j2","geo_precision":"city","Laborjobsite":0.0,"Advocacy":0.0,"Teachers":0.0},"type":"Feature","geometry":{"type":"Point","coordinates":[-71.020494,42.366303]}},{"properties":{"Bostonpress":0.0,"Governor":1.0,"City":"Framingham","Schoolvisit":1.0,"Mapped":3.0,"Localpress":1.0,"geo_score":0.804,"Fieldevent":0.0,"Jobs":0.0,"DPCfund":0.0,"State":"Massachusetts","Seniors":0.0,"Statehouse":0.0,"Total":null,"id":"a6b3xsmjxdww","geo_precision":"city","Laborjobsite":0.0,"Advocacy":0.0,"Teachers":0.0},"type":"Feature","geometry":{"type":"Point","coordinates":[-71.437006,42.297318]}},{"properties":{"Bostonpress":0.0,"Governor":1.0,"City":"Waltham","Schoolvisit":0.0,"Mapped":5.0,"Localpress":0.0,"geo_score":0.857,"Fieldevent":1.0,"Jobs":2.0,"DPCfund":1.0,"State":"Massachusetts","Seniors":0.0,"Statehouse":0.0,"Total":null,"id":"a6b3xsygfzkb","geo_precision":"city","Laborjobsite":0.0,"Advocacy":1.0,"Teachers":0.0},"type":"Feature","geometry":{"type":"Point","coordinates":[-71.2398,42.388938]}},{"properties":{"Bostonpress":0.0,"Governor":2.0,"City":"Cambridge","Schoolvisit":0.0,"Mapped":5.0,"Localpress":0.0,"geo_score":0.813,"Fieldevent":1.0,"Jobs":1.0,"DPCfund":1.0,"State":"Massachusetts","Seniors":0.0,"Statehouse":0.0,"Total":null,"id":"a6b3xsnjt5mf","geo_precision":"city","Laborjobsite":0.0,"Advocacy":1.0,"Teachers":0.0},"type":"Feature","geometry":{"type":"Point","coordinates":[-71.103663,42.358431]}},{"properties":{"Bostonpress":0.0,"Governor":2.0,"City":"Springfield","Schoolvisit":0.0,"Mapped":6.0,"Localpress":0.0,"geo_score":0.857,"Fieldevent":3.0,"Jobs":1.0,"DPCfund":0.0,"State":"Massachusetts","Seniors":0.0,"Statehouse":0.0,"Total":null,"id":"a6b3xsodwhit","geo_precision":"city","Laborjobsite":0.0,"Advocacy":0.0,"Teachers":0.0},"type":"Feature","geometry":{"type":"Point","coordinates":[-72.589811,42.101483]}},{"properties":{"Bostonpress":0.0,"Governor":4.0,"City":"Worcester","Schoolvisit":1.0,"Mapped":6.0,"Localpress":0.0,"geo_score":0.857,"Fieldevent":1.0,"Jobs":0.0,"DPCfund":0.0,"State":"Massachusetts","Seniors":0.0,"Statehouse":0.0,"Total":null,"id":"a6b3xswst1fa","geo_precision":"city","Laborjobsite":0.0,"Advocacy":0.0,"Teachers":0.0},"type":"Feature","geometry":{"type":"Point","coordinates":[-71.802293,42.262593]}},{"properties":{"Bostonpress":0.0,"Governor":2.0,"City":"Brockton","Schoolvisit":2.0,"Mapped":7.0,"Localpress":1.0,"geo_score":0.857,"Fieldevent":1.0,"Jobs":0.0,"DPCfund":0.0,"State":"Massachusetts","Seniors":0.0,"Statehouse":0.0,"Total":null,"id":"a6b3xstb8a7s","geo_precision":"city","Laborjobsite":1.0,"Advocacy":0.0,"Teachers":0.0},"type":"Feature","geometry":{"type":"Point","coordinates":[-71.018379,42.083434]}},{"properties":{"Bostonpress":0.0,"Governor":3.0,"City":"Taunton","Schoolvisit":1.0,"Mapped":8.0,"Localpress":0.0,"geo_score":0.857,"Fieldevent":1.0,"Jobs":1.0,"DPCfund":1.0,"State":"Massachusetts","Seniors":0.0,"Statehouse":0.0,"Total":null,"id":"a6b3xsxw3er1","geo_precision":"city","Laborjobsite":0.0,"Advocacy":1.0,"Teachers":1.0},"type":"Feature","geometry":{"type":"Point","coordinates":[-71.092827,41.858851]}},{"properties":{"Bostonpress":0.0,"Governor":3.0,"City":"newbedford","Schoolvisit":1.0,"Mapped":8.0,"Localpress":1.0,"geo_score":0.857,"Fieldevent":0.0,"Jobs":3.0,"DPCfund":0.0,"State":"Massachusetts","Seniors":0.0,"Statehouse":0.0,"Total":null,"id":"a6b3xsj7kggm","geo_precision":"city","Laborjobsite":0.0,"Advocacy":0.0,"Teachers":0.0},"type":"Feature","geometry":{"type":"Point","coordinates":[-70.951045,41.633416]}},{"properties":{"Bostonpress":22.0,"Governor":43.0,"City":"Boston","Schoolvisit":2.0,"Mapped":95.0,"Localpress":0.0,"geo_score":0.857,"Fieldevent":9.0,"Jobs":12.0,"DPCfund":42.0,"State":"Massachusetts","Seniors":0.0,"Statehouse":51.0,"Total":null,"id":"a6b3xsog16u0","geo_precision":"city","Laborjobsite":1.0,"Advocacy":5.0,"Teachers":1.0},"type":"Feature","geometry":{"type":"Point","coordinates":[-71.059773,42.358431]}}],"is_temporal":false,"author":{"url":"","metadata":"","contact_name":"","contact_address":"","source":"","contact_phone":""},"source":"","pagination":{"sort":null,"start":0,"total":61,"limit":1000000},"state":"complete","tags":"","published":"2014-08-10T14:13:39-04:00","id":33568}