{"type":"FeatureCollection","data_type":"Dataset","url_type":null,"permissions":[{"permissions":{"download":true,"view":true},"group_id":"everyone"}],"classification":null,"title":"Austin Independent School District External Research Projects 2012-2013","count":90,"stream_id":335859,"contributor":{"url":"http://geocommons.com/users/67230","name":"kevin.yeh@austinisd.org"},"data_attributes":null,"calculation_params":null,"icon_link":null,"link":"http://geocommons.com/overlays/335859.json","extent":[-97.8907,30.1696,-96.6111,30.8752],"geometry_types":["point"],"unique_name":null,"name":"Austin Independent School District External Research Projects 2012-2013","feature_count":90,"description":"","next_feature":null,"is_raster":false,"short_classification":"Y","stats":{"count":{"max":15,"variance":7.95118601747816,"mean":10.6777777777778,"stdev":2.81978474665677,"min":1,"median":11}},"features":[{"properties":{"geo_score":0.634,"count":15,"id":"ad24hov74xbj","campus":"Akins (017)","address":"10701 South 1st St., Austin, TX","geo_precision":"street"},"type":"Feature","geometry":{"type":"Point","coordinates":[-97.797805,30.176588]}},{"properties":{"geo_score":0.902,"count":11,"id":"ad24horkcl26","campus":"Anderson (009)","address":"8403 Mesa Dr., Austin, TX","geo_precision":"range"},"type":"Feature","geometry":{"type":"Point","coordinates":[-97.75518,30.374359]}},{"properties":{"geo_score":0.851,"count":11,"id":"ad24hosblnk4","campus":"Austin (002)","address":"1715 W. Cesar Chavez, Austin, TX","geo_precision":"range"},"type":"Feature","geometry":{"type":"Point","coordinates":[-97.765277,30.273057]}},{"properties":{"geo_score":0.508,"count":10,"id":"ad24horwoicc","campus":"Bowie (013)","address":"4103 Slaughter Ln., Austin, TX","geo_precision":"city"},"type":"Feature","geometry":{"type":"Point","coordinates":[-97.771258,30.326374]}},{"properties":{"geo_score":0.902,"count":15,"id":"ad24hort1i1z","campus":"Crockett (008)","address":"5601 Manchaca Rd., Austin, TX","geo_precision":"range"},"type":"Feature","geometry":{"type":"Point","coordinates":[-97.800167,30.214008]}},{"properties":{"geo_score":0.848,"count":10,"id":"ad24hoqxkbdn","campus":"Eastside Memorial (019)","address":"1012 Arthur Stiles, Austin, TX","geo_precision":"range"},"type":"Feature","geometry":{"type":"Point","coordinates":[-97.678474,30.260451]}},{"properties":{"geo_score":0.902,"count":9,"id":"ad24honjyl1f","campus":"Garza (015)","address":"1600 Chicon Street, Austin, TX","geo_precision":"range"},"type":"Feature","geometry":{"type":"Point","coordinates":[-97.720776,30.277786]}},{"properties":{"geo_score":0.863,"count":12,"id":"ad24horoozlf","campus":"Lanier (004)","address":"1201 Payton Gin Rd W., Austin, TX","geo_precision":"range"},"type":"Feature","geometry":{"type":"Point","coordinates":[-97.709665,30.361919]}},{"properties":{"geo_score":0.902,"count":15,"id":"ad24hon60c78","campus":"LBJ (014)","address":"7309 Lazy Creek Dr., Austin, TX","geo_precision":"range"},"type":"Feature","geometry":{"type":"Point","coordinates":[-97.657736,30.311477]}},{"properties":{"geo_score":0.902,"count":10,"id":"ad24hopv19im","campus":"LASA (018)","address":"7310 Lazy Creek Dr., Austin, TX","geo_precision":"range"},"type":"Feature","geometry":{"type":"Point","coordinates":[-97.657505,30.314383]}},{"properties":{"geo_score":0.902,"count":12,"id":"ad24hoj0eurp","campus":"McCallum (005)","address":"5600 Sunshine Dr., Austin, TX","geo_precision":"range"},"type":"Feature","geometry":{"type":"Point","coordinates":[-97.730436,30.324834]}},{"properties":{"geo_score":0.902,"count":13,"id":"ad24hon66kg5","campus":"Reagan (006)","address":"7104 Berkman Dr., Austin, TX","geo_precision":"range"},"type":"Feature","geometry":{"type":"Point","coordinates":[-97.689575,30.323418]}},{"properties":{"geo_score":0.823,"count":8,"id":"ad24hoqgjsc7","campus":"Travis (007)","address":"1211 E. Oltorf, Austin, TX","geo_precision":"range"},"type":"Feature","geometry":{"type":"Point","coordinates":[-97.746397,30.236023]}},{"properties":{"geo_score":0.902,"count":14,"id":"ad24hovvae60","campus":"Bailey (059)","address":"4020 Lost Oasis Hollow, Austin, TX","geo_precision":"range"},"type":"Feature","geometry":{"type":"Point","coordinates":[-97.873952,30.169585]}},{"properties":{"geo_score":0.519,"count":13,"id":"ad24hon2z99g","campus":"Bedichek (054)","address":"6800 Bill Hughes Rd., Austin, TX","geo_precision":"street"},"type":"Feature","geometry":{"type":"Point","coordinates":[-97.890734,30.258449]}},{"properties":{"geo_score":0.823,"count":13,"id":"ad24hov103w8","campus":"Burnet (046)","address":"8401 Hathaway, Austin, TX","geo_precision":"range"},"type":"Feature","geometry":{"type":"Point","coordinates":[-97.726271,30.365672]}},{"properties":{"geo_score":0.902,"count":13,"id":"ad24houo817d","campus":"Covington (057)","address":"3700 Convict Hill Rd, Austin, TX","geo_precision":"range"},"type":"Feature","geometry":{"type":"Point","coordinates":[-97.834822,30.211482]}},{"properties":{"geo_score":0.857,"count":15,"id":"ad24hougfls8","campus":"Dobie (055)","address":"1200 Rundberg Ln., Austin, TX","geo_precision":"range"},"type":"Feature","geometry":{"type":"Point","coordinates":[-97.706235,30.36742]}},{"properties":{"geo_score":0.902,"count":13,"id":"ad24hosyw5gq","campus":"Kealing (044)","address":"1607 Pennsylvania Ave., Austin, TX","geo_precision":"range"},"type":"Feature","geometry":{"type":"Point","coordinates":[-97.723113,30.271172]}},{"properties":{"geo_score":0.785,"count":14,"id":"ad24hoxzul8f","campus":"Lamar (045)","address":"6201 Wynona, Austin, TX","geo_precision":"range"},"type":"Feature","geometry":{"type":"Point","coordinates":[-97.741306,30.337029]}},{"properties":{"geo_score":0.815,"count":14,"id":"ad24hoq4g1kr","campus":"Martin (051)","address":"1601 Haskell, Austin, TX","geo_precision":"range"},"type":"Feature","geometry":{"type":"Point","coordinates":[-97.728686,30.253299]}},{"properties":{"geo_score":0.649,"count":13,"id":"ad24hougfvzs","campus":"Mendez (058)","address":"5106 Village Square, Austin, TX","geo_precision":"street"},"type":"Feature","geometry":{"type":"Point","coordinates":[-97.746139,30.192677]}},{"properties":{"geo_score":0.902,"count":13,"id":"ad24hoocjxc3","campus":"Murchison (052)","address":"3700 North Hills Dr., Austin, TX","geo_precision":"range"},"type":"Feature","geometry":{"type":"Point","coordinates":[-97.760189,30.354045]}},{"properties":{"geo_score":0.819,"count":15,"id":"ad24holhf8gw","campus":"Webb (053)","address":"601 E. St. Johns, Austin, TX","geo_precision":"range"},"type":"Feature","geometry":{"type":"Point","coordinates":[-97.70453,30.332953]}},{"properties":{"geo_score":0.902,"count":13,"id":"ad24hot9w6gp","campus":"Small (060)","address":"4801 Monterey Oaks Blvd., Austin, TX","geo_precision":"range"},"type":"Feature","geometry":{"type":"Point","coordinates":[-97.840293,30.234353]}},{"properties":{"geo_score":0.878,"count":13,"id":"ad24horq9zh1","campus":"Pearce (048)","address":"6401 N. Hampton Dr., Austin, TX","geo_precision":"range"},"type":"Feature","geometry":{"type":"Point","coordinates":[-97.681332,30.313935]}},{"properties":{"geo_score":0.823,"count":10,"id":"ad24hok95dwa","campus":"Allan (142)","address":"4900 Gonzales, Austin, TX","geo_precision":"range"},"type":"Feature","geometry":{"type":"Point","coordinates":[-97.697729,30.255516]}},{"properties":{"geo_score":0.902,"count":11,"id":"ad24hoxop7ff","campus":"Allison (101)","address":"515 Vargas Rd., Austin, TX","geo_precision":"range"},"type":"Feature","geometry":{"type":"Point","coordinates":[-97.692434,30.235643]}},{"properties":{"geo_score":0.902,"count":12,"id":"ad24hoooyjl8","campus":"Barrington (149)","address":"400 Cooper Drive, Austin, TX","geo_precision":"range"},"type":"Feature","geometry":{"type":"Point","coordinates":[-97.695902,30.360012]}},{"properties":{"geo_score":0.902,"count":10,"id":"ad24hol4yrpj","campus":"Barton Hills (103)","address":"2108 Barton Hills Dr., Austin, TX","geo_precision":"range"},"type":"Feature","geometry":{"type":"Point","coordinates":[-97.783514,30.253337]}},{"properties":{"geo_score":0.837,"count":14,"id":"ad24hop6tv2a","campus":"Blackshear (105)","address":"1712 East 11th St., Austin, TX","geo_precision":"range"},"type":"Feature","geometry":{"type":"Point","coordinates":[-97.721469,30.266484]}},{"properties":{"geo_score":0.902,"count":10,"id":"ad24hovz2g4y","campus":"Blanton (106)","address":"5408 Westminster Dr., Austin, TX","geo_precision":"range"},"type":"Feature","geometry":{"type":"Point","coordinates":[-97.689037,30.305992]}},{"properties":{"geo_score":0.509,"count":10,"id":"ad24hou2urs4","campus":"Blazier (185)","address":"8601 Vertex Blvd., Austin, TX","geo_precision":"city"},"type":"Feature","geometry":{"type":"Point","coordinates":[-97.771258,30.326374]}},{"properties":{"geo_score":0.902,"count":10,"id":"ad24hosmv7tr","campus":"Boone (170)","address":"8101 Croftwood Dr., Austin, TX","geo_precision":"range"},"type":"Feature","geometry":{"type":"Point","coordinates":[-97.841627,30.203221]}},{"properties":{"geo_score":0.506,"count":11,"id":"ad24hol101pd","campus":"Casis (112)","address":"2710 Exposition Blvd., Austin, TX","geo_precision":"city"},"type":"Feature","geometry":{"type":"Point","coordinates":[-97.771258,30.326374]}},{"properties":{"geo_score":0.902,"count":11,"id":"ad24hojnpwfj","campus":"Brentwood (107)","address":"6700 Arroyo Seco, Austin, TX","geo_precision":"range"},"type":"Feature","geometry":{"type":"Point","coordinates":[-97.728309,30.341437]}},{"properties":{"geo_score":0.902,"count":12,"id":"ad24homlnbi7","campus":"Brown (109)","address":"505 W. Anderson Ln., Austin, TX","geo_precision":"range"},"type":"Feature","geometry":{"type":"Point","coordinates":[-97.709088,30.345641]}},{"properties":{"geo_score":0.902,"count":10,"id":"ad24hol0xpsm","campus":"Brykerwoods (110)","address":"3309 Kerbey Lane, Austin, TX","geo_precision":"range"},"type":"Feature","geometry":{"type":"Point","coordinates":[-97.751134,30.305727]}},{"properties":{"geo_score":0.902,"count":11,"id":"ad24honjio8u","campus":"Campbell (111)","address":"2613 Rogers Ave., Austin, TX","geo_precision":"range"},"type":"Feature","geometry":{"type":"Point","coordinates":[-97.713909,30.283002]}},{"properties":{"geo_score":0.595,"count":10,"id":"ad24how2t5qf","campus":"Casey (173)","address":"9400 Texas Oaks Dr., Austin, TX","geo_precision":"street"},"type":"Feature","geometry":{"type":"Point","coordinates":[-97.672623,30.382823]}},{"properties":{"geo_score":0.707,"count":10,"id":"ad24hohzf0cd","campus":"Clayton (184)","address":"7525 La Crosse Ave., Austin, TX","geo_precision":"street"},"type":"Feature","geometry":{"type":"Point","coordinates":[-97.884864,30.193983]}},{"properties":{"geo_score":0.848,"count":10,"id":"ad24hok2mhcj","campus":"Cook (161)","address":"1511 Cripple Creek, Austin, TX","geo_precision":"range"},"type":"Feature","geometry":{"type":"Point","coordinates":[-97.704188,30.378536]}},{"properties":{"geo_score":0.902,"count":10,"id":"ad24houvcog9","campus":"Cunningham (113)","address":"2200 Berkeley Ave., Austin, TX","geo_precision":"range"},"type":"Feature","geometry":{"type":"Point","coordinates":[-97.806447,30.209671]}},{"properties":{"geo_score":0.902,"count":10,"id":"ad24houjyqdq","campus":"Davis (179)","address":"5214 Duval Rd., Austin, TX","geo_precision":"range"},"type":"Feature","geometry":{"type":"Point","coordinates":[-97.741002,30.417024]}},{"properties":{"geo_score":0.72,"count":12,"id":"ad24hokhr5vg","campus":"Dawson (114)","address":"3001 South 1st., Austin, TX","geo_precision":"range"},"type":"Feature","geometry":{"type":"Point","coordinates":[-97.764505,30.234444]}},{"properties":{"geo_score":0.829,"count":14,"id":"ad24hounlw86","campus":"Galindo (176)","address":"3800 S. 2nd St., Austin, TX","geo_precision":"range"},"type":"Feature","geometry":{"type":"Point","coordinates":[-97.771041,30.229368]}},{"properties":{"geo_score":0.587,"count":11,"id":"ad24holggltk","campus":"Graham (159)","address":"11211 Tom Adams Dr., Austin, TX","geo_precision":"street"},"type":"Feature","geometry":{"type":"Point","coordinates":[-97.67033,30.37162]}},{"properties":{"geo_score":0.902,"count":12,"id":"ad24hom02m92","campus":"Gullett (117)","address":"6310 Treadwell Blvd., Austin, TX","geo_precision":"range"},"type":"Feature","geometry":{"type":"Point","coordinates":[-97.748527,30.342872]}},{"properties":{"geo_score":0.815,"count":14,"id":"ad24hoocacno","campus":"Hart (163)","address":"8301 Furness, Austin, TX","geo_precision":"range"},"type":"Feature","geometry":{"type":"Point","coordinates":[-97.688818,30.343618]}},{"properties":{"geo_score":0.823,"count":12,"id":"ad24hoxlt54l","campus":"Highland Park (119)","address":"4900 Fairview, Austin, TX","geo_precision":"range"},"type":"Feature","geometry":{"type":"Point","coordinates":[-97.75918,30.331208]}},{"properties":{"geo_score":0.902,"count":11,"id":"ad24hoovoz5w","campus":"Houston (162)","address":"5409 Ponciana Dr., Austin, TX","geo_precision":"range"},"type":"Feature","geometry":{"type":"Point","coordinates":[-97.755084,30.198659]}},{"properties":{"geo_score":0.902,"count":11,"id":"ad24hos0o4dz","campus":"Jordan (178)","address":"6711 Johnny Morris Rd, Austin, TX","geo_precision":"range"},"type":"Feature","geometry":{"type":"Point","coordinates":[-97.646547,30.302632]}},{"properties":{"geo_score":0.902,"count":10,"id":"ad24hohpihpr","campus":"Joslin (120)","address":"4500 Manchaca Rd., Austin, TX","geo_precision":"range"},"type":"Feature","geometry":{"type":"Point","coordinates":[-97.790157,30.227027]}},{"properties":{"geo_score":0.84,"count":10,"id":"ad24hoqt8vxg","campus":"Langford (168)","address":"2206 Blue Meadow, Austin, TX","geo_precision":"range"},"type":"Feature","geometry":{"type":"Point","coordinates":[-97.762503,30.180787]}},{"properties":{"geo_score":0.902,"count":10,"id":"ad24hoi73rjd","campus":"Maplewood (122)","address":"3808 Maplewood Ave., Austin, TX","geo_precision":"range"},"type":"Feature","geometry":{"type":"Point","coordinates":[-97.713826,30.293413]}},{"properties":{"geo_score":0.805,"count":12,"id":"ad24hom3wxgm","campus":"Mathews (123)","address":"906 West Lynn, Austin, TX","geo_precision":"range"},"type":"Feature","geometry":{"type":"Point","coordinates":[-97.760501,30.278263]}},{"properties":{"geo_score":0.902,"count":10,"id":"ad24horm0uci","campus":"McBee (165)","address":"1001 West Braker Lane, Austin, TX","geo_precision":"range"},"type":"Feature","geometry":{"type":"Point","coordinates":[-97.689354,30.383284]}},{"properties":{"geo_score":0.902,"count":10,"id":"ad24homua49p","campus":"Mills (181)","address":"6201 Davis Ln., Austin, TX","geo_precision":"range"},"type":"Feature","geometry":{"type":"Point","coordinates":[-97.879014,30.212035]}},{"properties":{"geo_score":0.902,"count":10,"id":"ad24hotbdrvy","campus":"Norman (150)","address":"4001 Tannehill Ln., Austin, TX","geo_precision":"range"},"type":"Feature","geometry":{"type":"Point","coordinates":[-97.673316,30.279831]}},{"properties":{"geo_score":0.902,"count":12,"id":"ad24hou3qixb","campus":"Oak Springs (125)","address":"3601 Webberville Rd., Austin, TX","geo_precision":"range"},"type":"Feature","geometry":{"type":"Point","coordinates":[-97.704828,30.272419]}},{"properties":{"geo_score":0.902,"count":11,"id":"ad24holod3re","campus":"Odom (156)","address":"1010 Turtle Creek Blvd., Austin, TX","geo_precision":"range"},"type":"Feature","geometry":{"type":"Point","coordinates":[-97.78927,30.205058]}},{"properties":{"geo_score":0.902,"count":10,"id":"ad24hovk443g","campus":"Ortega (126)","address":"1135 Garland Ave., Austin, TX","geo_precision":"range"},"type":"Feature","geometry":{"type":"Point","coordinates":[-97.68487,30.270076]}},{"properties":{"geo_score":0.805,"count":11,"id":"ad24houcka6x","campus":"Overton (189)","address":"7201 Colony Loop Dr., Austin, TX","geo_precision":"street"},"type":"Feature","geometry":{"type":"Point","coordinates":[-97.637394,30.302433]}},{"properties":{"geo_score":0.902,"count":10,"id":"ad24holcmqyf","campus":"Patton (143)","address":"6001 Westcreek Dr., Austin, TX","geo_precision":"range"},"type":"Feature","geometry":{"type":"Point","coordinates":[-97.845978,30.232393]}},{"properties":{"geo_score":0.835,"count":10,"id":"ad24hopf0rlc","campus":"Pease (128)","address":"1106 Rio Grande, Austin, TX","geo_precision":"range"},"type":"Feature","geometry":{"type":"Point","coordinates":[-97.747463,30.275698]}},{"properties":{"geo_score":0.902,"count":10,"id":"ad24hoj8dtgv","campus":"Pecan Springs (129)","address":"3100 Rogge Ln., Austin, TX","geo_precision":"range"},"type":"Feature","geometry":{"type":"Point","coordinates":[-97.678785,30.30354]}},{"properties":{"geo_score":0.767,"count":11,"id":"ad24holu8izv","campus":"Perez (190)","address":"7500 S. Pleasant Valley Road 44, Austin, TX","geo_precision":"street"},"type":"Feature","geometry":{"type":"Point","coordinates":[-97.752276,30.172197]}},{"properties":{"geo_score":0.805,"count":10,"id":"ad24hotvfjv1","campus":"Pickle (164)","address":"1101 Wheatley, Austin, TX","geo_precision":"range"},"type":"Feature","geometry":{"type":"Point","coordinates":[-97.692248,30.333154]}},{"properties":{"geo_score":0.902,"count":11,"id":"ad24holv3lkw","campus":"Pillow (151)","address":"3025 Crosscreek Dr., Austin, TX","geo_precision":"range"},"type":"Feature","geometry":{"type":"Point","coordinates":[-97.734115,30.369953]}},{"properties":{"geo_score":0.634,"count":10,"id":"ad24hovrk9a8","campus":"Pleasant Hill (130)","address":"6405 Circle S Rd., Austin, TX","geo_precision":"street"},"type":"Feature","geometry":{"type":"Point","coordinates":[-97.785888,30.306476]}},{"properties":{"geo_score":0.902,"count":11,"id":"ad24houf7v11","campus":"Reilly (132)","address":"405 Denson Dr., Austin, TX","geo_precision":"range"},"type":"Feature","geometry":{"type":"Point","coordinates":[-97.720438,30.328813]}},{"properties":{"geo_score":0.902,"count":10,"id":"ad24hontoxa0","campus":"Ridgetop (133)","address":"5005 Caswell Ave., Austin, TX","geo_precision":"range"},"type":"Feature","geometry":{"type":"Point","coordinates":[-97.716674,30.311885]}},{"properties":{"geo_score":0.902,"count":10,"id":"ad24hoqnh7f9","campus":"Rodriguez (174)","address":"4400 Franklin Park Dr., Austin, TX","geo_precision":"range"},"type":"Feature","geometry":{"type":"Point","coordinates":[-97.743264,30.198549]}},{"properties":{"geo_score":0.902,"count":11,"id":"ad24hoiihb5l","campus":"St. Elmo (136)","address":"600 W. St. Elmo Rd., Austin, TX","geo_precision":"range"},"type":"Feature","geometry":{"type":"Point","coordinates":[-97.774075,30.221614]}},{"properties":{"geo_score":0.835,"count":11,"id":"ad24hojd3c6l","campus":"Sanchez (127)","address":"73 San Marcos, Austin, TX","geo_precision":"range"},"type":"Feature","geometry":{"type":"Point","coordinates":[-97.735454,30.258578]}},{"properties":{"geo_score":0.902,"count":11,"id":"ad24hooc7p13","campus":"Sims (139)","address":"1203 Springdale Rd., Austin, TX","geo_precision":"range"},"type":"Feature","geometry":{"type":"Point","coordinates":[-97.685746,30.280821]}},{"properties":{"geo_score":0.902,"count":10,"id":"ad24hoq8lq5d","campus":"Summit (138)","address":"12207 Brigadoon Ln., Austin, TX","geo_precision":"range"},"type":"Feature","geometry":{"type":"Point","coordinates":[-97.718762,30.420488]}},{"properties":{"geo_score":0.902,"count":10,"id":"ad24hoxysyup","campus":"Sunset Valley (158)","address":"3000 Jones Rd., Austin, TX","geo_precision":"range"},"type":"Feature","geometry":{"type":"Point","coordinates":[-97.80793,30.227553]}},{"properties":{"geo_score":0.902,"count":10,"id":"ad24how6i6a8","campus":"Travis Heights (140)","address":"2010 Alameda Dr., Austin, TX","geo_precision":"range"},"type":"Feature","geometry":{"type":"Point","coordinates":[-97.746211,30.240637]}},{"properties":{"geo_score":0.902,"count":10,"id":"ad24hosg4lbp","campus":"Walnut Creek (141)","address":"401 W. Braker Ln, Austin, TX","geo_precision":"range"},"type":"Feature","geometry":{"type":"Point","coordinates":[-97.686069,30.381686]}},{"properties":{"geo_score":0.793,"count":10,"id":"ad24hokd08hw","campus":"Williams (166)","address":"500 Mairo, Austin, TX","geo_precision":"range"},"type":"Feature","geometry":{"type":"Point","coordinates":[-97.792294,30.180543]}},{"properties":{"geo_score":0.902,"count":10,"id":"ad24honn5gqn","campus":"Wooldridge (152)","address":"1412 Norseman Ter., Austin, TX","geo_precision":"range"},"type":"Feature","geometry":{"type":"Point","coordinates":[-97.708943,30.363697]}},{"properties":{"geo_score":0.777,"count":11,"id":"ad24holur3kp","campus":"Wooten (144)","address":"1406 Dale, Austin, TX","geo_precision":"range"},"type":"Feature","geometry":{"type":"Point","coordinates":[-97.721588,30.353906]}},{"properties":{"geo_score":0.902,"count":10,"id":"ad24hova9jrz","campus":"Zilker (146)","address":"1900 Bluebonnet Ln., Austin, TX","geo_precision":"range"},"type":"Feature","geometry":{"type":"Point","coordinates":[-97.772855,30.25385]}},{"properties":{"geo_score":0.529,"count":2,"id":"ad24hopkczjg","campus":"ACES (115)","address":"906 West Milton, Austin, TX","geo_precision":"street"},"type":"Feature","geometry":{"type":"Point","coordinates":[-96.611128,30.875166]}},{"properties":{"geo_score":0.777,"count":2,"id":"ad24hokuztht","campus":"ALC (012)","address":"901 Neal, Austin, TX","geo_precision":"range"},"type":"Feature","geometry":{"type":"Point","coordinates":[-97.711216,30.269623]}},{"properties":{"geo_score":0.902,"count":3,"id":"ad24hoji1rd2","campus":"Ann Richards (028)","address":"2206 Prather Ln., Austin, TX","geo_precision":"range"},"type":"Feature","geometry":{"type":"Point","coordinates":[-97.78657,30.234191]}},{"properties":{"geo_score":0.902,"count":1,"id":"ad24honligul","campus":"Clifton (852)","address":"1519 Coronado Hills Dr., Austin, TX","geo_precision":"range"},"type":"Feature","geometry":{"type":"Point","coordinates":[-97.686867,30.326524]}},{"properties":{"geo_score":0.902,"count":3,"id":"ad24hoo9iutt","campus":"Lucy Read Pre-K (131)","address":"2608 Richcreek Road, Austin, TX","geo_precision":"range"},"type":"Feature","geometry":{"type":"Point","coordinates":[-97.73629,30.351443]}},{"properties":{"geo_score":0.837,"count":1,"id":"ad24hojumm3m","campus":"Rosedale (251)","address":"2117 W. 49th St., Austin, TX","geo_precision":"range"},"type":"Feature","geometry":{"type":"Point","coordinates":[-97.739224,30.319855]}}],"is_temporal":false,"author":{"url":"http://www.austinisd.org/dre","metadata":"","contact_name":"Kevin Yeh","contact_address":"1111 W. 6th St. \r\nAustin, TX  78703","source":"Austin Independent School District | Department of Research and Evaluation","contact_phone":""},"source":"http://www.austinisd.org/dre","pagination":{"sort":null,"start":0,"total":90,"limit":1000000},"state":"complete","tags":"2012,2013,aisd,austin,district,evaluation,external,independent,research,school","published":"2013-03-22T16:00:00Z","id":335859}