{"type":"FeatureCollection","data_type":"Dataset","url_type":null,"permissions":[{"permissions":{"download":true,"edit":true,"view":true},"group_id":56815},{"permissions":{"download":true,"view":true},"group_id":"everyone"}],"classification":null,"title":" AFFECTED","count":172,"stream_id":336145,"contributor":{"url":"http://geocommons.com/users/37170","name":"lfuentes"},"data_attributes":null,"calculation_params":null,"icon_link":null,"link":"http://geocommons.com/overlays/336145.json","extent":[-88.1422,31.7675,-85.4792,34.4578],"geometry_types":["point"],"unique_name":null,"name":" AFFECTED","feature_count":172,"description":"","next_feature":null,"is_raster":false,"short_classification":"Y","stats":{},"features":[{"properties":{"city":"Gadsden","county":"Etowah","damage":"AFFECTED","type":"SFD","geo_score":0.902,"id":"ad35nvowq19p","address":"235 Audrey Lane","geo_precision":"range","state":"AL"},"type":"Feature","geometry":{"type":"Point","coordinates":[-85.985991,33.963654]}},{"properties":{"city":"Louisville","county":"Barbour","damage":"AFFECTED","type":"MH","geo_score":0.659,"id":"ad35nvky436c","address":"1529 County Rd 20","geo_precision":"street","state":"AL"},"type":"Feature","geometry":{"type":"Point","coordinates":[-85.55443,31.767469]}},{"properties":{"city":"Anniston","county":"Calhoun","damage":"AFFECTED","type":"SFD","geo_score":0.574,"id":"ad35nvlcljz9","address":"1616 Lockwood Ct","geo_precision":"street","state":"AL"},"type":"Feature","geometry":{"type":"Point","coordinates":[-85.916367,33.592015]}},{"properties":{"city":"Anniston","county":"Calhoun","damage":"AFFECTED","type":"SFD","geo_score":0.902,"id":"ad35nvhqiikl","address":"1615 Johnston Dr","geo_precision":"range","state":"AL"},"type":"Feature","geometry":{"type":"Point","coordinates":[-85.816129,33.665777]}},{"properties":{"city":"Little River","county":"Cherokee","damage":"AFFECTED","type":"SFD","geo_score":0.505,"id":"ad35nvb1aav2","address":"2640 Hwy 273","geo_precision":"street","state":"AL"},"type":"Feature","geometry":{"type":"Point","coordinates":[-85.701094,34.25807]}},{"properties":{"city":"McCord","county":"Cherokee","damage":"AFFECTED","type":"SFD","geo_score":0.0,"id":"ad35nvnphyi4","address":"3525 County Rd. 34","geo_precision":"unmatched","state":"AL"},"type":"Feature","geometry":null},{"properties":{"city":"Sand Rock","county":"Cherokee","damage":"AFFECTED","type":"SFD","geo_score":0.805,"id":"ad35nvkgx7gs","address":"1865 County Rd 17","geo_precision":"range","state":"AL"},"type":"Feature","geometry":{"type":"Point","coordinates":[-85.776206,34.231733]}},{"properties":{"city":"Sand Rock","county":"Cherokee","damage":"AFFECTED","type":"SFD","geo_score":0.659,"id":"ad35nvd0fu1h","address":"4020 Hwy 68 W","geo_precision":"range","state":"AL"},"type":"Feature","geometry":{"type":"Point","coordinates":[-85.780387,34.229172]}},{"properties":{"city":"Cullman","county":"Cullman","damage":"AFFECTED","type":"SFD","geo_score":0.812,"id":"ad35nviwrsso","address":"2566 County Rd 421","geo_precision":"range","state":"AL"},"type":"Feature","geometry":{"type":"Point","coordinates":[-86.923156,34.146327]}},{"properties":{"city":"Cullman","county":"Cullman","damage":"AFFECTED","type":"SFD","geo_score":0.617,"id":"ad35nvg4lgif","address":"4702 County Rd 421","geo_precision":"street","state":"AL"},"type":"Feature","geometry":{"type":"Point","coordinates":[-86.944831,34.142471]}},{"properties":{"city":"Cullman","county":"Cullman","damage":"AFFECTED","type":"SFD","geo_score":0.625,"id":"ad35nvie0k0i","address":"3711 County Rd 421","geo_precision":"street","state":"AL"},"type":"Feature","geometry":{"type":"Point","coordinates":[-86.944831,34.142471]}},{"properties":{"city":"Cullman","county":"Cullman","damage":"AFFECTED","type":"SFD","geo_score":0.812,"id":"ad35nvpuy4vi","address":"3474 County Rd 421","geo_precision":"range","state":"AL"},"type":"Feature","geometry":{"type":"Point","coordinates":[-86.941178,34.143603]}},{"properties":{"city":"Bremen","county":"Cullman","damage":"AFFECTED","type":"SFD","geo_score":0.812,"id":"ad35nvmqlbyc","address":"901 County Rd 143","geo_precision":"range","state":"AL"},"type":"Feature","geometry":{"type":"Point","coordinates":[-86.997504,34.03834]}},{"properties":{"city":"Bremen","county":"Cullman","damage":"AFFECTED","type":"SFD","geo_score":0.69,"id":"ad35nvoq25l0","address":"706 County Rd 143","geo_precision":"range","state":"AL"},"type":"Feature","geometry":{"type":"Point","coordinates":[-86.997504,34.03834]}},{"properties":{"city":"Bremen","county":"Cullman","damage":"AFFECTED","type":"SFD","geo_score":0.812,"id":"ad35nviz78u8","address":"24170 County Rd 222","geo_precision":"range","state":"AL"},"type":"Feature","geometry":{"type":"Point","coordinates":[-87.02402,34.023892]}},{"properties":{"city":"Bremen","county":"Cullman","damage":"AFFECTED","type":"SFD","geo_score":0.812,"id":"ad35nvmghfsp","address":"24048 County Rd 222","geo_precision":"range","state":"AL"},"type":"Feature","geometry":{"type":"Point","coordinates":[-87.02402,34.023892]}},{"properties":{"city":"Bremen","county":"Cullman","damage":"AFFECTED","type":"SFD","geo_score":0.812,"id":"ad35nvmzk6so","address":"23997 County Rd 222","geo_precision":"range","state":"AL"},"type":"Feature","geometry":{"type":"Point","coordinates":[-87.02402,34.023892]}},{"properties":{"city":"Bremen","county":"Cullman","damage":"AFFECTED","type":"SFD","geo_score":0.617,"id":"ad35nvp4dq7z","address":"21759 County Rd 222","geo_precision":"street","state":"AL"},"type":"Feature","geometry":{"type":"Point","coordinates":[-87.005658,34.026873]}},{"properties":{"city":"Bremen","county":"Cullman","damage":"AFFECTED","type":"SFD","geo_score":0.725,"id":"ad35nvpbdiwq","address":"County Rd 222","geo_precision":"street","state":"AL"},"type":"Feature","geometry":{"type":"Point","coordinates":[-87.02402,34.023892]}},{"properties":{"city":"Bremen","county":"Cullman","damage":"AFFECTED","type":"SFD","geo_score":0.617,"id":"ad35nvib2za2","address":"19768 County Rd 222","geo_precision":"street","state":"AL"},"type":"Feature","geometry":{"type":"Point","coordinates":[-87.022508,34.024716]}},{"properties":{"city":"Good Hope","county":"Cullman","damage":"AFFECTED","type":"SFD","geo_score":0.649,"id":"ad35nvjuvqvv","address":"62 Doc Clemmons Rd","geo_precision":"range","state":"AL"},"type":"Feature","geometry":{"type":"Point","coordinates":[-86.037816,32.735053]}},{"properties":{"city":"Good Hope","county":"Cullman","damage":"AFFECTED","type":"SFD","geo_score":0.649,"id":"ad35nvouoq84","address":"262 Doc Clemmons Rd","geo_precision":"range","state":"AL"},"type":"Feature","geometry":{"type":"Point","coordinates":[-86.038351,32.733303]}},{"properties":{"city":"Good Hope","county":"Cullman","damage":"AFFECTED","type":"SFD","geo_score":0.902,"id":"ad35nvlz5mwd","address":"101 Lindsey Rd","geo_precision":"range","state":"AL"},"type":"Feature","geometry":{"type":"Point","coordinates":[-86.857884,34.119921]}},{"properties":{"city":"Good Hope","county":"Cullman","damage":"AFFECTED","type":"SFD","geo_score":0.902,"id":"ad35nvo7mdik","address":"106 Lindsey Rd","geo_precision":"range","state":"AL"},"type":"Feature","geometry":{"type":"Point","coordinates":[-86.857835,34.119767]}},{"properties":{"city":"Good Hope","county":"Cullman","damage":"AFFECTED","type":"SFD","geo_score":0.902,"id":"ad35nvgp4nnw","address":"997 Lindsey Rd","geo_precision":"range","state":"AL"},"type":"Feature","geometry":{"type":"Point","coordinates":[-86.092634,32.732689]}},{"properties":{"city":"Good Hope","county":"Cullman","damage":"AFFECTED","type":"SFD","geo_score":0.902,"id":"ad35nvc0r9k1","address":"284 Lindsey Rd","geo_precision":"range","state":"AL"},"type":"Feature","geometry":{"type":"Point","coordinates":[-86.102535,32.737821]}},{"properties":{"city":"Collinsville","county":"DeKalb","damage":"AFFECTED","type":"SFD","geo_score":0.805,"id":"ad35nvctnocm","address":"1392 County Hwy 39","geo_precision":"range","state":"AL"},"type":"Feature","geometry":{"type":"Point","coordinates":[-85.910007,34.25511]}},{"properties":{"city":"Collinsville","county":"DeKalb","damage":"AFFECTED","type":"MH","geo_score":0.707,"id":"ad35nvbdaj7x","address":"1433 County Hwy 29","geo_precision":"range","state":"AL"},"type":"Feature","geometry":{"type":"Point","coordinates":[-86.019614,34.247592]}},{"properties":{"city":"Collinsville","county":"DeKalb","damage":"AFFECTED","type":"SFD","geo_score":0.611,"id":"ad35nvoa6usu","address":"1475 County Hwy 39","geo_precision":"street","state":"AL"},"type":"Feature","geometry":{"type":"Point","coordinates":[-85.9218,34.222907]}},{"properties":{"city":"Collinsville","county":"DeKalb","damage":"AFFECTED","type":"SFD","geo_score":0.683,"id":"ad35nvkyyyoj","address":"3316 Hwy 68","geo_precision":"range","state":"AL"},"type":"Feature","geometry":{"type":"Point","coordinates":[-85.859499,34.255095]}},{"properties":{"city":"Collinsville","county":"DeKalb","damage":"AFFECTED","type":"SFD","geo_score":0.805,"id":"ad35nvmlljcb","address":"530 County Hwy 39","geo_precision":"range","state":"AL"},"type":"Feature","geometry":{"type":"Point","coordinates":[-85.909342,34.261063]}},{"properties":{"city":"Collinsville","county":"DeKalb","damage":"AFFECTED","type":"SFD","geo_score":0.585,"id":"ad35nvi7xq1i","address":"534 County Hwy 29","geo_precision":"range","state":"AL"},"type":"Feature","geometry":{"type":"Point","coordinates":[-86.027485,34.249553]}},{"properties":{"city":"Collinsville","county":"DeKalb","damage":"AFFECTED","type":"SFD","geo_score":0.805,"id":"ad35nvkai9lc","address":"1392 County Hwy 39","geo_precision":"range","state":"AL"},"type":"Feature","geometry":{"type":"Point","coordinates":[-85.910007,34.25511]}},{"properties":{"city":"Collinsville","county":"DeKalb","damage":"AFFECTED","type":"MH","geo_score":0.707,"id":"ad35nvid4duk","address":"1433 County Hwy 29","geo_precision":"range","state":"AL"},"type":"Feature","geometry":{"type":"Point","coordinates":[-86.019614,34.247592]}},{"properties":{"city":"Collinsville","county":"DeKalb","damage":"AFFECTED","type":"SFD","geo_score":0.611,"id":"ad35nvdl4a5i","address":"1475 County Hwy 39","geo_precision":"street","state":"AL"},"type":"Feature","geometry":{"type":"Point","coordinates":[-85.9218,34.222907]}},{"properties":{"city":"Collinsville","county":"DeKalb","damage":"AFFECTED","type":"SFD","geo_score":0.683,"id":"ad35nvbzt6jd","address":"3316 Hwy 68","geo_precision":"range","state":"AL"},"type":"Feature","geometry":{"type":"Point","coordinates":[-85.859499,34.255095]}},{"properties":{"city":"Collinsville","county":"DeKalb","damage":"AFFECTED","type":"SFD","geo_score":0.805,"id":"ad35nvgaj98t","address":"530 County Hwy 39","geo_precision":"range","state":"AL"},"type":"Feature","geometry":{"type":"Point","coordinates":[-85.909342,34.261063]}},{"properties":{"city":"Collinsville","county":"DeKalb","damage":"AFFECTED","type":"SFD","geo_score":0.585,"id":"ad35nvmti80f","address":"534 County Hwy 29","geo_precision":"range","state":"AL"},"type":"Feature","geometry":{"type":"Point","coordinates":[-86.027485,34.249553]}},{"properties":{"city":"Kilpatrick","county":"DeKalb","damage":"AFFECTED","type":"MH","geo_score":0.523,"id":"ad35nvhhgc8w","address":"305 County Rd 46","geo_precision":"street","state":"AL"},"type":"Feature","geometry":{"type":"Point","coordinates":[-85.585798,34.387026]}},{"properties":{"city":"Kilpatrick","county":"DeKalb","damage":"AFFECTED","type":"SFD","geo_score":0.423,"id":"ad35nvilfa5f","address":"14 County Rd 9058","geo_precision":"street","state":"AL"},"type":"Feature","geometry":{"type":"Point","coordinates":[-86.228287,34.160776]}},{"properties":{"city":"Kilpatrick","county":"DeKalb","damage":"AFFECTED","type":"MH","geo_score":0.566,"id":"ad35nvbqxenj","address":"207 County Rd 926 B","geo_precision":"range","state":"AL"},"type":"Feature","geometry":{"type":"Point","coordinates":[-85.797418,34.444387]}},{"properties":{"city":"Kilpatrick","county":"DeKalb","damage":"AFFECTED","type":"SFD","geo_score":0.542,"id":"ad35nvnwm10s","address":"444 County Rd 9055","geo_precision":"street","state":"AL"},"type":"Feature","geometry":{"type":"Point","coordinates":[-86.081679,34.266563]}},{"properties":{"city":"Kilpatrick","county":"DeKalb","damage":"AFFECTED","type":"MH","geo_score":0.528,"id":"ad35nvm68afl","address":"113 County Rd 923","geo_precision":"street","state":"AL"},"type":"Feature","geometry":{"type":"Point","coordinates":[-85.830951,34.303835]}},{"properties":{"city":"Kilpatrick","county":"DeKalb","damage":"AFFECTED","type":"MH","geo_score":0.521,"id":"ad35nvmlezf7","address":"1 County Rd 923","geo_precision":"street","state":"AL"},"type":"Feature","geometry":{"type":"Point","coordinates":[-85.830951,34.303835]}},{"properties":{"city":"Kilpatrick","county":"DeKalb","damage":"AFFECTED","type":"MH","geo_score":0.618,"id":"ad35nvmmytc2","address":"656 County Rd 479","geo_precision":"street","state":"AL"},"type":"Feature","geometry":{"type":"Point","coordinates":[-86.085351,34.257719]}},{"properties":{"city":"Kilpatrick","county":"DeKalb","damage":"AFFECTED","type":"MH","geo_score":0.417,"id":"ad35nvliesbv","address":"388 County Rd 982 A","geo_precision":"street","state":"AL"},"type":"Feature","geometry":{"type":"Point","coordinates":[-86.226931,34.159483]}},{"properties":{"city":"Kilpatrick","county":"DeKalb","damage":"AFFECTED","type":"SFD","geo_score":0.617,"id":"ad35nveh8wzj","address":"1505 County Rd 381","geo_precision":"street","state":"AL"},"type":"Feature","geometry":{"type":"Point","coordinates":[-86.091476,34.243521]}},{"properties":{"city":"Kilpatrick","county":"DeKalb","damage":"AFFECTED","type":"SFD","geo_score":0.617,"id":"ad35nvpmw8aq","address":"1523 County Rd 381","geo_precision":"street","state":"AL"},"type":"Feature","geometry":{"type":"Point","coordinates":[-86.091476,34.243521]}},{"properties":{"city":"Kilpatrick","county":"DeKalb","damage":"AFFECTED","type":"SFD","geo_score":0.725,"id":"ad35nvl3t3xf","address":"County Rd 381","geo_precision":"street","state":"AL"},"type":"Feature","geometry":{"type":"Point","coordinates":[-86.091476,34.243521]}},{"properties":{"city":"Kilpatrick","county":"DeKalb","damage":"AFFECTED","type":"SFD","geo_score":0.617,"id":"ad35nvptptok","address":"1377 County Rd 381","geo_precision":"street","state":"AL"},"type":"Feature","geometry":{"type":"Point","coordinates":[-86.091476,34.243521]}},{"properties":{"city":"Kilpatrick","county":"DeKalb","damage":"AFFECTED","type":"SFD","geo_score":0.618,"id":"ad35nvccccqf","address":"1170 County Rd 381","geo_precision":"street","state":"AL"},"type":"Feature","geometry":{"type":"Point","coordinates":[-86.091476,34.243521]}},{"properties":{"city":"Kilpatrick","county":"DeKalb","damage":"AFFECTED","type":"SFD","geo_score":0.618,"id":"ad35nv9n8a9t","address":"1033 County Rd 381","geo_precision":"street","state":"AL"},"type":"Feature","geometry":{"type":"Point","coordinates":[-86.091476,34.243521]}},{"properties":{"city":"Kilpatrick","county":"DeKalb","damage":"AFFECTED","type":"SFD","geo_score":0.522,"id":"ad35nvmt5t0b","address":"3 County Rd 179","geo_precision":"street","state":"AL"},"type":"Feature","geometry":{"type":"Point","coordinates":[-85.50112,34.001365]}},{"properties":{"city":"Kilpatrick","county":"DeKalb","damage":"AFFECTED","type":"SFD","geo_score":0.715,"id":"ad35nvouh0q2","address":"122 County Rd 179","geo_precision":"range","state":"AL"},"type":"Feature","geometry":{"type":"Point","coordinates":[-86.0763,34.268103]}},{"properties":{"city":"Kilpatrick","county":"DeKalb","damage":"AFFECTED","type":"SFD","geo_score":0.715,"id":"ad35nvhugmi0","address":"187 County Rd 179","geo_precision":"range","state":"AL"},"type":"Feature","geometry":{"type":"Point","coordinates":[-86.076855,34.267929]}},{"properties":{"city":"Kilpatrick","county":"DeKalb","damage":"AFFECTED","type":"SFD","geo_score":0.48,"id":"ad35nvlsnno9","address":"16234 Hwy 168","geo_precision":"range","state":"AL"},"type":"Feature","geometry":{"type":"Point","coordinates":[-86.093038,34.258217]}},{"properties":{"city":"Kilpatrick","county":"DeKalb","damage":"AFFECTED","type":"SFD","geo_score":0.715,"id":"ad35nvig5a19","address":"2111 County Rd 388","geo_precision":"range","state":"AL"},"type":"Feature","geometry":{"type":"Point","coordinates":[-86.122093,34.271577]}},{"properties":{"city":"Kilpatrick","county":"DeKalb","damage":"AFFECTED","type":"MH","geo_score":0.422,"id":"ad35nvlrumlh","address":"723 County Rd 9095","geo_precision":"street","state":"AL"},"type":"Feature","geometry":{"type":"Point","coordinates":[-86.226931,34.159483]}},{"properties":{"city":"Kilpatrick","county":"DeKalb","damage":"AFFECTED","type":"MH","geo_score":0.439,"id":"ad35nvo1k1rr","address":"County Rd 9095","geo_precision":"street","state":"AL"},"type":"Feature","geometry":{"type":"Point","coordinates":[-85.626605,34.457751]}},{"properties":{"city":"Kilpatrick","county":"DeKalb","damage":"AFFECTED","type":"MH","geo_score":0.439,"id":"ad35nvfclutr","address":"County Rd 9095","geo_precision":"street","state":"AL"},"type":"Feature","geometry":{"type":"Point","coordinates":[-85.626605,34.457751]}},{"properties":{"city":"Kilpatrick","county":"DeKalb","damage":"AFFECTED","type":"MH","geo_score":0.527,"id":"ad35nvdcn6p3","address":"610 County Rd 9055","geo_precision":"street","state":"AL"},"type":"Feature","geometry":{"type":"Point","coordinates":[-86.081644,34.265575]}},{"properties":{"city":"Kilpatrick","county":"DeKalb","damage":"AFFECTED","type":"MH","geo_score":0.501,"id":"ad35nvha58as","address":"632 County Rd 9055 A","geo_precision":"street","state":"AL"},"type":"Feature","geometry":{"type":"Point","coordinates":[-86.081644,34.265575]}},{"properties":{"city":"Kilpatrick","county":"DeKalb","damage":"AFFECTED","type":"MH","geo_score":0.496,"id":"ad35nvodrbgy","address":"375 County Rd 479","geo_precision":"street","state":"AL"},"type":"Feature","geometry":{"type":"Point","coordinates":[-86.085351,34.257719]}},{"properties":{"city":"Kilpatrick","county":"DeKalb","damage":"AFFECTED","type":"MH","geo_score":0.497,"id":"ad35nvpd7uql","address":"801 County Rd 479","geo_precision":"street","state":"AL"},"type":"Feature","geometry":{"type":"Point","coordinates":[-86.085351,34.257719]}},{"properties":{"city":"Kilpatrick","county":"DeKalb","damage":"AFFECTED","type":"APT","geo_score":0.431,"id":"ad35nviy7x79","address":"40 County Rd 980","geo_precision":"street","state":"AL"},"type":"Feature","geometry":{"type":"Point","coordinates":[-86.228287,34.160776]}},{"properties":{"city":"Kilpatrick","county":"DeKalb","damage":"AFFECTED","type":"MH","geo_score":0.431,"id":"ad35nvdwaorg","address":"54 County Rd 980","geo_precision":"street","state":"AL"},"type":"Feature","geometry":{"type":"Point","coordinates":[-86.228287,34.160776]}},{"properties":{"city":"Kilpatrick","county":"DeKalb","damage":"AFFECTED","type":"MH","geo_score":0.432,"id":"ad35nvbuhtsn","address":"115 County Rd 980","geo_precision":"street","state":"AL"},"type":"Feature","geometry":{"type":"Point","coordinates":[-86.228287,34.160776]}},{"properties":{"city":"Kilpatrick","county":"DeKalb","damage":"AFFECTED","type":"MH","geo_score":0.715,"id":"ad35nvnbhov5","address":"220 County Rd 480","geo_precision":"range","state":"AL"},"type":"Feature","geometry":{"type":"Point","coordinates":[-85.479598,34.159633]}},{"properties":{"city":"Kilpatrick","county":"DeKalb","damage":"AFFECTED","type":"MH","geo_score":0.715,"id":"ad35nvo5ziel","address":"118 County Rd 480","geo_precision":"range","state":"AL"},"type":"Feature","geometry":{"type":"Point","coordinates":[-85.479232,34.15963]}},{"properties":{"city":"Kilpatrick","county":"DeKalb","damage":"AFFECTED","type":"MH","geo_score":0.582,"id":"ad35nvkyy9t5","address":"County Rd 478","geo_precision":"street","state":"AL"},"type":"Feature","geometry":{"type":"Point","coordinates":[-85.482824,34.149139]}},{"properties":{"city":"Kilpatrick","county":"DeKalb","damage":"AFFECTED","type":"MH","geo_score":0.582,"id":"ad35nvpf467f","address":"County Rd 478","geo_precision":"street","state":"AL"},"type":"Feature","geometry":{"type":"Point","coordinates":[-85.482824,34.149139]}},{"properties":{"city":"Kilpatrick","county":"DeKalb","damage":"AFFECTED","type":"SFD","geo_score":0.488,"id":"ad35nvkwllwk","address":"19141 Hwy 68","geo_precision":"street","state":"AL"},"type":"Feature","geometry":{"type":"Point","coordinates":[-86.132008,34.28814]}},{"properties":{"city":"Kilpatrick","county":"DeKalb","damage":"AFFECTED","type":"MH","geo_score":0.568,"id":"ad35nvnzg3wn","address":"208 County Rd 478","geo_precision":"street","state":"AL"},"type":"Feature","geometry":{"type":"Point","coordinates":[-86.072662,34.257732]}},{"properties":{"city":"Kilpatrick","county":"DeKalb","damage":"AFFECTED","type":"MH","geo_score":0.715,"id":"ad35nvgbkotg","address":"268 County Rd 478","geo_precision":"range","state":"AL"},"type":"Feature","geometry":{"type":"Point","coordinates":[-86.072662,34.257732]}},{"properties":{"city":"Crossville","county":"DeKalb","damage":"AFFECTED","type":"SFD","geo_score":0.725,"id":"ad35nvbecsqr","address":"County Rd 370","geo_precision":"street","state":"AL"},"type":"Feature","geometry":{"type":"Point","coordinates":[-86.070056,34.257777]}},{"properties":{"city":"Crossville","county":"DeKalb","damage":"AFFECTED","type":"MH","geo_score":0.812,"id":"ad35nvfq6dtv","address":"264 County Rd 370","geo_precision":"range","state":"AL"},"type":"Feature","geometry":{"type":"Point","coordinates":[-86.070261,34.264524]}},{"properties":{"city":"Crossville","county":"DeKalb","damage":"AFFECTED","type":"MH","geo_score":0.812,"id":"ad35nvdkwack","address":"256 County Rd 467","geo_precision":"range","state":"AL"},"type":"Feature","geometry":{"type":"Point","coordinates":[-86.068468,34.26889]}},{"properties":{"city":"Albertville","county":"DeKalb","damage":"AFFECTED","type":"SFD","geo_score":0.619,"id":"ad35nva5jxsq","address":"274 County Rd 179","geo_precision":"street","state":"AL"},"type":"Feature","geometry":{"type":"Point","coordinates":[-86.076477,34.268105]}},{"properties":{"city":"Albertville","county":"DeKalb","damage":"AFFECTED","type":"MH","geo_score":0.69,"id":"ad35nvhff0zd","address":"79 County Rd 179","geo_precision":"range","state":"AL"},"type":"Feature","geometry":{"type":"Point","coordinates":[-86.075782,34.268529]}},{"properties":{"city":"Albertville","county":"DeKalb","damage":"AFFECTED","type":"SFD","geo_score":0.499,"id":"ad35nveps6bm","address":"187 County Rd 179","geo_precision":"street","state":"AL"},"type":"Feature","geometry":{"type":"Point","coordinates":[-86.076477,34.268105]}},{"properties":{"city":"Albertville","county":"DeKalb","damage":"AFFECTED","type":"MH","geo_score":0.5,"id":"ad35nvg65vgd","address":"167 County Rd 179","geo_precision":"street","state":"AL"},"type":"Feature","geometry":{"type":"Point","coordinates":[-86.076477,34.268105]}},{"properties":{"city":"Kilpatrick","county":"DeKalb","damage":"AFFECTED","type":"MH","geo_score":0.715,"id":"ad35nvbnychm","address":"196 County Rd 480","geo_precision":"range","state":"AL"},"type":"Feature","geometry":{"type":"Point","coordinates":[-85.479512,34.159632]}},{"properties":{"city":"Kilpatrick","county":"DeKalb","damage":"AFFECTED","type":"SFD","geo_score":0.52,"id":"ad35nvfydoxo","address":"1067 County Rd 490","geo_precision":"street","state":"AL"},"type":"Feature","geometry":{"type":"Point","coordinates":[-85.801198,34.159725]}},{"properties":{"city":"Kilpatrick","county":"DeKalb","damage":"AFFECTED","type":"SFD","geo_score":0.52,"id":"ad35nvkbsn70","address":"1381 County Rd 490","geo_precision":"street","state":"AL"},"type":"Feature","geometry":{"type":"Point","coordinates":[-85.801198,34.159725]}},{"properties":{"city":"Kilpatrick","county":"DeKalb","damage":"AFFECTED","type":"MH","geo_score":0.52,"id":"ad35nvgucm0z","address":"1417 County Rd 490","geo_precision":"street","state":"AL"},"type":"Feature","geometry":{"type":"Point","coordinates":[-85.801198,34.159725]}},{"properties":{"city":null,"county":"DeKalb","damage":"AFFECTED","type":"MH","geo_score":0.0,"id":"ad35nvm4q4nw","address":"129 County Rd 9097","geo_precision":"unmatched","state":"AL"},"type":"Feature","geometry":null},{"properties":{"city":null,"county":"DeKalb","damage":"AFFECTED","type":"MH","geo_score":0.0,"id":"ad35nvlb7z4q","address":"153 County Rd 9097","geo_precision":"unmatched","state":"AL"},"type":"Feature","geometry":null},{"properties":{"city":null,"county":"DeKalb","damage":"AFFECTED","type":"MH","geo_score":0.0,"id":"ad35nvpj692e","address":"147 County Rd 9004","geo_precision":"unmatched","state":"AL"},"type":"Feature","geometry":null},{"properties":{"city":null,"county":"DeKalb","damage":"AFFECTED","type":"MH","geo_score":0.0,"id":"ad35nvie2s8d","address":"368 County Rd 9004","geo_precision":"unmatched","state":"AL"},"type":"Feature","geometry":null},{"properties":{"city":null,"county":"DeKalb","damage":"AFFECTED","type":"MH","geo_score":0.0,"id":"ad35nvn25a3b","address":"201 County Rd 1981","geo_precision":"unmatched","state":"AL"},"type":"Feature","geometry":null},{"properties":{"city":"Attalla","county":"Etowah","damage":"AFFECTED","type":"SFD","geo_score":0.717,"id":"ad35nvojjk9l","address":"4552 Hwy 411","geo_precision":"range","state":"AL"},"type":"Feature","geometry":{"type":"Point","coordinates":[-86.067529,33.935888]}},{"properties":{"city":"Attalla","county":"Etowah","damage":"AFFECTED","type":"SFD","geo_score":0.714,"id":"ad35nvjcmvkc","address":"323 Sumpter St. SE","geo_precision":"city","state":"AL"},"type":"Feature","geometry":{"type":"Point","coordinates":[-86.061397,34.051848]}},{"properties":{"city":"Attalla","county":"Etowah","damage":"AFFECTED","type":"SFD","geo_score":0.714,"id":"ad35nv9xt7uo","address":"316 Sumpter St. SE","geo_precision":"city","state":"AL"},"type":"Feature","geometry":{"type":"Point","coordinates":[-86.061397,34.051848]}},{"properties":{"city":"Attalla","county":"Etowah","damage":"AFFECTED","type":"SFD","geo_score":0.805,"id":"ad35nvpz51e8","address":"316 Green St.","geo_precision":"range","state":"AL"},"type":"Feature","geometry":{"type":"Point","coordinates":[-86.113244,33.989442]}},{"properties":{"city":"Attalla","county":"Etowah","damage":"AFFECTED","type":"SFD","geo_score":0.819,"id":"ad35nvh2gvkr","address":"609 Stewert Ave","geo_precision":"range","state":"AL"},"type":"Feature","geometry":{"type":"Point","coordinates":[-86.107765,33.987789]}},{"properties":{"city":"Attalla","county":"Etowah","damage":"AFFECTED","type":"SFD","geo_score":0.49,"id":"ad35nven32fw","address":"235 Randolph St. SE","geo_precision":"street","state":"AL"},"type":"Feature","geometry":{"type":"Point","coordinates":[-86.116186,33.982663]}},{"properties":{"city":"Gadsden","county":"Etowah","damage":"AFFECTED","type":"SFD","geo_score":0.678,"id":"ad35nvk9bo2d","address":"3503 Forest Rd","geo_precision":"street","state":"AL"},"type":"Feature","geometry":{"type":"Point","coordinates":[-86.015271,33.963311]}},{"properties":{"city":"Rainbow City","county":"Etowah","damage":"AFFECTED","type":"SFD","geo_score":0.902,"id":"ad35nvamigwv","address":"103 Sherwood Dr","geo_precision":"range","state":"AL"},"type":"Feature","geometry":{"type":"Point","coordinates":[-86.039694,33.952381]}},{"properties":{"city":"Rainbow City","county":"Etowah","damage":"AFFECTED","type":"SFD","geo_score":0.902,"id":"ad35nvok0pwq","address":"108 Sherwood Dr","geo_precision":"range","state":"AL"},"type":"Feature","geometry":{"type":"Point","coordinates":[-86.039973,33.952411]}},{"properties":{"city":"Rainbow City","county":"Etowah","damage":"AFFECTED","type":"SFD","geo_score":0.902,"id":"ad35nvab55w6","address":"109 Norwood Dr.","geo_precision":"range","state":"AL"},"type":"Feature","geometry":{"type":"Point","coordinates":[-86.033646,33.954247]}},{"properties":{"city":"Rainbow City","county":"Etowah","damage":"AFFECTED","type":"SFD","geo_score":0.61,"id":"ad35nveoz3a6","address":"112 Ridgecrest Dr.","geo_precision":"street","state":"AL"},"type":"Feature","geometry":{"type":"Point","coordinates":[-86.275551,34.303149]}},{"properties":{"city":"Rainbow City","county":"Etowah","damage":"AFFECTED","type":"SFD","geo_score":0.902,"id":"ad35nvlrr3v4","address":"114 Sherwood Dr","geo_precision":"range","state":"AL"},"type":"Feature","geometry":{"type":"Point","coordinates":[-86.040187,33.952307]}},{"properties":{"city":"Rainbow City","county":"Etowah","damage":"AFFECTED","type":"SFD","geo_score":0.902,"id":"ad35nvpba3d1","address":"160 Norwood Dr.","geo_precision":"range","state":"AL"},"type":"Feature","geometry":{"type":"Point","coordinates":[-86.035142,33.954357]}},{"properties":{"city":"Rainbow City","county":"Etowah","damage":"AFFECTED","type":"SFD","geo_score":0.835,"id":"ad35nvc19t9a","address":"309 West Hartwood","geo_precision":"range","state":"AL"},"type":"Feature","geometry":{"type":"Point","coordinates":[-86.035583,33.956069]}},{"properties":{"city":"Rainbow City","county":"Etowah","damage":"AFFECTED","type":"SFD","geo_score":0.835,"id":"ad35nviodkqj","address":"311 West Hartwood","geo_precision":"range","state":"AL"},"type":"Feature","geometry":{"type":"Point","coordinates":[-86.035583,33.956069]}},{"properties":{"city":"Rainbow City","county":"Etowah","damage":"AFFECTED","type":"SFD","geo_score":0.805,"id":"ad35nviu7hn0","address":"404 Wildhaven Circle","geo_precision":"range","state":"AL"},"type":"Feature","geometry":{"type":"Point","coordinates":[-86.032317,33.954544]}},{"properties":{"city":"Sardis","county":"Etowah","damage":"AFFECTED","type":"SFD","geo_score":0.513,"id":"ad35nvcry31k","address":"1553 Bellview Circle","geo_precision":"street","state":"AL"},"type":"Feature","geometry":{"type":"Point","coordinates":[-86.968862,33.364351]}},{"properties":{"city":"Sardis","county":"Etowah","damage":"AFFECTED","type":"SFD","geo_score":0.714,"id":"ad35nvmyn3n9","address":"Avenue A","geo_precision":"street","state":"AL"},"type":"Feature","geometry":{"type":"Point","coordinates":[-86.977818,32.358193]}},{"properties":{"city":"Sardis","county":"Etowah","damage":"AFFECTED","type":"SFD","geo_score":0.519,"id":"ad35nv9mgchq","address":"Sand Valley","geo_precision":"street","state":"AL"},"type":"Feature","geometry":{"type":"Point","coordinates":[-86.97721,33.600277]}},{"properties":{"city":"Sardis","county":"Etowah","damage":"AFFECTED","type":"SFD","geo_score":0.519,"id":"ad35nvfm5vq3","address":"Sand Valley","geo_precision":"street","state":"AL"},"type":"Feature","geometry":{"type":"Point","coordinates":[-86.97721,33.600277]}},{"properties":{"city":"Southside","county":"Etowah","damage":"AFFECTED","type":"SFD","geo_score":0.785,"id":"ad35nvbmvt7t","address":"3240 Bridgepoint Road","geo_precision":"range","state":"AL"},"type":"Feature","geometry":{"type":"Point","coordinates":[-86.01972,33.94558]}},{"properties":{"city":"Southside","county":"Etowah","damage":"AFFECTED","type":"SFD","geo_score":0.635,"id":"ad35nvgb4hx2","address":"570 Crescent Drive","geo_precision":"street","state":"AL"},"type":"Feature","geometry":{"type":"Point","coordinates":[-86.021834,34.0281]}},{"properties":{"city":"Southside","county":"Etowah","damage":"AFFECTED","type":"SFD","geo_score":0.635,"id":"ad35nvo9i1zh","address":"573 Crescent Drive","geo_precision":"street","state":"AL"},"type":"Feature","geometry":{"type":"Point","coordinates":[-86.021834,34.0281]}},{"properties":{"city":"Southside","county":"Etowah","damage":"AFFECTED","type":"SFD","geo_score":0.805,"id":"ad35nvgeprcr","address":"821 Pardue Drive","geo_precision":"range","state":"AL"},"type":"Feature","geometry":{"type":"Point","coordinates":[-86.014724,33.941531]}},{"properties":{"city":"Southside","county":"Etowah","damage":"AFFECTED","type":"SFD","geo_score":0.643,"id":"ad35nvhrzwvr","address":"1733 Willow Ln","geo_precision":"street","state":"AL"},"type":"Feature","geometry":{"type":"Point","coordinates":[-86.024138,34.0083]}},{"properties":{"city":"Southside","county":"Etowah","damage":"AFFECTED","type":"SFD","geo_score":0.805,"id":"ad35nvg3xig4","address":"1501 Walden Dr","geo_precision":"range","state":"AL"},"type":"Feature","geometry":{"type":"Point","coordinates":[-86.02279,33.929535]}},{"properties":{"city":"Southside","county":"Etowah","damage":"AFFECTED","type":"SFD","geo_score":0.805,"id":"ad35nvh0cclv","address":"1520 Walden Dr","geo_precision":"range","state":"AL"},"type":"Feature","geometry":{"type":"Point","coordinates":[-86.022923,33.931755]}},{"properties":{"city":"Altoona","county":"Etowah","damage":"AFFECTED","type":"MH","geo_score":0.87,"id":"ad35nvaz9v5e","address":"695 Gains Rd","geo_precision":"range","state":"AL"},"type":"Feature","geometry":{"type":"Point","coordinates":[-86.370292,34.074299]}},{"properties":{"city":"Southside","county":"Etowah","damage":"AFFECTED","type":"SFD","geo_score":0.634,"id":"ad35nvjhj09x","address":"4106 River Rd","geo_precision":"street","state":"AL"},"type":"Feature","geometry":{"type":"Point","coordinates":[-86.00442,33.997738]}},{"properties":{"city":"Southside","county":"Etowah","damage":"AFFECTED","type":"SFD","geo_score":0.634,"id":"ad35nvc7gdcs","address":"4120 River Rd","geo_precision":"street","state":"AL"},"type":"Feature","geometry":{"type":"Point","coordinates":[-86.00442,33.997738]}},{"properties":{"city":"Southside","county":"Etowah","damage":"AFFECTED","type":"SFD","geo_score":0.61,"id":"ad35nvdfu30e","address":"3876 Crest Lake Dr","geo_precision":"street","state":"AL"},"type":"Feature","geometry":{"type":"Point","coordinates":[-85.958542,34.044972]}},{"properties":{"city":"Southside","county":"Etowah","damage":"AFFECTED","type":"SFD","geo_score":0.61,"id":"ad35nvad1fk4","address":"3777 Crest Lake Dr","geo_precision":"street","state":"AL"},"type":"Feature","geometry":{"type":"Point","coordinates":[-85.958542,34.044972]}},{"properties":{"city":"Birmingham","county":"Jefferson","damage":"AFFECTED","type":"SFD","geo_score":0.902,"id":"ad35nvn2gyqs","address":"7433 Arabia Ave.","geo_precision":"range","state":"AL"},"type":"Feature","geometry":{"type":"Point","coordinates":[-86.967754,33.530363]}},{"properties":{"city":"Hamilton","county":"Marion","damage":"AFFECTED","type":"SFD","geo_score":0.621,"id":"ad35nvkn0reo","address":"154 1st Avenue SE","geo_precision":"street","state":"AL"},"type":"Feature","geometry":{"type":"Point","coordinates":[-87.991272,34.142179]}},{"properties":{"city":"Hamilton","county":"Marion","damage":"AFFECTED","type":"MH","geo_score":0.902,"id":"ad35nvh5qwso","address":"1578 Steele Street","geo_precision":"range","state":"AL"},"type":"Feature","geometry":{"type":"Point","coordinates":[-88.019295,34.138135]}},{"properties":{"city":"Hamilton","county":"Marion","damage":"AFFECTED","type":"MH","geo_score":0.902,"id":"ad35nvh448uq","address":"1645 Steele Street","geo_precision":"range","state":"AL"},"type":"Feature","geometry":{"type":"Point","coordinates":[-88.018976,34.137142]}},{"properties":{"city":"Hamilton","county":"Marion","damage":"AFFECTED","type":"SFD","geo_score":0.844,"id":"ad35nvi8rdt0","address":"217 5th Avenue SE","geo_precision":"range","state":"AL"},"type":"Feature","geometry":{"type":"Point","coordinates":[-87.98781,34.138425]}},{"properties":{"city":"Hamilton","county":"Marion","damage":"AFFECTED","type":"SFD","geo_score":0.844,"id":"ad35nvg0zda3","address":"220 3rd Avenue SE","geo_precision":"range","state":"AL"},"type":"Feature","geometry":{"type":"Point","coordinates":[-87.986893,34.139779]}},{"properties":{"city":"Hamilton","county":"Marion","damage":"AFFECTED","type":"SFD","geo_score":0.519,"id":"ad35nvh97sg0","address":"340 Rock Cliff Road Lot 7","geo_precision":"range","state":"AL"},"type":"Feature","geometry":{"type":"Point","coordinates":[-87.997446,34.142172]}},{"properties":{"city":"Hamilton","county":"Marion","damage":"AFFECTED","type":"SFD","geo_score":0.815,"id":"ad35nvpacght","address":"409 1st Avenue SE","geo_precision":"range","state":"AL"},"type":"Feature","geometry":{"type":"Point","coordinates":[-87.992168,34.142828]}},{"properties":{"city":"Hamilton","county":"Marion","damage":"AFFECTED","type":"MH","geo_score":0.902,"id":"ad35nvovtt5i","address":"960 Steele Street","geo_precision":"range","state":"AL"},"type":"Feature","geometry":{"type":"Point","coordinates":[-88.005597,34.125592]}},{"properties":{"city":"Odenville","county":"St. Clair","damage":"AFFECTED","type":"MH","geo_score":0.902,"id":"ad35nvlejuyl","address":"107 Tate Drive","geo_precision":"range","state":"AL"},"type":"Feature","geometry":{"type":"Point","coordinates":[-86.349424,33.707924]}},{"properties":{"city":"Odenville","county":"St. Clair","damage":"AFFECTED","type":"MH","geo_score":0.902,"id":"ad35nvd6a4a7","address":"109 Tate Drive","geo_precision":"range","state":"AL"},"type":"Feature","geometry":{"type":"Point","coordinates":[-86.348709,33.707791]}},{"properties":{"city":"Odenville","county":"St. Clair","damage":"AFFECTED","type":"MH","geo_score":0.715,"id":"ad35nvl3hbxl","address":"135 Tate Drive","geo_precision":"street","state":"AL"},"type":"Feature","geometry":{"type":"Point","coordinates":[-86.348709,33.707791]}},{"properties":{"city":"Odenville","county":"St. Clair","damage":"AFFECTED","type":"MH","geo_score":0.71,"id":"ad35nvnoktrg","address":"140 Tate Drive","geo_precision":"street","state":"AL"},"type":"Feature","geometry":{"type":"Point","coordinates":[-86.348709,33.707791]}},{"properties":{"city":"Odenville","county":"St. Clair","damage":"AFFECTED","type":"MH","geo_score":0.71,"id":"ad35nve5ih5b","address":"175 Tate Drive","geo_precision":"street","state":"AL"},"type":"Feature","geometry":{"type":"Point","coordinates":[-86.348709,33.707791]}},{"properties":{"city":"Odenville","county":"St. Clair","damage":"AFFECTED","type":"MH","geo_score":0.902,"id":"ad35nvnytbbj","address":"34 Tate Drive","geo_precision":"range","state":"AL"},"type":"Feature","geometry":{"type":"Point","coordinates":[-86.350063,33.709201]}},{"properties":{"city":"Odenville","county":"St. Clair","damage":"AFFECTED","type":"MH","geo_score":0.902,"id":"ad35nvk6rgxo","address":"66 Tate Drive","geo_precision":"range","state":"AL"},"type":"Feature","geometry":{"type":"Point","coordinates":[-86.349078,33.708079]}},{"properties":{"city":"Odenville","county":"St. Clair","damage":"AFFECTED","type":"MH","geo_score":0.857,"id":"ad35nvl45i9a","address":"Tate Drive","geo_precision":"street","state":"AL"},"type":"Feature","geometry":{"type":"Point","coordinates":[-86.348709,33.707791]}},{"properties":{"city":"Vincent","county":"St. Clair","damage":"AFFECTED","type":"SFD","geo_score":0.902,"id":"ad35nvl0glc8","address":"1845 Logan Martin Dam Rd.","geo_precision":"range","state":"AL"},"type":"Feature","geometry":{"type":"Point","coordinates":[-86.340158,33.439496]}},{"properties":{"city":"Odenville","county":"St. Clair","damage":"AFFECTED","type":"MH","geo_score":0.78,"id":"ad35nvfb5yd8","address":"3634 Pleasant Valley Rd","geo_precision":"range","state":"AL"},"type":"Feature","geometry":{"type":"Point","coordinates":[-86.359506,33.689949]}},{"properties":{"city":"Odenville","county":"St. Clair","damage":"AFFECTED","type":"MH","geo_score":0.902,"id":"ad35nvc5bjnm","address":"3601 Pleasant Valley Rd","geo_precision":"range","state":"AL"},"type":"Feature","geometry":{"type":"Point","coordinates":[-86.359506,33.689949]}},{"properties":{"city":"Odenville","county":"St. Clair","damage":"AFFECTED","type":"MH","geo_score":0.873,"id":"ad35nvcyjuzw","address":"3601 Pleasant Valley Rd A","geo_precision":"range","state":"AL"},"type":"Feature","geometry":{"type":"Point","coordinates":[-86.359506,33.689949]}},{"properties":{"city":"Odenville","county":"St. Clair","damage":"AFFECTED","type":"MH","geo_score":0.873,"id":"ad35nvetrvfj","address":"3601 Pleasant Valley Rd B","geo_precision":"range","state":"AL"},"type":"Feature","geometry":{"type":"Point","coordinates":[-86.359506,33.689949]}},{"properties":{"city":"Odenville","county":"St. Clair","damage":"AFFECTED","type":"MH","geo_score":0.902,"id":"ad35nvme5gud","address":"3599 Pleasant Valley Rd","geo_precision":"range","state":"AL"},"type":"Feature","geometry":{"type":"Point","coordinates":[-86.359506,33.689949]}},{"properties":{"city":"Odenville","county":"St. Clair","damage":"AFFECTED","type":"MH","geo_score":0.902,"id":"ad35nvq20koj","address":"3595 Pleasant Valley Rd","geo_precision":"range","state":"AL"},"type":"Feature","geometry":{"type":"Point","coordinates":[-86.359506,33.689949]}},{"properties":{"city":"Odenville","county":"St. Clair","damage":"AFFECTED","type":"MH","geo_score":0.78,"id":"ad35nvj9yjig","address":"3624 Pleasant Valley Rd","geo_precision":"range","state":"AL"},"type":"Feature","geometry":{"type":"Point","coordinates":[-86.359506,33.689949]}},{"properties":{"city":"Odenville","county":"St. Clair","damage":"AFFECTED","type":"MH","geo_score":0.78,"id":"ad35nvcc756h","address":"3622 Pleasant Valley Rd","geo_precision":"range","state":"AL"},"type":"Feature","geometry":{"type":"Point","coordinates":[-86.359506,33.689949]}},{"properties":{"city":"Jasper","county":"Walker","damage":"AFFECTED","type":"MH","geo_score":0.708,"id":"ad35nva7yfaz","address":"40 Brakefield Dairy Rd","geo_precision":"street","state":"AL"},"type":"Feature","geometry":{"type":"Point","coordinates":[-87.28631,33.887679]}},{"properties":{"city":"Jasper","county":"Walker","damage":"AFFECTED","type":"MH","geo_score":0.707,"id":"ad35nvdcozi3","address":"39 Brakefield Dairy Rd","geo_precision":"street","state":"AL"},"type":"Feature","geometry":{"type":"Point","coordinates":[-87.287169,33.868853]}},{"properties":{"city":"Jasper","county":"Walker","damage":"AFFECTED","type":"MH","geo_score":0.708,"id":"ad35nvnsxbxj","address":"32 Brakefield Dairy Rd","geo_precision":"street","state":"AL"},"type":"Feature","geometry":{"type":"Point","coordinates":[-87.28631,33.887679]}},{"properties":{"city":"Jasper","county":"Walker","damage":"AFFECTED","type":"MH","geo_score":0.707,"id":"ad35nvasuh4u","address":"31 Brakefield Dairy Rd","geo_precision":"street","state":"AL"},"type":"Feature","geometry":{"type":"Point","coordinates":[-87.287169,33.868853]}},{"properties":{"city":"Sipsey","county":"Walker","damage":"AFFECTED","type":"SFD","geo_score":0.518,"id":"ad35nv9t1z43","address":"2388 Campbellville Rd","geo_precision":"street","state":"AL"},"type":"Feature","geometry":{"type":"Point","coordinates":[-88.142169,32.453686]}},{"properties":{"city":"Sipsey","county":"Walker","damage":"AFFECTED","type":"SFD","geo_score":0.518,"id":"ad35nvdr11nm","address":"2470 Campbellville Rd","geo_precision":"street","state":"AL"},"type":"Feature","geometry":{"type":"Point","coordinates":[-88.142169,32.453686]}},{"properties":{"city":"Sipsey","county":"Walker","damage":"AFFECTED","type":"SFD","geo_score":0.805,"id":"ad35nvd34yom","address":"984 Reed Road","geo_precision":"range","state":"AL"},"type":"Feature","geometry":{"type":"Point","coordinates":[-87.121695,33.868779]}},{"properties":{"city":"Jasper","county":"Walker","damage":"AFFECTED","type":"SFD","geo_score":0.825,"id":"ad35nvodwtvl","address":"2600 Walston Bridge Rd","geo_precision":"range","state":"AL"},"type":"Feature","geometry":{"type":"Point","coordinates":[-87.242805,33.880755]}},{"properties":{"city":"Jasper","county":"Walker","damage":"AFFECTED","type":"SFD","geo_score":0.902,"id":"ad35nvfgr3ak","address":"830 Hillsdale Rd","geo_precision":"range","state":"AL"},"type":"Feature","geometry":{"type":"Point","coordinates":[-87.269797,33.869568]}},{"properties":{"city":"Jasper","county":"Walker","damage":"AFFECTED","type":"SFD","geo_score":0.902,"id":"ad35nvmgjq0i","address":"808 Hillsdale Rd","geo_precision":"range","state":"AL"},"type":"Feature","geometry":{"type":"Point","coordinates":[-87.270631,33.869496]}},{"properties":{"city":"Jasper","county":"Walker","damage":"AFFECTED","type":"SFD","geo_score":0.902,"id":"ad35nvi6zayj","address":"728 Hillsdale Rd","geo_precision":"range","state":"AL"},"type":"Feature","geometry":{"type":"Point","coordinates":[-87.271636,33.869262]}},{"properties":{"city":"Jasper","county":"Walker","damage":"AFFECTED","type":"SFD","geo_score":0.902,"id":"ad35nvkn3oii","address":"628 Hillsdale Rd","geo_precision":"range","state":"AL"},"type":"Feature","geometry":{"type":"Point","coordinates":[-87.274502,33.868482]}},{"properties":{"city":"Jasper","county":"Walker","damage":"AFFECTED","type":"SFD","geo_score":0.902,"id":"ad35nvf658og","address":"630 Hillsdale Rd","geo_precision":"range","state":"AL"},"type":"Feature","geometry":{"type":"Point","coordinates":[-87.274386,33.868424]}},{"properties":{"city":"Thatch","county":"Walker","damage":"AFFECTED","type":"SFD","geo_score":0.447,"id":"ad35nvku5dsy","address":"1868 Rose Hill Rd","geo_precision":"street","state":"AL"},"type":"Feature","geometry":{"type":"Point","coordinates":[-87.269576,33.840354]}},{"properties":{"city":"Thatch","county":"Walker","damage":"AFFECTED","type":"SFD","geo_score":0.448,"id":"ad35nvmsk09y","address":"1678 Rose Hill Rd","geo_precision":"street","state":"AL"},"type":"Feature","geometry":{"type":"Point","coordinates":[-87.269576,33.840354]}},{"properties":{"city":"Thatch","county":"Walker","damage":"AFFECTED","type":"SFD","geo_score":0.61,"id":"ad35nvieo6bj","address":"3000 Meyers Rd","geo_precision":"street","state":"AL"},"type":"Feature","geometry":{"type":"Point","coordinates":[-87.386766,33.974046]}},{"properties":{"city":"Thatch","county":"Walker","damage":"AFFECTED","type":"SFD","geo_score":0.805,"id":"ad35nvmaz4km","address":"360 Bennett Rd","geo_precision":"range","state":"AL"},"type":"Feature","geometry":{"type":"Point","coordinates":[-87.322221,33.963629]}},{"properties":{"city":"Thatch","county":"Walker","damage":"AFFECTED","type":"SFD","geo_score":0.805,"id":"ad35nvo1v1v7","address":"847 Bennett Rd","geo_precision":"range","state":"AL"},"type":"Feature","geometry":{"type":"Point","coordinates":[-87.323943,33.985763]}},{"properties":{"city":"Hayden","county":"Walker","damage":"AFFECTED","type":"MH","geo_score":0.752,"id":"ad35nvm3wypq","address":"100 McNeal Rd A","geo_precision":"range","state":"AL"},"type":"Feature","geometry":{"type":"Point","coordinates":[-86.954802,33.850724]}},{"properties":{"city":"Hayden","county":"Walker","damage":"AFFECTED","type":"SFD","geo_score":0.752,"id":"ad35nvjtv9gr","address":"100 McNeal Rd B","geo_precision":"range","state":"AL"},"type":"Feature","geometry":{"type":"Point","coordinates":[-86.954802,33.850724]}},{"properties":{"city":"Hayden","county":"Walker","damage":"AFFECTED","type":"SFD","geo_score":0.805,"id":"ad35nvbwd6i6","address":"210 McNeal Rd","geo_precision":"range","state":"AL"},"type":"Feature","geometry":{"type":"Point","coordinates":[-86.958619,33.8489]}},{"properties":{"city":"Empire","county":"Walker","damage":"AFFECTED","type":"SFD","geo_score":0.902,"id":"ad35nvkamgfy","address":"584 Phillipstown Rd","geo_precision":"range","state":"AL"},"type":"Feature","geometry":{"type":"Point","coordinates":[-87.003989,33.843928]}},{"properties":{"city":"Empire","county":"Walker","damage":"AFFECTED","type":"SFD","geo_score":0.902,"id":"ad35nvllomuq","address":"423 Phillipstown Rd","geo_precision":"range","state":"AL"},"type":"Feature","geometry":{"type":"Point","coordinates":[-87.003888,33.840378]}},{"properties":{"city":"Empire","county":"Walker","damage":"AFFECTED","type":"SFD","geo_score":0.902,"id":"ad35nvcf2crs","address":"70 Phillipstown Rd","geo_precision":"range","state":"AL"},"type":"Feature","geometry":{"type":"Point","coordinates":[-87.002336,33.835664]}}],"is_temporal":false,"author":{"url":"","metadata":"","contact_name":"","contact_address":"","source":"","contact_phone":""},"source":"","pagination":{"sort":null,"start":0,"total":172,"limit":1000000},"state":"complete","tags":"","published":"2014-08-16T20:40:10-04:00","id":336145}