{"type":"FeatureCollection","data_type":"Dataset","url_type":null,"permissions":[{"permissions":{"download":true,"edit":true,"view":true},"group_id":56815},{"permissions":{"download":true,"view":true},"group_id":"everyone"}],"classification":null,"title":"MINOR","count":192,"stream_id":336141,"contributor":{"url":"http://geocommons.com/users/37170","name":"lfuentes"},"data_attributes":null,"calculation_params":null,"icon_link":null,"link":"http://geocommons.com/overlays/336141.json","extent":[-87.9947,31.2426,-85.3282,34.8714],"geometry_types":["point"],"unique_name":null,"name":"MINOR","feature_count":192,"description":"","next_feature":null,"is_raster":false,"short_classification":"Y","stats":{},"features":[{"properties":{"city":"Anniston","county":"Calhoun","damage":"MINOR","type":"SFD","geo_score":0.476,"id":"ad35i7bk6yhw","address":"518 W. 64th St","geo_precision":"street","state":"AL"},"type":"Feature","geometry":{"type":"Point","coordinates":[-85.832939,33.730171]}},{"properties":{"city":"Jacksonville","county":"Calhoun","damage":"MINOR","type":"SFD","geo_score":0.0,"id":"ad35i7i93yqu","address":"405 James View","geo_precision":"unmatched","state":"AL"},"type":"Feature","geometry":null},{"properties":{"city":"Jacksonville","county":"Calhoun","damage":"MINOR","type":"APT","geo_score":0.0,"id":"ad35i7ht02af","address":"570 Forney St. Apt 201","geo_precision":"unmatched","state":"AL"},"type":"Feature","geometry":null},{"properties":{"city":"Jacksonville","county":"Calhoun","damage":"MINOR","type":"APT","geo_score":0.0,"id":"ad35i7pcjey8","address":"570 Forney St. Apt 202","geo_precision":"unmatched","state":"AL"},"type":"Feature","geometry":null},{"properties":{"city":"Jacksonville","county":"Calhoun","damage":"MINOR","type":"APT","geo_score":0.0,"id":"ad35i7lq38t9","address":"570 Forney St. Apt 203","geo_precision":"unmatched","state":"AL"},"type":"Feature","geometry":null},{"properties":{"city":"Jacksonville","county":"Calhoun","damage":"MINOR","type":"APT","geo_score":0.0,"id":"ad35i7p4obvy","address":"570 Forney St. Apt 204","geo_precision":"unmatched","state":"AL"},"type":"Feature","geometry":null},{"properties":{"city":"Jacksonville","county":"Calhoun","damage":"MINOR","type":"APT","geo_score":0.0,"id":"ad35i7n9e3xn","address":"570 Forney St. Apt 205","geo_precision":"unmatched","state":"AL"},"type":"Feature","geometry":null},{"properties":{"city":"Jacksonville","county":"Calhoun","damage":"MINOR","type":"APT","geo_score":0.0,"id":"ad35i7kh9fns","address":"570 Forney St. Apt 206","geo_precision":"unmatched","state":"AL"},"type":"Feature","geometry":null},{"properties":{"city":"Jacksonville","county":"Calhoun","damage":"MINOR","type":"APT","geo_score":0.0,"id":"ad35i7i09zap","address":"570 Forney St. Apt 207","geo_precision":"unmatched","state":"AL"},"type":"Feature","geometry":null},{"properties":{"city":"Jacksonville","county":"Calhoun","damage":"MINOR","type":"APT","geo_score":0.0,"id":"ad35i7eqy4mf","address":"570 Forney St. Apt 208","geo_precision":"unmatched","state":"AL"},"type":"Feature","geometry":null},{"properties":{"city":"Jacksonville","county":"Calhoun","damage":"MINOR","type":"APT","geo_score":0.0,"id":"ad35i7gm5j57","address":"570 Forney St. Apt 209","geo_precision":"unmatched","state":"AL"},"type":"Feature","geometry":null},{"properties":{"city":"Jacksonville","county":"Calhoun","damage":"MINOR","type":"APT","geo_score":0.0,"id":"ad35i7jv0q1s","address":"570 Forney St. Apt 210","geo_precision":"unmatched","state":"AL"},"type":"Feature","geometry":null},{"properties":{"city":"Jacksonville","county":"Calhoun","damage":"MINOR","type":"APT","geo_score":0.0,"id":"ad35i7kg4ep2","address":"570 Forney St. Apt 211","geo_precision":"unmatched","state":"AL"},"type":"Feature","geometry":null},{"properties":{"city":"Jacksonville","county":"Calhoun","damage":"MINOR","type":"APT","geo_score":0.0,"id":"ad35i7ekbax3","address":"570 Forney St. Apt 212","geo_precision":"unmatched","state":"AL"},"type":"Feature","geometry":null},{"properties":{"city":"Jacksonville","county":"Calhoun","damage":"MINOR","type":"APT","geo_score":0.0,"id":"ad35i7kk931y","address":"570 Forney St. Apt 213","geo_precision":"unmatched","state":"AL"},"type":"Feature","geometry":null},{"properties":{"city":"Jacksonville","county":"Calhoun","damage":"MINOR","type":"APT","geo_score":0.0,"id":"ad35i7iw4gxc","address":"570 Forney St. Apt 214","geo_precision":"unmatched","state":"AL"},"type":"Feature","geometry":null},{"properties":{"city":"Jacksonville","county":"Calhoun","damage":"MINOR","type":"APT","geo_score":0.0,"id":"ad35i7l9o8g0","address":"570 Forney St. Apt 215","geo_precision":"unmatched","state":"AL"},"type":"Feature","geometry":null},{"properties":{"city":"Jacksonville","county":"Calhoun","damage":"MINOR","type":"APT","geo_score":0.0,"id":"ad35i7m39jba","address":"570 Forney St. Apt 216","geo_precision":"unmatched","state":"AL"},"type":"Feature","geometry":null},{"properties":{"city":"Jacksonville","county":"Calhoun","damage":"MINOR","type":"APT","geo_score":0.0,"id":"ad35i7flabke","address":"570 Forney St. Apt 217","geo_precision":"unmatched","state":"AL"},"type":"Feature","geometry":null},{"properties":{"city":"Jacksonville","county":"Calhoun","damage":"MINOR","type":"APT","geo_score":0.0,"id":"ad35i7oveawa","address":"570 Forney St. Apt 218","geo_precision":"unmatched","state":"AL"},"type":"Feature","geometry":null},{"properties":{"city":"Jacksonville","county":"Calhoun","damage":"MINOR","type":"APT","geo_score":0.0,"id":"ad35i7l367ad","address":"111 Mountain St. Apt 208","geo_precision":"unmatched","state":"AL"},"type":"Feature","geometry":null},{"properties":{"city":"Jacksonville","county":"Calhoun","damage":"MINOR","type":"APT","geo_score":0.0,"id":"ad35i7mxiymt","address":"111 Mountain St. Apt 207","geo_precision":"unmatched","state":"AL"},"type":"Feature","geometry":null},{"properties":{"city":"Jacksonville","county":"Calhoun","damage":"MINOR","type":"APT","geo_score":0.0,"id":"ad35i7kqvv5p","address":"111 Mountain St. Apt 107","geo_precision":"unmatched","state":"AL"},"type":"Feature","geometry":null},{"properties":{"city":"Jacksonville","county":"Calhoun","damage":"MINOR","type":"SFD","geo_score":0.0,"id":"ad35i7brg3hg","address":"2192 Hollingsworth Dr.","geo_precision":"unmatched","state":"AL"},"type":"Feature","geometry":null},{"properties":{"city":"Jacksonville","county":"Calhoun","damage":"MINOR","type":"SFD","geo_score":0.0,"id":"ad35i7fv30lb","address":"1216 Pinegrove Rd","geo_precision":"unmatched","state":"AL"},"type":"Feature","geometry":null},{"properties":{"city":"Jacksonville","county":"Calhoun","damage":"MINOR","type":"SFD","geo_score":0.0,"id":"ad35i7pwq0rl","address":"964 Mt. Gilead Rd","geo_precision":"unmatched","state":"AL"},"type":"Feature","geometry":null},{"properties":{"city":"Piedmont","county":"Calhoun","damage":"MAJOR","type":"MH","geo_score":0.902,"id":"ad35i7kkbjhx","address":"120 Little John Drive","geo_precision":"range","state":"AL"},"type":"Feature","geometry":{"type":"Point","coordinates":[-85.595057,33.953382]}},{"properties":{"city":"Piedmont","county":"Calhoun","damage":"MINOR","type":"SFD","geo_score":0.902,"id":"ad35i7fj9h3f","address":"305 Woolf Ave","geo_precision":"range","state":"AL"},"type":"Feature","geometry":{"type":"Point","coordinates":[-85.599752,33.922545]}},{"properties":{"city":"Roanoke","county":"Chambers","damage":"MINOR","type":"MH","geo_score":0.637,"id":"ad35i7aqomem","address":"1056 County Rd 250","geo_precision":"street","state":"AL"},"type":"Feature","geometry":{"type":"Point","coordinates":[-85.328211,33.090984]}},{"properties":{"city":"Gaylesville","county":"Cherokee","damage":"MINOR","type":"SFD","geo_score":0.748,"id":"ad35i7oxebfp","address":"100 Storey Rd","geo_precision":"street","state":"AL"},"type":"Feature","geometry":{"type":"Point","coordinates":[-85.553013,34.270144]}},{"properties":{"city":"Gaylesville","county":"Cherokee","damage":"MINOR","type":"SFD","geo_score":0.683,"id":"ad35i7eq69io","address":"5005 Hwy 68","geo_precision":"range","state":"AL"},"type":"Feature","geometry":{"type":"Point","coordinates":[-85.55615,34.268814]}},{"properties":{"city":"Little River","county":"Cherokee","damage":"MAJOR","type":"SFD","geo_score":0.512,"id":"ad35i7bproe8","address":"2125 County Rd. 82","geo_precision":"range","state":"AL"},"type":"Feature","geometry":{"type":"Point","coordinates":[-87.12003,31.242573]}},{"properties":{"city":"Sand Rock","county":"Cherokee","damage":"MINOR","type":"SFD","geo_score":0.69,"id":"ad35i7htkbub","address":"100 County Rd 151","geo_precision":"street","state":"AL"},"type":"Feature","geometry":{"type":"Point","coordinates":[-85.795682,34.23639]}},{"properties":{"city":"Sand Rock","county":"Cherokee","damage":"MINOR","type":"SFD","geo_score":0.61,"id":"ad35i7j4o66t","address":"4290 County Rd 17","geo_precision":"street","state":"AL"},"type":"Feature","geometry":{"type":"Point","coordinates":[-85.773817,34.241206]}},{"properties":{"city":"Fruithurst","county":"Cleburne","damage":"MINOR","type":"SFD","geo_score":0.683,"id":"ad35i7ozqzm4","address":"16194 Hwy 78","geo_precision":"range","state":"AL"},"type":"Feature","geometry":{"type":"Point","coordinates":[-85.412914,33.738676]}},{"properties":{"city":"Muscidine","county":"Cleburne","damage":"MINOR","type":"SFD","geo_score":0.74,"id":"ad35i7iq4umf","address":"10189 County Rd 49","geo_precision":"range","state":"AL"},"type":"Feature","geometry":{"type":"Point","coordinates":[-85.36952,33.616968]}},{"properties":{"city":"Muscidine","county":"Cleburne","damage":"MINOR","type":"SFD","geo_score":0.74,"id":"ad35i7oba3i0","address":"5083 County Rd 49","geo_precision":"range","state":"AL"},"type":"Feature","geometry":{"type":"Point","coordinates":[-85.350827,33.560512]}},{"properties":{"city":"Cullman","county":"Cullman","damage":"MINOR","type":"SFD","geo_score":0.812,"id":"ad35i7pb6y18","address":"2357 County Rd 421","geo_precision":"range","state":"AL"},"type":"Feature","geometry":{"type":"Point","coordinates":[-86.926398,34.146232]}},{"properties":{"city":"Bremen","county":"Cullman","damage":"MINOR","type":"SFD","geo_score":0.812,"id":"ad35i7h0b119","address":"1037 County Rd 143","geo_precision":"range","state":"AL"},"type":"Feature","geometry":{"type":"Point","coordinates":[-86.997504,34.03834]}},{"properties":{"city":"Bremen","county":"Cullman","damage":"MINOR","type":"SFD","geo_score":0.617,"id":"ad35i7g8p7vu","address":"2149 County Rd 222","geo_precision":"street","state":"AL"},"type":"Feature","geometry":{"type":"Point","coordinates":[-87.005658,34.026873]}},{"properties":{"city":"Good Hope","county":"Cullman","damage":"MINOR","type":"SFD","geo_score":0.649,"id":"ad35i7p8gqvi","address":"175 Doc Clemmons Rd","geo_precision":"range","state":"AL"},"type":"Feature","geometry":{"type":"Point","coordinates":[-86.037728,32.734075]}},{"properties":{"city":"Good Hope","county":"Cullman","damage":"MINOR","type":"SFD","geo_score":0.902,"id":"ad35i7gz3b22","address":"318 Lindsey Rd","geo_precision":"range","state":"AL"},"type":"Feature","geometry":{"type":"Point","coordinates":[-86.102182,32.737435]}},{"properties":{"city":"Good Hope","county":"Cullman","damage":"MINOR","type":"SFD","geo_score":0.902,"id":"ad35i7ftlf0w","address":"341 Lindsey Rd","geo_precision":"range","state":"AL"},"type":"Feature","geometry":{"type":"Point","coordinates":[-86.101816,32.737308]}},{"properties":{"city":"Good Hope","county":"Cullman","damage":"MINOR","type":"SFD","geo_score":0.902,"id":"ad35i7fsj8jf","address":"84 Lindsey Rd","geo_precision":"range","state":"AL"},"type":"Feature","geometry":{"type":"Point","coordinates":[-86.858158,34.119788]}},{"properties":{"city":"Good Hope","county":"Cullman","damage":"MINOR","type":"SFD","geo_score":0.902,"id":"ad35i7n6n9il","address":"159 Lindsey Rd","geo_precision":"range","state":"AL"},"type":"Feature","geometry":{"type":"Point","coordinates":[-86.103223,32.739534]}},{"properties":{"city":"Collinsville","county":"DeKalb","damage":"MINOR","type":"SFD","geo_score":0.793,"id":"ad35i7fkz3sp","address":"1668 County Hwy 6","geo_precision":"range","state":"AL"},"type":"Feature","geometry":{"type":"Point","coordinates":[-85.844051,34.229275]}},{"properties":{"city":"Collinsville","county":"DeKalb","damage":"MINOR","type":"SFD","geo_score":0.793,"id":"ad35i7krlchv","address":"1668 County Hwy 6","geo_precision":"range","state":"AL"},"type":"Feature","geometry":{"type":"Point","coordinates":[-85.844051,34.229275]}},{"properties":{"city":"Crossville","county":"DeKalb","damage":"MINOR","type":"MH","geo_score":0.812,"id":"ad35i7e3unz9","address":"351 County Rd 370","geo_precision":"range","state":"AL"},"type":"Feature","geometry":{"type":"Point","coordinates":[-86.070129,34.265335]}},{"properties":{"city":"Kilpatrick","county":"DeKalb","damage":"MINOR","type":"MH","geo_score":0.715,"id":"ad35i7hc1maf","address":"206 County Rd 926","geo_precision":"range","state":"AL"},"type":"Feature","geometry":{"type":"Point","coordinates":[-85.797418,34.444387]}},{"properties":{"city":"Kilpatrick","county":"DeKalb","damage":"MINOR","type":"MH","geo_score":0.4,"id":"ad35i7qiw8bc","address":"254 County Rd 979","geo_precision":"street","state":"AL"},"type":"Feature","geometry":{"type":"Point","coordinates":[-85.752765,34.514602]}},{"properties":{"city":"Kilpatrick","county":"DeKalb","damage":"MINOR","type":"MH","geo_score":0.618,"id":"ad35i7ovoz4e","address":"572 County Rd 479","geo_precision":"street","state":"AL"},"type":"Feature","geometry":{"type":"Point","coordinates":[-86.085351,34.257719]}},{"properties":{"city":"Kilpatrick","county":"DeKalb","damage":"MINOR","type":"MH","geo_score":0.715,"id":"ad35i7pe49in","address":"90 County Rd 480","geo_precision":"range","state":"AL"},"type":"Feature","geometry":{"type":"Point","coordinates":[-85.479081,34.159631]}},{"properties":{"city":"Kilpatrick","county":"DeKalb","damage":"MINOR","type":"MH","geo_score":0.715,"id":"ad35i7lml19r","address":"354 County Rd 480","geo_precision":"range","state":"AL"},"type":"Feature","geometry":{"type":"Point","coordinates":[-85.480215,34.159634]}},{"properties":{"city":"Kilpatrick","county":"DeKalb","damage":"MINOR","type":"MH","geo_score":0.582,"id":"ad35i7c1ht20","address":"County Rd 490","geo_precision":"street","state":"AL"},"type":"Feature","geometry":{"type":"Point","coordinates":[-85.802377,34.159039]}},{"properties":{"city":null,"county":"DeKalb","damage":"MINOR","type":"MH","geo_score":0.0,"id":"ad35i7efmmks","address":"35 County Rd 9098","geo_precision":"unmatched","state":"AL"},"type":"Feature","geometry":null},{"properties":{"city":null,"county":"DeKalb","damage":"MINOR","type":"MH","geo_score":0.0,"id":"ad35i7frlf7q","address":"73 County Rd 9097","geo_precision":"unmatched","state":"AL"},"type":"Feature","geometry":null},{"properties":{"city":"Attalla","county":"Etowah","damage":"MINOR","type":"SFD","geo_score":0.488,"id":"ad35i7dzvog0","address":"304 Walcox St.","geo_precision":"city","state":"AL"},"type":"Feature","geometry":{"type":"Point","coordinates":[-86.061397,34.051848]}},{"properties":{"city":"Attalla","county":"Etowah","damage":"MINOR","type":"SFD","geo_score":0.488,"id":"ad35i7cjj7a8","address":"305 Walcox St.","geo_precision":"city","state":"AL"},"type":"Feature","geometry":{"type":"Point","coordinates":[-86.061397,34.051848]}},{"properties":{"city":"Boaz","county":"Etowah","damage":"MINOR","type":"SFD","geo_score":0.902,"id":"ad35i7bsfbv0","address":"27 Gene Burns Rd","geo_precision":"range","state":"AL"},"type":"Feature","geometry":{"type":"Point","coordinates":[-86.022275,34.192219]}},{"properties":{"city":"Southside","county":"Etowah","damage":"MINOR","type":"SFD","geo_score":0.785,"id":"ad35i7dof83d","address":"3209 Bridgepoint Road","geo_precision":"range","state":"AL"},"type":"Feature","geometry":{"type":"Point","coordinates":[-86.017426,33.945626]}},{"properties":{"city":"Southside","county":"Etowah","damage":"MINOR","type":"SFD","geo_score":0.805,"id":"ad35i7gg39os","address":"3248 Hampton Rd W","geo_precision":"range","state":"AL"},"type":"Feature","geometry":{"type":"Point","coordinates":[-86.018697,33.942509]}},{"properties":{"city":"Southside","county":"Etowah","damage":"MINOR","type":"SFD","geo_score":0.659,"id":"ad35i7bwmanp","address":"3315 Mayflower Lane","geo_precision":"street","state":"AL"},"type":"Feature","geometry":{"type":"Point","coordinates":[-85.964064,34.036258]}},{"properties":{"city":"Southside","county":"Etowah","damage":"MINOR","type":"SFD","geo_score":0.613,"id":"ad35i7oew71t","address":"545 Pardue Drive","geo_precision":"street","state":"AL"},"type":"Feature","geometry":{"type":"Point","coordinates":[-86.013826,33.943965]}},{"properties":{"city":"Southside","county":"Etowah","damage":"MINOR","type":"SFD","geo_score":0.635,"id":"ad35i7e9j6rl","address":"599 Crescent Drive","geo_precision":"street","state":"AL"},"type":"Feature","geometry":{"type":"Point","coordinates":[-86.021834,34.0281]}},{"properties":{"city":"Southside","county":"Etowah","damage":"MINOR","type":"SFD","geo_score":0.805,"id":"ad35i7o0spj6","address":"747 Hampton Rd S","geo_precision":"range","state":"AL"},"type":"Feature","geometry":{"type":"Point","coordinates":[-86.015842,33.942535]}},{"properties":{"city":"Southside","county":"Etowah","damage":"MINOR","type":"SFD","geo_score":0.805,"id":"ad35i7ei757n","address":"874 Hampton Rd S","geo_precision":"range","state":"AL"},"type":"Feature","geometry":{"type":"Point","coordinates":[-86.014555,33.940119]}},{"properties":{"city":"Attalla","county":"Etowah","damage":"MINOR","type":"SFD","geo_score":0.823,"id":"ad35i7g7wzw7","address":"302 John Ave","geo_precision":"range","state":"AL"},"type":"Feature","geometry":{"type":"Point","coordinates":[-86.110194,33.991254]}},{"properties":{"city":"Attalla","county":"Etowah","damage":"MINOR","type":"SFD","geo_score":0.829,"id":"ad35i7jzhw85","address":"1001 Burke Ave","geo_precision":"range","state":"AL"},"type":"Feature","geometry":{"type":"Point","coordinates":[-86.104779,33.982358]}},{"properties":{"city":"Rainbow City","county":"Etowah","damage":"MINOR","type":"MH","geo_score":0.572,"id":"ad35i7h1muhg","address":"82 White Oak Ln","geo_precision":"street","state":"AL"},"type":"Feature","geometry":{"type":"Point","coordinates":[-86.104916,33.912251]}},{"properties":{"city":"Southside","county":"Etowah","damage":"MINOR","type":"SFD","geo_score":0.643,"id":"ad35i7di37jl","address":"1841 Willow Ln","geo_precision":"street","state":"AL"},"type":"Feature","geometry":{"type":"Point","coordinates":[-86.024138,34.0083]}},{"properties":{"city":"Southside","county":"Etowah","damage":"MINOR","type":"SFD","geo_score":0.643,"id":"ad35i7arw61m","address":"1799 Willow Ln","geo_precision":"street","state":"AL"},"type":"Feature","geometry":{"type":"Point","coordinates":[-86.024138,34.0083]}},{"properties":{"city":"Gadsden","county":"Etowah","damage":"MINOR","type":"SFD","geo_score":0.902,"id":"ad35i7diy6kl","address":"406 Redbud Dr","geo_precision":"range","state":"AL"},"type":"Feature","geometry":{"type":"Point","coordinates":[-86.022325,33.960782]}},{"properties":{"city":"Gadsden","county":"Etowah","damage":"MINOR","type":"SFD","geo_score":0.902,"id":"ad35i7df3bwi","address":"217 Azalea Dr","geo_precision":"range","state":"AL"},"type":"Feature","geometry":{"type":"Point","coordinates":[-86.012153,33.966697]}},{"properties":{"city":"Gadsden","county":"Etowah","damage":"MINOR","type":"SFD","geo_score":0.902,"id":"ad35i7hfq9xf","address":"313 Hollywood Rd","geo_precision":"range","state":"AL"},"type":"Feature","geometry":{"type":"Point","coordinates":[-86.016689,33.971102]}},{"properties":{"city":"Gadsden","county":"Etowah","damage":"MINOR","type":"SFD","geo_score":0.902,"id":"ad35i7lni4ot","address":"409 Redbud Dr","geo_precision":"range","state":"AL"},"type":"Feature","geometry":{"type":"Point","coordinates":[-86.022323,33.960944]}},{"properties":{"city":"Gadsden","county":"Etowah","damage":"MINOR","type":"SFD","geo_score":0.902,"id":"ad35i7g0ybrk","address":"321 Dogwood Circle","geo_precision":"range","state":"AL"},"type":"Feature","geometry":{"type":"Point","coordinates":[-86.015571,33.967622]}},{"properties":{"city":"Southside","county":"Etowah","damage":"MINOR","type":"SFD","geo_score":0.805,"id":"ad35i7jxnrla","address":"1577 Walden Dr","geo_precision":"range","state":"AL"},"type":"Feature","geometry":{"type":"Point","coordinates":[-86.02279,33.929392]}},{"properties":{"city":"Southside","county":"Etowah","damage":"MINOR","type":"SFD","geo_score":0.805,"id":"ad35i7jf2sy8","address":"1601 Walden Dr","geo_precision":"range","state":"AL"},"type":"Feature","geometry":{"type":"Point","coordinates":[-86.02279,33.929347]}},{"properties":{"city":"Southside","county":"Etowah","damage":"MINOR","type":"SFD","geo_score":0.805,"id":"ad35i7jn6ca9","address":"1633 Walden Dr","geo_precision":"range","state":"AL"},"type":"Feature","geometry":{"type":"Point","coordinates":[-86.022789,33.929287]}},{"properties":{"city":"Southside","county":"Etowah","damage":"MINOR","type":"SFD","geo_score":0.805,"id":"ad35i7bxzbod","address":"1612 Walden Dr","geo_precision":"range","state":"AL"},"type":"Feature","geometry":{"type":"Point","coordinates":[-86.022942,33.929791]}},{"properties":{"city":"Southside","county":"Etowah","damage":"MINOR","type":"SFD","geo_score":0.561,"id":"ad35i7gx63z5","address":"2075 Hall Cir","geo_precision":"street","state":"AL"},"type":"Feature","geometry":{"type":"Point","coordinates":[-86.025196,34.01712]}},{"properties":{"city":"Southside","county":"Etowah","damage":"MAJOR","type":"SFD","geo_score":0.805,"id":"ad35i7d7vtsd","address":"1671 Holiday Dr","geo_precision":"range","state":"AL"},"type":"Feature","geometry":{"type":"Point","coordinates":[-86.019226,33.928397]}},{"properties":{"city":"Southside","county":"Etowah","damage":"MINOR","type":"SFD","geo_score":0.61,"id":"ad35i7h8ngig","address":"3206 Holiday Dr","geo_precision":"street","state":"AL"},"type":"Feature","geometry":{"type":"Point","coordinates":[-86.0191,33.927938]}},{"properties":{"city":"Southside","county":"Etowah","damage":"MINOR","type":"SFD","geo_score":0.611,"id":"ad35i7o076gu","address":"865 Walker Dr","geo_precision":"street","state":"AL"},"type":"Feature","geometry":{"type":"Point","coordinates":[-86.152726,34.084981]}},{"properties":{"city":"Southside","county":"Etowah","damage":"MINOR","type":"SFD","geo_score":0.495,"id":"ad35i7doztzo","address":"925 Green Valley","geo_precision":"street","state":"AL"},"type":"Feature","geometry":{"type":"Point","coordinates":[-85.994282,34.027204]}},{"properties":{"city":"Southside","county":"Etowah","damage":"MINOR","type":"SFD","geo_score":0.805,"id":"ad35i7f4ekth","address":"1124 Rifle Range Rd","geo_precision":"range","state":"AL"},"type":"Feature","geometry":{"type":"Point","coordinates":[-85.937027,33.937641]}},{"properties":{"city":"Southside","county":"Etowah","damage":"MINOR","type":"SFD","geo_score":0.62,"id":"ad35i7b0b35j","address":"2146 Louise St","geo_precision":"street","state":"AL"},"type":"Feature","geometry":{"type":"Point","coordinates":[-85.961784,34.033615]}},{"properties":{"city":"Southside","county":"Etowah","damage":"MINOR","type":"SFD","geo_score":0.488,"id":"ad35i7jf31tx","address":"5445 Becky Ln","geo_precision":"city","state":"AL"},"type":"Feature","geometry":{"type":"Point","coordinates":[-86.022472,33.924543]}},{"properties":{"city":"Southside","county":"Etowah","damage":"MINOR","type":"SFD","geo_score":0.805,"id":"ad35i7ib0bux","address":"1668 Leota Rd","geo_precision":"range","state":"AL"},"type":"Feature","geometry":{"type":"Point","coordinates":[-86.041595,33.875274]}},{"properties":{"city":"Southside","county":"Etowah","damage":"MINOR","type":"SFD","geo_score":0.683,"id":"ad35i7ck7r20","address":"1167 Leota Rd","geo_precision":"range","state":"AL"},"type":"Feature","geometry":{"type":"Point","coordinates":[-86.043108,33.875642]}},{"properties":{"city":"Southside","county":"Etowah","damage":"MINOR","type":"SFD","geo_score":0.805,"id":"ad35i7qp1qau","address":"4389 Pilgrims Rest Rd","geo_precision":"range","state":"AL"},"type":"Feature","geometry":{"type":"Point","coordinates":[-85.997171,33.912328]}},{"properties":{"city":"Southside","county":"Etowah","damage":"MINOR","type":"SFD","geo_score":0.61,"id":"ad35i7ivvwad","address":"1983 Pilgrims Rest Rd","geo_precision":"street","state":"AL"},"type":"Feature","geometry":{"type":"Point","coordinates":[-86.021075,33.923256]}},{"properties":{"city":"Kilpatrick","county":"DeKalb","damage":"MINOR","type":"SFD","geo_score":0.617,"id":"ad35i7c2i592","address":"1551 County Rd 381","geo_precision":"street","state":"AL"},"type":"Feature","geometry":{"type":"Point","coordinates":[-86.091476,34.243521]}},{"properties":{"city":"Kilpatrick","county":"DeKalb","damage":"MINOR","type":"SFD","geo_score":0.618,"id":"ad35i7iqybto","address":"1494 County Rd 381","geo_precision":"street","state":"AL"},"type":"Feature","geometry":{"type":"Point","coordinates":[-86.091476,34.243521]}},{"properties":{"city":"Kilpatrick","county":"DeKalb","damage":"MINOR","type":"SFD","geo_score":0.812,"id":"ad35i7mjvw3b","address":"190 County Rd 381","geo_precision":"range","state":"AL"},"type":"Feature","geometry":{"type":"Point","coordinates":[-86.091333,34.243417]}},{"properties":{"city":"Kilpatrick","county":"DeKalb","damage":"MINOR","type":"MH","geo_score":0.404,"id":"ad35i7f03bk8","address":"2223 County Rd 9055","geo_precision":"street","state":"AL"},"type":"Feature","geometry":{"type":"Point","coordinates":[-86.081644,34.265575]}},{"properties":{"city":"Kilpatrick","county":"DeKalb","damage":"MINOR","type":"MH","geo_score":0.536,"id":"ad35i7p6240v","address":"Hwy 68","geo_precision":"street","state":"AL"},"type":"Feature","geometry":{"type":"Point","coordinates":[-86.132008,34.28814]}},{"properties":{"city":"Kilpatrick","county":"DeKalb","damage":"MINOR","type":"SFD","geo_score":0.618,"id":"ad35i7qg2gc7","address":"1296 County Rd 381","geo_precision":"street","state":"AL"},"type":"Feature","geometry":{"type":"Point","coordinates":[-86.091476,34.243521]}},{"properties":{"city":"Gadsden","county":"Etowah","damage":"MINOR","type":"SFD","geo_score":0.873,"id":"ad35i7i8ot5n","address":"101 Merrit Circle","geo_precision":"range","state":"AL"},"type":"Feature","geometry":{"type":"Point","coordinates":[-86.015017,33.962757]}},{"properties":{"city":"Gadsden","county":"Etowah","damage":"MINOR","type":"SFD","geo_score":0.873,"id":"ad35i7cp4ne7","address":"113 Merrit Circle","geo_precision":"range","state":"AL"},"type":"Feature","geometry":{"type":"Point","coordinates":[-86.014638,33.962839]}},{"properties":{"city":"Gadsden","county":"Etowah","damage":"MINOR","type":"SFD","geo_score":0.902,"id":"ad35i7k3w7ut","address":"419 Country Club Dr","geo_precision":"range","state":"AL"},"type":"Feature","geometry":{"type":"Point","coordinates":[-86.02213,33.962014]}},{"properties":{"city":"Gadsden","county":"Etowah","damage":"MINOR","type":"SFD","geo_score":0.902,"id":"ad35i7fj8gg7","address":"512 Country Club Dr","geo_precision":"range","state":"AL"},"type":"Feature","geometry":{"type":"Point","coordinates":[-86.025107,33.957388]}},{"properties":{"city":"Gadsden","county":"Etowah","damage":"MINOR","type":"SFD","geo_score":0.902,"id":"ad35i7qjn8u6","address":"503 Country Club Dr","geo_precision":"range","state":"AL"},"type":"Feature","geometry":{"type":"Point","coordinates":[-86.02354,33.959028]}},{"properties":{"city":"Rainbow City","county":"Etowah","damage":"MINOR","type":"SFD","geo_score":0.805,"id":"ad35i7msew8w","address":"436 Wildhaven Circle","geo_precision":"range","state":"AL"},"type":"Feature","geometry":{"type":"Point","coordinates":[-86.028695,33.955477]}},{"properties":{"city":"Southside","county":"Etowah","damage":"MINOR","type":"SFD","geo_score":0.805,"id":"ad35i7pkgqr8","address":"2560 Country Rd","geo_precision":"range","state":"AL"},"type":"Feature","geometry":{"type":"Point","coordinates":[-85.997212,33.914762]}},{"properties":{"city":"Southside","county":"Etowah","damage":"MINOR","type":"SFD","geo_score":0.805,"id":"ad35i7fov774","address":"4653 Smith Rd","geo_precision":"range","state":"AL"},"type":"Feature","geometry":{"type":"Point","coordinates":[-85.992617,33.92759]}},{"properties":{"city":"Southside","county":"Etowah","damage":"MAJOR","type":"MH","geo_score":0.805,"id":"ad35i7bpeatz","address":"3761 Smith Rd","geo_precision":"range","state":"AL"},"type":"Feature","geometry":{"type":"Point","coordinates":[-86.010065,33.918968]}},{"properties":{"city":"Southside","county":"Etowah","damage":"MAJOR","type":"SFD","geo_score":0.805,"id":"ad35i7m7zt1y","address":"2608 Country Rd","geo_precision":"range","state":"AL"},"type":"Feature","geometry":{"type":"Point","coordinates":[-85.997219,33.914271]}},{"properties":{"city":"Southside","county":"Etowah","damage":"MINOR","type":"SFD","geo_score":0.707,"id":"ad35i7r39zp5","address":"817 Bridge Lane","geo_precision":"range","state":"AL"},"type":"Feature","geometry":{"type":"Point","coordinates":[-86.023041,33.940473]}},{"properties":{"city":"Southside","county":"Etowah","damage":"MINOR","type":"SFD","geo_score":0.776,"id":"ad35i7cvuhqr","address":"1363 Sharron Lane","geo_precision":"range","state":"AL"},"type":"Feature","geometry":{"type":"Point","coordinates":[-86.005099,33.933381]}},{"properties":{"city":"Southside","county":"Etowah","damage":"MINOR","type":"SFD","geo_score":0.776,"id":"ad35i7p4pkwp","address":"1459 Sharron Lane","geo_precision":"range","state":"AL"},"type":"Feature","geometry":{"type":"Point","coordinates":[-86.005113,33.934414]}},{"properties":{"city":"Southside","county":"Etowah","damage":"MINOR","type":"SFD","geo_score":0.776,"id":"ad35i7puclxh","address":"1340 Sharron Lane","geo_precision":"range","state":"AL"},"type":"Feature","geometry":{"type":"Point","coordinates":[-86.005247,33.933143]}},{"properties":{"city":"Southside","county":"Etowah","damage":"MINOR","type":"SFD","geo_score":0.805,"id":"ad35i7og7d4h","address":"3620 Lakefront Dr","geo_precision":"range","state":"AL"},"type":"Feature","geometry":{"type":"Point","coordinates":[-86.009165,33.942705]}},{"properties":{"city":"Southside","county":"Etowah","damage":"MINOR","type":"SFD","geo_score":0.805,"id":"ad35i7aud45w","address":"3775 Lakefront Dr","geo_precision":"range","state":"AL"},"type":"Feature","geometry":{"type":"Point","coordinates":[-86.008543,33.942166]}},{"properties":{"city":"Southside","county":"Etowah","damage":"MINOR","type":"SFD","geo_score":0.61,"id":"ad35i7eplvdm","address":"3960 Crest Lake Dr","geo_precision":"street","state":"AL"},"type":"Feature","geometry":{"type":"Point","coordinates":[-85.958542,34.044972]}},{"properties":{"city":"Southside","county":"Etowah","damage":"MINOR","type":"SFD","geo_score":0.61,"id":"ad35i7n8fg6g","address":"3895 Crest Lake Dr","geo_precision":"street","state":"AL"},"type":"Feature","geometry":{"type":"Point","coordinates":[-85.958542,34.044972]}},{"properties":{"city":"Southside","county":"Etowah","damage":"MINOR","type":"SFD","geo_score":0.61,"id":"ad35i7jytsmp","address":"3861 Crest Lake Dr","geo_precision":"street","state":"AL"},"type":"Feature","geometry":{"type":"Point","coordinates":[-85.958542,34.044972]}},{"properties":{"city":"Bessemer","county":"Jefferson","damage":"MINOR","type":"SFD","geo_score":0.902,"id":"ad35i7nldk6d","address":"141 Winchester Drive","geo_precision":"range","state":"AL"},"type":"Feature","geometry":{"type":"Point","coordinates":[-86.932901,33.350744]}},{"properties":{"city":"Kimberly","county":"Jefferson","damage":"MINOR","type":"SFD","geo_score":0.553,"id":"ad35i7k0i9ef","address":"2184 Self Creek Rd.","geo_precision":"range","state":"AL"},"type":"Feature","geometry":{"type":"Point","coordinates":[-87.146419,33.287383]}},{"properties":{"city":"Hamilton","county":"Marion","damage":"MINOR","type":"SFD","geo_score":0.488,"id":"ad35i7e7lfv5","address":"150 Guxton Circle","geo_precision":"city","state":"AL"},"type":"Feature","geometry":{"type":"Point","coordinates":[-87.994648,34.167583]}},{"properties":{"city":"Rock Mills","county":"Randolph","damage":"MINOR","type":"SFD","geo_score":0.0,"id":"ad35i7qurutd","address":"8584 County Rd 16","geo_precision":"unmatched","state":"AL"},"type":"Feature","geometry":null},{"properties":{"city":"Wedowee","county":"Randolph","damage":"MINOR","type":"SFD","geo_score":0.771,"id":"ad35i7gaf6qg","address":"3rd Ave SW","geo_precision":"street","state":"AL"},"type":"Feature","geometry":{"type":"Point","coordinates":[-85.487043,33.30677]}},{"properties":{"city":"Wedowee","county":"Randolph","damage":"MINOR","type":"SFD","geo_score":0.756,"id":"ad35i7pkxtnh","address":"440 1st Ave","geo_precision":"range","state":"AL"},"type":"Feature","geometry":{"type":"Point","coordinates":[-85.491479,33.311121]}},{"properties":{"city":"Ashville","county":"St. Clair","damage":"MINOR","type":"SFD","geo_score":0.902,"id":"ad35i7k5mnd8","address":"1622 Shore Dr.","geo_precision":"range","state":"AL"},"type":"Feature","geometry":{"type":"Point","coordinates":[-86.320134,33.837733]}},{"properties":{"city":"Leeds","county":"St. Clair","damage":"MINOR","type":"SFD","geo_score":0.902,"id":"ad35i7oeogx7","address":"5 Huffman Dr","geo_precision":"range","state":"AL"},"type":"Feature","geometry":{"type":"Point","coordinates":[-86.49892,33.5593]}},{"properties":{"city":"Odenville","county":"St. Clair","damage":"MINOR","type":"MH","geo_score":0.732,"id":"ad35i7qjbkp9","address":"3626 Pleasant Valley","geo_precision":"range","state":"AL"},"type":"Feature","geometry":{"type":"Point","coordinates":[-86.359506,33.689949]}},{"properties":{"city":"Ashville","county":"St. Clair","damage":"MINOR","type":"SFD","geo_score":0.624,"id":"ad35i7mnuxlx","address":"325 6th Ave","geo_precision":"street","state":"AL"},"type":"Feature","geometry":{"type":"Point","coordinates":[-86.256911,33.83642]}},{"properties":{"city":"Talladega","county":"Talladega","damage":"MINOR","type":"SFD","geo_score":0.857,"id":"ad35i7j16mjn","address":"Silverwood Drive","geo_precision":"street","state":"AL"},"type":"Feature","geometry":{"type":"Point","coordinates":[-86.092587,33.4135]}},{"properties":{"city":"Jasper","county":"Walker","damage":"MINOR","type":"MH","geo_score":0.708,"id":"ad35i7hkjxuk","address":"10 Brakefield Dairy Rd","geo_precision":"street","state":"AL"},"type":"Feature","geometry":{"type":"Point","coordinates":[-87.28631,33.887679]}},{"properties":{"city":"Jasper","county":"Walker","damage":"MINOR","type":"MH","geo_score":0.902,"id":"ad35i7i9lg76","address":"1075 Wells Loop","geo_precision":"range","state":"AL"},"type":"Feature","geometry":{"type":"Point","coordinates":[-87.328333,33.893588]}},{"properties":{"city":"Jasper","county":"Walker","damage":"MINOR","type":"SFD","geo_score":0.902,"id":"ad35i7c2na6d","address":"1149 Wells Loop","geo_precision":"range","state":"AL"},"type":"Feature","geometry":{"type":"Point","coordinates":[-87.327966,33.893595]}},{"properties":{"city":"Jasper","county":"Walker","damage":"MINOR","type":"SFD","geo_score":0.902,"id":"ad35i7fn4yzq","address":"1283 Wells Loop","geo_precision":"range","state":"AL"},"type":"Feature","geometry":{"type":"Point","coordinates":[-87.3273,33.893608]}},{"properties":{"city":"Jasper","county":"Walker","damage":"MINOR","type":"MH","geo_score":0.709,"id":"ad35i7eelzlf","address":"136 Wells Loop","geo_precision":"street","state":"AL"},"type":"Feature","geometry":{"type":"Point","coordinates":[-87.330758,33.893755]}},{"properties":{"city":"Jasper","county":"Walker","damage":"MINOR","type":"SFD","geo_score":0.902,"id":"ad35i7lr6d33","address":"1375 Wells Loop","geo_precision":"range","state":"AL"},"type":"Feature","geometry":{"type":"Point","coordinates":[-87.326515,33.893607]}},{"properties":{"city":"Jasper","county":"Walker","damage":"MINOR","type":"MH","geo_score":0.78,"id":"ad35i7o9pb6m","address":"1501 Brakefield Dairy Rd","geo_precision":"street","state":"AL"},"type":"Feature","geometry":{"type":"Point","coordinates":[-87.287485,33.867326]}},{"properties":{"city":"Jasper","county":"Walker","damage":"MINOR","type":"SFD","geo_score":0.683,"id":"ad35i7f5p5yz","address":"1613 Ridgewood Rd","geo_precision":"street","state":"AL"},"type":"Feature","geometry":{"type":"Point","coordinates":[-87.20817,33.820274]}},{"properties":{"city":"Jasper","county":"Walker","damage":"MINOR","type":"SFD","geo_score":0.78,"id":"ad35i7ep0kms","address":"2283 Wells Loop","geo_precision":"range","state":"AL"},"type":"Feature","geometry":{"type":"Point","coordinates":[-87.326678,33.893761]}},{"properties":{"city":"Jasper","county":"Walker","damage":"MINOR","type":"MH","geo_score":0.707,"id":"ad35i7nvh6v2","address":"25 Brakefield Dairy Rd","geo_precision":"street","state":"AL"},"type":"Feature","geometry":{"type":"Point","coordinates":[-87.287169,33.868853]}},{"properties":{"city":"Jasper","county":"Walker","damage":"MINOR","type":"SFD","geo_score":0.902,"id":"ad35i7mbcfow","address":"3111 Boardwalk Cir","geo_precision":"range","state":"AL"},"type":"Feature","geometry":{"type":"Point","coordinates":[-87.254746,33.887752]}},{"properties":{"city":"Jasper","county":"Walker","damage":"MINOR","type":"SFD","geo_score":0.876,"id":"ad35i7mdgmam","address":"506 Thatch Loop","geo_precision":"range","state":"AL"},"type":"Feature","geometry":{"type":"Point","coordinates":[-87.337791,33.969298]}},{"properties":{"city":"Jasper","county":"Walker","damage":"MINOR","type":"MH","geo_score":0.876,"id":"ad35i7mxbynu","address":"730 Thatch Loop","geo_precision":"range","state":"AL"},"type":"Feature","geometry":{"type":"Point","coordinates":[-87.337692,33.968659]}},{"properties":{"city":"Jasper","county":"Walker","damage":"MINOR","type":"MH","geo_score":0.707,"id":"ad35i7dbi8xi","address":"37 Brakefield Dairy Rd","geo_precision":"street","state":"AL"},"type":"Feature","geometry":{"type":"Point","coordinates":[-87.287169,33.868853]}},{"properties":{"city":"Nauvoo","county":"Walker","damage":"MINOR","type":"SFD","geo_score":0.468,"id":"ad35i7bcxnf4","address":"120 Hwy 5","geo_precision":"street","state":"AL"},"type":"Feature","geometry":{"type":"Point","coordinates":[-87.37983,33.912818]}},{"properties":{"city":"Jasper","county":"Walker","damage":"MINOR","type":"APT","geo_score":0.902,"id":"ad35i7qd9abn","address":"3929 Country Club Rd","geo_precision":"range","state":"AL"},"type":"Feature","geometry":{"type":"Point","coordinates":[-87.255776,33.923719]}},{"properties":{"city":"Jasper","county":"Walker","damage":"MINOR","type":"SFD","geo_score":0.488,"id":"ad35i7mpxgr6","address":"2144 Sunlight Rd","geo_precision":"city","state":"AL"},"type":"Feature","geometry":{"type":"Point","coordinates":[-87.316923,33.796234]}},{"properties":{"city":"Jasper","county":"Walker","damage":"MINOR","type":"MH","geo_score":0.902,"id":"ad35i7kdqmac","address":"1377 Fall City Rd","geo_precision":"range","state":"AL"},"type":"Feature","geometry":{"type":"Point","coordinates":[-87.292179,33.928698]}},{"properties":{"city":"Jasper","county":"Walker","damage":"MINOR","type":"SFD","geo_score":0.78,"id":"ad35i7me1z9r","address":"1817 Wells Loop","geo_precision":"range","state":"AL"},"type":"Feature","geometry":{"type":"Point","coordinates":[-87.327771,33.893749]}},{"properties":{"city":"Jasper","county":"Walker","damage":"MINOR","type":"SFD","geo_score":0.902,"id":"ad35i7l9jgyc","address":"1042 Lamon Chapel Loop","geo_precision":"range","state":"AL"},"type":"Feature","geometry":{"type":"Point","coordinates":[-87.343957,33.99318]}},{"properties":{"city":"Jasper","county":"Walker","damage":"MINOR","type":"SFD","geo_score":0.902,"id":"ad35i7de70he","address":"620 Lamon Chapel Loop","geo_precision":"range","state":"AL"},"type":"Feature","geometry":{"type":"Point","coordinates":[-87.348023,33.98311]}},{"properties":{"city":"Jasper","county":"Walker","damage":"MINOR","type":"SFD","geo_score":0.902,"id":"ad35i7n54qdn","address":"590 Lamon Chapel Loop","geo_precision":"range","state":"AL"},"type":"Feature","geometry":{"type":"Point","coordinates":[-87.347997,33.983183]}},{"properties":{"city":"Jasper","county":"Walker","damage":"MINOR","type":"SFD","geo_score":0.902,"id":"ad35i7l2ub66","address":"474 Lamon Chapel Loop","geo_precision":"range","state":"AL"},"type":"Feature","geometry":{"type":"Point","coordinates":[-87.347844,33.983467]}},{"properties":{"city":"Jasper","county":"Walker","damage":"MINOR","type":"SFD","geo_score":0.709,"id":"ad35i7lgl77a","address":"100 Lamon Chapel Loop","geo_precision":"street","state":"AL"},"type":"Feature","geometry":{"type":"Point","coordinates":[-87.34767,33.984163]}},{"properties":{"city":"Jasper","county":"Walker","damage":"MINOR","type":"SFD","geo_score":0.712,"id":"ad35i7avghjq","address":"777 Southridge Road","geo_precision":"street","state":"AL"},"type":"Feature","geometry":{"type":"Point","coordinates":[-87.271932,33.877255]}},{"properties":{"city":"Jasper","county":"Walker","damage":"MINOR","type":"SFD","geo_score":0.902,"id":"ad35i7kel6v6","address":"306 Southridge Road","geo_precision":"range","state":"AL"},"type":"Feature","geometry":{"type":"Point","coordinates":[-87.278461,33.880015]}},{"properties":{"city":"Jasper","county":"Walker","damage":"MINOR","type":"SFD","geo_score":0.902,"id":"ad35i7bf7x2w","address":"302 Southridge Road","geo_precision":"range","state":"AL"},"type":"Feature","geometry":{"type":"Point","coordinates":[-87.278517,33.879994]}},{"properties":{"city":"Jasper","county":"Walker","damage":"MINOR","type":"SFD","geo_score":0.7,"id":"ad35i7mtg8c5","address":"1383 Hwy 195","geo_precision":"range","state":"AL"},"type":"Feature","geometry":{"type":"Point","coordinates":[-87.287933,33.866627]}},{"properties":{"city":"Jasper","county":"Walker","damage":"MINOR","type":"SFD","geo_score":0.578,"id":"ad35i7bfg03n","address":"194 Hwy 195","geo_precision":"range","state":"AL"},"type":"Feature","geometry":{"type":"Point","coordinates":[-87.287925,33.853236]}},{"properties":{"city":"Jasper","county":"Walker","damage":"MINOR","type":"SFD","geo_score":0.7,"id":"ad35i7on4bah","address":"2370 Hwy 195","geo_precision":"range","state":"AL"},"type":"Feature","geometry":{"type":"Point","coordinates":[-87.282823,33.882473]}},{"properties":{"city":"Jasper","county":"Walker","damage":"MINOR","type":"SFD","geo_score":0.7,"id":"ad35i7i1wxbm","address":"2390 Hwy 195","geo_precision":"range","state":"AL"},"type":"Feature","geometry":{"type":"Point","coordinates":[-87.282875,33.882269]}},{"properties":{"city":"Jasper","county":"Walker","damage":"MINOR","type":"SFD","geo_score":0.56,"id":"ad35i7bzc2wa","address":"Hwy 195","geo_precision":"street","state":"AL"},"type":"Feature","geometry":{"type":"Point","coordinates":[-87.288283,33.865223]}},{"properties":{"city":"Jasper","county":"Walker","damage":"MINOR","type":"SFD","geo_score":0.7,"id":"ad35i7fzp99a","address":"2546 Hwy 195","geo_precision":"range","state":"AL"},"type":"Feature","geometry":{"type":"Point","coordinates":[-87.283189,33.881675]}},{"properties":{"city":"Jasper","county":"Walker","damage":"MINOR","type":"SFD","geo_score":0.512,"id":"ad35i7bwl526","address":"2721 Hwy 195","geo_precision":"street","state":"AL"},"type":"Feature","geometry":{"type":"Point","coordinates":[-87.283145,33.888454]}},{"properties":{"city":"Jasper","county":"Walker","damage":"MINOR","type":"SFD","geo_score":0.7,"id":"ad35i7ewt6sy","address":"3089 Hwy 195","geo_precision":"range","state":"AL"},"type":"Feature","geometry":{"type":"Point","coordinates":[-87.291174,33.897005]}},{"properties":{"city":"Jasper","county":"Walker","damage":"MINOR","type":"SFD","geo_score":0.7,"id":"ad35i7db7wgt","address":"5244 Hwy 195","geo_precision":"range","state":"AL"},"type":"Feature","geometry":{"type":"Point","coordinates":[-87.315146,33.915441]}},{"properties":{"city":"Jasper","county":"Walker","damage":"MINOR","type":"SFD","geo_score":0.578,"id":"ad35i7l19jn7","address":"7150 Hwy 195","geo_precision":"range","state":"AL"},"type":"Feature","geometry":{"type":"Point","coordinates":[-87.322857,33.934675]}},{"properties":{"city":"Jasper","county":"Walker","damage":"MINOR","type":"SFD","geo_score":0.7,"id":"ad35i7ifysrj","address":"7189 Hwy 195","geo_precision":"range","state":"AL"},"type":"Feature","geometry":{"type":"Point","coordinates":[-87.322852,33.934653]}},{"properties":{"city":"Jasper","county":"Walker","damage":"MINOR","type":"SFD","geo_score":0.7,"id":"ad35i7qhkgub","address":"7567 Hwy 195","geo_precision":"range","state":"AL"},"type":"Feature","geometry":{"type":"Point","coordinates":[-87.322674,33.934467]}},{"properties":{"city":"Jasper","county":"Walker","damage":"MINOR","type":"SFD","geo_score":0.7,"id":"ad35i7hzjn5o","address":"9040 Hwy 195","geo_precision":"range","state":"AL"},"type":"Feature","geometry":{"type":"Point","coordinates":[-87.347385,33.973985]}},{"properties":{"city":"Jasper","county":"Walker","damage":"MINOR","type":"SFD","geo_score":0.578,"id":"ad35i7corbaz","address":"10484 Hwy 195","geo_precision":"range","state":"AL"},"type":"Feature","geometry":{"type":"Point","coordinates":[-87.347305,33.973759]}},{"properties":{"city":"Jasper","county":"Walker","damage":"MAJOR","type":"MH","geo_score":0.578,"id":"ad35i7qrra48","address":"10480 Hwy 195","geo_precision":"street","state":"AL"},"type":"Feature","geometry":{"type":"Point","coordinates":[-87.347391,33.973738]}},{"properties":{"city":"Jasper","county":"Walker","damage":"MINOR","type":"SFD","geo_score":0.578,"id":"ad35i7i4eeyf","address":"10470 Hwy 195","geo_precision":"range","state":"AL"},"type":"Feature","geometry":{"type":"Point","coordinates":[-87.347391,33.97374]}},{"properties":{"city":"Jasper","county":"Walker","damage":"MINOR","type":"SFD","geo_score":0.602,"id":"ad35i7okg1yz","address":"10927 Hwy 195","geo_precision":"street","state":"AL"},"type":"Feature","geometry":{"type":"Point","coordinates":[-87.349615,33.980641]}},{"properties":{"city":"Jasper","county":"Walker","damage":"MINOR","type":"SFD","geo_score":0.578,"id":"ad35i7lfqrqq","address":"10482 Hwy 195","geo_precision":"street","state":"AL"},"type":"Feature","geometry":{"type":"Point","coordinates":[-87.347305,33.973759]}},{"properties":{"city":"Jasper","county":"Walker","damage":"MINOR","type":"SFD","geo_score":0.488,"id":"ad35i7hghugd","address":"141 Hendrix Farm","geo_precision":"city","state":"AL"},"type":"Feature","geometry":{"type":"Point","coordinates":[-87.316923,33.796234]}},{"properties":{"city":"Thatch","county":"Walker","damage":"MINOR","type":"SFD","geo_score":0.447,"id":"ad35i7bcgzow","address":"3878 Rose Hill Rd","geo_precision":"street","state":"AL"},"type":"Feature","geometry":{"type":"Point","coordinates":[-87.269576,33.840354]}},{"properties":{"city":"Thatch","county":"Walker","damage":"MINOR","type":"SFD","geo_score":0.569,"id":"ad35i7i8m70s","address":"3489 Rose Hill Rd","geo_precision":"street","state":"AL"},"type":"Feature","geometry":{"type":"Point","coordinates":[-87.269576,33.840354]}},{"properties":{"city":"Thatch","county":"Walker","damage":"MINOR","type":"SFD","geo_score":0.447,"id":"ad35i7r35u9v","address":"2768 Rose Hill Rd","geo_precision":"street","state":"AL"},"type":"Feature","geometry":{"type":"Point","coordinates":[-87.269576,33.840354]}},{"properties":{"city":"Thatch","county":"Walker","damage":"MINOR","type":"SFD","geo_score":0.569,"id":"ad35i7bdsd0l","address":"2731 Rose Hill Rd","geo_precision":"street","state":"AL"},"type":"Feature","geometry":{"type":"Point","coordinates":[-87.269576,33.840354]}},{"properties":{"city":"Thatch","county":"Walker","damage":"MINOR","type":"SFD","geo_score":0.545,"id":"ad35i7qb9ue2","address":"3655 Johnsey Bridge Rd","geo_precision":"street","state":"AL"},"type":"Feature","geometry":{"type":"Point","coordinates":[-87.332276,33.842593]}},{"properties":{"city":"Thatch","county":"Walker","damage":"MINOR","type":"SFD","geo_score":0.805,"id":"ad35i7m0pw7k","address":"1005 Woods Rd","geo_precision":"range","state":"AL"},"type":"Feature","geometry":{"type":"Point","coordinates":[-87.366753,33.97773]}},{"properties":{"city":"Jasper","county":"Walker","damage":"MINOR","type":"SFD","geo_score":0.902,"id":"ad35i7l4e8nr","address":"2309 New Prospect Rd","geo_precision":"range","state":"AL"},"type":"Feature","geometry":{"type":"Point","coordinates":[-87.298316,33.871217]}},{"properties":{"city":"Thatch","county":"Walker","damage":"MINOR","type":"SFD","geo_score":0.61,"id":"ad35i7do5x0j","address":"3604 Bennett Rd","geo_precision":"street","state":"AL"},"type":"Feature","geometry":{"type":"Point","coordinates":[-87.5753,34.871361]}},{"properties":{"city":"Thatch","county":"Walker","damage":"MINOR","type":"SFD","geo_score":0.756,"id":"ad35i7ma958y","address":"61 Gordon Rd","geo_precision":"range","state":"AL"},"type":"Feature","geometry":{"type":"Point","coordinates":[-87.328558,33.818559]}},{"properties":{"city":"Empire","county":"Walker","damage":"MINOR","type":"SFD","geo_score":0.902,"id":"ad35i7gf1gmk","address":"215 Phillipstown Rd","geo_precision":"range","state":"AL"},"type":"Feature","geometry":{"type":"Point","coordinates":[-87.003571,33.838339]}},{"properties":{"city":"Empire","county":"Walker","damage":"MINOR","type":"SFD","geo_score":0.902,"id":"ad35i7hd1hmn","address":"638 Phillipstown Rd","geo_precision":"range","state":"AL"},"type":"Feature","geometry":{"type":"Point","coordinates":[-87.003892,33.843108]}},{"properties":{"city":"Jasper","county":"Walker","damage":"MINOR","type":"SFD","geo_score":0.684,"id":"ad35i7lfdxh6","address":"600 Ridgewood Rd","geo_precision":"street","state":"AL"},"type":"Feature","geometry":{"type":"Point","coordinates":[-87.20817,33.820274]}},{"properties":{"city":"Empire","county":"Walker","damage":"MINOR","type":"SFD","geo_score":0.902,"id":"ad35i7gldowu","address":"72 Phillipstown Rd","geo_precision":"range","state":"AL"},"type":"Feature","geometry":{"type":"Point","coordinates":[-87.002313,33.835632]}},{"properties":{"city":"Empire","county":"Walker","damage":"MINOR","type":"SFD","geo_score":0.902,"id":"ad35i7jqor4x","address":"751 Phillipstown Rd","geo_precision":"range","state":"AL"},"type":"Feature","geometry":{"type":"Point","coordinates":[-87.003928,33.8414]}},{"properties":{"city":"Empire","county":"Walker","damage":"MINOR","type":"MH","geo_score":0.902,"id":"ad35i7r1mmtg","address":"914 Phillipstown Rd","geo_precision":"range","state":"AL"},"type":"Feature","geometry":{"type":"Point","coordinates":[-87.004849,33.847408]}},{"properties":{"city":"Empire","county":"Walker","damage":"MINOR","type":"SFD","geo_score":0.902,"id":"ad35i7l5qjk5","address":"1031 Phillipstown Rd","geo_precision":"range","state":"AL"},"type":"Feature","geometry":{"type":"Point","coordinates":[-87.002627,33.851705]}},{"properties":{"city":"Empire","county":"Walker","damage":"MINOR","type":"SFD","geo_score":0.902,"id":"ad35i7li9824","address":"1097 Phillipstown Rd","geo_precision":"range","state":"AL"},"type":"Feature","geometry":{"type":"Point","coordinates":[-87.002998,33.850908]}},{"properties":{"city":"Empire","county":"Walker","damage":"MINOR","type":"SFD","geo_score":0.427,"id":"ad35i7r6daff","address":"98 Stacks Bottom Rd","geo_precision":"street","state":"AL"},"type":"Feature","geometry":{"type":"Point","coordinates":[-86.985006,33.292074]}}],"is_temporal":false,"author":{"url":"","metadata":"","contact_name":"","contact_address":"","source":"","contact_phone":""},"source":"","pagination":{"sort":null,"start":0,"total":192,"limit":1000000},"state":"complete","tags":"","published":"2014-08-16T20:40:02-04:00","id":336141}