{"type":"FeatureCollection","data_type":"Dataset","url_type":null,"permissions":[{"permissions":{"download":true,"view":true},"group_id":"everyone"}],"classification":null,"title":"postcodes","count":537,"stream_id":336225,"contributor":{"url":"http://geocommons.com/users/67312","name":"andrew610"},"data_attributes":null,"calculation_params":null,"icon_link":null,"link":"http://geocommons.com/overlays/336225.json","extent":[0.0,0.0,0.0,0.0],"geometry_types":[],"unique_name":null,"name":"postcodes","feature_count":537,"description":"","next_feature":null,"is_raster":false,"short_classification":"Y","stats":{"fm id":{"max":60386,"variance":315810210.005107,"mean":37379.4469273743,"stdev":17771.0497721746,"min":4747,"median":34291},"price1":{"max":1073.8,"variance":2743.42640731615,"mean":46.324857950495,"stdev":52.3777281610815,"min":10.0,"median":41.65}},"features":[{"properties":{"fm id":28407,"geo_score":0.0,"price1":50.0,"id":"ad3mq9ry81bf","address":"Rosa Burn Avenue\nGreenhill Road\nEast Kilbride\nGlasgow\nLanarkshire\nG75 9DE","geo_precision":"unmatched"},"type":"Feature","geometry":null},{"properties":{"fm id":17151,"geo_score":0.0,"price1":49.0,"id":"ad3mq9ugriw6","address":"39 Fox Hollies Road\nAcocks Green\nBirmingham\nWest Midlands\nB27 7TH","geo_precision":"unmatched"},"type":"Feature","geometry":null},{"properties":{"fm id":57246,"geo_score":0.0,"price1":59.0,"id":"ad3mq9tjz012","address":"6 Beatrice Avenue\nBurnley\nLancs\nBB12 6DP","geo_precision":"unmatched"},"type":"Feature","geometry":null},{"properties":{"fm id":10935,"geo_score":0.0,"price1":39.0,"id":"ad3mq9oyysdf","address":"Spring Street\nChipping Norton\nOxfordshire\nOX7 5LU","geo_precision":"unmatched"},"type":"Feature","geometry":null},{"properties":{"fm id":6255,"geo_score":0.0,"price1":49.0,"id":"ad3mqa1m0zu6","address":"Frognal House\nFrognal Avenue\nSidcup\nOuter London\nDA14 6LF","geo_precision":"unmatched"},"type":"Feature","geometry":null},{"properties":{"fm id":15103,"geo_score":0.0,"price1":25.0,"id":"ad3mq9tqsgxq","address":"Vicarage Hill\nKingsteignton\nNewton Abbot\nDevon\nTQ12 3BA","geo_precision":"unmatched"},"type":"Feature","geometry":null},{"properties":{"fm id":21373,"geo_score":0.0,"price1":10.0,"id":"ad3mqa3u380x","address":"334a Waterloo Road\nCheetham Hill\nManchester\nGreater Manchester\nM8 0AX","geo_precision":"unmatched"},"type":"Feature","geometry":null},{"properties":{"fm id":29313,"geo_score":0.0,"price1":53.1,"id":"ad3mq9zr1dqo","address":"12 Richmond Road\nNew Barnet\nBarnet\nOuter London\nEN5 1SB","geo_precision":"unmatched"},"type":"Feature","geometry":null},{"properties":{"fm id":7569,"geo_score":0.0,"price1":50.15,"id":"ad3mq9plrwfe","address":"Aylesbury Road\nGreat Missenden\nBuckinghamshire\nHP16 9LS","geo_precision":"unmatched"},"type":"Feature","geometry":null},{"properties":{"fm id":38621,"geo_score":0.0,"price1":39.0,"id":"ad3mq9pp40yg","address":"54 Glasgow Street\nHelensburgh\nGlasgow &amp; Inverclyde\nG84 9NS","geo_precision":"unmatched"},"type":"Feature","geometry":null},{"properties":{"fm id":57268,"geo_score":0.0,"price1":162.0,"id":"ad3mqa2crvcg","address":"18-20 Manor Rd\nFolkestone\nKent\nCT20 2SA","geo_precision":"unmatched"},"type":"Feature","geometry":null},{"properties":{"fm id":57280,"geo_score":0.0,"price1":110.25,"id":"ad3mq9uach6s","address":"Little Manor\nManor Farm Road\nWiltshire\nSomerset\nSP1 2RS","geo_precision":"unmatched"},"type":"Feature","geometry":null},{"properties":{"fm id":57285,"geo_score":0.0,"price1":49.0,"id":"ad3mqa5azwln","address":"Hall Park Care Home\nSquires Avenue\nBulwell\nNottingham\nNottinghamshire\nNG6 8GH","geo_precision":"unmatched"},"type":"Feature","geometry":null},{"properties":{"fm id":30855,"geo_score":0.0,"price1":29.0,"id":"ad3mq9vf4m39","address":"Ash Close\nFaringdon\nOxfordshire\nSN7 8ER","geo_precision":"unmatched"},"type":"Feature","geometry":null},{"properties":{"fm id":57307,"geo_score":0.0,"price1":null,"id":"ad3mq9ulfjv5","address":null,"geo_precision":""},"type":"Feature","geometry":null},{"properties":{"fm id":4747,"geo_score":0.0,"price1":29.0,"id":"ad3mq9qhx0bd","address":"50 Brayards Road\nPeckham\nLondon\nSE15 2BQ","geo_precision":"unmatched"},"type":"Feature","geometry":null},{"properties":{"fm id":14709,"geo_score":0.0,"price1":39.0,"id":"ad3mq9s12j4h","address":"18 Windsor Square\nExmouth\nDevon\nEX8 1JX","geo_precision":"unmatched"},"type":"Feature","geometry":null},{"properties":{"fm id":15243,"geo_score":0.0,"price1":29.0,"id":"ad3mqa1urk4u","address":"87 Scalwell Lane\nSeaton\nDevon\nEX12 2ST","geo_precision":"unmatched"},"type":"Feature","geometry":null},{"properties":{"fm id":9531,"geo_score":0.0,"price1":55.0,"id":"ad3mq9sqzqsf","address":"2 Chene Drive\nWaverley Road\nSt Albans\nHertfordshire\nAL3 5QP","geo_precision":"unmatched"},"type":"Feature","geometry":null},{"properties":{"fm id":20005,"geo_score":0.0,"price1":49.0,"id":"ad3mq9xwgyd7","address":"37 Beacon Lane\nGrantham\nLincolnshire\nNG31 9DN","geo_precision":"unmatched"},"type":"Feature","geometry":null},{"properties":{"fm id":31703,"geo_score":0.0,"price1":39.0,"id":"ad3mq9sma75l","address":"Hartford Road\nHuntingdon\nCambridgeshire\nPE29 1XL","geo_precision":"unmatched"},"type":"Feature","geometry":null},{"properties":{"fm id":57433,"geo_score":0.0,"price1":39.0,"id":"ad3mq9yruyz2","address":"414 Fencepiece Road\nChigwell\nEssex\nIG7 5DP","geo_precision":"unmatched"},"type":"Feature","geometry":null},{"properties":{"fm id":12781,"geo_score":0.0,"price1":39.0,"id":"ad3mq9qb8j5f","address":"Buchan Street\nKings Hedges\nCambridge\nCambridgeshire\nCB4 3EH","geo_precision":"unmatched"},"type":"Feature","geometry":null},{"properties":{"fm id":15001,"geo_score":0.0,"price1":59.0,"id":"ad3mq9y0o45t","address":"Odle Hill\nAbbotskerswell\nNewton Abbot\nDevon\nTQ12 5NL","geo_precision":"unmatched"},"type":"Feature","geometry":null},{"properties":{"fm id":31095,"geo_score":0.0,"price1":59.0,"id":"ad3mq9u9qtic","address":"39 Portmore Park Road\nWeybridge\nSurrey\nKT13 8HQ","geo_precision":"unmatched"},"type":"Feature","geometry":null},{"properties":{"fm id":30613,"geo_score":0.0,"price1":20.25,"id":"ad3mq9thxr4z","address":"Ashford Road\nSt Michaels\nTenterden\nKent\nTN30 6QA","geo_precision":"unmatched"},"type":"Feature","geometry":null},{"properties":{"fm id":10825,"geo_score":0.0,"price1":20.25,"id":"ad3mqa3eq3y7","address":"46 Eythorne Road\nShepherdswell\nDover\nKent\nCT15 7PG","geo_precision":"unmatched"},"type":"Feature","geometry":null},{"properties":{"fm id":9943,"geo_score":0.0,"price1":20.25,"id":"ad3mq9v3pekh","address":"48 Eythorne Road\nShepherdswell\nDover\nKent\nCT15 7PG","geo_precision":"unmatched"},"type":"Feature","geometry":null},{"properties":{"fm id":30663,"geo_score":0.0,"price1":20.25,"id":"ad3mqa41ltws","address":"Nether Avenue\nLittlestone-On-Sea\nNew Romney\nKent\nTN28 8NB","geo_precision":"unmatched"},"type":"Feature","geometry":null},{"properties":{"fm id":10233,"geo_score":0.0,"price1":20.25,"id":"ad3mq9t77wcm","address":"1/3 Trinity Gardens\nFolkestone\nKent\nCT20 2RP","geo_precision":"unmatched"},"type":"Feature","geometry":null},{"properties":{"fm id":8053,"geo_score":0.0,"price1":20.25,"id":"ad3mqa4jxqy2","address":"123 Kiln Road\nBenfleet\nEssex\nSS7 1TG","geo_precision":"unmatched"},"type":"Feature","geometry":null},{"properties":{"fm id":10719,"geo_score":0.0,"price1":20.25,"id":"ad3mqa331gjr","address":"18/20 Manor Road\nFolkestone\nKent\nCT20 2SA","geo_precision":"unmatched"},"type":"Feature","geometry":null},{"properties":{"fm id":10781,"geo_score":0.0,"price1":20.25,"id":"ad3mqa0g6qxp","address":"107 Sandwich Road\nWhitfield\nDover\nKent\nCT16 3JP","geo_precision":"unmatched"},"type":"Feature","geometry":null},{"properties":{"fm id":57486,"geo_score":0.0,"price1":44.0,"id":"ad3mq9pooacd","address":"32 - 34 High Street\nClowne\nChesterfield\nDerbyshire\nS43 4JU","geo_precision":"unmatched"},"type":"Feature","geometry":null},{"properties":{"fm id":37367,"geo_score":0.0,"price1":59.0,"id":"ad3mq9r008gk","address":"Kingsway\nLangley Park\nDurham\nDurham\nDH7 9TB","geo_precision":"unmatched"},"type":"Feature","geometry":null},{"properties":{"fm id":25629,"geo_score":0.0,"price1":49.0,"id":"ad3mqa4z4kdd","address":"Whitechurch Road\nWitherwack\nSunderland\nTyne &amp; Wear\nSR5 5SX","geo_precision":"unmatched"},"type":"Feature","geometry":null},{"properties":{"fm id":57509,"geo_score":0.0,"price1":29.0,"id":"ad3mq9pmq4x0","address":"61 Beer Road\nSeaton\nDevon\nEX12 2PR","geo_precision":"unmatched"},"type":"Feature","geometry":null},{"properties":{"fm id":15191,"geo_score":0.0,"price1":29.0,"id":"ad3mq9taupx1","address":"Silver Street\nAxminster\nDevon\nEX13 5AF","geo_precision":"unmatched"},"type":"Feature","geometry":null},{"properties":{"fm id":12761,"geo_score":0.0,"price1":39.0,"id":"ad3mqa1gy75n","address":"Turners Lane\nWhittlesey\nPeterborough\nCambridgeshire\nPE7 1EH","geo_precision":"unmatched"},"type":"Feature","geometry":null},{"properties":{"fm id":31687,"geo_score":0.0,"price1":39.0,"id":"ad3mqa4jzqau","address":"Money Bank\nWisbech\nCambridgeshire\nPE13 2JF","geo_precision":"unmatched"},"type":"Feature","geometry":null},{"properties":{"fm id":12907,"geo_score":0.0,"price1":39.0,"id":"ad3mq9zfkwso","address":"6 Broad Leas\nSt Ives\nCambridgeshire\nPE27 5PU","geo_precision":"unmatched"},"type":"Feature","geometry":null},{"properties":{"fm id":12903,"geo_score":0.0,"price1":39.0,"id":"ad3mq9ppej2m","address":"Primrose Street\nCambridge\nCambridgeshire\nCB4 3EH","geo_precision":"unmatched"},"type":"Feature","geometry":null},{"properties":{"fm id":31667,"geo_score":0.0,"price1":39.0,"id":"ad3mq9w7zd8d","address":"Russell Street\nCambridge\nCambridgeshire\nCB2 1HT","geo_precision":"unmatched"},"type":"Feature","geometry":null},{"properties":{"fm id":12815,"geo_score":0.0,"price1":39.0,"id":"ad3mq9situhu","address":"Rooks Street\nCottenham\nCambridge\nCambridgeshire\nCB24 8QZ","geo_precision":"unmatched"},"type":"Feature","geometry":null},{"properties":{"fm id":12779,"geo_score":0.0,"price1":39.0,"id":"ad3mq9p38a90","address":"45 Seymour Street\nCambridge\nCambridgeshire\nCB1 3DJ","geo_precision":"unmatched"},"type":"Feature","geometry":null},{"properties":{"fm id":57523,"geo_score":0.0,"price1":10.0,"id":"ad3mqa4xte7f","address":"9 Victoria Bridge Court\nVictoria Bridge Road\nBath\nBA1 3AY","geo_precision":"unmatched"},"type":"Feature","geometry":null},{"properties":{"fm id":57550,"geo_score":0.0,"price1":10.0,"id":"ad3mq9uyzsm2","address":"Parkhenver\nWest End\nRedruth\nCornwall\ntr15 3aa","geo_precision":"unmatched"},"type":"Feature","geometry":null},{"properties":{"fm id":22407,"geo_score":0.0,"price1":49.0,"id":"ad3mq9vx7ded","address":"Parkgate Road\nMollington\nChester\nCheshire\nCH1 6NE","geo_precision":"unmatched"},"type":"Feature","geometry":null},{"properties":{"fm id":24167,"geo_score":0.0,"price1":49.0,"id":"ad3mq9ydankt","address":"Broad Lane\nKirstall\nLeeds\nWest Yorkshire\nLS5 3EB","geo_precision":"unmatched"},"type":"Feature","geometry":null},{"properties":{"fm id":34367,"geo_score":0.0,"price1":49.0,"id":"ad3mq9qe8ppa","address":"Church Walk\nOff South Street\nBourne\nLincolnshire\nPE10 9UQ","geo_precision":"unmatched"},"type":"Feature","geometry":null},{"properties":{"fm id":57551,"geo_score":0.0,"price1":49.0,"id":"ad3mqa4v9wyk","address":"Acacia Lodge\n147 Nuthurst Road\nNew Moston\nManchester\nM40 3NL","geo_precision":"unmatched"},"type":"Feature","geometry":null},{"properties":{"fm id":24025,"geo_score":0.0,"price1":49.0,"id":"ad3mqa50cgzx","address":"Railway Street\nHeckmondwike\nWest Yorkshire\nWF16 0ND","geo_precision":"unmatched"},"type":"Feature","geometry":null},{"properties":{"fm id":25599,"geo_score":0.0,"price1":50.0,"id":"ad3mqa2da5j5","address":"3/4 The Cedars\nAshbrooke\nSunderland\nTyne &amp; Wear\nSR2 7TW","geo_precision":"unmatched"},"type":"Feature","geometry":null},{"properties":{"fm id":57568,"geo_score":0.0,"price1":null,"id":"ad3mq9pjf6ni","address":null,"geo_precision":""},"type":"Feature","geometry":null},{"properties":{"fm id":21087,"geo_score":0.0,"price1":44.0,"id":"ad3mqa513ayg","address":"Sturgeon Avenue\nClifton\nNottingham\nNottinghamshire\nNG11 8HE","geo_precision":"unmatched"},"type":"Feature","geometry":null},{"properties":{"fm id":35379,"geo_score":0.0,"price1":49.0,"id":"ad3mq9ybx8e6","address":"Moor Lane\nGreat Crosby\nLiverpool\nMerseyside\nL23 2SH","geo_precision":"unmatched"},"type":"Feature","geometry":null},{"properties":{"fm id":14217,"geo_score":0.0,"price1":38.86,"id":"ad3mq9t1aizj","address":"Cleeve Lodge Close\nDownend\nBristol\nGloucestershire\nBS16 6AQ","geo_precision":"unmatched"},"type":"Feature","geometry":null},{"properties":{"fm id":28237,"geo_score":0.0,"price1":59.0,"id":"ad3mq9w69695","address":"10 Bayfield Terrace\nDrumchapel\nGlasgow\nGlasgow &amp; Inverclyde\nG15 7EJ","geo_precision":"unmatched"},"type":"Feature","geometry":null},{"properties":{"fm id":57587,"geo_score":0.0,"price1":49.0,"id":"ad3mq9v46rs5","address":"Hempstalls Lane\nNewcastle,\nStaffordshire\nST5 9NR","geo_precision":"unmatched"},"type":"Feature","geometry":null},{"properties":{"fm id":22685,"geo_score":0.0,"price1":53.1,"id":"ad3mqa258uo4","address":"515 Blackpool Road\nAshton-On-Ribble\nPreston\nLancashire\nPR2 1EQ","geo_precision":"unmatched"},"type":"Feature","geometry":null},{"properties":{"fm id":20599,"geo_score":0.0,"price1":49.0,"id":"ad3mq9xyfirt","address":"118 Harlestone Road\nNorthampton\nNorthamptonshire\nNN5 6AD","geo_precision":"unmatched"},"type":"Feature","geometry":null},{"properties":{"fm id":57618,"geo_score":0.0,"price1":150.0,"id":"ad3mqa0rbtrt","address":"73, Rock Lane\nStoke Gifford\nBristol\nSouth Glos\nBS34 8PQ","geo_precision":"unmatched"},"type":"Feature","geometry":null},{"properties":{"fm id":21551,"geo_score":0.0,"price1":49.0,"id":"ad3mqa07y4nz","address":"Vicars Street\nEccles\nManchester\nGreater Manchester\nM30 0DG","geo_precision":"unmatched"},"type":"Feature","geometry":null},{"properties":{"fm id":17873,"geo_score":0.0,"price1":49.0,"id":"ad3mq9taxnxy","address":"The Water Mill\nGoscote Lane\nGoscote\nWalsall\nWest Midlands\nWS3 1SJ","geo_precision":"unmatched"},"type":"Feature","geometry":null},{"properties":{"fm id":57636,"geo_score":0.0,"price1":10.0,"id":"ad3mqa1hv292","address":"Age Concern Day Centre\nCrantock Street\nNewquay\nCornwall\nTR7 1JR","geo_precision":"unmatched"},"type":"Feature","geometry":null},{"properties":{"fm id":38405,"geo_score":0.0,"price1":49.0,"id":"ad3mq9u16h47","address":"Institution Road\nElgin\nMoray\nIV30 1QX","geo_precision":"unmatched"},"type":"Feature","geometry":null},{"properties":{"fm id":36219,"geo_score":0.0,"price1":49.0,"id":"ad3mq9x46j8y","address":"885 Thornton Road\nBradford\nWest Yorkshire\nBD8 0HH","geo_precision":"unmatched"},"type":"Feature","geometry":null},{"properties":{"fm id":57644,"geo_score":0.0,"price1":25.0,"id":"ad3mqa4uf07o","address":"Elderberries Day Centre\nBroadmead Road\nWoodford Green\nEssex\nIG8 OAD","geo_precision":"unmatched"},"type":"Feature","geometry":null},{"properties":{"fm id":30461,"geo_score":0.0,"price1":36.75,"id":"ad3mq9rlouee","address":"111 Burgess Road\nBassett\nSouthampton\nHampshire\nSO16 7AG","geo_precision":"unmatched"},"type":"Feature","geometry":null},{"properties":{"fm id":34011,"geo_score":0.0,"price1":44.0,"id":"ad3mqa2snm3w","address":"99/109 Heanor Road\nIlkeston\nDerbyshire\nDE7 8TA","geo_precision":"unmatched"},"type":"Feature","geometry":null},{"properties":{"fm id":34143,"geo_score":0.0,"price1":44.0,"id":"ad3mq9sz0szb","address":"Church Street West\nPinxton\nNottingham\nDerbyshire\nNG16 6PX","geo_precision":"unmatched"},"type":"Feature","geometry":null},{"properties":{"fm id":34185,"geo_score":0.0,"price1":44.0,"id":"ad3mq9tdnvbm","address":"Butterley Hill\nRipley\nDerbyshire\nDE5 3LW","geo_precision":"unmatched"},"type":"Feature","geometry":null},{"properties":{"fm id":33853,"geo_score":0.0,"price1":44.0,"id":"ad3mqa428oy9","address":"Rolleston Road\nBurton-On-Trent\nStaffordshire\nDE13 0JT","geo_precision":"unmatched"},"type":"Feature","geometry":null},{"properties":{"fm id":33775,"geo_score":0.0,"price1":44.0,"id":"ad3mq9rl1bq2","address":"43/44 Main Street\nStapenhill\nBurton-On-Trent\nStaffordshire\nDE15 9AR","geo_precision":"unmatched"},"type":"Feature","geometry":null},{"properties":{"fm id":34019,"geo_score":0.0,"price1":44.0,"id":"ad3mq9tyobw2","address":"Linden Road\nCreswell\nWorksop\nDerbyshire\nS80 4JT","geo_precision":"unmatched"},"type":"Feature","geometry":null},{"properties":{"fm id":57650,"geo_score":0.0,"price1":44.0,"id":"ad3mqa3p4xex","address":"Olive Grove\nForest Town\nMansfield\nNG19 0AR","geo_precision":"unmatched"},"type":"Feature","geometry":null},{"properties":{"fm id":34527,"geo_score":0.0,"price1":49.0,"id":"ad3mqa3uxago","address":"Holdenby\nKettering Venture Park\nKettering\nNorthamptonshire\nNN15 6XE","geo_precision":"unmatched"},"type":"Feature","geometry":null},{"properties":{"fm id":33043,"geo_score":0.0,"price1":49.0,"id":"ad3mqa1dkmcs","address":"Northlands\nLandford\nSalisbury\nWiltshire\nSP5 2EJ","geo_precision":"unmatched"},"type":"Feature","geometry":null},{"properties":{"fm id":32033,"geo_score":0.0,"price1":49.0,"id":"ad3mqa41tto5","address":"1 Bamfield\nWhitchurch\nBristol\nBristol\nBS14 0AU","geo_precision":"unmatched"},"type":"Feature","geometry":null},{"properties":{"fm id":31737,"geo_score":0.0,"price1":49.0,"id":"ad3mqa4dfqso","address":"Chaffinch Lane\nOff Eagle Way\nHampton Vale\nPeterborough\nCambridgeshire\nPE7 8EA","geo_precision":"unmatched"},"type":"Feature","geometry":null},{"properties":{"fm id":16755,"geo_score":0.0,"price1":49.0,"id":"ad3mqa1ju2u3","address":"West Cepen Way\nChippenham\nWiltshire\nSN14 6UZ","geo_precision":"unmatched"},"type":"Feature","geometry":null},{"properties":{"fm id":57652,"geo_score":0.0,"price1":49.0,"id":"ad3mq9pcqvc8","address":"The Broadway\nDudley\nWest Midlands\nDY13EA","geo_precision":"unmatched"},"type":"Feature","geometry":null},{"properties":{"fm id":57653,"geo_score":0.0,"price1":49.0,"id":"ad3mqa397dxd","address":"Horse Fair\nRugeley\nStaffordshire\nWS152EL","geo_precision":"unmatched"},"type":"Feature","geometry":null},{"properties":{"fm id":15367,"geo_score":0.0,"price1":39.0,"id":"ad3mq9qnrr3p","address":"135 Looseleigh Lane\nDerriford\nPlymouth\nDevon\nPL6 5JE","geo_precision":"unmatched"},"type":"Feature","geometry":null},{"properties":{"fm id":25337,"geo_score":0.0,"price1":50.0,"id":"ad3mq9usveaq","address":"418 Durham Road\nLow Fell\nGateshead\nTyne &amp; Wear\nNE9 5AJ","geo_precision":"unmatched"},"type":"Feature","geometry":null},{"properties":{"fm id":25485,"geo_score":0.0,"price1":50.0,"id":"ad3mq9x336c0","address":"48 Linskill Terrace\nNorth Shields\nTyne &amp; Wear\nNE30 2EW","geo_precision":"unmatched"},"type":"Feature","geometry":null},{"properties":{"fm id":30749,"geo_score":0.0,"price1":53.1,"id":"ad3mq9q9nxvv","address":"165/173 Reculver Road\nBeltinge\nHerne Bay\nKent\nCT6 6PX","geo_precision":"unmatched"},"type":"Feature","geometry":null},{"properties":{"fm id":29777,"geo_score":0.0,"price1":33.34,"id":"ad3mq9sczery","address":"Plantation Road\nLeighton Buzzard\nBedfordshire\nLU7 3JE","geo_precision":"unmatched"},"type":"Feature","geometry":null},{"properties":{"fm id":13839,"geo_score":0.0,"price1":null,"id":"ad3mqa2ic25a","address":"1 Belvedere Road\nWestbury Park\nBristol\nBristol\nBS6 7JG","geo_precision":"unmatched"},"type":"Feature","geometry":null},{"properties":{"fm id":13951,"geo_score":0.0,"price1":null,"id":"ad3mq9uprsd7","address":"55 Westbury Road\nWestbury-On-Trym\nBristol\nBristol\nBS9 3AS","geo_precision":"unmatched"},"type":"Feature","geometry":null},{"properties":{"fm id":13929,"geo_score":0.0,"price1":null,"id":"ad3mq9x5mnqm","address":"212 Stoke Lane\nWestbury-On-Trym\nBristol\nBristol\nBS9 3RU","geo_precision":"unmatched"},"type":"Feature","geometry":null},{"properties":{"fm id":14231,"geo_score":0.0,"price1":null,"id":"ad3mq9t2d82i","address":"109 High Street\nWinterbourne\nBristol\nGloucestershire\nBS36 1RF","geo_precision":"unmatched"},"type":"Feature","geometry":null},{"properties":{"fm id":13899,"geo_score":0.0,"price1":null,"id":"ad3mq9ts4s5z","address":"29 Petherton Road\nHengrove\nBristol\nBristol\nBS14 9BX","geo_precision":"unmatched"},"type":"Feature","geometry":null},{"properties":{"fm id":14249,"geo_score":0.0,"price1":null,"id":"ad3mq9p415kz","address":"Beckspool Road\nFrenchay Common\nFrenchay\nBristol\nGloucestershire\nBS16 1NE","geo_precision":"unmatched"},"type":"Feature","geometry":null},{"properties":{"fm id":13125,"geo_score":0.0,"price1":33.34,"id":"ad3mq9uozxjh","address":"Austin Fields\nKing's Lynn\nNorfolk\nPE30 1PH","geo_precision":"unmatched"},"type":"Feature","geometry":null},{"properties":{"fm id":31811,"geo_score":0.0,"price1":33.34,"id":"ad3mq9y8cupq","address":"40 Whitecross Road\nSwaffham\nNorfolk\nPE37 7QY","geo_precision":"unmatched"},"type":"Feature","geometry":null},{"properties":{"fm id":13139,"geo_score":0.0,"price1":33.34,"id":"ad3mqa5cizpt","address":"17 Littleport Street\nKing's Lynn\nNorfolk\nPE30 1PP","geo_precision":"unmatched"},"type":"Feature","geometry":null},{"properties":{"fm id":32751,"geo_score":0.0,"price1":33.34,"id":"ad3mq9ya5vyu","address":"21 Eldorado Road\nCheltenham\nGloucestershire\nGL50 2PU","geo_precision":"unmatched"},"type":"Feature","geometry":null},{"properties":{"fm id":32757,"geo_score":0.0,"price1":33.34,"id":"ad3mq9pgjn04","address":"High Street\nPrestbury\nCheltenham\nGloucestershire\nGL52 3AU","geo_precision":"unmatched"},"type":"Feature","geometry":null},{"properties":{"fm id":31763,"geo_score":0.0,"price1":33.34,"id":"ad3mq9uwd2fm","address":"40 Seaview Road\nMundesley\nNorwich\nNorfolk\nNR11 8DJ","geo_precision":"unmatched"},"type":"Feature","geometry":null},{"properties":{"fm id":32805,"geo_score":0.0,"price1":33.34,"id":"ad3mqa4eilvk","address":"Ledbury Road\nDymock\nGloucestershire\nGL18 2DB","geo_precision":"unmatched"},"type":"Feature","geometry":null},{"properties":{"fm id":31829,"geo_score":0.0,"price1":33.34,"id":"ad3mqa2kdyaq","address":"4 Lynn Road\nHeacham\nKing's Lynn\nNorfolk\nPE31 7HY","geo_precision":"unmatched"},"type":"Feature","geometry":null},{"properties":{"fm id":31105,"geo_score":0.0,"price1":33.34,"id":"ad3mq9y3475n","address":"Old Reigate Road\nBetchworth\nSurrey\nRH3 7DR","geo_precision":"unmatched"},"type":"Feature","geometry":null},{"properties":{"fm id":19311,"geo_score":0.0,"price1":25.0,"id":"ad3mq9tx46z2","address":"Holbrook Hall\nMakeney Road\nHolbrook\nBelper\nDerbyshire\nDE56 0TF","geo_precision":"unmatched"},"type":"Feature","geometry":null},{"properties":{"fm id":31627,"geo_score":0.0,"price1":39.333333,"id":"ad3mq9xju7l2","address":"Bell Vale Lane\nHaslemere\nWest Sussex\nGU27 3DJ","geo_precision":"unmatched"},"type":"Feature","geometry":null},{"properties":{"fm id":14877,"geo_score":0.0,"price1":49.0,"id":"ad3mq9xiowob","address":"Babbage Road\nTotnes\nDevon\nTQ9  5JA","geo_precision":"unmatched"},"type":"Feature","geometry":null},{"properties":{"fm id":15779,"geo_score":0.0,"price1":49.0,"id":"ad3mq9w0yt0n","address":"Child Okeford\nBlandford Forum\nDorset\nDT11 8EY","geo_precision":"unmatched"},"type":"Feature","geometry":null},{"properties":{"fm id":26269,"geo_score":0.0,"price1":50.15,"id":"ad3mqa31qcrv","address":"Front Street\nFramwellgate Moor\nDurham\nDurham\nDH1 5EJ","geo_precision":"unmatched"},"type":"Feature","geometry":null},{"properties":{"fm id":38811,"geo_score":0.0,"price1":59.0,"id":"ad3mqa3acqjj","address":"36 Singer Road\nClydebank\nGlasgow &amp; Inverclyde\nG81 4SB","geo_precision":"unmatched"},"type":"Feature","geometry":null},{"properties":{"fm id":8959,"geo_score":0.0,"price1":59.0,"id":"ad3mq9uml4z1","address":"Sway Place\nChurch Lane\nLymington\nHampshire\nSO41 6AD","geo_precision":"unmatched"},"type":"Feature","geometry":null},{"properties":{"fm id":29949,"geo_score":0.0,"price1":49.0,"id":"ad3mq9pbit9t","address":"The Retreat\nPrinces Risborough\nBuckinghamshire\nHP27 0JQ","geo_precision":"unmatched"},"type":"Feature","geometry":null},{"properties":{"fm id":20947,"geo_score":0.0,"price1":45.0,"id":"ad3mq9pk9vyf","address":"9/11 Meadow Road\nBeeston\nNottingham\nNottinghamshire\nNG9 1JN","geo_precision":"unmatched"},"type":"Feature","geometry":null},{"properties":{"fm id":57759,"geo_score":0.0,"price1":333.33,"id":"ad3mq9v8cat9","address":"The Meads Business Centre\nKingsmead\nFarnborough\nHampshire\nGU14 7SR","geo_precision":"unmatched"},"type":"Feature","geometry":null},{"properties":{"fm id":38815,"geo_score":0.0,"price1":47.2,"id":"ad3mqa1ldsav","address":"Avondale Care Home\nCornelia Street\nMotherwell\nNorth Lanarkshire\nML1 3RY","geo_precision":"unmatched"},"type":"Feature","geometry":null},{"properties":{"fm id":15897,"geo_score":0.0,"price1":20.0,"id":"ad3mq9wy8fdq","address":"1 Richmond Park Avenue\nCharminster\nBournemouth\nDorset\nBH8 9DL","geo_precision":"unmatched"},"type":"Feature","geometry":null},{"properties":{"fm id":30721,"geo_score":0.0,"price1":39.0,"id":"ad3mq9u29z0z","address":"Keycol Hill\nNewington\nSittingbourne\nKent\nME9 7LG","geo_precision":"unmatched"},"type":"Feature","geometry":null},{"properties":{"fm id":32919,"geo_score":0.0,"price1":45.0,"id":"ad3mq9tkenk6","address":"Minehead Road\nBishops Lydeard\nTaunton\nSomerset\nTA4 3BT","geo_precision":"unmatched"},"type":"Feature","geometry":null},{"properties":{"fm id":31911,"geo_score":0.0,"price1":49.0,"id":"ad3mq9us36rz","address":"Hospital Road\nBury St Edmunds\nSuffolk\nIP33 3NH","geo_precision":"unmatched"},"type":"Feature","geometry":null},{"properties":{"fm id":26097,"geo_score":0.0,"price1":44.1,"id":"ad3mqa4imv86","address":"Kirkby Stephen\nCumbria\nCA17 4HD","geo_precision":"unmatched"},"type":"Feature","geometry":null},{"properties":{"fm id":5945,"geo_score":0.0,"price1":41.65,"id":"ad3mqa0k48zm","address":"25/29 The Drive\nChingford\nLondon\nOuter London\nE4 7AJ","geo_precision":"unmatched"},"type":"Feature","geometry":null},{"properties":{"fm id":6649,"geo_score":0.0,"price1":41.65,"id":"ad3mq9u50rhu","address":"35 Woodberry Way\nChingford\nLondon\nOuter London\nE4 7DY","geo_precision":"unmatched"},"type":"Feature","geometry":null},{"properties":{"fm id":57830,"geo_score":0.0,"price1":59.0,"id":"ad3mq9pjh3gr","address":"2 Princes Street\nTruro\nCornwall\nTR60BW","geo_precision":"unmatched"},"type":"Feature","geometry":null},{"properties":{"fm id":28331,"geo_score":0.0,"price1":53.1,"id":"ad3mq9rz62wj","address":"41 Drymen Road\nBearsden\nGlasgow\nGlasgow &amp; Inverclyde\nG61 2RL","geo_precision":"unmatched"},"type":"Feature","geometry":null},{"properties":{"fm id":13213,"geo_score":0.0,"price1":59.0,"id":"ad3mqa0c7bfa","address":"217 Smeeth Road\nMarshland St James\nWisbech\nNorfolk\nPE14 8JB","geo_precision":"unmatched"},"type":"Feature","geometry":null},{"properties":{"fm id":33937,"geo_score":0.0,"price1":49.0,"id":"ad3mq9yt43v7","address":"Canners Way\nStratford-Upon-Avon\nWarwickshire\nCV37 0BJ","geo_precision":"unmatched"},"type":"Feature","geometry":null},{"properties":{"fm id":32723,"geo_score":0.0,"price1":49.0,"id":"ad3mqa2l1cid","address":"25 Birds Hill Road\nPoole\nDorset\nBH15 2QJ","geo_precision":"unmatched"},"type":"Feature","geometry":null},{"properties":{"fm id":57846,"geo_score":0.0,"price1":null,"id":"ad3mq9ylfowv","address":"89-91 Heavitree Road\nExeter\nDevon\nEX1 2ND","geo_precision":"unmatched"},"type":"Feature","geometry":null},{"properties":{"fm id":27901,"geo_score":0.0,"price1":53.1,"id":"ad3mq9t7du2q","address":"Saltburn\nInvergordon\nHighland &amp; Islands\nIV18 0JX","geo_precision":"unmatched"},"type":"Feature","geometry":null},{"properties":{"fm id":36525,"geo_score":0.0,"price1":15.0,"id":"ad3mq9z9jhp6","address":"10 Park Avenue\nRoundhay\nLeeds\nWest Yorkshire\nLS8 2JH","geo_precision":"unmatched"},"type":"Feature","geometry":null},{"properties":{"fm id":57642,"geo_score":0.0,"price1":49.0,"id":"ad3mq9t1czu3","address":"Falkner Road\nFarnham\nSurrey\nGU9 7HG","geo_precision":"unmatched"},"type":"Feature","geometry":null},{"properties":{"fm id":35835,"geo_score":0.0,"price1":59.0,"id":"ad3mqa1yt1g7","address":"50c Whitemoss Road\nSkelmersdale\nLancashire\nWN8 8BL","geo_precision":"unmatched"},"type":"Feature","geometry":null},{"properties":{"fm id":39603,"geo_score":0.0,"price1":49.0,"id":"ad3mq9xcqtbu","address":"Claughbane Drive\nRamsey\nIsle Of Man\nIM8 2RE","geo_precision":"unmatched"},"type":"Feature","geometry":null},{"properties":{"fm id":30623,"geo_score":0.0,"price1":50.15,"id":"ad3mq9s1pfe3","address":"Sutton Road\nMaidstone\nKent\nME15 8RA","geo_precision":"unmatched"},"type":"Feature","geometry":null},{"properties":{"fm id":57921,"geo_score":0.0,"price1":25.0,"id":"ad3mq9ygep60","address":"Elleray Hall Social Club\nElleray Road\nTedddington\nMiddx\nTW11 0HG","geo_precision":"unmatched"},"type":"Feature","geometry":null},{"properties":{"fm id":32199,"geo_score":0.0,"price1":50.15,"id":"ad3mq9plr2xr","address":"Southey Avenue\nKingswood\nBristol\nGloucestershire\nBS15 1QT","geo_precision":"unmatched"},"type":"Feature","geometry":null},{"properties":{"fm id":30661,"geo_score":0.0,"price1":47.2,"id":"ad3mq9vjvm99","address":"Cornford Lane\nPembury\nTunbridge Wells\nKent\nTN2 4QS","geo_precision":"unmatched"},"type":"Feature","geometry":null},{"properties":{"fm id":31925,"geo_score":0.0,"price1":50.15,"id":"ad3mq9u1z5st","address":"27a Cumberland Street\nIpswich\nSuffolk\nIP1 3PA","geo_precision":"unmatched"},"type":"Feature","geometry":null},{"properties":{"fm id":57953,"geo_score":0.0,"price1":49.0,"id":"ad3mq9xp6cvf","address":"Bradbury Centre,\nDarrell Street\nBrunswick Village\nNewcastle On Tyne\nTyne &amp; Wear\nNE13 7DS","geo_precision":"unmatched"},"type":"Feature","geometry":null},{"properties":{"fm id":25111,"geo_score":0.0,"price1":53.1,"id":"ad3mq9y99yrh","address":"9 Manor Road\nHarrogate\nNorth Yorkshire\nHG2 0HP","geo_precision":"unmatched"},"type":"Feature","geometry":null},{"properties":{"fm id":19355,"geo_score":0.0,"price1":10.0,"id":"ad3mqa3nwxyi","address":"86 Derby Road\nMatlock Bath\nMatlock\nDerbyshire\nDE4 3PY","geo_precision":"unmatched"},"type":"Feature","geometry":null},{"properties":{"fm id":35615,"geo_score":0.0,"price1":24.5,"id":"ad3mqa001w05","address":"Well Street\nWinsford\nCheshire\nCW7 1HZ","geo_precision":"unmatched"},"type":"Feature","geometry":null},{"properties":{"fm id":9717,"geo_score":0.0,"price1":44.1,"id":"ad3mq9ux1b8g","address":"37 Clatterford Road\nNewport\nIsle Of Wight\nPO30 1PA","geo_precision":"unmatched"},"type":"Feature","geometry":null},{"properties":{"fm id":57963,"geo_score":0.0,"price1":49.0,"id":"ad3mq9xachvb","address":"Sedgehill\nShaftesbury\nDorset\nSP7 9JR","geo_precision":"unmatched"},"type":"Feature","geometry":null},{"properties":{"fm id":57967,"geo_score":0.0,"price1":35.0,"id":"ad3mqa13ghvb","address":"Churchill Drive\nCrediton\nDevon\nEX17 2EF","geo_precision":"unmatched"},"type":"Feature","geometry":null},{"properties":{"fm id":30497,"geo_score":0.0,"price1":50.15,"id":"ad3mqa02nv7w","address":"4 Printers Avenue\nWatford\nHertfordshire\nWD18 7QR","geo_precision":"unmatched"},"type":"Feature","geometry":null},{"properties":{"fm id":31127,"geo_score":0.0,"price1":47.2,"id":"ad3mqa5dm8l7","address":"Brox Lane\nRow Town\nAddlestone\nSurrey\nKT15 1HH","geo_precision":"unmatched"},"type":"Feature","geometry":null},{"properties":{"fm id":31061,"geo_score":0.0,"price1":47.2,"id":"ad3mq9w730d4","address":"Kettlewell Hill\nChobham Road\nWoking\nSurrey\nGU21 4HX","geo_precision":"unmatched"},"type":"Feature","geometry":null},{"properties":{"fm id":10553,"geo_score":0.0,"price1":47.2,"id":"ad3mq9ukvk0a","address":"Romford Road\nPembury\nTunbridge Wells\nKent\nTN2 4AY","geo_precision":"unmatched"},"type":"Feature","geometry":null},{"properties":{"fm id":35725,"geo_score":0.0,"price1":49.0,"id":"ad3mqa18bhd0","address":"49 Ribchester Road\nClayton-Le-Dale\nBlackburn\nLancashire\nBB1 9HU","geo_precision":"unmatched"},"type":"Feature","geometry":null},{"properties":{"fm id":28463,"geo_score":0.0,"price1":30.0,"id":"ad3mq9xz387g","address":"97 Irvine Road\nLargs\nAyrshire\nKA30 8EX","geo_precision":"unmatched"},"type":"Feature","geometry":null},{"properties":{"fm id":35565,"geo_score":0.0,"price1":49.0,"id":"ad3mq9sgnehx","address":"Greenacres Court\nAcres Lane\nUpton\nChester\nCheshire\nCH2 1LY","geo_precision":"unmatched"},"type":"Feature","geometry":null},{"properties":{"fm id":58010,"geo_score":0.0,"price1":10.0,"id":"ad3mqa2olsq4","address":"The Lodge\nAlderney Hospital\nRingwood Road\nPoole\nDorset\nBH12 4NB","geo_precision":"unmatched"},"type":"Feature","geometry":null},{"properties":{"fm id":29123,"geo_score":0.0,"price1":29.0,"id":"ad3mqa1cylfo","address":"29/35 Prince Of Wales Drive\nBattersea\nLondon\nInner London\nSW11 4SL","geo_precision":"unmatched"},"type":"Feature","geometry":null},{"properties":{"fm id":37609,"geo_score":0.0,"price1":49.0,"id":"ad3mq9xhkty1","address":"61 Princes Drive\nColwyn Bay\nNorth-East Wales\nLL29 8PW","geo_precision":"unmatched"},"type":"Feature","geometry":null},{"properties":{"fm id":58043,"geo_score":0.0,"price1":39.0,"id":"ad3mq9r6l66g","address":"Chester Road\nGresford\nWrexham\nLL12 8PP","geo_precision":"unmatched"},"type":"Feature","geometry":null},{"properties":{"fm id":58049,"geo_score":0.0,"price1":44.1,"id":"ad3mq9plnhwx","address":"Durrington Lane\nWorthing\nWest Sussex\nbn13 2tf","geo_precision":"unmatched"},"type":"Feature","geometry":null},{"properties":{"fm id":58059,"geo_score":0.0,"price1":null,"id":"ad3mqa1fber3","address":"Manor Road\nAldershot\nGU11 3DG","geo_precision":"unmatched"},"type":"Feature","geometry":null},{"properties":{"fm id":58060,"geo_score":0.0,"price1":null,"id":"ad3mq9yjz6qm","address":"Sycamore Road\nFarnborough\nGU14 6RA","geo_precision":"unmatched"},"type":"Feature","geometry":null},{"properties":{"fm id":58061,"geo_score":0.0,"price1":null,"id":"ad3mq9tdf59t","address":"Rivers Close\nFarnborough\nGU14 6LZ","geo_precision":"unmatched"},"type":"Feature","geometry":null},{"properties":{"fm id":58062,"geo_score":0.0,"price1":null,"id":"ad3mq9xkvd4n","address":"St Johns Road\nFarnborough\nGU14 9RW","geo_precision":"unmatched"},"type":"Feature","geometry":null},{"properties":{"fm id":58063,"geo_score":0.0,"price1":null,"id":"ad3mqa290bv9","address":"Pool Road\nAldershot\nGU11 2SU","geo_precision":"unmatched"},"type":"Feature","geometry":null},{"properties":{"fm id":58065,"geo_score":0.0,"price1":null,"id":"ad3mq9vttte0","address":"Raglan Close\nAldershot\nGU12 4PG","geo_precision":"unmatched"},"type":"Feature","geometry":null},{"properties":{"fm id":32619,"geo_score":0.0,"price1":44.1,"id":"ad3mq9qvta5b","address":"Chestnut Road\nCharlton Down\nDorchester\nDorset\nDT2 9FN","geo_precision":"unmatched"},"type":"Feature","geometry":null},{"properties":{"fm id":58072,"geo_score":0.0,"price1":25.0,"id":"ad3mq9wto8az","address":"French Street\nRenfrew\nPA4 8DG","geo_precision":"unmatched"},"type":"Feature","geometry":null},{"properties":{"fm id":32899,"geo_score":0.0,"price1":53.1,"id":"ad3mq9x9re5v","address":"Hatch Beauchamp\nTaunton\nSomerset\nTA3 6SG","geo_precision":"unmatched"},"type":"Feature","geometry":null},{"properties":{"fm id":13475,"geo_score":0.0,"price1":53.1,"id":"ad3mq9r8p4dp","address":"Church Farm\nCampsea Ash\nWoodbridge\nSuffolk\nIP13 0PX","geo_precision":"unmatched"},"type":"Feature","geometry":null},{"properties":{"fm id":35659,"geo_score":0.0,"price1":49.0,"id":"ad3mq9qvjez0","address":"25 Clifton Drive\nLytham St Annes\nLancashire\nFY8 5QX","geo_precision":"unmatched"},"type":"Feature","geometry":null},{"properties":{"fm id":32313,"geo_score":0.0,"price1":25.0,"id":"ad3mq9xwlp4n","address":"Poldhu Cove\nMullion\nHelston\nCornwall\nTR12 7JB","geo_precision":"unmatched"},"type":"Feature","geometry":null},{"properties":{"fm id":58096,"geo_score":0.0,"price1":20.0,"id":"ad3mq9stjxq1","address":"George Street\nKidderminster\nWorcester\nDY10 1PX","geo_precision":"unmatched"},"type":"Feature","geometry":null},{"properties":{"fm id":25297,"geo_score":0.0,"price1":44.1,"id":"ad3mq9qgbtmf","address":"Hull Road\nGrimstone\nYork\nNorth Yorkshire\nYO19 5LE","geo_precision":"unmatched"},"type":"Feature","geometry":null},{"properties":{"fm id":36843,"geo_score":0.0,"price1":15.0,"id":"ad3mq9wa2veq","address":"Rosetta Way\nBoroughbridge Road\nYork\nNorth Yorkshire\nYO26 5RN","geo_precision":"unmatched"},"type":"Feature","geometry":null},{"properties":{"fm id":29495,"geo_score":0.0,"price1":49.0,"id":"ad3mq9quv1b7","address":"56 Oakwood Avenue\nBeckenham\nOuter London\nBR3 6PJ","geo_precision":"unmatched"},"type":"Feature","geometry":null},{"properties":{"fm id":58105,"geo_score":0.0,"price1":27.0,"id":"ad3mq9vsjh9e","address":"Curzon Street\nSaltney\nChester\nCheshire\nCH4 8BP","geo_precision":"unmatched"},"type":"Feature","geometry":null},{"properties":{"fm id":58124,"geo_score":0.0,"price1":29.0,"id":"ad3mqa0li94f","address":"73 Burns Crescent\nGirdle Toll\nIrvine\nAyrshire\nKA11  1AS","geo_precision":"unmatched"},"type":"Feature","geometry":null},{"properties":{"fm id":58137,"geo_score":0.0,"price1":44.1,"id":"ad3mq9r7633h","address":"Lyiddicleave\nBickington.\nBarnstaple\nDevon\nEX31 2JZ.","geo_precision":"unmatched"},"type":"Feature","geometry":null},{"properties":{"fm id":17989,"geo_score":0.0,"price1":59.0,"id":"ad3mqa2e2w2q","address":"73 Wergs Road\nWolverhampton\nWest Midlands\nWV6 9BN","geo_precision":"unmatched"},"type":"Feature","geometry":null},{"properties":{"fm id":57640,"geo_score":0.0,"price1":32.6666,"id":"ad3mq9vie8ok","address":"South Parks House\nNapier Road\nGlenrothes\nKY6 1AX","geo_precision":"unmatched"},"type":"Feature","geometry":null},{"properties":{"fm id":38971,"geo_score":0.0,"price1":59.0,"id":"ad3mq9y0whza","address":"Irvine Road\nKilwinning\nAyrshire\nKA13 7PF","geo_precision":"unmatched"},"type":"Feature","geometry":null},{"properties":{"fm id":27627,"geo_score":0.0,"price1":53.1,"id":"ad3mq9q8y3gc","address":"Merse Avenue\nKirkcudbright\nDumfries &amp; Galloway\nDG6 4RN","geo_precision":"unmatched"},"type":"Feature","geometry":null},{"properties":{"fm id":29351,"geo_score":0.0,"price1":50.15,"id":"ad3mq9z56qgz","address":"Fern Grove\nHounslow Road\nFeltham\nOuter London\nTW14 9AY","geo_precision":"unmatched"},"type":"Feature","geometry":null},{"properties":{"fm id":29377,"geo_score":0.0,"price1":25.0,"id":"ad3mq9qaiu64","address":"Fern Grove\nOff Hounslow Road\nFeltham\nOuter London\nTW14 9AY","geo_precision":"unmatched"},"type":"Feature","geometry":null},{"properties":{"fm id":36495,"geo_score":0.0,"price1":39.0,"id":"ad3mq9zgdeum","address":"145/147 Brakenwood Drive\nGledhow\nLeeds\nWest Yorkshire\nLS8 1SF","geo_precision":"unmatched"},"type":"Feature","geometry":null},{"properties":{"fm id":28999,"geo_score":0.0,"price1":53.1,"id":"ad3mq9q4wrnc","address":"Ascham Street\nLondon\nInner London\nNW5 2PD","geo_precision":"unmatched"},"type":"Feature","geometry":null},{"properties":{"fm id":17799,"geo_score":0.0,"price1":36.75,"id":"ad3mqa3c0sd2","address":"1 Worcester Way\nOff Stratford Road\nShirley\nSolihull\nWest Midlands\nB90 4JX","geo_precision":"unmatched"},"type":"Feature","geometry":null},{"properties":{"fm id":29173,"geo_score":0.0,"price1":29.333333,"id":"ad3mq9ta2c01","address":"77 Manor Road\nStoke Newington\nLondon\nInner London\nN16 5BL","geo_precision":"unmatched"},"type":"Feature","geometry":null},{"properties":{"fm id":7677,"geo_score":0.0,"price1":44.1,"id":"ad3mq9vz7xp9","address":"392/396 Fencepiece Road\nChigwell\nEssex\nIG7 5DY","geo_precision":"unmatched"},"type":"Feature","geometry":null},{"properties":{"fm id":35063,"geo_score":0.0,"price1":36.75,"id":"ad3mq9xj9nhv","address":"1 Dairyground Road\nBramhall\nStockport\nGreater Manchester\nSK7 2HW","geo_precision":"unmatched"},"type":"Feature","geometry":null},{"properties":{"fm id":58191,"geo_score":0.0,"price1":40.0,"id":"ad3mq9yfoo9z","address":"Buckingham Close\nExmouth\nDevon\nEX82JB","geo_precision":"unmatched"},"type":"Feature","geometry":null},{"properties":{"fm id":30595,"geo_score":0.0,"price1":59.0,"id":"ad3mq9uwf9ii","address":"Madeira Road\nTotland Bay\nIsle Of Wight\nPO39 0BJ","geo_precision":"unmatched"},"type":"Feature","geometry":null},{"properties":{"fm id":37025,"geo_score":0.0,"price1":15.0,"id":"ad3mq9pclylr","address":"The Old Vicarage\nWitty Avenue\nHebburn\nTyne &amp; Wear\nNE31 2SE","geo_precision":"unmatched"},"type":"Feature","geometry":null},{"properties":{"fm id":35857,"geo_score":0.0,"price1":39.0,"id":"ad3mq9tdwf7n","address":"76 Church Street\nWarrington\nCheshire\nWA1 2TH","geo_precision":"unmatched"},"type":"Feature","geometry":null},{"properties":{"fm id":58196,"geo_score":0.0,"price1":29.0,"id":"ad3mq9s0zxqe","address":"4 Mildred Avenue\nHayes\nMiddlesex\nUB3 1TL","geo_precision":"unmatched"},"type":"Feature","geometry":null},{"properties":{"fm id":35599,"geo_score":0.0,"price1":36.5,"id":"ad3mq9uejiil","address":"Barclay Park\nHall Lane\nMobberley\nKnutsford\nCheshire\nWA16 7DZ","geo_precision":"unmatched"},"type":"Feature","geometry":null},{"properties":{"fm id":17337,"geo_score":0.0,"price1":49.0,"id":"ad3mq9yi87r8","address":"5 Church Road\nEdgbaston\nBirmingham\nWest Midlands\nB15 3SH","geo_precision":"unmatched"},"type":"Feature","geometry":null},{"properties":{"fm id":58204,"geo_score":0.0,"price1":10.0,"id":"ad3mq9z3hbhn","address":"241 Garratt Lane\nLondon\nSW18 4DU","geo_precision":"unmatched"},"type":"Feature","geometry":null},{"properties":{"fm id":15289,"geo_score":0.0,"price1":49.0,"id":"ad3mqa2z3zjc","address":"Totnes Road\nSouth Brent\nDevon\nTQ10 9JN","geo_precision":"unmatched"},"type":"Feature","geometry":null},{"properties":{"fm id":58209,"geo_score":0.0,"price1":49.0,"id":"ad3mqa1lem6o","address":"1647 Paisley Road West\nGlasgow\nG52 3QT","geo_precision":"unmatched"},"type":"Feature","geometry":null},{"properties":{"fm id":25537,"geo_score":0.0,"price1":15.0,"id":"ad3mq9s5c57d","address":"63 Horsley Hill Square\nSouth Shields\nTyne &amp; Wear\nNE34 6RF","geo_precision":"unmatched"},"type":"Feature","geometry":null},{"properties":{"fm id":34513,"geo_score":0.0,"price1":49.0,"id":"ad3mq9si9w85","address":"Brampton Lane\nChapel Brampton\nNorthampton\nNorthamptonshire\nNN6 8AA","geo_precision":"unmatched"},"type":"Feature","geometry":null},{"properties":{"fm id":29181,"geo_score":0.0,"price1":49.0,"id":"ad3mq9y1l0v0","address":"1 Tower Bridge Road\nSouthwark\nLondon\nInner London\nSE1 4TR","geo_precision":"unmatched"},"type":"Feature","geometry":null},{"properties":{"fm id":31283,"geo_score":0.0,"price1":49.0,"id":"ad3mqa1hmdao","address":"40 The Green\nSt Leonards-On-Sea\nEast Sussex\nTN38 0SY","geo_precision":"unmatched"},"type":"Feature","geometry":null},{"properties":{"fm id":29409,"geo_score":0.0,"price1":50.15,"id":"ad3mq9vygbp6","address":"12 Theydon Gardens\nRainham\nOuter London\nRM13 7TU","geo_precision":"unmatched"},"type":"Feature","geometry":null},{"properties":{"fm id":33017,"geo_score":0.0,"price1":49.0,"id":"ad3mqa4t52eb","address":"Pesters Lane\nSomerton\nSomerset\nTA11 7AA","geo_precision":"unmatched"},"type":"Feature","geometry":null},{"properties":{"fm id":38611,"geo_score":0.0,"price1":15.0,"id":"ad3mqa1wtx1x","address":"Shandon\nHelensburgh\nGlasgow &amp; Inverclyde\nG84 8NN","geo_precision":"unmatched"},"type":"Feature","geometry":null},{"properties":{"fm id":29501,"geo_score":0.0,"price1":30.0,"id":"ad3mq9y6f9jn","address":"29/31 Mayfield Road\nSutton\nOuter London\nSM2 5DU","geo_precision":"unmatched"},"type":"Feature","geometry":null},{"properties":{"fm id":36455,"geo_score":0.0,"price1":39.2,"id":"ad3mq9qy3uk0","address":"Oakwood Green\nRoundhay\nLeeds\nWest Yorkshire\nLS8 2QU","geo_precision":"unmatched"},"type":"Feature","geometry":null},{"properties":{"fm id":35931,"geo_score":0.0,"price1":39.0,"id":"ad3mq9xsyk5h","address":"Kipling Manor\nKipling Hall Drive\nBlackpool\nLancashire\nFY3 9UX","geo_precision":"unmatched"},"type":"Feature","geometry":null},{"properties":{"fm id":34945,"geo_score":0.0,"price1":15.0,"id":"ad3mq9ys0fgl","address":"Dove Street\nSalam\nOldham\nGreater Manchester\nOL4 5HG","geo_precision":"unmatched"},"type":"Feature","geometry":null},{"properties":{"fm id":35403,"geo_score":0.0,"price1":49.0,"id":"ad3mq9smpu5g","address":"165 Heath Road\nBebington\nWirral\nMerseyside\nCH63 2HB","geo_precision":"unmatched"},"type":"Feature","geometry":null},{"properties":{"fm id":35907,"geo_score":0.0,"price1":39.0,"id":"ad3mqa12ubsc","address":"Birch Hall Avenue\nDarwen\nLancashire\nBB3 0JB","geo_precision":"unmatched"},"type":"Feature","geometry":null},{"properties":{"fm id":25467,"geo_score":0.0,"price1":25.0,"id":"ad3mq9sagc8n","address":"Front Street\nChirton\nNorth Shields\nTyne &amp; Wear\nNE29 0LF","geo_precision":"unmatched"},"type":"Feature","geometry":null},{"properties":{"fm id":25411,"geo_score":0.0,"price1":15.0,"id":"ad3mq9ti47k7","address":"21 Middlegate\nWest Denton\nNewcastle Upon Tyne\nTyne &amp; Wear\nNE5 5AY","geo_precision":"unmatched"},"type":"Feature","geometry":null},{"properties":{"fm id":24237,"geo_score":0.0,"price1":39.0,"id":"ad3mqa36bysp","address":"Hartwell Road\nBurley\nLeeds\nWest Yorkshire\nLS6 1RY","geo_precision":"unmatched"},"type":"Feature","geometry":null},{"properties":{"fm id":36775,"geo_score":0.0,"price1":39.0,"id":"ad3mq9v6ibgv","address":"Leeming Bar\nNorthallerton\nNorth Yorkshire\nDL7 9RT","geo_precision":"unmatched"},"type":"Feature","geometry":null},{"properties":{"fm id":34845,"geo_score":0.0,"price1":39.0,"id":"ad3mq9utnimz","address":"44/48 Water Street\nRadcliffe\nManchester\nGreater Manchester\nM26 4DF","geo_precision":"unmatched"},"type":"Feature","geometry":null},{"properties":{"fm id":35243,"geo_score":0.0,"price1":39.0,"id":"ad3mq9v8jt68","address":"Oakhill Park\nOff Broadgreen Road\nLiverpool\nMerseyside\nL13 4BP","geo_precision":"unmatched"},"type":"Feature","geometry":null},{"properties":{"fm id":25507,"geo_score":0.0,"price1":39.0,"id":"ad3mq9qn4j13","address":"Bondcare Nilerace Ltd\n98 Church Bank Road\nWallsend\nTyne &amp; Wear\nNE28 7LH","geo_precision":"unmatched"},"type":"Feature","geometry":null},{"properties":{"fm id":37411,"geo_score":0.0,"price1":39.0,"id":"ad3mq9y21h1d","address":"Wood Lane\nFerryhill\nDurham\nDL17 8JD","geo_precision":"unmatched"},"type":"Feature","geometry":null},{"properties":{"fm id":35955,"geo_score":0.0,"price1":39.0,"id":"ad3mqa2r5cj7","address":"Clifton Drive\nBlackpool\nLancashire\nFY4 1NP","geo_precision":"unmatched"},"type":"Feature","geometry":null},{"properties":{"fm id":29239,"geo_score":0.0,"price1":39.0,"id":"ad3mq9rb6jxb","address":"1a Derwent Drive\nHayes\nOuter London\nUB4 8DU","geo_precision":"unmatched"},"type":"Feature","geometry":null},{"properties":{"fm id":37777,"geo_score":0.0,"price1":49.0,"id":"ad3mq9uybkqd","address":"Llwydcoed\nAberdare\nRhondda Valley\nCF44 0AX","geo_precision":"unmatched"},"type":"Feature","geometry":null},{"properties":{"fm id":8985,"geo_score":0.0,"price1":36.75,"id":"ad3mqa3ginrk","address":"22/26 Church Road\nFleet\nHampshire\nGU51 4NB","geo_precision":"unmatched"},"type":"Feature","geometry":null},{"properties":{"fm id":24215,"geo_score":0.0,"price1":49.0,"id":"ad3mqa0gbqi4","address":"Iveson Rise\nWest Park\nLeeds\nWest Yorkshire\nLS16 6NB","geo_precision":"unmatched"},"type":"Feature","geometry":null},{"properties":{"fm id":25175,"geo_score":0.0,"price1":49.0,"id":"ad3mqa4a89mr","address":"Leeming Bar Grange\nLeeming Lane\nLeemng Bar\nNorthallerton\nNorth Yorkshire\nDL7 9LT","geo_precision":"unmatched"},"type":"Feature","geometry":null},{"properties":{"fm id":25055,"geo_score":0.0,"price1":49.0,"id":"ad3mq9pzgbmr","address":"Roecliffe Lane\nBoroughbridge\nYork\nNorth Yorkshire\nYO51 9LL","geo_precision":"unmatched"},"type":"Feature","geometry":null},{"properties":{"fm id":58314,"geo_score":0.0,"price1":49.0,"id":"ad3mq9pk6iyh","address":"132 Coventry Road\nNuneaton\nCV10 7AD","geo_precision":"unmatched"},"type":"Feature","geometry":null},{"properties":{"fm id":19661,"geo_score":0.0,"price1":27.0,"id":"ad3mqa11ylkt","address":"117 Hinckley Road\nLeicester Forest East\nLeicester\nLeicestershire\nLE3 3PF","geo_precision":"unmatched"},"type":"Feature","geometry":null},{"properties":{"fm id":37639,"geo_score":0.0,"price1":42.0,"id":"ad3mqa5buzpn","address":"Gloddaeth Avenue\nLlandudno\nNorth-East Wales\nLL30 2DN","geo_precision":"unmatched"},"type":"Feature","geometry":null},{"properties":{"fm id":13209,"geo_score":0.0,"price1":59.0,"id":"ad3mqa01hoft","address":"Norwich Road\nHethersett\nNorwich\nNorfolk\nNR9 3AP","geo_precision":"unmatched"},"type":"Feature","geometry":null},{"properties":{"fm id":58319,"geo_score":0.0,"price1":10.0,"id":"ad3mq9xdeppa","address":"Marillac At Dove House\n1, Dove Close\nBunns Lane\nLondon\nNW7 2AQ","geo_precision":"unmatched"},"type":"Feature","geometry":null},{"properties":{"fm id":36313,"geo_score":0.0,"price1":53.1,"id":"ad3mq9rr73pm","address":"122 Leylands Lane\nHeaton\nBradford\nWest Yorkshire\nBD9 5QU","geo_precision":"unmatched"},"type":"Feature","geometry":null},{"properties":{"fm id":58326,"geo_score":0.0,"price1":20.0,"id":"ad3mqa46vucx","address":"Therapies Suite - Benvie House\nBy Liff, Dundee\nAngus\ndd2 5nz","geo_precision":"unmatched"},"type":"Feature","geometry":null},{"properties":{"fm id":31655,"geo_score":0.0,"price1":37.5,"id":"ad3mq9q7xxoo","address":"Chivers Way\nHiston\nCambridge\nCambridgeshire\nCB24 9AH","geo_precision":"unmatched"},"type":"Feature","geometry":null},{"properties":{"fm id":31119,"geo_score":0.0,"price1":37.5,"id":"ad3mqa4on2qu","address":"1/72 Hallowes Close\nGuildford\nSurrey\nGU2 9LL","geo_precision":"unmatched"},"type":"Feature","geometry":null},{"properties":{"fm id":31759,"geo_score":0.0,"price1":37.5,"id":"ad3mq9skayqk","address":"Costessey Lane\nDrayton\nNorwich\nNorfolk\nNR8 6HB","geo_precision":"unmatched"},"type":"Feature","geometry":null},{"properties":{"fm id":6573,"geo_score":0.0,"price1":37.5,"id":"ad3mqa4hwjq9","address":"21 Forest View\nChingford\nLondon\nOuter London\nE4 7AU","geo_precision":"unmatched"},"type":"Feature","geometry":null},{"properties":{"fm id":57530,"geo_score":0.0,"price1":40.0,"id":"ad3mqa0nrgu8","address":"Rochester Way\nBurns Road\nRoyston,\nHertfordshire\nSG8 5WA","geo_precision":"unmatched"},"type":"Feature","geometry":null},{"properties":{"fm id":58356,"geo_score":0.0,"price1":49.0,"id":"ad3mq9q56goz","address":"3 Bierton Hill\nAylesbury\nBucks\nHP201EE","geo_precision":"unmatched"},"type":"Feature","geometry":null},{"properties":{"fm id":38079,"geo_score":0.0,"price1":44.1,"id":"ad3mq9u5gvz0","address":"Penmon\nBeaumaris\nGwynedd\nLL58 8RN","geo_precision":"unmatched"},"type":"Feature","geometry":null},{"properties":{"fm id":23079,"geo_score":0.0,"price1":44.1,"id":"ad3mq9s92jnm","address":"16 Clifton Drive\nAnsdell\nLytham St Annes\nLancashire\nFY8 5RQ","geo_precision":"unmatched"},"type":"Feature","geometry":null},{"properties":{"fm id":58367,"geo_score":0.0,"price1":29.0,"id":"ad3mq9xlbjkg","address":"Partridge Road\nHarlow\nEssex\nDM18 6TD","geo_precision":"unmatched"},"type":"Feature","geometry":null},{"properties":{"fm id":11989,"geo_score":0.0,"price1":49.0,"id":"ad3mq9qv0y7g","address":"Collington Lane East\nBexhill-On-Sea\nEast Sussex\nTN39 3RJ","geo_precision":"unmatched"},"type":"Feature","geometry":null},{"properties":{"fm id":58377,"geo_score":0.0,"price1":59.0,"id":"ad3mq9vcttyr","address":"The Russets\nSandford Station Retirement Village\nSandford\nBS49 4EN","geo_precision":"unmatched"},"type":"Feature","geometry":null},{"properties":{"fm id":58389,"geo_score":0.0,"price1":29.33,"id":"ad3mq9pny15h","address":"14, Nelson Road\nNew Maldon\nSurrey\nKT3 5EA","geo_precision":"unmatched"},"type":"Feature","geometry":null},{"properties":{"fm id":19013,"geo_score":0.0,"price1":39.0,"id":"ad3mqa1ulnph","address":"Cedar Close\nStratford-Upon-Avon\nWarwickshire\nCV37 6UP","geo_precision":"unmatched"},"type":"Feature","geometry":null},{"properties":{"fm id":36353,"geo_score":0.0,"price1":49.0,"id":"ad3mq9p09wv2","address":"Lee Mount Road\nOvenden\nHalifax\nWest Yorkshire\nHX3 5BX","geo_precision":"unmatched"},"type":"Feature","geometry":null},{"properties":{"fm id":31125,"geo_score":0.0,"price1":59.0,"id":"ad3mqa2iht6e","address":"Priorsfield Road\nHurtmore\nGuildford\nGodalming\nSurrey\nGU7 2RF","geo_precision":"unmatched"},"type":"Feature","geometry":null},{"properties":{"fm id":23725,"geo_score":0.0,"price1":49.0,"id":"ad3mqa0adbec","address":"3 Broomhall Road\nSheffield\nSouth Yorkshire\nS10 2DN","geo_precision":"unmatched"},"type":"Feature","geometry":null},{"properties":{"fm id":16523,"geo_score":0.0,"price1":49.0,"id":"ad3mqa0ee7vd","address":"Camel Street\nMarston Magna\nYeovil\nSomerset\nBA22 8DB","geo_precision":"unmatched"},"type":"Feature","geometry":null},{"properties":{"fm id":38867,"geo_score":0.0,"price1":49.0,"id":"ad3mq9vyuodp","address":"Westwood Hill\nEast Kilbride\nGlasgow\nLanarkshire\nG75 8QA","geo_precision":"unmatched"},"type":"Feature","geometry":null},{"properties":{"fm id":28465,"geo_score":0.0,"price1":49.0,"id":"ad3mq9w2sleb","address":"60 Greenock Road\nLargs\nAyrshire\nKA30 8PD","geo_precision":"unmatched"},"type":"Feature","geometry":null},{"properties":{"fm id":58455,"geo_score":0.0,"price1":49.0,"id":"ad3mqa0t60wn","address":"Cote Lane\nWestbury - On - Trym\nBristol\nBS10 6TU","geo_precision":"unmatched"},"type":"Feature","geometry":null},{"properties":{"fm id":5891,"geo_score":0.0,"price1":49.0,"id":"ad3mq9r8rg9z","address":"24 Queen Anne's Place\nBush Hill Park\nEnfield\nOuter London\nEN1 2PT","geo_precision":"unmatched"},"type":"Feature","geometry":null},{"properties":{"fm id":58465,"geo_score":0.0,"price1":49.0,"id":"ad3mqa1yew4w","address":"Brook Road\nIvybridge\nDevon\nPL21 0AX","geo_precision":"unmatched"},"type":"Feature","geometry":null},{"properties":{"fm id":58472,"geo_score":0.0,"price1":49.0,"id":"ad3mq9s3w3fi","address":"Occupation Road\nCorby\nNorthants\nNN17 1EH","geo_precision":"unmatched"},"type":"Feature","geometry":null},{"properties":{"fm id":30597,"geo_score":0.0,"price1":49.0,"id":"ad3mqa5fm7rd","address":"Kite Hill\nWootton Bridge\nRyde\nIsle Of Wight\nPO33 4LE","geo_precision":"unmatched"},"type":"Feature","geometry":null},{"properties":{"fm id":58488,"geo_score":0.0,"price1":15.0,"id":"ad3mqa2bor8h","address":"The Bevan Intermediate Care Unit\nGallions View\nPier Way\nThamesmead\nse28 0fh","geo_precision":"unmatched"},"type":"Feature","geometry":null},{"properties":{"fm id":28591,"geo_score":0.0,"price1":29.333333,"id":"ad3mq9xzyvtg","address":"Kirk Wynd\nBlairgowrie\nTayside\nPH10 6HN","geo_precision":"unmatched"},"type":"Feature","geometry":null},{"properties":{"fm id":30611,"geo_score":0.0,"price1":49.0,"id":"ad3mq9s0qkb6","address":"George Street\nStaplehurst\nTonbridge\nKent\nTN12 0RB","geo_precision":"unmatched"},"type":"Feature","geometry":null},{"properties":{"fm id":32435,"geo_score":0.0,"price1":26.1,"id":"ad3mq9yg32g0","address":"45 Park Lane\nNewport\nBarnstaple\nDevon\nEX32 9AL","geo_precision":"unmatched"},"type":"Feature","geometry":null},{"properties":{"fm id":32735,"geo_score":0.0,"price1":40.0,"id":"ad3mq9zwm2v0","address":"91/93 Bournemouth Road\nParkstone\nPoole\nDorset\nBH14 0ER","geo_precision":"unmatched"},"type":"Feature","geometry":null},{"properties":{"fm id":32717,"geo_score":0.0,"price1":40.0,"id":"ad3mq9pu65u6","address":"14 Pinewood Road\nBranksome Park\nPoole\nDorset\nBH13 6JS","geo_precision":"unmatched"},"type":"Feature","geometry":null},{"properties":{"fm id":32719,"geo_score":0.0,"price1":40.0,"id":"ad3mq9wo89ha","address":"12 Pinewood Road\nBranksome Park\nPoole\nDorset\nBH13 6JS","geo_precision":"unmatched"},"type":"Feature","geometry":null},{"properties":{"fm id":32637,"geo_score":0.0,"price1":40.0,"id":"ad3mq9qs8i8w","address":"66 Dorchester Road\nWeymouth\nDorset\nDT4 7JZ","geo_precision":"unmatched"},"type":"Feature","geometry":null},{"properties":{"fm id":11701,"geo_score":0.0,"price1":49.0,"id":"ad3mq9rim9dd","address":"14 Prideaux Road\nEastbourne\nEast Sussex\nBN21 2NB","geo_precision":"unmatched"},"type":"Feature","geometry":null},{"properties":{"fm id":32009,"geo_score":0.0,"price1":49.0,"id":"ad3mqa4m95eh","address":"Weston Park\nWeston Village\nBath\nSomerset\nBA1 4AS","geo_precision":"unmatched"},"type":"Feature","geometry":null},{"properties":{"fm id":8065,"geo_score":0.0,"price1":49.0,"id":"ad3mqa338rhb","address":"Anglia Retirement Homes\nDeanery Hill\nBocking\nBraintree\nEssex\nCM7 5SR","geo_precision":"unmatched"},"type":"Feature","geometry":null},{"properties":{"fm id":58540,"geo_score":0.0,"price1":39.0,"id":"ad3mq9sickqe","address":"5 Burlington Road\nBuxton\nDerbyshire\nSK17 9AR","geo_precision":"unmatched"},"type":"Feature","geometry":null},{"properties":{"fm id":6131,"geo_score":0.0,"price1":44.1,"id":"ad3mq9qej2fv","address":"2 Bramble Lane\nThe Avenue\nHampton\nOuter London\nTW12 3XB","geo_precision":"unmatched"},"type":"Feature","geometry":null},{"properties":{"fm id":58543,"geo_score":0.0,"price1":39.0,"id":"ad3mq9uyqj7l","address":"36 Wroxham Road\nSprowston\nNorwich\nNorfolk\nNR7 8TY","geo_precision":"unmatched"},"type":"Feature","geometry":null},{"properties":{"fm id":58563,"geo_score":0.0,"price1":49.0,"id":"ad3mqa28bx21","address":"Cliftonville Road\nNorthampton\nNN1 5BU","geo_precision":"unmatched"},"type":"Feature","geometry":null},{"properties":{"fm id":58579,"geo_score":0.0,"price1":39.2,"id":"ad3mq9qs6dgy","address":"The Firs Centre\n1 Watery Lane\nSmethwick\nB67 6DQ","geo_precision":"unmatched"},"type":"Feature","geometry":null},{"properties":{"fm id":58580,"geo_score":0.0,"price1":69.0,"id":"ad3mq9pko397","address":"Cheshire &amp; Wirral Partnership Nhs Foundation Trust\nCH63 4JY","geo_precision":"unmatched"},"type":"Feature","geometry":null},{"properties":{"fm id":13531,"geo_score":0.0,"price1":49.0,"id":"ad3mqa0s5dsk","address":"77 Orwell Road\nFelixstowe\nSuffolk\nIP11 7PY","geo_precision":"unmatched"},"type":"Feature","geometry":null},{"properties":{"fm id":29511,"geo_score":0.0,"price1":30.0,"id":"ad3mq9zoucq3","address":"Hive Road\nBushey\nOuter London\nWD23 1JQ","geo_precision":"unmatched"},"type":"Feature","geometry":null},{"properties":{"fm id":25977,"geo_score":0.0,"price1":49.0,"id":"ad3mq9rwj0jr","address":"Criffel Street\nWigton\nCumbria\nCA7 4BT","geo_precision":"unmatched"},"type":"Feature","geometry":null},{"properties":{"fm id":11075,"geo_score":0.0,"price1":59.0,"id":"ad3mq9soamh4","address":"Longmead Road\nEpsom\nSurrey\nKT19 9RX","geo_precision":"unmatched"},"type":"Feature","geometry":null},{"properties":{"fm id":29981,"geo_score":0.0,"price1":29.0,"id":"ad3mq9q0v90v","address":"Park Road\nStoke Poges\nSlough\nBuckinghamshire\nSL2 4PJ","geo_precision":"unmatched"},"type":"Feature","geometry":null},{"properties":{"fm id":58628,"geo_score":0.0,"price1":49.0,"id":"ad3mqa4tqlve","address":"South Street\nWantage\nOxon\nOX12 9JY","geo_precision":"unmatched"},"type":"Feature","geometry":null},{"properties":{"fm id":58632,"geo_score":0.0,"price1":49.0,"id":"ad3mqa0d0cnm","address":"Ashburton Road,\nNewton Abbot\nTQ12 1UU","geo_precision":"unmatched"},"type":"Feature","geometry":null},{"properties":{"fm id":58634,"geo_score":0.0,"price1":45.0,"id":"ad3mq9zjc661","address":"Columbia Ward\nMile End Hospital\n275 Bancroft Road\nTower Hamlet\nLondon\nE1 4DG","geo_precision":"unmatched"},"type":"Feature","geometry":null},{"properties":{"fm id":58636,"geo_score":0.0,"price1":49.0,"id":"ad3mq9qitn2k","address":"Hurricane Way\nHawkinge\nKent\nCT18 7SS","geo_precision":"unmatched"},"type":"Feature","geometry":null},{"properties":{"fm id":37781,"geo_score":0.0,"price1":39.0,"id":"ad3mq9q9ba8g","address":"2 Harrowby Place\nCardiff Bay\nCardiff\nCardiff\nCF10 5GB","geo_precision":"unmatched"},"type":"Feature","geometry":null},{"properties":{"fm id":58648,"geo_score":0.0,"price1":49.0,"id":"ad3mq9zfob2d","address":"195e Drumry Road East\nDrumchapel\nGlasgow\nG15 8NS","geo_precision":"unmatched"},"type":"Feature","geometry":null},{"properties":{"fm id":29435,"geo_score":0.0,"price1":49.0,"id":"ad3mq9sjkri1","address":"Adrienne Avenue\nOff Ruislip Road\nSouthall\nOuter London\nUB1 2QW","geo_precision":"unmatched"},"type":"Feature","geometry":null},{"properties":{"fm id":58654,"geo_score":0.0,"price1":59.0,"id":"ad3mq9x0iih5","address":"654 Yarm Road Eaglescliffe\nTeeside\nTS16 0DP","geo_precision":"unmatched"},"type":"Feature","geometry":null},{"properties":{"fm id":58658,"geo_score":0.0,"price1":25.0,"id":"ad3mq9qk7vvy","address":"131 Katherine Street\nAshton Under Lyne\nOL6 7AW","geo_precision":"unmatched"},"type":"Feature","geometry":null},{"properties":{"fm id":58668,"geo_score":0.0,"price1":20.0,"id":"ad3mq9x1dfne","address":"Flat 20 Chine Grange\n8 Chine Crescent Road\nBournemouth\nDorset\nBH2 5LL","geo_precision":"unmatched"},"type":"Feature","geometry":null},{"properties":{"fm id":18123,"geo_score":0.0,"price1":41.65,"id":"ad3mq9rgxvnd","address":"25, Hereford Road\nBromyard\nHerefordshire\nHR7 4ES","geo_precision":"unmatched"},"type":"Feature","geometry":null},{"properties":{"fm id":15513,"geo_score":0.0,"price1":null,"id":"ad3mq9vo9i00","address":"125 New Road\nBrixham\nDevon\nTQ5 8BY","geo_precision":"unmatched"},"type":"Feature","geometry":null},{"properties":{"fm id":18039,"geo_score":0.0,"price1":49.0,"id":"ad3mq9pv0jsq","address":"S B Residential Care Ltd\nEvendine Lane\nColwall\nMalvern\nHerefordshire\nWR13 6DT","geo_precision":"unmatched"},"type":"Feature","geometry":null},{"properties":{"fm id":58679,"geo_score":0.0,"price1":59.0,"id":"ad3mq9qlhdn9","address":"16 Romsey Road\nEastleigh\nHampshire\nSO509AL","geo_precision":"unmatched"},"type":"Feature","geometry":null},{"properties":{"fm id":31193,"geo_score":0.0,"price1":59.0,"id":"ad3mqa1u1gcq","address":"163 Barnhorn Road\nBexhill-On-Sea\nEast Sussex\nTN39 4QL","geo_precision":"unmatched"},"type":"Feature","geometry":null},{"properties":{"fm id":18097,"geo_score":0.0,"price1":41.65,"id":"ad3mq9xmhe5b","address":"Much Dewchurch\nHereford\nHerefordshire\nHR2 8DL","geo_precision":"unmatched"},"type":"Feature","geometry":null},{"properties":{"fm id":18027,"geo_score":0.0,"price1":41.65,"id":"ad3mq9xf320i","address":"Holmer\nHereford\nHerefordshire\nHR1 1LH","geo_precision":"unmatched"},"type":"Feature","geometry":null},{"properties":{"fm id":33479,"geo_score":0.0,"price1":41.65,"id":"ad3mq9zg3l1v","address":"32 Highwell Lane\nBromyard\nHerefordshire\nHR7 4DG","geo_precision":"unmatched"},"type":"Feature","geometry":null},{"properties":{"fm id":19705,"geo_score":0.0,"price1":39.0,"id":"ad3mqa4ba8dv","address":"New Road\nBurbage\nHinckley\nLeicestershire\nLE10 2AW","geo_precision":"unmatched"},"type":"Feature","geometry":null},{"properties":{"fm id":58697,"geo_score":0.0,"price1":15.0,"id":"ad3mq9ydiozf","address":"200 Chargeable Lane\nPlaistow\nLondon\nE13 8DW","geo_precision":"unmatched"},"type":"Feature","geometry":null},{"properties":{"fm id":58719,"geo_score":0.0,"price1":49.0,"id":"ad3mqa2gfw3v","address":"378 Prestwood Road\nWolverhampton\nWV11 1RH","geo_precision":"unmatched"},"type":"Feature","geometry":null},{"properties":{"fm id":58721,"geo_score":0.0,"price1":59.0,"id":"ad3mqa3gsqzn","address":"Beacon Hill Road\nEwshot, Farnham\nSurrey\nGU10 5DB","geo_precision":"unmatched"},"type":"Feature","geometry":null},{"properties":{"fm id":7393,"geo_score":0.0,"price1":39.0,"id":"ad3mq9uy5ig4","address":"440 Finchampstead Road\nFinchampstead\nWokingham\nBerkshire\nRG40 3RB","geo_precision":"unmatched"},"type":"Feature","geometry":null},{"properties":{"fm id":26637,"geo_score":0.0,"price1":39.0,"id":"ad3mq9pfsv1z","address":"Chester Road\nGresford\nWrexham\nNorth-East Wales\nLL12 8PP","geo_precision":"unmatched"},"type":"Feature","geometry":null},{"properties":{"fm id":26647,"geo_score":0.0,"price1":39.0,"id":"ad3mq9v1lf32","address":"Gatewen Road\nNew Broughton\nWrexham\nNorth-East Wales\nLL11 6YA","geo_precision":"unmatched"},"type":"Feature","geometry":null},{"properties":{"fm id":34997,"geo_score":0.0,"price1":39.0,"id":"ad3mq9yyq343","address":"Springfield Park\nBolton Road\nRochdale\nGreater Manchester\nOL11 4RE","geo_precision":"unmatched"},"type":"Feature","geometry":null},{"properties":{"fm id":58744,"geo_score":0.0,"price1":45.0,"id":"ad3mq9sj9oqb","address":"Cadmore Lane\nCheshunt\nHertfordshire\nEN8 9JX","geo_precision":"unmatched"},"type":"Feature","geometry":null},{"properties":{"fm id":31055,"geo_score":0.0,"price1":53.1,"id":"ad3mq9t0ze2q","address":"Huntington House Nursing Home\nHuntington House Drive\nHindhead\nSurrey\nGU26 6BG","geo_precision":"unmatched"},"type":"Feature","geometry":null},{"properties":{"fm id":58749,"geo_score":0.0,"price1":69.0,"id":"ad3mqa3nlnbq","address":"Ward B47  South Block\nDerby Rd\nNottingham\nNotts\nNG7 2UH","geo_precision":"unmatched"},"type":"Feature","geometry":null},{"properties":{"fm id":36863,"geo_score":0.0,"price1":27.0,"id":"ad3mq9zlgxoj","address":"1 Church Lane\nWheldrake\nYork\nNorth Yorkshire\nYO19 6AW","geo_precision":"unmatched"},"type":"Feature","geometry":null},{"properties":{"fm id":58753,"geo_score":0.0,"price1":36.75,"id":"ad3mqa2whtk6","address":"39 Essex Road\nColchester\nCo1 1ZP","geo_precision":"unmatched"},"type":"Feature","geometry":null},{"properties":{"fm id":58754,"geo_score":0.0,"price1":49.0,"id":"ad3mq9ytjii0","address":"81/83 Northampton Road\nKettering\nNN15 7JZ","geo_precision":"unmatched"},"type":"Feature","geometry":null},{"properties":{"fm id":58763,"geo_score":0.0,"price1":40.15,"id":"ad3mq9xefmjc","address":"Occupational Therapy Department\nThe Princess Royal Hospital\nLewes Road\nHaywards Heath\nWest Sussex\nRH16 4EX","geo_precision":"unmatched"},"type":"Feature","geometry":null},{"properties":{"fm id":58764,"geo_score":0.0,"price1":49.0,"id":"ad3mqa25gls7","address":"220 Willingdon Road\nEastbourne\nEast Sussex\nBN21 1XR","geo_precision":"unmatched"},"type":"Feature","geometry":null},{"properties":{"fm id":38455,"geo_score":0.0,"price1":42.0,"id":"ad3mqa2xdbf7","address":"Cawdor Road\nNairn\nHighland &amp; Islands\nIV12 5EF","geo_precision":"unmatched"},"type":"Feature","geometry":null},{"properties":{"fm id":58778,"geo_score":0.0,"price1":44.25,"id":"ad3mqa0owj6z","address":"Harts Gardens\nGuildford\nGU2 9QA","geo_precision":"unmatched"},"type":"Feature","geometry":null},{"properties":{"fm id":20585,"geo_score":0.0,"price1":53.1,"id":"ad3mq9pyse3l","address":"Leicestershire\nLE16 9UY","geo_precision":"unmatched"},"type":"Feature","geometry":null},{"properties":{"fm id":4779,"geo_score":0.0,"price1":53.1,"id":"ad3mq9wbhrbd","address":"28a Sydenham Hill\nLondon\nInner London\nSE26 6TP","geo_precision":"unmatched"},"type":"Feature","geometry":null},{"properties":{"fm id":58939,"geo_score":0.0,"price1":41.3,"id":"ad3mqa3zueem","address":"Essex Way\nKennylands Road\nSonning Common\nReading\nRG4 9RG","geo_precision":"unmatched"},"type":"Feature","geometry":null},{"properties":{"fm id":58940,"geo_score":0.0,"price1":41.3,"id":"ad3mqa30o0z1","address":"Bushy Park Road\nTeddington\nSW11 0DX","geo_precision":"unmatched"},"type":"Feature","geometry":null},{"properties":{"fm id":58941,"geo_score":0.0,"price1":41.3,"id":"ad3mq9wvglur","address":"Ridgemount Road\nSunningdale\nAscot\nBerkshire\nSl5 9rl","geo_precision":"unmatched"},"type":"Feature","geometry":null},{"properties":{"fm id":58942,"geo_score":0.0,"price1":null,"id":"ad3mqa26w6ue","address":"Huntercombe Place\nNuffield\nHenley-On-Thames\nRG9 5SE","geo_precision":"unmatched"},"type":"Feature","geometry":null},{"properties":{"fm id":58943,"geo_score":0.0,"price1":41.3,"id":"ad3mq9q3xs6d","address":"Willian Road\nWilian\nLetchworth Garden City\nSG6 2AB","geo_precision":"unmatched"},"type":"Feature","geometry":null},{"properties":{"fm id":58944,"geo_score":0.0,"price1":41.3,"id":"ad3mq9wt4dhl","address":"Burford Road\nShipton-Under-Wychwood\nChipping\nNorton\nOX7 6DB","geo_precision":"unmatched"},"type":"Feature","geometry":null},{"properties":{"fm id":58945,"geo_score":0.0,"price1":41.3,"id":"ad3mqa2yf19d","address":"Station Road\nWoking\nSurrey\nGU24 8AU","geo_precision":"unmatched"},"type":"Feature","geometry":null},{"properties":{"fm id":58946,"geo_score":0.0,"price1":41.3,"id":"ad3mqa1pm1ri","address":"East Hill Drive\nHilbrow Road\nLiss\nHampshire\nGu33 7rr","geo_precision":"unmatched"},"type":"Feature","geometry":null},{"properties":{"fm id":58947,"geo_score":0.0,"price1":41.3,"id":"ad3mqa10lvfy","address":"Kettlewell Hill\nHorsell\nWoking\nGU21 4JA","geo_precision":"unmatched"},"type":"Feature","geometry":null},{"properties":{"fm id":58948,"geo_score":0.0,"price1":41.3,"id":"ad3mq9vz31kd","address":"Park Road\nCamberley\nGU15 2LN","geo_precision":"unmatched"},"type":"Feature","geometry":null},{"properties":{"fm id":58949,"geo_score":0.0,"price1":41.3,"id":"ad3mq9uxyspy","address":"La Route De Beaumont\nSt Peters\nJersey\nJE3 7HH","geo_precision":"unmatched"},"type":"Feature","geometry":null},{"properties":{"fm id":58950,"geo_score":0.0,"price1":41.3,"id":"ad3mqa293v71","address":"Rue De Beaumont\nSt Peters\nJersey\nJE3 7HH","geo_precision":"unmatched"},"type":"Feature","geometry":null},{"properties":{"fm id":58951,"geo_score":0.0,"price1":41.3,"id":"ad3mqa4wrs2d","address":"London Road\nSalisbury\nSP1 3YU","geo_precision":"unmatched"},"type":"Feature","geometry":null},{"properties":{"fm id":58952,"geo_score":0.0,"price1":41.3,"id":"ad3mq9ps66xb","address":"Old Hardenhuish Lane\nChippenham\nSN14 6HH","geo_precision":"unmatched"},"type":"Feature","geometry":null},{"properties":{"fm id":58953,"geo_score":0.0,"price1":41.3,"id":"ad3mqa0oi3ix","address":"School Walk\nAttleborough\nNuneaton\nWarwickshire\nCv11 4pj","geo_precision":"unmatched"},"type":"Feature","geometry":null},{"properties":{"fm id":58954,"geo_score":0.0,"price1":41.3,"id":"ad3mq9sx28dg","address":"High Street\nWootton Bassett\nSwindon\nSN4 7AH","geo_precision":"unmatched"},"type":"Feature","geometry":null},{"properties":{"fm id":58955,"geo_score":0.0,"price1":41.3,"id":"ad3mq9pi46if","address":"Standon\nEccleshall\nStafford\nST21 6RA","geo_precision":"unmatched"},"type":"Feature","geometry":null},{"properties":{"fm id":58956,"geo_score":0.0,"price1":41.3,"id":"ad3mq9ubowfo","address":"Arrowsmith Road\nCanford Magna\nWimborne\nBH21 3BQ","geo_precision":"unmatched"},"type":"Feature","geometry":null},{"properties":{"fm id":58957,"geo_score":0.0,"price1":41.3,"id":"ad3mq9smw981","address":"Off Old Hollow Ane\nWinshill\nBurton-On-Trent\nDE15 0DR","geo_precision":"unmatched"},"type":"Feature","geometry":null},{"properties":{"fm id":58958,"geo_score":0.0,"price1":41.3,"id":"ad3mq9p1zphz","address":null,"geo_precision":""},"type":"Feature","geometry":null},{"properties":{"fm id":58959,"geo_score":0.0,"price1":41.3,"id":"ad3mqa0ta9n2","address":null,"geo_precision":""},"type":"Feature","geometry":null},{"properties":{"fm id":58960,"geo_score":0.0,"price1":41.3,"id":"ad3mq9x2crty","address":null,"geo_precision":""},"type":"Feature","geometry":null},{"properties":{"fm id":58961,"geo_score":0.0,"price1":41.3,"id":"ad3mqa327zjp","address":null,"geo_precision":""},"type":"Feature","geometry":null},{"properties":{"fm id":58964,"geo_score":0.0,"price1":53.1,"id":"ad3mqa2yyop4","address":"Courtfield Road\nPlymouth\nDevon\nPL3 5BB","geo_precision":"unmatched"},"type":"Feature","geometry":null},{"properties":{"fm id":58995,"geo_score":0.0,"price1":29.0,"id":"ad3mq9x9st4g","address":"John Radcliffe Hospital\nHeadley Way\nOxford\nox3 9du","geo_precision":"unmatched"},"type":"Feature","geometry":null},{"properties":{"fm id":59018,"geo_score":0.0,"price1":49.0,"id":"ad3mq9pde3zz","address":"Coniston Lodge, St Catherine's Hospital\nTickhill Road\nBalby\nDoncaster\nS. Yorks\nDN4 8QN","geo_precision":"unmatched"},"type":"Feature","geometry":null},{"properties":{"fm id":59044,"geo_score":0.0,"price1":20.0,"id":"ad3mq9vvwyqj","address":"76 Upper Kings Avenue\nHigham Ferrers\nNorthants\nNN10 8JZ","geo_precision":"unmatched"},"type":"Feature","geometry":null},{"properties":{"fm id":33469,"geo_score":0.0,"price1":30.0,"id":"ad3mq9yeipyp","address":"43 Breinton Road\nHereford\nHerefordshire\nHR4 0JY","geo_precision":"unmatched"},"type":"Feature","geometry":null},{"properties":{"fm id":32583,"geo_score":0.0,"price1":39.0,"id":"ad3mqa31e8zf","address":"Higher Warberry Road\nTorquay\nDevon\nTQ1 1RR","geo_precision":"unmatched"},"type":"Feature","geometry":null},{"properties":{"fm id":59077,"geo_score":0.0,"price1":1073.8,"id":"ad3mq9vnlvj8","address":"Bradbury House\n830 The Crescent\nColchester Business Park\nColchester\nEssex\nCO4 9YQ","geo_precision":"unmatched"},"type":"Feature","geometry":null},{"properties":{"fm id":59079,"geo_score":0.0,"price1":49.0,"id":"ad3mq9vjd8gm","address":"17 Nottingham Road\nNottingham\nNG8 6AX","geo_precision":"unmatched"},"type":"Feature","geometry":null},{"properties":{"fm id":59084,"geo_score":0.0,"price1":null,"id":"ad3mq9rdfex1","address":"harberton\ntq9 7sp","geo_precision":"unmatched"},"type":"Feature","geometry":null},{"properties":{"fm id":59087,"geo_score":0.0,"price1":30.0,"id":"ad3mq9udjhxy","address":"Portsmouth City Council\nBrunel Court\nNutfield Place\nPortsmouth\npo14jb","geo_precision":"unmatched"},"type":"Feature","geometry":null},{"properties":{"fm id":59089,"geo_score":0.0,"price1":40.0,"id":"ad3mqa59pygf","address":"Practice Facilitator Clinical Governance\nNinewalls Hospital\nDundee\nDD19SY","geo_precision":"unmatched"},"type":"Feature","geometry":null},{"properties":{"fm id":59094,"geo_score":0.0,"price1":49.0,"id":"ad3mqa2o9lf4","address":"141b Milton Road\nMilton\nWeston-Super-Mare\nBS22 8AA","geo_precision":"unmatched"},"type":"Feature","geometry":null},{"properties":{"fm id":27171,"geo_score":0.0,"price1":59.0,"id":"ad3mqa1y34zo","address":"25/27 Sketty Road\nUplands\nSwansea\nSwansea\nSA2 0EU","geo_precision":"unmatched"},"type":"Feature","geometry":null},{"properties":{"fm id":59096,"geo_score":0.0,"price1":30.0,"id":"ad3mqa0hccgr","address":"21 Barlow Road\nChichester\nWest Sussex\nPO19 3LD","geo_precision":"unmatched"},"type":"Feature","geometry":null},{"properties":{"fm id":59097,"geo_score":0.0,"price1":59.0,"id":"ad3mq9umvse3","address":"2 Oakdale\nLa Rue Des Buttes\nSt. John\nJersey\nJE3 4EG","geo_precision":"unmatched"},"type":"Feature","geometry":null},{"properties":{"fm id":21063,"geo_score":0.0,"price1":44.0,"id":"ad3mq9wp8teb","address":"River Green\nClifton Estate\nNottingham","geo_precision":"unmatched"},"type":"Feature","geometry":null},{"properties":{"fm id":37703,"geo_score":0.0,"price1":59.0,"id":"ad3mq9t6fhge","address":"Bridell\nCardigan\nDyfed\nSA43 3DD","geo_precision":"unmatched"},"type":"Feature","geometry":null},{"properties":{"fm id":34515,"geo_score":0.0,"price1":49.0,"id":"ad3mqa2z3qo5","address":"Villa Lane\nStanwick\nWellingborough\nNorthamptonshire\nNN9 6QQ","geo_precision":"unmatched"},"type":"Feature","geometry":null},{"properties":{"fm id":29793,"geo_score":0.0,"price1":49.0,"id":"ad3mq9zu5qc8","address":"King Street\nHoughton Regis\nDunstable\nBedfordshire\nLU5 5TT","geo_precision":"unmatched"},"type":"Feature","geometry":null},{"properties":{"fm id":59112,"geo_score":0.0,"price1":49.0,"id":"ad3mq9q6n8o4","address":"De La Warr Road\nMilford On Sea, Lymington\nHampshire\nSO41 0PS","geo_precision":"unmatched"},"type":"Feature","geometry":null},{"properties":{"fm id":59122,"geo_score":0.0,"price1":39.0,"id":"ad3mqa0xls9e","address":"Monnow Vale Health &amp; Social Care Facility\nDrybridge Park\nMonmouth\nMonmouthshire\nNP25 5BL","geo_precision":"unmatched"},"type":"Feature","geometry":null},{"properties":{"fm id":59123,"geo_score":0.0,"price1":69.0,"id":"ad3mq9w0eh2j","address":"Darland Avenue\nGillingham\nME7 3AL","geo_precision":"unmatched"},"type":"Feature","geometry":null},{"properties":{"fm id":59125,"geo_score":0.0,"price1":30.0,"id":"ad3mqa1xfwet","address":"147 Lent Rise Rd\nBurnham-On-Sea\nSL1 7bn","geo_precision":"unmatched"},"type":"Feature","geometry":null},{"properties":{"fm id":59127,"geo_score":0.0,"price1":49.0,"id":"ad3mq9pa1869","address":"Ward 29 Bradford Royal Infirmary\nDuckworth Lane\nBradford\nWest Yorkshire\nBD9 6RJ","geo_precision":"unmatched"},"type":"Feature","geometry":null},{"properties":{"fm id":59133,"geo_score":0.0,"price1":29.0,"id":"ad3mq9qzc1fb","address":"76 Station Road\nOrmesby\nSt Margret\nGreat Yarmouth\nNR29 3NH","geo_precision":"unmatched"},"type":"Feature","geometry":null},{"properties":{"fm id":19585,"geo_score":0.0,"price1":50.0,"id":"ad3mq9p2n8i3","address":"249 Station Road\nRothley\nLeicester\nLeicestershire\nLE7 7LD","geo_precision":"unmatched"},"type":"Feature","geometry":null},{"properties":{"fm id":10995,"geo_score":0.0,"price1":39.2,"id":"ad3mqa4w3a6r","address":"Madley Way\nWitney\nOxfordshire\nOX28 1AT","geo_precision":"unmatched"},"type":"Feature","geometry":null},{"properties":{"fm id":59153,"geo_score":0.0,"price1":49.0,"id":"ad3mqa2vfdbl","address":"St Albans Road East\nHatfield\nHertfordshire\nAL10 0FJ","geo_precision":"unmatched"},"type":"Feature","geometry":null},{"properties":{"fm id":59161,"geo_score":0.0,"price1":49.0,"id":"ad3mq9tcqfyt","address":"400 Frankley Beeches Road\nNorthfield\nBirmingham\nb31 5nj","geo_precision":"unmatched"},"type":"Feature","geometry":null},{"properties":{"fm id":59164,"geo_score":0.0,"price1":29.0,"id":"ad3mq9oz5hw2","address":"25 Victoria Road\nGorleston On Sea\nNorfolk\nNR31 6EF","geo_precision":"unmatched"},"type":"Feature","geometry":null},{"properties":{"fm id":32979,"geo_score":0.0,"price1":60.0,"id":"ad3mq9y9uavr","address":"Orchard Portman\nTaunton\nSomerset\nTA3 7BQ","geo_precision":"unmatched"},"type":"Feature","geometry":null},{"properties":{"fm id":30015,"geo_score":0.0,"price1":39.0,"id":"ad3mq9zdog6b","address":"Heathercroft\nGreat Linford\nMilton Keynes\nBuckinghamshire\nMK14 5EG","geo_precision":"unmatched"},"type":"Feature","geometry":null},{"properties":{"fm id":59174,"geo_score":0.0,"price1":39.0,"id":"ad3mq9t0x77i","address":"Mdt Office, Farnham Hospital,\nHale Road,\nFarnham,\nSurrey\nGU9 9QL","geo_precision":"unmatched"},"type":"Feature","geometry":null},{"properties":{"fm id":59179,"geo_score":0.0,"price1":54.0,"id":"ad3mq9xadecz","address":"Fairlight &amp; Fallowfield\nAshfield Lane\nChislehurst\nKent\nBR7 6LQ","geo_precision":"unmatched"},"type":"Feature","geometry":null},{"properties":{"fm id":59125,"geo_score":0.0,"price1":20.0,"id":"ad3mq9vrm93w","address":"147 Lent Rise Rd\nBurnham-On-Sea\nSL1 7bn","geo_precision":"unmatched"},"type":"Feature","geometry":null},{"properties":{"fm id":29451,"geo_score":0.0,"price1":59.0,"id":"ad3mqa5b75x3","address":"Upper Sunbury Road\nHampton\nOuter London\nTW12 2DW","geo_precision":"unmatched"},"type":"Feature","geometry":null},{"properties":{"fm id":59200,"geo_score":0.0,"price1":49.0,"id":"ad3mq9s7gc9x","address":"Queen Mary's Hospital\nWoodlands Unit\nSidcup\nKent\nDA146LT","geo_precision":"unmatched"},"type":"Feature","geometry":null},{"properties":{"fm id":14921,"geo_score":0.0,"price1":35.0,"id":"ad3mq9rfee98","address":"1 Park Road\nCrediton\nDevon\nEX17 3BS","geo_precision":"unmatched"},"type":"Feature","geometry":null},{"properties":{"fm id":59206,"geo_score":0.0,"price1":49.0,"id":"ad3mq9y5fm2b","address":"Davenham\n148 Graham Road\nMalvern\nWorcestershire\nWR14 2HY","geo_precision":"unmatched"},"type":"Feature","geometry":null},{"properties":{"fm id":28121,"geo_score":0.0,"price1":15.0,"id":"ad3mqa39ef0f","address":"Bealach-An-Righ\nConnel Road\nOban\nGlasgow &amp; Inverclyde\nPA34 5TG","geo_precision":"unmatched"},"type":"Feature","geometry":null},{"properties":{"fm id":5631,"geo_score":0.0,"price1":49.0,"id":"ad3mq9rqst5g","address":"Mottingham Lane\nMottingham\nLondon\nOuter London\nSE9 4RT","geo_precision":"unmatched"},"type":"Feature","geometry":null},{"properties":{"fm id":59236,"geo_score":0.0,"price1":123.81,"id":"ad3mqa0ei5ao","address":"Mardle House\nMardle Way\nBuckfastleigh\nDevon\nTQ11 0NS","geo_precision":"unmatched"},"type":"Feature","geometry":null},{"properties":{"fm id":59246,"geo_score":0.0,"price1":403.34,"id":"ad3mq9uvr2a4","address":"36 Windsor Street\nUxbridge\nMiddlesex\nUB8 1AB","geo_precision":"unmatched"},"type":"Feature","geometry":null},{"properties":{"fm id":9199,"geo_score":0.0,"price1":25.0,"id":"ad3mq9t1ukaa","address":"33 Landguard Road\nShirley\nSouthampton\nHampshire\nSO15 5DL","geo_precision":"unmatched"},"type":"Feature","geometry":null},{"properties":{"fm id":10319,"geo_score":0.0,"price1":31.2,"id":"ad3mq9waqn5p","address":"Fairfield Manor\nFairfield Road\nBroadstairs\nKent\nCT10 2JY","geo_precision":"unmatched"},"type":"Feature","geometry":null},{"properties":{"fm id":59295,"geo_score":0.0,"price1":25.0,"id":"ad3mqa4xrc52","address":"30 Blinco Grove\nCambridge\nCambs\nCB1 7TS","geo_precision":"unmatched"},"type":"Feature","geometry":null},{"properties":{"fm id":59306,"geo_score":0.0,"price1":49.0,"id":"ad3mq9xdmbxp","address":"Bankhouse Road\nStoke On Trent\nST4 8EN","geo_precision":"unmatched"},"type":"Feature","geometry":null},{"properties":{"fm id":20779,"geo_score":0.0,"price1":49.0,"id":"ad3mqa05g8wi","address":"175 Nottingham Road\nEastwood\nNottingham\nNottinghamshire\nNG16 3GS","geo_precision":"unmatched"},"type":"Feature","geometry":null},{"properties":{"fm id":16703,"geo_score":0.0,"price1":20.0,"id":"ad3mqa1plca7","address":"Longforth Road\nWellington\nSomerset\nTA21 8RH","geo_precision":"unmatched"},"type":"Feature","geometry":null},{"properties":{"fm id":59314,"geo_score":0.0,"price1":49.0,"id":"ad3mq9zhi9e3","address":"Woodlands Lane\nHorsehay\nTelford\nShropshire\nTf43QF","geo_precision":"unmatched"},"type":"Feature","geometry":null},{"properties":{"fm id":32649,"geo_score":0.0,"price1":49.0,"id":"ad3mq9wngbxb","address":"Ringwood Road\nThree Legged Cross\nWimborne\nDorset\nBH21 6RB","geo_precision":"unmatched"},"type":"Feature","geometry":null},{"properties":{"fm id":59319,"geo_score":0.0,"price1":29.0,"id":"ad3mqa2js1v1","address":"Lake House\nAdderbury\nBanbury\nOxfordshire\nOX17 3NG","geo_precision":"unmatched"},"type":"Feature","geometry":null},{"properties":{"fm id":59321,"geo_score":0.0,"price1":39.0,"id":"ad3mq9sv887r","address":"Dementia Support Service\nAnam Cara, Stoneyholm Road,\nKilbirnie\nAyrshire\nKA25 7JE","geo_precision":"unmatched"},"type":"Feature","geometry":null},{"properties":{"fm id":28411,"geo_score":0.0,"price1":49.0,"id":"ad3mqa3ucq1e","address":"Mha Auchlochan\nNethanvale House\nLesmahagow\nLanark\nLanarkshire\nML11 0GS","geo_precision":"unmatched"},"type":"Feature","geometry":null},{"properties":{"fm id":18571,"geo_score":0.0,"price1":35.0,"id":"ad3mqa5adghk","address":"Kynnersley\nTelford\nShropshire\nTF6 6DY","geo_precision":"unmatched"},"type":"Feature","geometry":null},{"properties":{"fm id":30573,"geo_score":0.0,"price1":49.0,"id":"ad3mq9u8su7r","address":"Verulam Road\nSt Albans\nHertfordshire\nAL3 4DH","geo_precision":"unmatched"},"type":"Feature","geometry":null},{"properties":{"fm id":20701,"geo_score":0.0,"price1":49.0,"id":"ad3mqa58lsco","address":"56 Three Tuns Road\nEastwood\nNottingham\nNottinghamshire\nNG16 3EJ","geo_precision":"unmatched"},"type":"Feature","geometry":null},{"properties":{"fm id":18261,"geo_score":0.0,"price1":49.0,"id":"ad3mq9qajhpd","address":"Cherry Hill Road\nBarnt Green\nBirmingham\nWorcestershire\nB45 8LL","geo_precision":"unmatched"},"type":"Feature","geometry":null},{"properties":{"fm id":15859,"geo_score":0.0,"price1":39.0,"id":"ad3mq9tbpyzr","address":"2 Ken Road\nSouthbourne\nBournemouth\nDorset\nBH6 3ET","geo_precision":"unmatched"},"type":"Feature","geometry":null},{"properties":{"fm id":59379,"geo_score":0.0,"price1":49.0,"id":"ad3mq9w7sk4j","address":"2 Randall Close\nLondon\nSW113TG","geo_precision":"unmatched"},"type":"Feature","geometry":null},{"properties":{"fm id":59381,"geo_score":0.0,"price1":59.0,"id":"ad3mq9t2adq0","address":"Frank Lloyd\nBell Road\nSittingbourne\nKent\nME10 4DT","geo_precision":"unmatched"},"type":"Feature","geometry":null},{"properties":{"fm id":23213,"geo_score":0.0,"price1":59.0,"id":"ad3mq9rb2b7w","address":"Coronation Drive\nDitton\nWidnes\nCheshire\nWA8 8BL","geo_precision":"unmatched"},"type":"Feature","geometry":null},{"properties":{"fm id":32385,"geo_score":0.0,"price1":null,"id":"ad3mq9pp1575","address":"61 Whitchurch Road\nTavistock\nDevon\nPL19 9BD","geo_precision":"unmatched"},"type":"Feature","geometry":null},{"properties":{"fm id":15497,"geo_score":0.0,"price1":null,"id":"ad3mq9sv982e","address":"Stonehaven (Healthcare) Ltd\nMonksbridge Road\nBrixham\nDevon\nTQ5 9NB","geo_precision":"unmatched"},"type":"Feature","geometry":null},{"properties":{"fm id":14839,"geo_score":0.0,"price1":null,"id":"ad3mq9p4hgdo","address":"47 Atlantic Way\nWestward Ho!\nBideford\nDevon\nEX39 1JD","geo_precision":"unmatched"},"type":"Feature","geometry":null},{"properties":{"fm id":14951,"geo_score":0.0,"price1":null,"id":"ad3mq9p5pwao","address":"George Street\nOkehampton\nDevon\nEX20 1HR","geo_precision":"unmatched"},"type":"Feature","geometry":null},{"properties":{"fm id":15007,"geo_score":0.0,"price1":null,"id":"ad3mq9scjjfu","address":"Main Road\nExminster\nExeter\nDevon\nEX6 8AP","geo_precision":"unmatched"},"type":"Feature","geometry":null},{"properties":{"fm id":59392,"geo_score":0.0,"price1":null,"id":"ad3mqa0b0ona","address":"St Nicholas Street\nBodmin\nCornwall\nPL31 1AG","geo_precision":"unmatched"},"type":"Feature","geometry":null},{"properties":{"fm id":20879,"geo_score":0.0,"price1":29.0,"id":"ad3mq9u9ogqq","address":"109 Millgate\nNewark\nNottinghamshire\nNG24 4UA","geo_precision":"unmatched"},"type":"Feature","geometry":null},{"properties":{"fm id":15099,"geo_score":0.0,"price1":29.0,"id":"ad3mq9qfzrpf","address":"11 Park Lane\nLittle Knowle\nBudleigh Salterton\nDevon\nEX9 6QT","geo_precision":"unmatched"},"type":"Feature","geometry":null},{"properties":{"fm id":14259,"geo_score":0.0,"price1":59.0,"id":"ad3mq9wncsrm","address":"88 High Street\nWinterbourne\nBristol\nGloucestershire\nBS36 1RB","geo_precision":"unmatched"},"type":"Feature","geometry":null},{"properties":{"fm id":59430,"geo_score":0.0,"price1":40.0,"id":"ad3mq9yzzwmv","address":"Willwood Avenue\nHuddersfield\nWest Yorkshire\nHD3 4YA","geo_precision":"unmatched"},"type":"Feature","geometry":null},{"properties":{"fm id":15891,"geo_score":0.0,"price1":39.0,"id":"ad3mq9u3n8qg","address":"2 Berkeley Road\nTalbot Woods\nBournemouth\nDorset\nBH3 7JJ","geo_precision":"unmatched"},"type":"Feature","geometry":null},{"properties":{"fm id":59447,"geo_score":0.0,"price1":59.0,"id":"ad3mq9u6u4j4","address":"62 Sanders Street Upper Mount Gravatt\nBrisbane\n4112\nAustralia","geo_precision":"unmatched"},"type":"Feature","geometry":null},{"properties":{"fm id":32853,"geo_score":0.0,"price1":59.0,"id":"ad3mq9q2if5d","address":"Pitchcombe\nStroud\nGloucestershire\nGL6 6LS","geo_precision":"unmatched"},"type":"Feature","geometry":null},{"properties":{"fm id":6959,"geo_score":0.0,"price1":29.0,"id":"ad3mq9r4q4vb","address":"20 Linden Road\nBedford\nBedfordshire\nMK40 2DA","geo_precision":"unmatched"},"type":"Feature","geometry":null},{"properties":{"fm id":59482,"geo_score":0.0,"price1":39.0,"id":"ad3mq9xasma0","address":"St Fillan Road\nColchester\nEssex\nCo4 0pt","geo_precision":"unmatched"},"type":"Feature","geometry":null},{"properties":{"fm id":37713,"geo_score":0.0,"price1":39.0,"id":"ad3mqa1yemac","address":"Abergarw Road\nBrynmenyn\nBridgend\nSwansea\nCF32 9LL","geo_precision":"unmatched"},"type":"Feature","geometry":null},{"properties":{"fm id":31009,"geo_score":0.0,"price1":59.0,"id":"ad3mq9oykhpa","address":"Hill View\nReigate Road\nDorking\nSurrey\nRH4 1SY","geo_precision":"unmatched"},"type":"Feature","geometry":null},{"properties":{"fm id":59503,"geo_score":0.0,"price1":49.0,"id":"ad3mq9vsdjd5","address":"10 Church Lane\nOldham\nLancs\nOl1 3na","geo_precision":"unmatched"},"type":"Feature","geometry":null},{"properties":{"fm id":5163,"geo_score":0.0,"price1":49.0,"id":"ad3mq9v1ea8a","address":"64/66 Billet Lane\nHornchurch\nOuter London\nRM11 1XA","geo_precision":"unmatched"},"type":"Feature","geometry":null},{"properties":{"fm id":5251,"geo_score":0.0,"price1":49.0,"id":"ad3mq9sfwghi","address":"244 Bennetts Castle Lane\nDagenham\nOuter London\nRM8 3UU","geo_precision":"unmatched"},"type":"Feature","geometry":null},{"properties":{"fm id":5511,"geo_score":0.0,"price1":49.0,"id":"ad3mq9pfztvq","address":"Pool Road\nHarrow\nOuter London\nHA1 3YH","geo_precision":"unmatched"},"type":"Feature","geometry":null},{"properties":{"fm id":59531,"geo_score":0.0,"price1":59.0,"id":"ad3mq9x2xooj","address":"Southmoor Road\nWythenshawe\nManchester\nM239LT","geo_precision":"unmatched"},"type":"Feature","geometry":null},{"properties":{"fm id":7903,"geo_score":0.0,"price1":44.916666,"id":"ad3mqa4ksf00","address":"Third Avenue\nWalton On The Naze\nEssex\nCO14 8JU","geo_precision":"unmatched"},"type":"Feature","geometry":null},{"properties":{"fm id":59546,"geo_score":0.0,"price1":49.0,"id":"ad3mq9vh7ktw","address":"Hockley Road, Wilnecote\nTamworth\nStaffs\nB775EE","geo_precision":"unmatched"},"type":"Feature","geometry":null},{"properties":{"fm id":27277,"geo_score":0.0,"price1":39.0,"id":"ad3mq9qxmtji","address":"Thomas Street\nAbertridwr\nCaerphilly\nGwent\nCF83 4AY","geo_precision":"unmatched"},"type":"Feature","geometry":null},{"properties":{"fm id":30709,"geo_score":0.0,"price1":49.0,"id":"ad3mqa07ln7b","address":"2/4 Canterbury Road\nWestgate-On-Sea\nKent\nCT8 8JJ","geo_precision":"unmatched"},"type":"Feature","geometry":null},{"properties":{"fm id":59556,"geo_score":0.0,"price1":49.0,"id":"ad3mq9z01afn","address":"2 Allan Park Road\nEdinburgh\nMidlothian\nEH14 1LB","geo_precision":"unmatched"},"type":"Feature","geometry":null},{"properties":{"fm id":59569,"geo_score":0.0,"price1":39.0,"id":"ad3mqa30ow7h","address":"14 Dynevor Street\nGeorgetown\nMerthyr Tydfil\ncf48 1ay","geo_precision":"unmatched"},"type":"Feature","geometry":null},{"properties":{"fm id":37757,"geo_score":0.0,"price1":39.0,"id":"ad3mq9ylohjl","address":"Abernant Road\nAberdare\nRhondda Valley\nCF44 0PY","geo_precision":"unmatched"},"type":"Feature","geometry":null},{"properties":{"fm id":37741,"geo_score":0.0,"price1":39.0,"id":"ad3mq9p253f5","address":"Windsor Road\nMiskin\nMountain Ash\nRhondda Valley\nCF45 3BH","geo_precision":"unmatched"},"type":"Feature","geometry":null},{"properties":{"fm id":27303,"geo_score":0.0,"price1":39.0,"id":"ad3mq9zeds0a","address":"13 St Martin's Road\nCaerphilly\nGwent\nCF83 1EF","geo_precision":"unmatched"},"type":"Feature","geometry":null},{"properties":{"fm id":37733,"geo_score":0.0,"price1":39.0,"id":"ad3mq9u1bu19","address":"15, Dynevor St,\nGeorgetown\nMerthyr Tydfil\nRhondda Valley\nCF48 1AY","geo_precision":"unmatched"},"type":"Feature","geometry":null},{"properties":{"fm id":14623,"geo_score":0.0,"price1":88.5,"id":"ad3mqa53t60y","address":"Meadowside\nRedruth\nCornwall\nTR15 3AL","geo_precision":"unmatched"},"type":"Feature","geometry":null},{"properties":{"fm id":7399,"geo_score":0.0,"price1":59.0,"id":"ad3mq9ujz2q0","address":"Church Road\nPenn\nHigh Wycombe\nBuckinghamshire\nHP10 8NX","geo_precision":"unmatched"},"type":"Feature","geometry":null},{"properties":{"fm id":59578,"geo_score":0.0,"price1":59.0,"id":"ad3mqa38xclu","address":"Level 4  Sedgemore Building\nPriory Road\nSt Austell\nCornwall\nPL25 5AS","geo_precision":"unmatched"},"type":"Feature","geometry":null},{"properties":{"fm id":38447,"geo_score":0.0,"price1":39.0,"id":"ad3mq9q1ubg9","address":"Home Farm Road\nPortree\nHighland &amp; Islands\nIV51 9LX","geo_precision":"unmatched"},"type":"Feature","geometry":null},{"properties":{"fm id":39035,"geo_score":0.0,"price1":39.0,"id":"ad3mqa2dsevz","address":"Albert Street\nArbroath\nTayside\nDD11 1RA","geo_precision":"unmatched"},"type":"Feature","geometry":null},{"properties":{"fm id":39081,"geo_score":0.0,"price1":39.0,"id":"ad3mqa1bk1i7","address":"60 Clovis Duveau Drive\nDundee\nTayside\nDD2 5JB","geo_precision":"unmatched"},"type":"Feature","geometry":null},{"properties":{"fm id":39041,"geo_score":0.0,"price1":39.0,"id":"ad3mq9u2spqx","address":"Forfar Road\nArbroath\nTayside\nDD11 3RA","geo_precision":"unmatched"},"type":"Feature","geometry":null},{"properties":{"fm id":27195,"geo_score":0.0,"price1":39.0,"id":"ad3mq9yr4zdj","address":"69 Martin Street\nMorriston\nSwansea\nSwansea\nSA6 7BJ","geo_precision":"unmatched"},"type":"Feature","geometry":null},{"properties":{"fm id":34639,"geo_score":0.0,"price1":39.0,"id":"ad3mq9yv0t3p","address":"Berry Hill Lane\nMansfield\nNottinghamshire\nNG18 4JR","geo_precision":"unmatched"},"type":"Feature","geometry":null},{"properties":{"fm id":17495,"geo_score":0.0,"price1":39.0,"id":"ad3mq9vghuag","address":"328 Tile Hill Lane\nTile Hill\nCoventry\nWest Midlands\nCV4 9DS","geo_precision":"unmatched"},"type":"Feature","geometry":null},{"properties":{"fm id":12471,"geo_score":0.0,"price1":49.0,"id":"ad3mq9szi07t","address":"227 Hawthorn Road\nBognor Regis\nWest Sussex\nPO21 2UW","geo_precision":"unmatched"},"type":"Feature","geometry":null},{"properties":{"fm id":59585,"geo_score":0.0,"price1":49.0,"id":"ad3mq9tkgnjz","address":"33 Hill Lane\nSouthampton\nHampshire\nSO15 5wf","geo_precision":"unmatched"},"type":"Feature","geometry":null},{"properties":{"fm id":59588,"geo_score":0.0,"price1":39.0,"id":"ad3mqa485am4","address":"Ballumbie Road\nDundee\nDD4 0PD","geo_precision":"unmatched"},"type":"Feature","geometry":null},{"properties":{"fm id":59592,"geo_score":0.0,"price1":49.0,"id":"ad3mq9t1i28b","address":"Brookfiled Avenue\nCastleford\nWest Yorkshire\nWF10 4BJ","geo_precision":"unmatched"},"type":"Feature","geometry":null},{"properties":{"fm id":32791,"geo_score":0.0,"price1":49.0,"id":"ad3mq9r9robw","address":"Malvern Road\nCheltenham\nGloucestershire\nGL50 2NR","geo_precision":"unmatched"},"type":"Feature","geometry":null},{"properties":{"fm id":38219,"geo_score":0.0,"price1":39.0,"id":"ad3mq9w4nzyi","address":"Kilmichael Road\nBalfarg\nGlenrothes\nFife\nKY7 6NL","geo_precision":"unmatched"},"type":"Feature","geometry":null},{"properties":{"fm id":32119,"geo_score":0.0,"price1":59.0,"id":"ad3mq9waucua","address":"2/6 Bay Road\nLadye Bay\nWalton-St-Mary\nClevedon\nSomerset\nBS21 7BT","geo_precision":"unmatched"},"type":"Feature","geometry":null},{"properties":{"fm id":28119,"geo_score":0.0,"price1":39.0,"id":"ad3mqa3lam6r","address":"Shore Street\nCampbeltown\nArgyll\nPA28 6BS","geo_precision":"unmatched"},"type":"Feature","geometry":null},{"properties":{"fm id":34197,"geo_score":0.0,"price1":59.0,"id":"ad3mq9qkpxn4","address":"Aspen Drive\nSpondon\nDerby\nDerbyshire\nDE21 7SG","geo_precision":"unmatched"},"type":"Feature","geometry":null},{"properties":{"fm id":34007,"geo_score":0.0,"price1":49.0,"id":"ad3mq9t5tmcu","address":"370 Wilsthorpe Road\nLong Eaton\nNottingham\nDerbyshire\nNG10 4AA","geo_precision":"unmatched"},"type":"Feature","geometry":null},{"properties":{"fm id":6469,"geo_score":0.0,"price1":40.0,"id":"ad3mqa0s6gyd","address":"80/84 Chandos Avenue\nWhetstone\nLondon\nOuter London\nN20 9DZ","geo_precision":"unmatched"},"type":"Feature","geometry":null},{"properties":{"fm id":4947,"geo_score":0.0,"price1":49.0,"id":"ad3mqa530wv0","address":"6/8 Aldrington Road\nLondon\nInner London\nSW16 1TH","geo_precision":"unmatched"},"type":"Feature","geometry":null},{"properties":{"fm id":38387,"geo_score":0.0,"price1":49.0,"id":"ad3mq9t0u9k2","address":"Kirkton Road\nStonehaven\nAberdeenshire &amp; Moray\nAB39 2PB","geo_precision":"unmatched"},"type":"Feature","geometry":null},{"properties":{"fm id":34543,"geo_score":0.0,"price1":39.0,"id":"ad3mqa5fy66c","address":"25 Rockingham Road\nCorby\nNorthamptonshire\nNN17 1AD","geo_precision":"unmatched"},"type":"Feature","geometry":null},{"properties":{"fm id":35557,"geo_score":0.0,"price1":30.0,"id":"ad3mq9sq29p5","address":"London Road\nAllostock\nKnutsford\nCheshire\nWA16 9NW","geo_precision":"unmatched"},"type":"Feature","geometry":null},{"properties":{"fm id":24239,"geo_score":0.0,"price1":29.0,"id":"ad3mq9zg63ib","address":"5 Shire Oak Road\nHeadingley\nLeeds\nWest Yorkshire\nLS6 2DD","geo_precision":"unmatched"},"type":"Feature","geometry":null},{"properties":{"fm id":36527,"geo_score":0.0,"price1":29.0,"id":"ad3mq9read0w","address":"Hunslet Hall Road\nLeeds\nWest Yorkshire\nLS11 6TT","geo_precision":"unmatched"},"type":"Feature","geometry":null},{"properties":{"fm id":36535,"geo_score":0.0,"price1":29.0,"id":"ad3mq9pyda8a","address":"13 Wetherby Road\nRoundhay\nLeeds\nWest Yorkshire\nLS8 2JU","geo_precision":"unmatched"},"type":"Feature","geometry":null},{"properties":{"fm id":24689,"geo_score":0.0,"price1":39.0,"id":"ad3mq9xxi2j4","address":"Bartholomew Avenue\nGoole\nEast Riding Of Yorkshire\nDN14 6YN","geo_precision":"unmatched"},"type":"Feature","geometry":null},{"properties":{"fm id":36101,"geo_score":0.0,"price1":39.0,"id":"ad3mq9xwzjpm","address":"48a Newlands Road\nIntake\nSheffield\nSouth Yorkshire\nS12 2FZ","geo_precision":"unmatched"},"type":"Feature","geometry":null},{"properties":{"fm id":59646,"geo_score":0.0,"price1":39.0,"id":"ad3mq9zc5aj0","address":"Porthcawl Rd\nSouth Cornelly\nBridgend\nMid Glamorgan\nCF33 4RE","geo_precision":"unmatched"},"type":"Feature","geometry":null},{"properties":{"fm id":36097,"geo_score":0.0,"price1":39.0,"id":"ad3mqa4dproy","address":"2 Lydgate Court\nLydgate Lane\nCrookes\nSheffield\nSouth Yorkshire\nS10 5FJ","geo_precision":"unmatched"},"type":"Feature","geometry":null},{"properties":{"fm id":36143,"geo_score":0.0,"price1":39.0,"id":"ad3mqa3n1rh3","address":"Warminster Road\nNorton Lees\nSheffield\nSouth Yorkshire\nS8 9BN","geo_precision":"unmatched"},"type":"Feature","geometry":null},{"properties":{"fm id":59648,"geo_score":0.0,"price1":156.0,"id":"ad3mqa1f4w2v","address":"40, Monktonhall Terrace,\nMusselburgh\nEast Lothian\nEH21 6RZ","geo_precision":"unmatched"},"type":"Feature","geometry":null},{"properties":{"fm id":59649,"geo_score":0.0,"price1":59.0,"id":"ad3mq9rtrtot","address":"56 Abbeygreen\nLesmahagow\nSouth Lanarkshire\nML11 0EF","geo_precision":"unmatched"},"type":"Feature","geometry":null},{"properties":{"fm id":38423,"geo_score":0.0,"price1":39.0,"id":"ad3mq9x8vj4c","address":"Castle Avenue\nInvergordon\nHighland &amp; Islands\nIV18 0LW","geo_precision":"unmatched"},"type":"Feature","geometry":null},{"properties":{"fm id":37799,"geo_score":0.0,"price1":39.0,"id":"ad3mq9uoy2zk","address":"Newport Road\nSt Mellons\nCardiff\nCardiff\nCF3 5TW","geo_precision":"unmatched"},"type":"Feature","geometry":null},{"properties":{"fm id":22839,"geo_score":0.0,"price1":49.0,"id":"ad3mq9zjzjto","address":"129 Chatburn Road\nClitheroe\nLancashire\nBB7 2BD","geo_precision":"unmatched"},"type":"Feature","geometry":null},{"properties":{"fm id":23653,"geo_score":0.0,"price1":39.0,"id":"ad3mq9qm38si","address":"Flanderwell Lane\nSunnyside\nRotherham\nSouth Yorkshire\nS66 3QT","geo_precision":"unmatched"},"type":"Feature","geometry":null},{"properties":{"fm id":14507,"geo_score":0.0,"price1":null,"id":"ad3mqa34hk3q","address":"6 Regent Terrace\nPenzance\nCornwall\nTR18 4DW","geo_precision":"unmatched"},"type":"Feature","geometry":null},{"properties":{"fm id":14433,"geo_score":0.0,"price1":null,"id":"ad3mqa3obnxc","address":"Penberthy Road\nPortreath\nRedruth\nCornwall\nTR16 4LW","geo_precision":"unmatched"},"type":"Feature","geometry":null},{"properties":{"fm id":59582,"geo_score":0.0,"price1":39.0,"id":"ad3mqa2b2uvx","address":"Commercial Street\nGriffithstown\nTorfaen\nNP4 5JE","geo_precision":"unmatched"},"type":"Feature","geometry":null},{"properties":{"fm id":25249,"geo_score":0.0,"price1":49.0,"id":"ad3mqa457rnc","address":"Mount View Avenue\nOff Seamer Road\nScarborough\nNorth Yorkshire\nYO12 4EQ","geo_precision":"unmatched"},"type":"Feature","geometry":null},{"properties":{"fm id":58136,"geo_score":0.0,"price1":25.0,"id":"ad3mq9v5uuk0","address":"Highfield Road\nIlfracombe\nDevon\nEX34 9JP.","geo_precision":"unmatched"},"type":"Feature","geometry":null},{"properties":{"fm id":36571,"geo_score":0.0,"price1":39.0,"id":"ad3mq9tybflw","address":"Ladybalk Lane\nPontefract\nWest Yorkshire\nWF8 1JQ","geo_precision":"unmatched"},"type":"Feature","geometry":null},{"properties":{"fm id":28447,"geo_score":0.0,"price1":49.0,"id":"ad3mq9qmdgfj","address":"Glasgow Road\nGalston\nAyrshire\nKA4 8PB","geo_precision":"unmatched"},"type":"Feature","geometry":null},{"properties":{"fm id":59705,"geo_score":0.0,"price1":39.0,"id":"ad3mq9wi9qvv","address":"Morleston Street\nDerby\nDerbyshire\nDE23 8FL","geo_precision":"unmatched"},"type":"Feature","geometry":null},{"properties":{"fm id":59712,"geo_score":0.0,"price1":39.0,"id":"ad3mq9sfffh0","address":"101 Prospect Mount Road\nScarborough\nNorth Yorkshire\nYO12 6EW","geo_precision":"unmatched"},"type":"Feature","geometry":null},{"properties":{"fm id":32815,"geo_score":0.0,"price1":39.0,"id":"ad3mq9u4oehk","address":"Hygrove Lane\nMinsterworth\nGloucester\nGloucestershire\nGL2 8JG","geo_precision":"unmatched"},"type":"Feature","geometry":null},{"properties":{"fm id":38283,"geo_score":0.0,"price1":39.0,"id":"ad3mq9v8ivxt","address":"1 Marchburn Drive\nNorthfield\nAberdeen\nAberdeenshire &amp; Moray\nAB16 7LN","geo_precision":"unmatched"},"type":"Feature","geometry":null},{"properties":{"fm id":59718,"geo_score":0.0,"price1":39.0,"id":"ad3mq9s6f6di","address":"Cricketers Way, Holmes Chapel\nHolmes Chapel\nCheshire\nCW4 7EZ","geo_precision":"unmatched"},"type":"Feature","geometry":null},{"properties":{"fm id":11621,"geo_score":0.0,"price1":49.0,"id":"ad3mq9q0rked","address":"Holly Bank Road\nHook Heath\nWoking\nSurrey\nGU22 0JP","geo_precision":"unmatched"},"type":"Feature","geometry":null},{"properties":{"fm id":34785,"geo_score":0.0,"price1":39.0,"id":"ad3mq9qn0rw5","address":"12 Sherwood Rise\nSherwood\nNottingham\nNottinghamshire\nNG7 6JE","geo_precision":"unmatched"},"type":"Feature","geometry":null},{"properties":{"fm id":59743,"geo_score":0.0,"price1":39.0,"id":"ad3mq9xec3qe","address":"110 Victoria Road East\nCleveleys\nFY5 3SZ","geo_precision":"unmatched"},"type":"Feature","geometry":null},{"properties":{"fm id":37725,"geo_score":0.0,"price1":49.0,"id":"ad3mq9ru1pvc","address":"Coychurch Road\nPencoed\nBridgend\nSwansea\nCF35 5LP","geo_precision":"unmatched"},"type":"Feature","geometry":null},{"properties":{"fm id":59759,"geo_score":0.0,"price1":39.0,"id":"ad3mq9y19t20","address":"New Bryngwyn Road\nNewbridge\nNewport\nNP11 4NF","geo_precision":"unmatched"},"type":"Feature","geometry":null},{"properties":{"fm id":37993,"geo_score":0.0,"price1":39.0,"id":"ad3mq9shfumd","address":"Heol Islwyn\nTreharris\nGwent\nCF46 6HG","geo_precision":"unmatched"},"type":"Feature","geometry":null},{"properties":{"fm id":19805,"geo_score":0.0,"price1":39.0,"id":"ad3mq9xecbq9","address":"London Lane\nWymeswold\nLoughborough\nLeicestershire\nLE12 6UB","geo_precision":"unmatched"},"type":"Feature","geometry":null},{"properties":{"fm id":20379,"geo_score":0.0,"price1":40.0,"id":"ad3mqa21bz44","address":"Alford Road\nMablethorpe\nLincolnshire\nLN12 1PX","geo_precision":"unmatched"},"type":"Feature","geometry":null},{"properties":{"fm id":33019,"geo_score":0.0,"price1":39.0,"id":"ad3mq9rd1mhj","address":"60 North Street\nCrewkerne\nSomerset\nTA18 7AX","geo_precision":"unmatched"},"type":"Feature","geometry":null},{"properties":{"fm id":21389,"geo_score":0.0,"price1":35.0,"id":"ad3mq9zgk2n9","address":"54/56 Crofts Bank Road\nUrmston\nManchester\nGreater Manchester\nM41 0UH","geo_precision":"unmatched"},"type":"Feature","geometry":null},{"properties":{"fm id":59774,"geo_score":0.0,"price1":null,"id":"ad3mq9xgn3vy","address":"10, Shorthorpe Street\nMusselburgh\nEH21 7DB","geo_precision":"unmatched"},"type":"Feature","geometry":null},{"properties":{"fm id":59775,"geo_score":0.0,"price1":null,"id":"ad3mq9yp4nm9","address":"Old Abbey Road\nNorth Berwick\nEast Lothian,\nEH33 1QB","geo_precision":"unmatched"},"type":"Feature","geometry":null},{"properties":{"fm id":59776,"geo_score":0.0,"price1":null,"id":"ad3mqa2c05m6","address":"22a, Church Street\nTranent\nEast Lothian\nEH33 1AB","geo_precision":"unmatched"},"type":"Feature","geometry":null},{"properties":{"fm id":21595,"geo_score":0.0,"price1":25.0,"id":"ad3mqa260kgn","address":"Adswood Lane West\nCale Green\nStockport\nGreater Manchester\nSK3 8HT","geo_precision":"unmatched"},"type":"Feature","geometry":null},{"properties":{"fm id":59786,"geo_score":0.0,"price1":39.0,"id":"ad3mqa377k0v","address":"Glen Vue Centre\nRailway Approach\nEast Grinstead\nWest Sussex\nRH19 1BS","geo_precision":"unmatched"},"type":"Feature","geometry":null},{"properties":{"fm id":59787,"geo_score":0.0,"price1":39.0,"id":"ad3mqa1zl1kc","address":"Peter Mceachran House\n12 Kennyhill Square\nDennistoun\nGlasgow\nG31 3LW","geo_precision":"unmatched"},"type":"Feature","geometry":null},{"properties":{"fm id":34291,"geo_score":0.0,"price1":59.0,"id":"ad3mqa3foaaj","address":"105/107 Coventry Road\nMarket Harborough\nLeicestershire\nLE16 9BX","geo_precision":"unmatched"},"type":"Feature","geometry":null},{"properties":{"fm id":59811,"geo_score":0.0,"price1":49.0,"id":"ad3mq9pggbrl","address":"Southside Nursing Home\nInverness\nHighland\nIV2 4XA","geo_precision":"unmatched"},"type":"Feature","geometry":null},{"properties":{"fm id":21187,"geo_score":0.0,"price1":59.0,"id":"ad3mqa3ookud","address":"22 Woodlands Drive\nAtherton\nManchester\nGreater Manchester\nM46 9HH","geo_precision":"unmatched"},"type":"Feature","geometry":null},{"properties":{"fm id":10569,"geo_score":0.0,"price1":25.0,"id":"ad3mq9wgs86e","address":"19 Hillcrest Road\nHythe\nKent\nCT21 5EU","geo_precision":"unmatched"},"type":"Feature","geometry":null},{"properties":{"fm id":59821,"geo_score":0.0,"price1":39.0,"id":"ad3mq9p8q87w","address":"Maidenbower Day Centre\nHarvest Road\nCrawley\nWest Sussex\nRH10 7RA","geo_precision":"unmatched"},"type":"Feature","geometry":null},{"properties":{"fm id":30499,"geo_score":0.0,"price1":49.0,"id":"ad3mq9stfg3r","address":"Rickmansworth Road\nChorleywood\nRickmansworth\nHertfordshire\nWD3 5BY","geo_precision":"unmatched"},"type":"Feature","geometry":null},{"properties":{"fm id":59855,"geo_score":0.0,"price1":49.0,"id":"ad3mqa539kjh","address":"Belle Rose Nursing Home\n12 Prince Of Wales Road\nDorcheser\nDorset\nDT1 1PW","geo_precision":"unmatched"},"type":"Feature","geometry":null},{"properties":{"fm id":59867,"geo_score":0.0,"price1":39.0,"id":"ad3mq9v098mo","address":"Beechwood Close\nStapeley\nNantwich\nCW5 7FY","geo_precision":"unmatched"},"type":"Feature","geometry":null},{"properties":{"fm id":35041,"geo_score":0.0,"price1":39.0,"id":"ad3mq9u3g4kr","address":"1 Broadwood Close\nDisley\nStockport\nGreater Manchester\nSK12 2NJ","geo_precision":"unmatched"},"type":"Feature","geometry":null},{"properties":{"fm id":35039,"geo_score":0.0,"price1":39.0,"id":"ad3mq9rjmqp7","address":"Broadwood Close\nDisley\nStockport\nGreater Manchester\nSK12 2NJ","geo_precision":"unmatched"},"type":"Feature","geometry":null},{"properties":{"fm id":35493,"geo_score":0.0,"price1":39.0,"id":"ad3mqa4to0ut","address":"Horseshoe Lane\nAlderley Edge\nCheshire\nSK9 7QP","geo_precision":"unmatched"},"type":"Feature","geometry":null},{"properties":{"fm id":22397,"geo_score":0.0,"price1":39.0,"id":"ad3mq9vfcjbg","address":"London Road\nAdlington\nMacclesfield\nCheshire\nSK10 4NJ","geo_precision":"unmatched"},"type":"Feature","geometry":null},{"properties":{"fm id":22457,"geo_score":0.0,"price1":39.0,"id":"ad3mqa4tb96w","address":"London Road\nAdlington\nMacclesfield\nCheshire\nSK10 4NJ","geo_precision":"unmatched"},"type":"Feature","geometry":null},{"properties":{"fm id":35653,"geo_score":0.0,"price1":49.0,"id":"ad3mq9ypk3kn","address":"20 Banksfield Avenue\nCadley\nFulwood\nPreston\nLancashire\nPR2 3RN","geo_precision":"unmatched"},"type":"Feature","geometry":null},{"properties":{"fm id":38557,"geo_score":0.0,"price1":49.0,"id":"ad3mqa5gmmcc","address":"Cameron Park\n70 Peffermill Road\nEdinburgh\nEdinburgh &amp; Lothian\nEH16 5LP","geo_precision":"unmatched"},"type":"Feature","geometry":null},{"properties":{"fm id":59884,"geo_score":0.0,"price1":30.0,"id":"ad3mq9rc664f","address":"4 High Street\nTadworth\nSurrey\nKT20 5SD","geo_precision":"unmatched"},"type":"Feature","geometry":null},{"properties":{"fm id":59896,"geo_score":0.0,"price1":null,"id":"ad3mqa53ks8z","address":"Colne House\nStation Road\nEarls Colne\nEssex\nCO6 2LT","geo_precision":"unmatched"},"type":"Feature","geometry":null},{"properties":{"fm id":59899,"geo_score":0.0,"price1":39.0,"id":"ad3mqa0fkgbz","address":"The Hayes\nLong Street\nSherborne\nDorest\nDT9 3ED","geo_precision":"unmatched"},"type":"Feature","geometry":null},{"properties":{"fm id":12035,"geo_score":0.0,"price1":40.0,"id":"ad3mq9rl09y8","address":"107/109 Enys Road\nEastbourne\nEast Sussex\nBN21 2ED","geo_precision":"unmatched"},"type":"Feature","geometry":null},{"properties":{"fm id":59905,"geo_score":0.0,"price1":49.0,"id":"ad3mq9p33y4j","address":"Princess Christian Care Centre\nStafford Lake\nWoking\nSurrey\nGU21 2SJ","geo_precision":"unmatched"},"type":"Feature","geometry":null},{"properties":{"fm id":33089,"geo_score":0.0,"price1":30.0,"id":"ad3mq9so3eq9","address":"Milford Mill Road\nMilford\nSalisbury\nWiltshire\nSP1 1NJ","geo_precision":"unmatched"},"type":"Feature","geometry":null},{"properties":{"fm id":59941,"geo_score":0.0,"price1":39.0,"id":"ad3mqa0ewt0r","address":"Woodville Centre\nWoodville Road\nHam\nSurrey\nTW10 7QW","geo_precision":"unmatched"},"type":"Feature","geometry":null},{"properties":{"fm id":15825,"geo_score":0.0,"price1":39.2,"id":"ad3mqa3u3k47","address":"434 Ringwood Road\nFerndown\nDorset\nBH22 9AY","geo_precision":"unmatched"},"type":"Feature","geometry":null},{"properties":{"fm id":29251,"geo_score":0.0,"price1":47.2,"id":"ad3mq9w2fr5r","address":"35 Priestlands Park Road\nSidcup\nOuter London\nDA15 7HJ","geo_precision":"unmatched"},"type":"Feature","geometry":null},{"properties":{"fm id":59971,"geo_score":0.0,"price1":null,"id":"ad3mq9saadmv","address":"Botley Road\nWest End\nSouthampton\nHampshire\nSO30 3RS","geo_precision":"unmatched"},"type":"Feature","geometry":null},{"properties":{"fm id":59986,"geo_score":0.0,"price1":44.5,"id":"ad3mq9tm2swz","address":"50 Queen St\nBerry\nNsw Australia\n2535","geo_precision":"unmatched"},"type":"Feature","geometry":null},{"properties":{"fm id":59990,"geo_score":0.0,"price1":39.2,"id":"ad3mq9y214rg","address":"Kingsland House\nKingsland Close\nOff Middle Road\nShoreham By Sea\nWest Sussex\nBN43 6LT","geo_precision":"unmatched"},"type":"Feature","geometry":null},{"properties":{"fm id":60003,"geo_score":0.0,"price1":39.2,"id":"ad3mqa1y4d6f","address":"Westwood House\n1 East Milton Grove\nEast Kilbride\nG75 8SN","geo_precision":"unmatched"},"type":"Feature","geometry":null},{"properties":{"fm id":60049,"geo_score":0.0,"price1":49.0,"id":"ad3mq9zb8gk0","address":"Westacre Nursing Home\nSleepers Hill\nWinchester\nHants\nSO22 4NE","geo_precision":"unmatched"},"type":"Feature","geometry":null},{"properties":{"fm id":60059,"geo_score":0.0,"price1":49.0,"id":"ad3mq9rtw3mh","address":"Evanmoor\nWrens Road Borden\nSittingbourne\nKent\nME9 8JD","geo_precision":"unmatched"},"type":"Feature","geometry":null},{"properties":{"fm id":60090,"geo_score":0.0,"price1":49.0,"id":"ad3mqa3hsr98","address":"25 St Ann's Ave\nGrimsby\nNorth East Lincolnshire\nDN34 4PW","geo_precision":"unmatched"},"type":"Feature","geometry":null},{"properties":{"fm id":60121,"geo_score":0.0,"price1":39.2,"id":"ad3mq9vdwwak","address":"Leeds &amp; York Partnership Nhs Foundation Trust\nThe Mount, Ward 2\n44 Hyde Terrace\nLeeds\nWest Yorkshire\nLS2 9LN","geo_precision":"unmatched"},"type":"Feature","geometry":null},{"properties":{"fm id":60146,"geo_score":0.0,"price1":null,"id":"ad3mqa0yt5hi","address":"Victoria Road\nBarking\nIG11 8PE","geo_precision":"unmatched"},"type":"Feature","geometry":null},{"properties":{"fm id":60247,"geo_score":0.0,"price1":59.0,"id":"ad3mq9sx9t5k","address":"Sunrise Of Elstree\nEdgwarebury Lane\nElstree\nHerts\nWD6 3RG","geo_precision":"unmatched"},"type":"Feature","geometry":null},{"properties":{"fm id":60255,"geo_score":0.0,"price1":49.0,"id":"ad3mqajm4va5","address":"Redhill Road\nCobham\nSurrey\nKT11 1EF","geo_precision":"unmatched"},"type":"Feature","geometry":null},{"properties":{"fm id":60303,"geo_score":0.0,"price1":53.1,"id":"ad3mqajqsmjb","address":"Old Rectory Nursing Home\n46/46 Old Tiverton Road\nExeter\nDevon\nEX4 6NG","geo_precision":"unmatched"},"type":"Feature","geometry":null},{"properties":{"fm id":60386,"geo_score":0.0,"price1":39.0,"id":"ad3mqa6i0yaa","address":"Bayswater Road\nHeadington\nOxford\nOxfordshire\nOX3 9NX","geo_precision":"unmatched"},"type":"Feature","geometry":null}],"is_temporal":false,"author":{"url":null,"metadata":null,"contact_name":null,"contact_address":null,"source":null,"contact_phone":null},"source":null,"pagination":{"sort":null,"start":0,"total":537,"limit":1000000},"state":"complete","tags":"","published":"2014-08-16T20:52:19-04:00","id":336225}