{"type":"FeatureCollection","data_type":"Dataset","url_type":null,"permissions":[{"permissions":{"download":true,"view":true},"group_id":"everyone"}],"classification":null,"title":"Map","count":28,"stream_id":336796,"contributor":{"url":"http://geocommons.com/users/67498","name":"gracekimble"},"data_attributes":null,"calculation_params":null,"icon_link":null,"link":"http://geocommons.com/overlays/336796.json","extent":[0.0,0.0,0.0,0.0],"geometry_types":null,"unique_name":null,"name":"Map","feature_count":28,"description":"","next_feature":null,"is_raster":false,"short_classification":"Y","features":[{"properties":{"postcode":"B1","cpuntry":"England","id":"ad53p7mmnp07","frequency":"1"},"type":"Feature","geometry":null},{"properties":{"postcode":"BR1","cpuntry":"England","id":"ad53p79y7k2g","frequency":"3"},"type":"Feature","geometry":null},{"properties":{"postcode":"CR1","cpuntry":"England","id":"ad53p7egh6s0","frequency":"1"},"type":"Feature","geometry":null},{"properties":{"postcode":"DA1","cpuntry":"England","id":"ad53p7cfi6ea","frequency":"1"},"type":"Feature","geometry":null},{"properties":{"postcode":"E1","cpuntry":"England","id":"ad53p7cuec7r","frequency":"22"},"type":"Feature","geometry":null},{"properties":{"postcode":"EC1","cpuntry":"England","id":"ad53p7ho214y","frequency":"7"},"type":"Feature","geometry":null},{"properties":{"postcode":"EN1","cpuntry":"England","id":"ad53p7iw09w0","frequency":"1"},"type":"Feature","geometry":null},{"properties":{"postcode":"GU1","cpuntry":"England","id":"ad53p78nolah","frequency":"1"},"type":"Feature","geometry":null},{"properties":{"postcode":"HA1","cpuntry":"England","id":"ad53p7igspay","frequency":"8"},"type":"Feature","geometry":null},{"properties":{"postcode":"HP1","cpuntry":"England","id":"ad53p7b71awq","frequency":"2"},"type":"Feature","geometry":null},{"properties":{"postcode":"IG1","cpuntry":"England","id":"ad53p7grocc5","frequency":"1"},"type":"Feature","geometry":null},{"properties":{"postcode":"KT1","cpuntry":"England","id":"ad53p7hbdnzd","frequency":"8"},"type":"Feature","geometry":null},{"properties":{"postcode":"MK1","cpuntry":"England","id":"ad53p7cn0q04","frequency":"1"},"type":"Feature","geometry":null},{"properties":{"postcode":"N1","cpuntry":"England","id":"ad53p7aw6wud","frequency":"50"},"type":"Feature","geometry":null},{"properties":{"postcode":"NW1","cpuntry":"England","id":"ad53p7j9ef6k","frequency":"15"},"type":"Feature","geometry":null},{"properties":{"postcode":"PO1","cpuntry":"England","id":"ad53p7g4msh3","frequency":"1"},"type":"Feature","geometry":null},{"properties":{"postcode":"RM1","cpuntry":"England","id":"ad53p7c7wrzx","frequency":"1"},"type":"Feature","geometry":null},{"properties":{"postcode":"S1","cpuntry":"England","id":"ad53p7keu5b3","frequency":"1"},"type":"Feature","geometry":null},{"properties":{"postcode":"SE1","cpuntry":"England","id":"ad53p7ho46os","frequency":"62"},"type":"Feature","geometry":null},{"properties":{"postcode":"SL1","cpuntry":"England","id":"ad53p7avmchn","frequency":"1"},"type":"Feature","geometry":null},{"properties":{"postcode":"SM1","cpuntry":"England","id":"ad53p7ajvkzb","frequency":"3"},"type":"Feature","geometry":null},{"properties":{"postcode":"SW1","cpuntry":"England","id":"ad53p77wvz0b","frequency":"44"},"type":"Feature","geometry":null},{"properties":{"postcode":"TA1","cpuntry":"England","id":"ad53p78dox1q","frequency":"1"},"type":"Feature","geometry":null},{"properties":{"postcode":"TN1","cpuntry":"England","id":"ad53p7h7glfb","frequency":"1"},"type":"Feature","geometry":null},{"properties":{"postcode":"TW1","cpuntry":"England","id":"ad53p7cx6a2v","frequency":"10"},"type":"Feature","geometry":null},{"properties":{"postcode":"W1","cpuntry":"England","id":"ad53p778yizv","frequency":"30"},"type":"Feature","geometry":null},{"properties":{"postcode":"WC1","cpuntry":"England","id":"ad53p7bu2kyi","frequency":"10"},"type":"Feature","geometry":null},{"properties":{"postcode":"WD1","cpuntry":"England","id":"ad53p7jbtm6o","frequency":"3"},"type":"Feature","geometry":null}],"is_temporal":false,"author":{"url":"","metadata":null,"contact_name":null,"contact_address":null,"source":null,"contact_phone":null},"source":"","pagination":{"sort":null,"start":0,"total":28,"limit":1000000},"state":"parsed","tags":"","published":"2014-08-16T21:36:44-04:00","id":336796}