{"type":"FeatureCollection","data_type":"Dataset","url_type":null,"permissions":[{"permissions":{"download":true,"view":true},"group_id":"everyone"}],"classification":null,"title":"liquordata2","count":300,"stream_id":33712,"contributor":{"url":"http://geocommons.com/users/11796","name":"puck_lo"},"data_attributes":null,"calculation_params":null,"icon_link":null,"link":"http://geocommons.com/overlays/33712.json","extent":[-122.301,37.728,-122.15,37.8587],"geometry_types":["point"],"unique_name":null,"name":"liquordata2","feature_count":300,"description":"","next_feature":null,"is_raster":false,"short_classification":"Y","stats":{"geo_score":{"max":1.0,"mean":0.953633333333333,"variance":0.00707858082497212,"stdev":0.0841343023087024,"min":0.382,"median":1.0}},"features":[{"properties":{"city":"OAKLAND","name":"3 M FOOD","geo_score":1.0,"zip code":"94605","id":"a76y6pz83h6w","geo_precision":"range","address":"6349 MACARTHUR BLVD","state":"CA"},"type":"Feature","geometry":{"type":"Point","coordinates":[-122.180216,37.774265]}},{"properties":{"city":"OAKLAND","name":"35TH AVENUE BP","geo_score":0.916,"zip code":"94619","id":"a76y6pvq29eo","geo_precision":"range","address":"3201 35TH AVE","state":"CA"},"type":"Feature","geometry":{"type":"Point","coordinates":[-122.204783,37.791252]}},{"properties":{"city":"OAKLAND","name":"65TH STREET MARKET","geo_score":0.902,"zip code":"94608","id":"a76y6pzmphv8","geo_precision":"range","address":"6444 SAN PABLO AVE","state":"CA"},"type":"Feature","geometry":{"type":"Point","coordinates":[-122.285337,37.847676]}},{"properties":{"city":"OAKLAND","name":"7 ELEVEN","geo_score":0.915,"zip code":"94611","id":"a76y6po9i9ed","geo_precision":"range","address":"4100 BROADWAY","state":"CA"},"type":"Feature","geometry":{"type":"Point","coordinates":[-122.256203,37.828483]}},{"properties":{"city":"OAKLAND","name":"7 ELEVEN STORE","geo_score":1.0,"zip code":"94612","id":"a76y6q0jppmg","geo_precision":"range","address":"2350 HARRISON ST","state":"CA"},"type":"Feature","geometry":{"type":"Point","coordinates":[-122.261716,37.812768]}},{"properties":{"city":"OAKLAND","name":"7 ELEVEN STORE","geo_score":0.916,"zip code":"94606","id":"a76y6pw8kzgf","geo_precision":"range","address":"324 23RD AVENUE","state":"CA"},"type":"Feature","geometry":{"type":"Point","coordinates":[-122.235958,37.772456]}},{"properties":{"city":"OAKLAND","name":"7 ELEVEN STORE","geo_score":0.915,"zip code":"94611","id":"a76y6q3bowtr","geo_precision":"range","address":"5741 THORNHILL DRIVE","state":"CA"},"type":"Feature","geometry":{"type":"Point","coordinates":[-122.212581,37.83427]}},{"properties":{"city":"OAKLAND","name":"7 ELEVEN STORE","geo_score":1.0,"zip code":"94619","id":"a76y6q0a7bo1","geo_precision":"range","address":"4720 MACARTHUR BLVD","state":"CA"},"type":"Feature","geometry":{"type":"Point","coordinates":[-122.190429,37.785216]}},{"properties":{"city":"OAKLAND","name":"7 ELEVEN STORE","geo_score":1.0,"zip code":"94610","id":"a76y6pxgvatx","geo_precision":"range","address":"3500 GRAND AVE","state":"CA"},"type":"Feature","geometry":{"type":"Point","coordinates":[-122.246324,37.814302]}},{"properties":{"city":"OAKLAND","name":"7 ELEVEN STORE","geo_score":0.915,"zip code":"94611","id":"a76y6ptrule2","geo_precision":"range","address":"4193 PIEDMONT AVE","state":"CA"},"type":"Feature","geometry":{"type":"Point","coordinates":[-122.250997,37.827604]}},{"properties":{"city":"OAKLAND","name":"7 ELEVEN STORE","geo_score":1.0,"zip code":"94602","id":"a76y6q0iz588","geo_precision":"range","address":"2411 MACARTHUR BLVD","state":"CA"},"type":"Feature","geometry":{"type":"Point","coordinates":[-122.214015,37.79977]}},{"properties":{"city":"OAKLAND","name":"7TH STREET FOOD &amp; LIQUORS","geo_score":0.883,"zip code":"94607","id":"a76y6pqozola","geo_precision":"range","address":"1460 7TH ST","state":"CA"},"type":"Feature","geometry":{"type":"Point","coordinates":[-122.295185,37.805404]}},{"properties":{"city":"OAKLAND","name":"A &amp; A CORNER","geo_score":1.0,"zip code":"94601","id":"a76y6q1s0d82","geo_precision":"range","address":"2520 FOOTHILL BLVD","state":"CA"},"type":"Feature","geometry":{"type":"Point","coordinates":[-122.230579,37.784692]}},{"properties":{"city":"OAKLAND","name":"A &amp; M LIQUOR","geo_score":1.0,"zip code":"94602","id":"a76y6ps9bpy7","geo_precision":"range","address":"1301 MACARTHUR BLVD","state":"CA"},"type":"Feature","geometry":{"type":"Point","coordinates":[-122.231609,37.802264]}},{"properties":{"city":"OAKLAND","name":"A &amp; R MARKET","geo_score":1.0,"zip code":"94601","id":"a76y6pylm6s5","geo_precision":"range","address":"3615 FOOTHILL BLVD","state":"CA"},"type":"Feature","geometry":{"type":"Point","coordinates":[-122.21845,37.780599]}},{"properties":{"city":"OAKLAND","name":"A MARKET","geo_score":0.902,"zip code":"94608","id":"a76y6ppkghef","geo_precision":"range","address":"5650 MARKET ST","state":"CA"},"type":"Feature","geometry":{"type":"Point","coordinates":[-122.274319,37.840878]}},{"properties":{"city":"OAKLAND","name":"ABB MARKET","geo_score":0.916,"zip code":"94603","id":"a76y6pwemfj5","geo_precision":"range","address":"1839 96TH AVE","state":"CA"},"type":"Feature","geometry":{"type":"Point","coordinates":[-122.166809,37.748003]}},{"properties":{"city":"OAKLAND","name":"ABES LOTTO LIQUOR","geo_score":1.0,"zip code":"94603","id":"a76y6q121woa","geo_precision":"range","address":"10125 INTERNATIONAL BLVD","state":"CA"},"type":"Feature","geometry":{"type":"Point","coordinates":[-122.168563,37.741855]}},{"properties":{"city":"OAKLAND","name":"ADBULLA ALDAHMI","geo_score":1.0,"zip code":"94605","id":"a76y6pqx4684","geo_precision":"range","address":"8607 BANCROFT AVE","state":"CA"},"type":"Feature","geometry":{"type":"Point","coordinates":[-122.168193,37.756775]}},{"properties":{"city":"OAKLAND","name":"ADELINE LIQUOR","geo_score":0.902,"zip code":"94608","id":"a76y6q3nznjs","geo_precision":"range","address":"5702 ADELINE ST","state":"CA"},"type":"Feature","geometry":{"type":"Point","coordinates":[-122.274493,37.841629]}},{"properties":{"city":"OAKLAND","name":"AIBAN MARKET","geo_score":0.902,"zip code":"94609","id":"a76y6pxf3qn0","geo_precision":"range","address":"701 60TH ST","state":"CA"},"type":"Feature","geometry":{"type":"Point","coordinates":[-122.268369,37.845473]}},{"properties":{"city":"OAKLAND","name":"AKHYAR MARKET","geo_score":1.0,"zip code":"94606","id":"a76y6q23l2fa","geo_precision":"range","address":"2118 INTERNATIONAL BLVD","state":"CA"},"type":"Feature","geometry":{"type":"Point","coordinates":[-122.238832,37.785146]}},{"properties":{"city":"OAKLAND","name":"ALEXANDRES MARKET &amp; SPIRITS","geo_score":1.0,"zip code":"94612","id":"a76y6pslke0l","geo_precision":"range","address":"1913 SAN PABLO AVE","state":"CA"},"type":"Feature","geometry":{"type":"Point","coordinates":[-122.272937,37.809311]}},{"properties":{"city":"OAKLAND","name":"ALFARDI MARKET","geo_score":0.916,"zip code":"94601","id":"a76y6pz2w7qe","geo_precision":"range","address":"1546 35TH AVENUE","state":"CA"},"type":"Feature","geometry":{"type":"Point","coordinates":[-122.221517,37.778366]}},{"properties":{"city":"OAKLAND","name":"ALL MART","geo_score":1.0,"zip code":"94621","id":"a76y6pt9q5cy","geo_precision":"range","address":"6421 INTERNATIONAL BLVD","state":"CA"},"type":"Feature","geometry":{"type":"Point","coordinates":[-122.195583,37.763306]}},{"properties":{"city":"OAKLAND","name":"ALTEL BOTTLE SHOP &amp; ETHIO DELI","geo_score":1.0,"zip code":"94609","id":"a76y6q1euhf2","geo_precision":"range","address":"6363 TELEGRAPH AVENUE","state":"CA"},"type":"Feature","geometry":{"type":"Point","coordinates":[-122.260669,37.849625]}},{"properties":{"city":"OAKLAND","name":"ARCO","geo_score":1.0,"zip code":"94610","id":"a76y6q2zpalc","geo_precision":"range","address":"3310 PARK BLVD","state":"CA"},"type":"Feature","geometry":{"type":"Point","coordinates":[-122.235374,37.803329]}},{"properties":{"city":"OAKLAND","name":"ARCO AM PM","geo_score":1.0,"zip code":"94621","id":"a76y6q1k8c4z","geo_precision":"range","address":"566 HEGENBERGER RD","state":"CA"},"type":"Feature","geometry":{"type":"Point","coordinates":[-122.196207,37.74456]}},{"properties":{"city":"OAKLAND","name":"ARCO AMPM","geo_score":1.0,"zip code":"94609","id":"a76y6ppz0btd","geo_precision":"range","address":"5131 SHATTUCK AVE","state":"CA"},"type":"Feature","geometry":{"type":"Point","coordinates":[-122.264281,37.837792]}},{"properties":{"city":"OAKLAND","name":"ARCO MINI MART","geo_score":1.0,"zip code":"94603","id":"a76y6prvm595","geo_precision":"range","address":"9800 INTERNATIONAL BLVD","state":"CA"},"type":"Feature","geometry":{"type":"Point","coordinates":[-122.170489,37.744471]}},{"properties":{"city":"OAKLAND","name":"ASA LIQUOR","geo_score":0.902,"zip code":"94608","id":"a76y6pwmjtv9","geo_precision":"range","address":"5909 MARKET ST","state":"CA"},"type":"Feature","geometry":{"type":"Point","coordinates":[-122.275117,37.843991]}},{"properties":{"city":"OAKLAND","name":"AUBIN CELLARS","geo_score":0.915,"zip code":"94611","id":"a76y6ppjb8gi","geo_precision":"range","address":"6050 COLTON BLVD","state":"CA"},"type":"Feature","geometry":{"type":"Point","coordinates":[-122.207849,37.832531]}},{"properties":{"city":"OAKLAND","name":"BANCROFT MARKET &amp; LIQUOR","geo_score":1.0,"zip code":"94601","id":"a76y6pxl1a3u","geo_precision":"range","address":"5001 BANCROFT AVENUE","state":"CA"},"type":"Feature","geometry":{"type":"Point","coordinates":[-122.207089,37.771747]}},{"properties":{"city":"OAKLAND","name":"BAY AREA LIQUORS &amp; GROCERIES","geo_score":0.902,"zip code":"94608","id":"a76y6pww08ma","geo_precision":"range","address":"3148 SAN PABLO AVE","state":"CA"},"type":"Feature","geometry":{"type":"Point","coordinates":[-122.277157,37.822297]}},{"properties":{"city":"OAKLAND","name":"BAY FARM PRODUCE LOS MEXINOS","geo_score":1.0,"zip code":"94601","id":"a76y6pyte4du","geo_precision":"range","address":"1244 HIGH ST","state":"CA"},"type":"Feature","geometry":{"type":"Point","coordinates":[-122.215592,37.771783]}},{"properties":{"city":"OAKLAND","name":"BAY SUPERMARKET","geo_score":0.916,"zip code":"94621","id":"a76y6q03flj4","geo_precision":"range","address":"1774 82ND AVE","state":"CA"},"type":"Feature","geometry":{"type":"Point","coordinates":[-122.175137,37.757802]}},{"properties":{"city":"OAKLAND","name":"BAYVIEW MARKET &amp; LIQUOR","geo_score":1.0,"zip code":"94603","id":"a76y6q3ipauu","geo_precision":"range","address":"10459 EDES AVE","state":"CA"},"type":"Feature","geometry":{"type":"Point","coordinates":[-122.178563,37.733449]}},{"properties":{"city":"OAKLAND","name":"BEE POKPAL INC","geo_score":1.0,"zip code":"94609","id":"a76y6pviuq96","geo_precision":"range","address":"6407 TELEGRAPH AVENUE","state":"CA"},"type":"Feature","geometry":{"type":"Point","coordinates":[-122.260587,37.850222]}},{"properties":{"city":"OAKLAND","name":"BENNYS MARKET","geo_score":1.0,"zip code":"94621","id":"a76y6pzzcl5b","geo_precision":"range","address":"1854 CHURCH ST","state":"CA"},"type":"Feature","geometry":{"type":"Point","coordinates":[-122.185631,37.764283]}},{"properties":{"city":"OAKLAND","name":"BETTER TRADE MARKET","geo_score":1.0,"zip code":"94621","id":"a76y6ptcil88","geo_precision":"range","address":"7838 INTERNATIONAL BLVD","state":"CA"},"type":"Feature","geometry":{"type":"Point","coordinates":[-122.18307,37.757324]}},{"properties":{"city":"OAKLAND","name":"BEVMO","geo_score":0.683,"zip code":"94607","id":"a76y6pox6oum","geo_precision":"zip","address":"525 EMBARDERO W","state":"CA"},"type":"Feature","geometry":{"type":"Point","coordinates":[-122.29878,37.807967]}},{"properties":{"city":"OAKLAND","name":"BLACK &amp; WHITE MARKET","geo_score":1.0,"zip code":"94601","id":"a76y6q3t77kp","geo_precision":"range","address":"2681 FRUITVALE AVE","state":"CA"},"type":"Feature","geometry":{"type":"Point","coordinates":[-122.220159,37.790278]}},{"properties":{"city":"OAKLAND","name":"BLUE &amp; GOLD MARKET","geo_score":0.916,"zip code":"94606","id":"a76y6pnxnx7p","geo_precision":"range","address":"1811 14TH AVENUE","state":"CA"},"type":"Feature","geometry":{"type":"Point","coordinates":[-122.242616,37.792064]}},{"properties":{"city":"OAKLAND","name":"BLUE BIRD MARKET","geo_score":0.902,"zip code":"94608","id":"a76y6psteyhr","geo_precision":"range","address":"3431 SAN PABLO AVE","state":"CA"},"type":"Feature","geometry":{"type":"Point","coordinates":[-122.278173,37.825486]}},{"properties":{"city":"OAKLAND","name":"BONFARE MARKET","geo_score":1.0,"zip code":"94602","id":"a76y6pthvnza","geo_precision":"range","address":"1615 MACARTHUR BLVD","state":"CA"},"type":"Feature","geometry":{"type":"Point","coordinates":[-122.223573,37.800508]}},{"properties":{"city":"OAKLAND","name":"BORDEAUX ETC WINE IMPORTS","geo_score":1.0,"zip code":"94606","id":"a76y6q2cco4j","geo_precision":"range","address":"901 KING ST","state":"CA"},"type":"Feature","geometry":{"type":"Point","coordinates":[-122.240186,37.778706]}},{"properties":{"city":"OAKLAND","name":"BOTTLENECK LIQUOR","geo_score":0.916,"zip code":"94605","id":"a76y6pyan84i","geo_precision":"range","address":"3151 98TH AVE","state":"CA"},"type":"Feature","geometry":{"type":"Point","coordinates":[-122.153158,37.753066]}},{"properties":{"city":"OAKLAND","name":"BOTTLES LIQUOR","geo_score":1.0,"zip code":"94607","id":"a76y6poouy8v","geo_precision":"range","address":"1150 MARKET ST","state":"CA"},"type":"Feature","geometry":{"type":"Point","coordinates":[-122.281727,37.806421]}},{"properties":{"city":"OAKLAND","name":"BROADWAY LIQUOR","geo_score":0.915,"zip code":"94611","id":"a76y6q24vr01","geo_precision":"range","address":"2860 BROADWAY","state":"CA"},"type":"Feature","geometry":{"type":"Point","coordinates":[-122.263402,37.817034]}},{"properties":{"city":"OAKLAND","name":"BROOKFIELD FOOD CENTER","geo_score":0.916,"zip code":"94603","id":"a76y6pzeld34","geo_precision":"range","address":"675 98TH AVE","state":"CA"},"type":"Feature","geometry":{"type":"Point","coordinates":[-122.183081,37.736717]}},{"properties":{"city":"OAKLAND","name":"BROOKFIELD LIQUOR","geo_score":1.0,"zip code":"94603","id":"a76y6pxawz7r","geo_precision":"range","address":"9786 EDES AVE","state":"CA"},"type":"Feature","geometry":{"type":"Point","coordinates":[-122.183519,37.736466]}},{"properties":{"city":"OAKLAND","name":"BROTHERS MARKET","geo_score":0.986,"zip code":"94609","id":"a76y6pupa6f1","geo_precision":"range","address":"2837 MARTIN LUTHER KING JR WY","state":"CA"},"type":"Feature","geometry":{"type":"Point","coordinates":[-122.271267,37.818402]}},{"properties":{"city":"OAKLAND","name":"BRUCE LIQUORS","geo_score":1.0,"zip code":"94605","id":"a76y6pob5rui","geo_precision":"range","address":"10729 MACARTHUR BLVD","state":"CA"},"type":"Feature","geometry":{"type":"Point","coordinates":[-122.151449,37.742163]}},{"properties":{"city":"OAKLAND","name":"BUCKINGHAM WINES &amp; SPIRITS","geo_score":1.0,"zip code":"94610","id":"a76y6pompwt2","geo_precision":"range","address":"3293 LAKESHORE AVE","state":"CA"},"type":"Feature","geometry":{"type":"Point","coordinates":[-122.244964,37.810498]}},{"properties":{"city":"OAKLAND","name":"BUTTARS EZ DISCOUNT MARKET","geo_score":1.0,"zip code":"94603","id":"a76y6q3tsj30","geo_precision":"range","address":"10808 BANCROFT AVE","state":"CA"},"type":"Feature","geometry":{"type":"Point","coordinates":[-122.155986,37.740242]}},{"properties":{"city":"OAKLAND","name":"CHEVRON","geo_score":0.484,"zip code":"94612","id":"a76y6q0twt86","geo_precision":"street","address":"1700 STRO ST","state":"CA"},"type":"Feature","geometry":{"type":"Point","coordinates":[-122.211392,37.795899]}},{"properties":{"city":"OAKLAND","name":"CHEVRON STATION","geo_score":0.916,"zip code":"94603","id":"a76y6q2hgxex","geo_precision":"range","address":"191 98TH AVE","state":"CA"},"type":"Feature","geometry":{"type":"Point","coordinates":[-122.193884,37.7295]}},{"properties":{"city":"OAKLAND","name":"CHICO LIQUORS","geo_score":1.0,"zip code":"94605","id":"a76y6q2u9sl0","geo_precision":"range","address":"2801 HAVENSCOURT BLVD","state":"CA"},"type":"Feature","geometry":{"type":"Point","coordinates":[-122.182077,37.769228]}},{"properties":{"city":"OAKLAND","name":"CHOICE KORNER","geo_score":0.902,"zip code":"94607","id":"a76y6pxo8f3x","geo_precision":"range","address":"198 10TH STREET","state":"CA"},"type":"Feature","geometry":{"type":"Point","coordinates":[-122.266989,37.799241]}},{"properties":{"city":"OAKLAND","name":"CHOICE LIQUORS","geo_score":1.0,"zip code":"94609","id":"a76y6pv82c4f","geo_precision":"range","address":"3820 TELEGRAPH AVENUE","state":"CA"},"type":"Feature","geometry":{"type":"Point","coordinates":[-122.26501,37.827508]}},{"properties":{"city":"OAKLAND","name":"CHOICE MEAT MARKET","geo_score":0.902,"zip code":"94608","id":"a76y6puwdygg","geo_precision":"range","address":"5676 SAN PABLO AVE","state":"CA"},"type":"Feature","geometry":{"type":"Point","coordinates":[-122.282901,37.840131]}},{"properties":{"city":"OAKLAND","name":"CILLES LIQUORS","geo_score":1.0,"zip code":"94621","id":"a76y6pum4z8t","geo_precision":"range","address":"8940 INTERNATIONAL BLVD","state":"CA"},"type":"Feature","geometry":{"type":"Point","coordinates":[-122.174766,37.750267]}},{"properties":{"city":"OAKLAND","name":"CIRCLE K","geo_score":1.0,"zip code":"94621","id":"a76y6q2tlbkf","geo_precision":"range","address":"449 HEGENBERGER RD","state":"CA"},"type":"Feature","geometry":{"type":"Point","coordinates":[-122.196967,37.736871]}},{"properties":{"city":"OAKLAND","name":"COLISEUM SHELL","geo_score":1.0,"zip code":"94621","id":"a76y6prn23o3","geo_precision":"range","address":"540 HEGENBERGER RD","state":"CA"},"type":"Feature","geometry":{"type":"Point","coordinates":[-122.196295,37.743657]}},{"properties":{"city":"OAKLAND","name":"CONCEITED STAG CELLARS","geo_score":0.915,"zip code":"94611","id":"a76y6pokwhne","geo_precision":"range","address":"13042 BROADWAY TER","state":"CA"},"type":"Feature","geometry":{"type":"Point","coordinates":[-122.213962,37.842855]}},{"properties":{"city":"OAKLAND","name":"CYPRESS MARKET","geo_score":1.0,"zip code":"94607","id":"a76y6px4o1op","geo_precision":"range","address":"933 MANDELA PKWY","state":"CA"},"type":"Feature","geometry":{"type":"Point","coordinates":[-122.293006,37.807227]}},{"properties":{"city":"OAKLAND","name":"DALLAS LIQUOR","geo_score":1.0,"zip code":"94602","id":"a76y6pweqpsg","geo_precision":"range","address":"2604 MACARTHUR BLVD","state":"CA"},"type":"Feature","geometry":{"type":"Point","coordinates":[-122.210754,37.798954]}},{"properties":{"city":"OAKLAND","name":"DALLAS MARKET","geo_score":1.0,"zip code":"94607","id":"a76y6pojck1r","geo_precision":"range","address":"2539 MARKET ST","state":"CA"},"type":"Feature","geometry":{"type":"Point","coordinates":[-122.277746,37.817204]}},{"properties":{"city":"OAKLAND","name":"DANNYS LIQUORS","geo_score":1.0,"zip code":"94607","id":"a76y6ppmt84w","geo_precision":"range","address":"1624 PERALTA ST","state":"CA"},"type":"Feature","geometry":{"type":"Point","coordinates":[-122.292822,37.812897]}},{"properties":{"city":"OAKLAND","name":"DAVES GROCERY &amp; LIQUOR","geo_score":1.0,"zip code":"94606","id":"a76y6pyjwdxw","geo_precision":"range","address":"2484 PARK BLVD","state":"CA"},"type":"Feature","geometry":{"type":"Point","coordinates":[-122.242055,37.80236]}},{"properties":{"city":"OAKLAND","name":"DE NOVO WINES","geo_score":1.0,"zip code":"94618","id":"a76y6q1oqc5r","geo_precision":"range","address":"6082 CHABOT RD","state":"CA"},"type":"Feature","geometry":{"type":"Point","coordinates":[-122.250971,37.847578]}},{"properties":{"city":"OAKLAND","name":"DEDOMENICO CELLARS","geo_score":0.915,"zip code":"94705","id":"a76y6q0ngf3l","geo_precision":"range","address":"650 ALVARADO RD","state":"CA"},"type":"Feature","geometry":{"type":"Point","coordinates":[-122.238792,37.858744]}},{"properties":{"city":"OAKLAND","name":"DIAMOND FOOD","geo_score":1.0,"zip code":"94602","id":"a76y6pnsa0ab","geo_precision":"range","address":"2979 MACARTHUR BLVD","state":"CA"},"type":"Feature","geometry":{"type":"Point","coordinates":[-122.205806,37.797615]}},{"properties":{"city":"OAKLAND","name":"DIAMOND SPRINGS VINEYARD","geo_score":0.683,"zip code":"94610","id":"a76y6pvrxbb6","geo_precision":"zip","address":"671 RLSTON AVE","state":"CA"},"type":"Feature","geometry":{"type":"Point","coordinates":[-122.238779,37.811277]}},{"properties":{"city":"OAKLAND","name":"DIAMOND WINE MERCHANTS","geo_score":1.0,"zip code":"94621","id":"a76y6q3tp7al","geo_precision":"range","address":"7303 EDGEWATER DR","state":"CA"},"type":"Feature","geometry":{"type":"Point","coordinates":[-122.207121,37.74615]}},{"properties":{"city":"OAKLAND","name":"DMC INTERNATIONAL LLC","geo_score":0.915,"zip code":"94611","id":"a76y6pr45utw","geo_precision":"range","address":"7079 EXETER DR","state":"CA"},"type":"Feature","geometry":{"type":"Point","coordinates":[-122.186857,37.832278]}},{"properties":{"city":"OAKLAND","name":"DOLLAR TREE","geo_score":1.0,"zip code":"94605","id":"a76y6pnfm0r3","geo_precision":"range","address":"7200 BANCROFT AVE","state":"CA"},"type":"Feature","geometry":{"type":"Point","coordinates":[-122.177887,37.766335]}},{"properties":{"city":"OAKLAND","name":"E &amp; L MARKET","geo_score":0.916,"zip code":"94606","id":"a76y6q2apf5s","geo_precision":"range","address":"2401 23RD AVENUE","state":"CA"},"type":"Feature","geometry":{"type":"Point","coordinates":[-122.229086,37.790772]}},{"properties":{"city":"OAKLAND","name":"E &amp; M FOOD MARKET","geo_score":0.902,"zip code":"94612","id":"a76y6pv8gjhz","geo_precision":"range","address":"332 14TH STREET","state":"CA"},"type":"Feature","geometry":{"type":"Point","coordinates":[-122.268286,37.80327]}},{"properties":{"city":"OAKLAND","name":"EAST BAY LIQUOR","geo_score":0.986,"zip code":"94609","id":"a76y6pwp7ao9","geo_precision":"range","address":"5350 MARTIN LUTHER KING JR WY","state":"CA"},"type":"Feature","geometry":{"type":"Point","coordinates":[-122.269449,37.838469]}},{"properties":{"city":"OAKLAND","name":"EAST BAY MARKET","geo_score":1.0,"zip code":"94621","id":"a76y6ps6s9fi","geo_precision":"range","address":"8432 INTERNATIONAL BLVD","state":"CA"},"type":"Feature","geometry":{"type":"Point","coordinates":[-122.177522,37.75398]}},{"properties":{"city":"OAKLAND","name":"EAST TOWN LIQUOR","geo_score":1.0,"zip code":"94602","id":"a76y6pw9745r","geo_precision":"range","address":"2833 MACARTHUR BLVD","state":"CA"},"type":"Feature","geometry":{"type":"Point","coordinates":[-122.208453,37.798512]}},{"properties":{"city":"OAKLAND","name":"EASTMONT","geo_score":1.0,"zip code":"94605","id":"a76y6puyak02","geo_precision":"range","address":"7210 BANCROFT AVENUE","state":"CA"},"type":"Feature","geometry":{"type":"Point","coordinates":[-122.17784,37.766278]}},{"properties":{"city":"OAKLAND","name":"EASY LIQUORS","geo_score":0.459,"zip code":"94608","id":"a76y6q2wf1rn","geo_precision":"street","address":"900 W. MACARTHUR BOULEVARD","state":"CA"},"type":"Feature","geometry":{"type":"Point","coordinates":[-122.271722,37.827629]}},{"properties":{"city":"OAKLAND","name":"EDDIES DRIVE IN LIQUORS","geo_score":1.0,"zip code":"94618","id":"a76y6q281b0b","geo_precision":"range","address":"5491 COLLEGE AVE","state":"CA"},"type":"Feature","geometry":{"type":"Point","coordinates":[-122.251589,37.841866]}},{"properties":{"city":"OAKLAND","name":"EDDIES MARKET","geo_score":0.916,"zip code":"94621","id":"a76y6po09pk5","geo_precision":"range","address":"1935 73RD AVE","state":"CA"},"type":"Feature","geometry":{"type":"Point","coordinates":[-122.182446,37.762353]}},{"properties":{"city":"OAKLAND","name":"EDS LIQUORS","geo_score":0.916,"zip code":"94606","id":"a76y6q0hg30g","geo_precision":"range","address":"2700 23RD AVENUE","state":"CA"},"type":"Feature","geometry":{"type":"Point","coordinates":[-122.226685,37.793545]}},{"properties":{"city":"OAKLAND","name":"ENG LIQUORS","geo_score":0.916,"zip code":"94606","id":"a76y6prv9rbk","geo_precision":"range","address":"2003 23RD AVENUE","state":"CA"},"type":"Feature","geometry":{"type":"Point","coordinates":[-122.232011,37.787603]}},{"properties":{"city":"OAKLAND","name":"EUROMIX DELITESSEN","geo_score":0.89,"zip code":"94611","id":"a76y6pp8peln","geo_precision":"range","address":"4301 PIEDMONT AVE C","state":"CA"},"type":"Feature","geometry":{"type":"Point","coordinates":[-122.249117,37.828983]}},{"properties":{"city":"OAKLAND","name":"EVERGREEN PRODUCE","geo_score":1.0,"zip code":"94601","id":"a76y6pspnp34","geo_precision":"range","address":"3225 FOOTHILL BLVD","state":"CA"},"type":"Feature","geometry":{"type":"Point","coordinates":[-122.222486,37.783669]}},{"properties":{"city":"OAKLAND","name":"EXPRESS LIQUOR &amp; MARKET","geo_score":1.0,"zip code":"94606","id":"a76y6pr8iewa","geo_precision":"range","address":"1250 INTERNATIONAL BLVD","state":"CA"},"type":"Feature","geometry":{"type":"Point","coordinates":[-122.247644,37.790258]}},{"properties":{"city":"OAKLAND","name":"FAIRFAX LIQUORS","geo_score":1.0,"zip code":"94601","id":"a76y6pv55e5u","geo_precision":"range","address":"5403 FOOTHILL BLVD","state":"CA"},"type":"Feature","geometry":{"type":"Point","coordinates":[-122.198547,37.772659]}},{"properties":{"city":"OAKLAND","name":"FAMILY MARKET","geo_score":0.916,"zip code":"94605","id":"a76y6q144yvj","geo_precision":"range","address":"2222 62ND AVE","state":"CA"},"type":"Feature","geometry":{"type":"Point","coordinates":[-122.192349,37.767426]}},{"properties":{"city":"OAKLAND","name":"FAMILY MARKET","geo_score":0.902,"zip code":"94607","id":"a76y6q3k8a5a","geo_precision":"range","address":"1600 12TH STREET","state":"CA"},"type":"Feature","geometry":{"type":"Point","coordinates":[-122.295085,37.810041]}},{"properties":{"city":"OAKLAND","name":"FARMSTEAD CHEESES &amp; WINES","geo_score":0.598,"zip code":"94611","id":"a76y6ppry8lc","geo_precision":"zip","address":"6218 LA SALLE AVE","state":"CA"},"type":"Feature","geometry":{"type":"Point","coordinates":[-122.231635,37.824372]}},{"properties":{"city":"OAKLAND","name":"FOOD 24 CONVENIENCE MARKET","geo_score":1.0,"zip code":"94610","id":"a76y6q0iw5te","geo_precision":"range","address":"2900 PARK BLVD","state":"CA"},"type":"Feature","geometry":{"type":"Point","coordinates":[-122.238834,37.802813]}},{"properties":{"city":"OAKLAND","name":"FOOD KING LIQUOR","geo_score":1.0,"zip code":"94621","id":"a76y6ptqfhmi","geo_precision":"range","address":"8824 INTERNATIONAL BLVD","state":"CA"},"type":"Feature","geometry":{"type":"Point","coordinates":[-122.175364,37.751089]}},{"properties":{"city":"OAKLAND","name":"FOOD TOWN MARKET","geo_score":1.0,"zip code":"94621","id":"a76y6puoux05","geo_precision":"range","address":"6421 INTERNATIONAL BLVD","state":"CA"},"type":"Feature","geometry":{"type":"Point","coordinates":[-122.195583,37.763306]}},{"properties":{"city":"OAKLAND","name":"FOOTHILL DISCOUNT LIQUORS","geo_score":1.0,"zip code":"94601","id":"a76y6pxu3wkp","geo_precision":"range","address":"3828 FOOTHILL BLVD","state":"CA"},"type":"Feature","geometry":{"type":"Point","coordinates":[-122.2165,37.77887]}},{"properties":{"city":"OAKLAND","name":"FOOTHILL MARKET","geo_score":1.0,"zip code":"94606","id":"a76y6pp53q3h","geo_precision":"range","address":"1906 FOOTHILL BLVD","state":"CA"},"type":"Feature","geometry":{"type":"Point","coordinates":[-122.239398,37.788097]}},{"properties":{"city":"OAKLAND","name":"FOUR BELLS MARKET","geo_score":0.916,"zip code":"94603","id":"a76y6pu7cq4f","geo_precision":"range","address":"1065 98TH AVE","state":"CA"},"type":"Feature","geometry":{"type":"Point","coordinates":[-122.176507,37.741589]}},{"properties":{"city":"OAKLAND","name":"FOUR STAR MARKET","geo_score":0.916,"zip code":"94619","id":"a76y6prh7vfs","geo_precision":"range","address":"2884 38TH AVE","state":"CA"},"type":"Feature","geometry":{"type":"Point","coordinates":[-122.204544,37.786866]}},{"properties":{"city":"OAKLAND","name":"FRUITVALE LIQUORS &amp; GROCERY","geo_score":1.0,"zip code":"94601","id":"a76y6q20oxui","geo_precision":"range","address":"2678 FRUITVALE AVE","state":"CA"},"type":"Feature","geometry":{"type":"Point","coordinates":[-122.220142,37.790332]}},{"properties":{"city":"OAKLAND","name":"G B RATTO &amp; CO","geo_score":1.0,"zip code":"94607","id":"a76y6ps2aqoy","geo_precision":"range","address":"821 WASHINGTON STREET","state":"CA"},"type":"Feature","geometry":{"type":"Point","coordinates":[-122.274946,37.800818]}},{"properties":{"city":"OAKLAND","name":"GALLAGHERS LIQUOR","geo_score":0.986,"zip code":"94609","id":"a76y6q21zlih","geo_precision":"range","address":"3849 MARTIN LUTHER KING JR WY","state":"CA"},"type":"Feature","geometry":{"type":"Point","coordinates":[-122.268804,37.828199]}},{"properties":{"city":"OAKLAND","name":"GATEWAY LIQUORS","geo_score":0.902,"zip code":"94608","id":"a76y6pzg8xhk","geo_precision":"range","address":"5944 SAN PABLO AVE","state":"CA"},"type":"Feature","geometry":{"type":"Point","coordinates":[-122.283678,37.842527]}},{"properties":{"city":"OAKLAND","name":"GATEWAY SUPERMARKET","geo_score":0.902,"zip code":"94608","id":"a76y6pnwrjsi","geo_precision":"range","address":"5908 SAN PABLO AVE","state":"CA"},"type":"Feature","geometry":{"type":"Point","coordinates":[-122.283534,37.842106]}},{"properties":{"city":"OAKLAND","name":"GENERAL MARKET AND GROCERY","geo_score":0.902,"zip code":"94608","id":"a76y6q3ftikn","geo_precision":"range","address":"4301 MARKET ST","state":"CA"},"type":"Feature","geometry":{"type":"Point","coordinates":[-122.273388,37.833079]}},{"properties":{"city":"OAKLAND","name":"GIANT'S LIQUOR","geo_score":1.0,"zip code":"94605","id":"a76y6pz6l337","geo_precision":"range","address":"7629 MACARTHUR BLVD","state":"CA"},"type":"Feature","geometry":{"type":"Point","coordinates":[-122.169737,37.767416]}},{"properties":{"city":"OAKLAND","name":"GIFT STYLIST","geo_score":0.554,"zip code":"94603","id":"a76y6pwwx4eb","geo_precision":"street","address":"9332 VISTA COURT","state":"CA"},"type":"Feature","geometry":{"type":"Point","coordinates":[-122.197439,37.728033]}},{"properties":{"city":"OAKLAND","name":"GOLDEN 7 FOOD STORE","geo_score":1.0,"zip code":"94607","id":"a76y6pwrkadl","geo_precision":"range","address":"2400 MARKET ST","state":"CA"},"type":"Feature","geometry":{"type":"Point","coordinates":[-122.278593,37.816131]}},{"properties":{"city":"OAKLAND","name":"GOLDEN 7 FOOD STORE","geo_score":0.916,"zip code":"94619","id":"a76y6pttvd1i","geo_precision":"range","address":"3115 35TH AVE","state":"CA"},"type":"Feature","geometry":{"type":"Point","coordinates":[-122.205155,37.791065]}},{"properties":{"city":"OAKLAND","name":"GOLDEN GAS","geo_score":1.0,"zip code":"94605","id":"a76y6pp4w8xd","geo_precision":"range","address":"6600 FOOTHILL BLVD","state":"CA"},"type":"Feature","geometry":{"type":"Point","coordinates":[-122.181768,37.770464]}},{"properties":{"city":"OAKLAND","name":"GOLDEN HOURS LIQUOR STORE","geo_score":1.0,"zip code":"94601","id":"a76y6q0qf1fs","geo_precision":"range","address":"3201 INTERNATIONAL BLVD","state":"CA"},"type":"Feature","geometry":{"type":"Point","coordinates":[-122.225803,37.777643]}},{"properties":{"city":"OAKLAND","name":"GOURMET MARKET","geo_score":1.0,"zip code":"94612","id":"a76y6q3d1xys","geo_precision":"range","address":"1549 JACKSON ST","state":"CA"},"type":"Feature","geometry":{"type":"Point","coordinates":[-122.264454,37.803316]}},{"properties":{"city":"OAKLAND","name":"GRAND AM PM","geo_score":0.619,"zip code":"94607","id":"a76y6pwkakdl","geo_precision":"street","address":"889 W. GRAND AVENUE","state":"CA"},"type":"Feature","geometry":{"type":"Point","coordinates":[-122.277045,37.813921]}},{"properties":{"city":"OAKLAND","name":"GRAND EXPRESS MARKET","geo_score":1.0,"zip code":"94610","id":"a76y6pw01age","geo_precision":"range","address":"363 GRAND AVE","state":"CA"},"type":"Feature","geometry":{"type":"Point","coordinates":[-122.255546,37.808951]}},{"properties":{"city":"OAKLAND","name":"GRAND LAKE MARKET","geo_score":1.0,"zip code":"94610","id":"a76y6q3433kr","geo_precision":"range","address":"246 GRAND AVE","state":"CA"},"type":"Feature","geometry":{"type":"Point","coordinates":[-122.259391,37.80985]}},{"properties":{"city":"OAKLAND","name":"GRAND PIEDMONT LIQUORS","geo_score":1.0,"zip code":"94610","id":"a76y6pzioaww","geo_precision":"range","address":"3900 GRAND AVE","state":"CA"},"type":"Feature","geometry":{"type":"Point","coordinates":[-122.244953,37.818397]}},{"properties":{"city":"OAKLAND","name":"GREEN VALLEY FOODS","geo_score":1.0,"zip code":"94607","id":"a76y6q0osklv","geo_precision":"range","address":"749 ADELINE ST","state":"CA"},"type":"Feature","geometry":{"type":"Point","coordinates":[-122.288102,37.804395]}},{"properties":{"city":"OAKLAND","name":"GROCERY OUTLET","geo_score":0.915,"zip code":"94611","id":"a76y6q1strir","geo_precision":"range","address":"2900 BROADWAY","state":"CA"},"type":"Feature","geometry":{"type":"Point","coordinates":[-122.263084,37.817449]}},{"properties":{"city":"OAKLAND","name":"HANDY MARKET","geo_score":0.916,"zip code":"94621","id":"a76y6psjsmt5","geo_precision":"range","address":"1801 57TH AVE","state":"CA"},"type":"Feature","geometry":{"type":"Point","coordinates":[-122.198646,37.768221]}},{"properties":{"city":"OAKLAND","name":"HAPPY TIME LIQUOR","geo_score":0.883,"zip code":"94607","id":"a76y6psrbhu6","geo_precision":"range","address":"1647 8TH ST","state":"CA"},"type":"Feature","geometry":{"type":"Point","coordinates":[-122.298861,37.807342]}},{"properties":{"city":"OAKLAND","name":"HARRYS DRIVE IN LIQUOR &amp; GROCERY","geo_score":1.0,"zip code":"94605","id":"a76y6pt1mqjy","geo_precision":"range","address":"9002 MACARTHUR BLVD","state":"CA"},"type":"Feature","geometry":{"type":"Point","coordinates":[-122.161571,37.755242]}},{"properties":{"city":"OAKLAND","name":"HEGENBERGER SHELL","geo_score":1.0,"zip code":"94621","id":"a76y6prcrwr1","geo_precision":"range","address":"285 HEGENBERGER RD","state":"CA"},"type":"Feature","geometry":{"type":"Point","coordinates":[-122.198414,37.733318]}},{"properties":{"city":"OAKLAND","name":"HIENS MARKET","geo_score":1.0,"zip code":"94612","id":"a76y6pzbl8x2","geo_precision":"range","address":"1451 HARRISON ST","state":"CA"},"type":"Feature","geometry":{"type":"Point","coordinates":[-122.267346,37.803437]}},{"properties":{"city":"OAKLAND","name":"HIGH STREET FOOD MART","geo_score":1.0,"zip code":"94601","id":"a76y6pzispb3","geo_precision":"range","address":"630 HIGH ST","state":"CA"},"type":"Feature","geometry":{"type":"Point","coordinates":[-122.221222,37.767516]}},{"properties":{"city":"OAKLAND","name":"HIGHLAND MARKET","geo_score":1.0,"zip code":"94606","id":"a76y6pwqjxes","geo_precision":"range","address":"2467 HIGHLAND AVE","state":"CA"},"type":"Feature","geometry":{"type":"Point","coordinates":[-122.230179,37.792773]}},{"properties":{"city":"OAKLAND","name":"HOLLY MARKET","geo_score":1.0,"zip code":"94621","id":"a76y6q2j5cx2","geo_precision":"range","address":"7900 HOLLY ST","state":"CA"},"type":"Feature","geometry":{"type":"Point","coordinates":[-122.179108,37.758677]}},{"properties":{"city":"OAKLAND","name":"HOMETOWN DONUT &amp; LIQUOR &amp; FOOD","geo_score":0.883,"zip code":"94607","id":"a76y6pzr6kk9","geo_precision":"range","address":"93 8TH ST","state":"CA"},"type":"Feature","geometry":{"type":"Point","coordinates":[-122.265381,37.796904]}},{"properties":{"city":"OAKLAND","name":"HONG KEE MARKET","geo_score":0.883,"zip code":"94607","id":"a76y6pp98g5v","geo_precision":"range","address":"385 8TH ST","state":"CA"},"type":"Feature","geometry":{"type":"Point","coordinates":[-122.272103,37.799579]}},{"properties":{"city":"OAKLAND","name":"HUB LIQUOR STORE","geo_score":1.0,"zip code":"94603","id":"a76y6q36jk1s","geo_precision":"range","address":"9419 INTERNATIONAL BLVD","state":"CA"},"type":"Feature","geometry":{"type":"Point","coordinates":[-122.172445,37.747091]}},{"properties":{"city":"OAKLAND","name":"HUNTS BERRY LIQUOR","geo_score":1.0,"zip code":"94605","id":"a76y6puaqbc7","geo_precision":"range","address":"10151 FOOTHILL BLVD","state":"CA"},"type":"Feature","geometry":{"type":"Point","coordinates":[-122.154542,37.74519]}},{"properties":{"city":"OAKLAND","name":"IDEAL MARKET","geo_score":1.0,"zip code":"94607","id":"a76y6pt93dsk","geo_precision":"range","address":"2036 MARKET ST","state":"CA"},"type":"Feature","geometry":{"type":"Point","coordinates":[-122.27938,37.812755]}},{"properties":{"city":"OAKLAND","name":"ISLAND MARKET","geo_score":1.0,"zip code":"94601","id":"a76y6pznx96p","geo_precision":"range","address":"2314 HIGH ST","state":"CA"},"type":"Feature","geometry":{"type":"Point","coordinates":[-122.206645,37.77993]}},{"properties":{"city":"OAKLAND","name":"ISLERS LIQUORS","geo_score":1.0,"zip code":"94601","id":"a76y6pr7rxeg","geo_precision":"range","address":"5285 FOOTHILL BLVD","state":"CA"},"type":"Feature","geometry":{"type":"Point","coordinates":[-122.201191,37.772662]}},{"properties":{"city":"OAKLAND","name":"J &amp; M LIQUORS","geo_score":1.0,"zip code":"94621","id":"a76y6q1ja0no","geo_precision":"range","address":"2151 SEMINARY AVE","state":"CA"},"type":"Feature","geometry":{"type":"Point","coordinates":[-122.19423,37.768857]}},{"properties":{"city":"OAKLAND","name":"J J BUCKLEY LLC","geo_score":1.0,"zip code":"94621","id":"a76y6pwnxe5z","geo_precision":"range","address":"7305 EDGEWATER DR","state":"CA"},"type":"Feature","geometry":{"type":"Point","coordinates":[-122.207092,37.746109]}},{"properties":{"city":"OAKLAND","name":"J J BUCKLEY LLC","geo_score":1.0,"zip code":"94621","id":"a76y6pnhdf96","geo_precision":"range","address":"7305 EDGEWATER DR","state":"CA"},"type":"Feature","geometry":{"type":"Point","coordinates":[-122.207092,37.746109]}},{"properties":{"city":"OAKLAND","name":"JACKSONS LIQUORS","geo_score":0.916,"zip code":"94606","id":"a76y6pqupjp3","geo_precision":"range","address":"739 E 12TH ST","state":"CA"},"type":"Feature","geometry":{"type":"Point","coordinates":[-122.252822,37.793345]}},{"properties":{"city":"OAKLAND","name":"JALOS MARKET","geo_score":0.916,"zip code":"94601","id":"a76y6pw2fuql","geo_precision":"range","address":"2267 38TH AVE","state":"CA"},"type":"Feature","geometry":{"type":"Point","coordinates":[-122.211428,37.782903]}},{"properties":{"city":"OAKLAND","name":"JAX LIQUOR","geo_score":1.0,"zip code":"94606","id":"a76y6pw1f2ja","geo_precision":"range","address":"502 FOOTHILL BLVD","state":"CA"},"type":"Feature","geometry":{"type":"Point","coordinates":[-122.252027,37.797075]}},{"properties":{"city":"OAKLAND","name":"JIMS LIQUORS","geo_score":1.0,"zip code":"94605","id":"a76y6pyabn6n","geo_precision":"range","address":"8137 MACARTHUR BLVD","state":"CA"},"type":"Feature","geometry":{"type":"Point","coordinates":[-122.165426,37.763175]}},{"properties":{"city":"OAKLAND","name":"JO JOS MARKET","geo_score":1.0,"zip code":"94609","id":"a76y6pyeheo4","geo_precision":"range","address":"6400 SHATTUCK AVENUE","state":"CA"},"type":"Feature","geometry":{"type":"Point","coordinates":[-122.265793,37.849467]}},{"properties":{"city":"OAKLAND","name":"JOSEPH'S LIQUOR","geo_score":1.0,"zip code":"94605","id":"a76y6q2ftt2u","geo_precision":"range","address":"8138 MACARTHUR BLVD","state":"CA"},"type":"Feature","geometry":{"type":"Point","coordinates":[-122.165406,37.763144]}},{"properties":{"city":"OAKLAND","name":"K &amp; C SNACK CORNER","geo_score":0.916,"zip code":"94606","id":"a76y6pu6iqkg","geo_precision":"range","address":"2645 14TH AVENUE","state":"CA"},"type":"Feature","geometry":{"type":"Point","coordinates":[-122.233757,37.796496]}},{"properties":{"city":"OAKLAND","name":"K &amp; D MARKET","geo_score":0.902,"zip code":"94607","id":"a76y6prbd7q7","geo_precision":"range","address":"1100 24TH STREET","state":"CA"},"type":"Feature","geometry":{"type":"Point","coordinates":[-122.282233,37.816917]}},{"properties":{"city":"OAKLAND","name":"KELLER MARKET","geo_score":1.0,"zip code":"94605","id":"a76y6pnmhhe3","geo_precision":"range","address":"4400 KELLER AVE","state":"CA"},"type":"Feature","geometry":{"type":"Point","coordinates":[-122.150609,37.770422]}},{"properties":{"city":"OAKLAND","name":"KINGS LIQUOR &amp; GROCERY","geo_score":1.0,"zip code":"94601","id":"a76y6q05owyr","geo_precision":"range","address":"3715 INTERNATIONAL BLVD","state":"CA"},"type":"Feature","geometry":{"type":"Point","coordinates":[-122.220752,37.775197]}},{"properties":{"city":"OAKLAND","name":"KINGS MARKET","geo_score":0.986,"zip code":"94609","id":"a76y6q00emwq","geo_precision":"range","address":"5442 MARTIN LUTHER KING JR WY","state":"CA"},"type":"Feature","geometry":{"type":"Point","coordinates":[-122.269718,37.839287]}},{"properties":{"city":"OAKLAND","name":"L&amp;T MARKET","geo_score":1.0,"zip code":"94605","id":"a76y6py9agmv","geo_precision":"range","address":"7717 BANCROFT AVE","state":"CA"},"type":"Feature","geometry":{"type":"Point","coordinates":[-122.174489,37.763819]}},{"properties":{"city":"OAKLAND","name":"LA BAR MARKET","geo_score":0.902,"zip code":"94601","id":"a76y6pyipngg","geo_precision":"range","address":"2701 E 9TH ST","state":"CA"},"type":"Feature","geometry":{"type":"Point","coordinates":[-122.235216,37.777429]}},{"properties":{"city":"OAKLAND","name":"LA ESTRELLA MARKET","geo_score":1.0,"zip code":"94601","id":"a76y6poswfqa","geo_precision":"range","address":"3800-06 FOOTHILL BLVD","state":"CA"},"type":"Feature","geometry":{"type":"Point","coordinates":[-122.216665,37.779037]}},{"properties":{"city":"OAKLAND","name":"LA FRANCHI'S LIQUORS","geo_score":1.0,"zip code":"94619","id":"a76y6q1hc96g","geo_precision":"range","address":"3500 MACARTHUR BLVD","state":"CA"},"type":"Feature","geometry":{"type":"Point","coordinates":[-122.200653,37.793713]}},{"properties":{"city":"OAKLAND","name":"LA RAZA MARKET","geo_score":1.0,"zip code":"94601","id":"a76y6q3bc9hh","geo_precision":"range","address":"5040 INTERNATIONAL BLVD","state":"CA"},"type":"Feature","geometry":{"type":"Point","coordinates":[-122.208433,37.769358]}},{"properties":{"city":"OAKLAND","name":"LA RAZA MARKET","geo_score":1.0,"zip code":"94621","id":"a76y6q24ccgw","geo_precision":"range","address":"1700 SEMINARY AVE","state":"CA"},"type":"Feature","geometry":{"type":"Point","coordinates":[-122.197446,37.766591]}},{"properties":{"city":"OAKLAND","name":"LAKE FOOD CENTER","geo_score":1.0,"zip code":"94612","id":"a76y6q2qly0z","geo_precision":"range","address":"1585 MADISON ST","state":"CA"},"type":"Feature","geometry":{"type":"Point","coordinates":[-122.263105,37.80318]}},{"properties":{"city":"OAKLAND","name":"LAKE MERRITT SUPER","geo_score":1.0,"zip code":"94610","id":"a76y6ptizdqq","geo_precision":"range","address":"346 GRAND AVE","state":"CA"},"type":"Feature","geometry":{"type":"Point","coordinates":[-122.256158,37.809011]}},{"properties":{"city":"OAKLAND","name":"LAKESIDE MARKET","geo_score":0.902,"zip code":"94612","id":"a76y6pwjgt95","geo_precision":"range","address":"300 14TH STREET","state":"CA"},"type":"Feature","geometry":{"type":"Point","coordinates":[-122.26761,37.80296]}},{"properties":{"city":"OAKLAND","name":"LAKESIDE MARKET","geo_score":0.902,"zip code":"94612","id":"a76y6py2tpp1","geo_precision":"range","address":"136 14TH STREET","state":"CA"},"type":"Feature","geometry":{"type":"Point","coordinates":[-122.263644,37.801454]}},{"properties":{"city":"OAKLAND","name":"LEES MARKET","geo_score":1.0,"zip code":"94609","id":"a76y6pvxp6qu","geo_precision":"range","address":"6342 SHATTUCK AVE","state":"CA"},"type":"Feature","geometry":{"type":"Point","coordinates":[-122.26572,37.848933]}},{"properties":{"city":"OAKLAND","name":"LIFORNIA CRU","geo_score":1.0,"zip code":"94607","id":"a76y6pxaylph","geo_precision":"range","address":"2121 PERALTA ST","state":"CA"},"type":"Feature","geometry":{"type":"Point","coordinates":[-122.290171,37.816359]}},{"properties":{"city":"OAKLAND","name":"LINCOLN SQUARE LIQUORS","geo_score":1.0,"zip code":"94619","id":"a76y6prl319n","geo_precision":"range","address":"4100 REDWOOD RD","state":"CA"},"type":"Feature","geometry":{"type":"Point","coordinates":[-122.183287,37.797616]}},{"properties":{"city":"OAKLAND","name":"LIQUOR SECURITY","geo_score":1.0,"zip code":"94606","id":"a76y6pxz96oa","geo_precision":"range","address":"201 INTERNATIONAL BLVD","state":"CA"},"type":"Feature","geometry":{"type":"Point","coordinates":[-122.25631,37.797972]}},{"properties":{"city":"OAKLAND","name":"LONGS DRUG STORE","geo_score":1.0,"zip code":"94602","id":"a76y6psyywyr","geo_precision":"range","address":"3320 FRUITVALE AVE","state":"CA"},"type":"Feature","geometry":{"type":"Point","coordinates":[-122.216804,37.798733]}},{"properties":{"city":"OAKLAND","name":"LOS MELLEOS TIENDA","geo_score":1.0,"zip code":"94621","id":"a76y6pwrrbxq","geo_precision":"range","address":"5913 INTERNATIONAL BLVD","state":"CA"},"type":"Feature","geometry":{"type":"Point","coordinates":[-122.19943,37.765106]}},{"properties":{"city":"OAKLAND","name":"LUCKY TWO","geo_score":1.0,"zip code":"94603","id":"a76y6pwu3d2e","geo_precision":"range","address":"1901 103RD AVENUE","state":"CA"},"type":"Feature","geometry":{"type":"Point","coordinates":[-122.162381,37.742255]}},{"properties":{"city":"OAKLAND","name":"LUCKYS","geo_score":0.916,"zip code":"94606","id":"a76y6q0mvte0","geo_precision":"range","address":"247 E 18TH ST","state":"CA"},"type":"Feature","geometry":{"type":"Point","coordinates":[-122.253657,37.800266]}},{"properties":{"city":"OAKLAND","name":"LUCKYS SPOT MARKET","geo_score":1.0,"zip code":"94606","id":"a76y6po2yco3","geo_precision":"range","address":"700 FOOTHILL BLVD","state":"CA"},"type":"Feature","geometry":{"type":"Point","coordinates":[-122.25036,37.795593]}},{"properties":{"city":"OAKLAND","name":"LUSTERS","geo_score":1.0,"zip code":"94603","id":"a76y6pxxnpyo","geo_precision":"range","address":"10625 INTERNATIONAL BLVD","state":"CA"},"type":"Feature","geometry":{"type":"Point","coordinates":[-122.166068,37.738526]}},{"properties":{"city":"OAKLAND","name":"LYONS LIQUORS &amp; GROCERIES","geo_score":1.0,"zip code":"94601","id":"a76y6ptyej09","geo_precision":"range","address":"4100 FOOTHILL BLVD","state":"CA"},"type":"Feature","geometry":{"type":"Point","coordinates":[-122.213859,37.77652]}},{"properties":{"city":"OAKLAND","name":"M &amp; B MARKET","geo_score":0.902,"zip code":"94608","id":"a76y6ptqo1yw","geo_precision":"range","address":"6310 MARKET ST","state":"CA"},"type":"Feature","geometry":{"type":"Point","coordinates":[-122.277789,37.847121]}},{"properties":{"city":"OAKLAND","name":"M &amp; S SHELL","geo_score":1.0,"zip code":"94605","id":"a76y6pv0u18u","geo_precision":"range","address":"9750 GOLF LINKS RD","state":"CA"},"type":"Feature","geometry":{"type":"Point","coordinates":[-122.150823,37.753456]}},{"properties":{"city":"OAKLAND","name":"MELROSE MARKET","geo_score":1.0,"zip code":"94601","id":"a76y6pvan42l","geo_precision":"range","address":"4840 MELROSE AVE","state":"CA"},"type":"Feature","geometry":{"type":"Point","coordinates":[-122.206096,37.774482]}},{"properties":{"city":"OAKLAND","name":"MEWS MARKET","geo_score":1.0,"zip code":"94603","id":"a76y6pp56kw1","geo_precision":"range","address":"992 105TH AVENUE","state":"CA"},"type":"Feature","geometry":{"type":"Point","coordinates":[-122.17286,37.736359]}},{"properties":{"city":"OAKLAND","name":"MI PUEBLO FOOD CENTER","geo_score":0.807,"zip code":"94601","id":"a76y6q2rjop9","geo_precision":"street","address":"1630 HIGH ST","state":"CA"},"type":"Feature","geometry":{"type":"Point","coordinates":[-122.211799,37.774625]}},{"properties":{"city":"OAKLAND","name":"MI RANCHO MARKET","geo_score":0.916,"zip code":"94606","id":"a76y6pww7m10","geo_precision":"range","address":"1536 23RD AVENUE","state":"CA"},"type":"Feature","geometry":{"type":"Point","coordinates":[-122.234804,37.784524]}},{"properties":{"city":"OAKLAND","name":"MICROS MARKET","geo_score":0.986,"zip code":"94609","id":"a76y6q2r9424","geo_precision":"range","address":"4428 MARTIN LUTHER KING JR WY","state":"CA"},"type":"Feature","geometry":{"type":"Point","coordinates":[-122.267589,37.833081]}},{"properties":{"city":"OAKLAND","name":"MID TOWN FOODS","geo_score":1.0,"zip code":"94602","id":"a76y6ptiotgs","geo_precision":"range","address":"2941 COOLIDGE AVE","state":"CA"},"type":"Feature","geometry":{"type":"Point","coordinates":[-122.215175,37.791321]}},{"properties":{"city":"OAKLAND","name":"MILLENNIUM MARKET","geo_score":1.0,"zip code":"94607","id":"a76y6pwwtgq9","geo_precision":"range","address":"1741 MARKET ST","state":"CA"},"type":"Feature","geometry":{"type":"Point","coordinates":[-122.280294,37.810965]}},{"properties":{"city":"OAKLAND","name":"MILLS FOOD CENTER","geo_score":1.0,"zip code":"94605","id":"a76y6pwbuw9k","geo_precision":"range","address":"5911 MACARTHUR BLVD","state":"CA"},"type":"Feature","geometry":{"type":"Point","coordinates":[-122.183938,37.776432]}},{"properties":{"city":"OAKLAND","name":"MINI MARKET","geo_score":0.916,"zip code":"94603","id":"a76y6pzq38mm","geo_precision":"range","address":"2001 96TH AVE","state":"CA"},"type":"Feature","geometry":{"type":"Point","coordinates":[-122.165058,37.748805]}},{"properties":{"city":"OAKLAND","name":"MOLNAR FAMILY VINEYARDS","geo_score":1.0,"zip code":"94610","id":"a76y6pz27vj4","geo_precision":"range","address":"440 GRAND AVE","state":"CA"},"type":"Feature","geometry":{"type":"Point","coordinates":[-122.252962,37.808757]}},{"properties":{"city":"OAKLAND","name":"MONTCLAIR MART","geo_score":0.915,"zip code":"94611","id":"a76y6ppw85ce","geo_precision":"range","address":"6773 BROADWAY TER","state":"CA"},"type":"Feature","geometry":{"type":"Point","coordinates":[-122.223055,37.840888]}},{"properties":{"city":"OAKLAND","name":"MULLEN LIQUORS","geo_score":0.915,"zip code":"94611","id":"a76y6pp4jm8w","geo_precision":"range","address":"4001 BROADWAY","state":"CA"},"type":"Feature","geometry":{"type":"Point","coordinates":[-122.25738,37.827827]}},{"properties":{"city":"OAKLAND","name":"N &amp; A MARKET","geo_score":0.902,"zip code":"94608","id":"a76y6q3lf5ud","geo_precision":"range","address":"3147 ADELINE ST","state":"CA"},"type":"Feature","geometry":{"type":"Point","coordinates":[-122.281324,37.823312]}},{"properties":{"city":"OAKLAND","name":"N &amp; M MARKET","geo_score":0.916,"zip code":"94606","id":"a76y6pw9bckv","geo_precision":"range","address":"2731 13TH AVENUE","state":"CA"},"type":"Feature","geometry":{"type":"Point","coordinates":[-122.235892,37.798587]}},{"properties":{"city":"OAKLAND","name":"NASAN MARKET","geo_score":0.902,"zip code":"94608","id":"a76y6psdbtwm","geo_precision":"range","address":"3401 ADELINE ST","state":"CA"},"type":"Feature","geometry":{"type":"Point","coordinates":[-122.280465,37.825514]}},{"properties":{"city":"OAKLAND","name":"NATION LIQUOR","geo_score":1.0,"zip code":"94621","id":"a76y6puzvjpq","geo_precision":"range","address":"8301 INTERNATIONAL BLVD","state":"CA"},"type":"Feature","geometry":{"type":"Point","coordinates":[-122.178484,37.755174]}},{"properties":{"city":"OAKLAND","name":"NEW GRAND LAKE MARKET","geo_score":1.0,"zip code":"94610","id":"a76y6py0s9bi","geo_precision":"range","address":"3217 GRAND AVE","state":"CA"},"type":"Feature","geometry":{"type":"Point","coordinates":[-122.247911,37.811717]}},{"properties":{"city":"OAKLAND","name":"NEW MARKET THE","geo_score":1.0,"zip code":"94605","id":"a76y6pyto7mb","geo_precision":"range","address":"7475 BANCROFT AVENUE","state":"CA"},"type":"Feature","geometry":{"type":"Point","coordinates":[-122.1759,37.76505]}},{"properties":{"city":"OAKLAND","name":"NEW SAIGON SUPERMARKET","geo_score":1.0,"zip code":"94606","id":"a76y6pusk1g4","geo_precision":"range","address":"950 INTERNATIONAL BLVD","state":"CA"},"type":"Feature","geometry":{"type":"Point","coordinates":[-122.250147,37.792463]}},{"properties":{"city":"OAKLAND","name":"NEW TINS MARKET","geo_score":0.883,"zip code":"94607","id":"a76y6puum5r7","geo_precision":"range","address":"310 7TH ST","state":"CA"},"type":"Feature","geometry":{"type":"Point","coordinates":[-122.270893,37.798211]}},{"properties":{"city":"OAKLAND","name":"NEW YORK MARKET","geo_score":0.902,"zip code":"94608","id":"a76y6pvqjlsu","geo_precision":"range","address":"3446 MARKET ST","state":"CA"},"type":"Feature","geometry":{"type":"Point","coordinates":[-122.275408,37.825105]}},{"properties":{"city":"OAKLAND","name":"NICKS LIQUORS","geo_score":1.0,"zip code":"94607","id":"a76y6ppd5oma","geo_precision":"range","address":"2401 ADELINE ST","state":"CA"},"type":"Feature","geometry":{"type":"Point","coordinates":[-122.283451,37.817189]}},{"properties":{"city":"OAKLAND","name":"NORTHSIDE SUPER MARKET","geo_score":0.902,"zip code":"94608","id":"a76y6ptnmill","geo_precision":"range","address":"4505 MARKET ST","state":"CA"},"type":"Feature","geometry":{"type":"Point","coordinates":[-122.273037,37.834511]}},{"properties":{"city":"OAKLAND","name":"OAK KNOLL MARKET","geo_score":1.0,"zip code":"94605","id":"a76y6pszo7px","geo_precision":"range","address":"7980 MOUNTAIN BLVD","state":"CA"},"type":"Feature","geometry":{"type":"Point","coordinates":[-122.154898,37.771179]}},{"properties":{"city":"OAKLAND","name":"OAKLAND KOSHER FOODS","geo_score":1.0,"zip code":"94610","id":"a76y6q32pkv8","geo_precision":"range","address":"3419 LAKESHORE AVE","state":"CA"},"type":"Feature","geometry":{"type":"Point","coordinates":[-122.242947,37.811189]}},{"properties":{"city":"OAKLAND","name":"OAKLAND LIQUORS","geo_score":0.916,"zip code":"94606","id":"a76y6pws76is","geo_precision":"range","address":"1335 E 17TH ST","state":"CA"},"type":"Feature","geometry":{"type":"Point","coordinates":[-122.24424,37.79164]}},{"properties":{"city":"OAKLAND","name":"OAKLAND MARKET","geo_score":0.902,"zip code":"94607","id":"a76y6pz7931d","geo_precision":"range","address":"1000 18TH STREET","state":"CA"},"type":"Feature","geometry":{"type":"Point","coordinates":[-122.281971,37.811642]}},{"properties":{"city":"OAKLAND","name":"OAKLAND TRIBUNE NEWS","geo_score":1.0,"zip code":"94621","id":"a76y6pxdr717","geo_precision":"range","address":"1 AIRPORT DR","state":"CA"},"type":"Feature","geometry":{"type":"Point","coordinates":[-122.200254,37.729715]}},{"properties":{"city":"OAKLAND","name":"OAKLAND WINE MARKET","geo_score":1.0,"zip code":"94621","id":"a76y6pyku326","geo_precision":"range","address":"1 AIRPORT DR","state":"CA"},"type":"Feature","geometry":{"type":"Point","coordinates":[-122.200254,37.729715]}},{"properties":{"city":"OAKLAND","name":"OAKS MARKET","geo_score":1.0,"zip code":"94605","id":"a76y6poy9mpz","geo_precision":"range","address":"10501 FOOTHILL BLVD","state":"CA"},"type":"Feature","geometry":{"type":"Point","coordinates":[-122.150084,37.745053]}},{"properties":{"city":"OAKLAND","name":"OAKTOWN MARKET","geo_score":1.0,"zip code":"94619","id":"a76y6pyxhj4y","geo_precision":"range","address":"3133 HIGH ST","state":"CA"},"type":"Feature","geometry":{"type":"Point","coordinates":[-122.199341,37.784974]}},{"properties":{"city":"OAKLAND","name":"OBSIDIAN RIDGE","geo_score":1.0,"zip code":"94610","id":"a76y6py113s0","geo_precision":"range","address":"440 GRAND AVE","state":"CA"},"type":"Feature","geometry":{"type":"Point","coordinates":[-122.252962,37.808757]}},{"properties":{"city":"OAKLAND","name":"ONE STOP LIQUORS","geo_score":1.0,"zip code":"94621","id":"a76y6png7zj8","geo_precision":"range","address":"8400 INTERNATIONAL BLVD","state":"CA"},"type":"Feature","geometry":{"type":"Point","coordinates":[-122.17785,37.75444]}},{"properties":{"city":"OAKLAND","name":"ORGANIC WINE COMPANY INC THE","geo_score":1.0,"zip code":"94607","id":"a76y6q3sz9oc","geo_precision":"range","address":"1111 PINE ST","state":"CA"},"type":"Feature","geometry":{"type":"Point","coordinates":[-122.300839,37.811843]}},{"properties":{"city":"OAKLAND","name":"ORIENT MARKET","geo_score":0.883,"zip code":"94607","id":"a76y6pz6s0y1","geo_precision":"range","address":"410-424 SEVENTH ST","state":"CA"},"type":"Feature","geometry":{"type":"Point","coordinates":[-122.273274,37.799138]}},{"properties":{"city":"OAKLAND","name":"ORLANDO MARKET","geo_score":0.902,"zip code":"94608","id":"a76y6q2g3bkn","geo_precision":"range","address":"2940 LINDEN ST","state":"CA"},"type":"Feature","geometry":{"type":"Point","coordinates":[-122.279634,37.821191]}},{"properties":{"city":"OAKLAND","name":"PARAMOUNT LIQUOR","geo_score":1.0,"zip code":"94606","id":"a76y6ptuvbml","geo_precision":"range","address":"2045 FOOTHILL BLVD","state":"CA"},"type":"Feature","geometry":{"type":"Point","coordinates":[-122.237989,37.787229]}},{"properties":{"city":"OAKLAND","name":"PARK LIQUORS","geo_score":1.0,"zip code":"94607","id":"a76y6pnx4la2","geo_precision":"range","address":"828 FRANKLIN ST","state":"CA"},"type":"Feature","geometry":{"type":"Point","coordinates":[-122.272459,37.79991]}},{"properties":{"city":"OAKLAND","name":"PASTA SHOP THE","geo_score":1.0,"zip code":"94618","id":"a76y6pq2qjk2","geo_precision":"range","address":"5655 COLLEGE AVE","state":"CA"},"type":"Feature","geometry":{"type":"Point","coordinates":[-122.251739,37.843782]}},{"properties":{"city":"OAKLAND","name":"PAUL MARCUS WINES","geo_score":1.0,"zip code":"94618","id":"a76y6pwmwigi","geo_precision":"range","address":"5655 COLLEGE AVE","state":"CA"},"type":"Feature","geometry":{"type":"Point","coordinates":[-122.251739,37.843782]}},{"properties":{"city":"OAKLAND","name":"PENNY SAVER MARKET &amp; LIQUOR","geo_score":1.0,"zip code":"94601","id":"a76y6pxn772s","geo_precision":"range","address":"4800 FOOTHILL BLVD","state":"CA"},"type":"Feature","geometry":{"type":"Point","coordinates":[-122.207661,37.772754]}},{"properties":{"city":"OAKLAND","name":"PETES MARKET","geo_score":1.0,"zip code":"94605","id":"a76y6psfssyd","geo_precision":"range","address":"6243 AVENAL AVE","state":"CA"},"type":"Feature","geometry":{"type":"Point","coordinates":[-122.190074,37.768382]}},{"properties":{"city":"OAKLAND","name":"PLANET WINE","geo_score":0.916,"zip code":"94606","id":"a76y6q233iq0","geo_precision":"range","address":"1000 22ND AVENUE","state":"CA"},"type":"Feature","geometry":{"type":"Point","coordinates":[-122.241084,37.781647]}},{"properties":{"city":"OAKLAND","name":"POPULAR MARKET","geo_score":0.916,"zip code":"94603","id":"a76y6podonox","geo_precision":"range","address":"1088 98TH AVE","state":"CA"},"type":"Feature","geometry":{"type":"Point","coordinates":[-122.176195,37.741753]}},{"properties":{"city":"OAKLAND","name":"POSS. P&amp;M MARKET, LIQUOR AND DELI","geo_score":0.805,"zip code":"94608","id":"a76y6q1h2jx4","geo_precision":"range","address":"1405 34TH STREET","state":"CA"},"type":"Feature","geometry":{"type":"Point","coordinates":[-122.284218,37.825875]}},{"properties":{"city":"OAKLAND","name":"PROSPECT 772 WINE COMPANY","geo_score":1.0,"zip code":"94619","id":"a76y6ptstgdf","geo_precision":"range","address":"15 BERNEVES CT","state":"CA"},"type":"Feature","geometry":{"type":"Point","coordinates":[-122.180394,37.792897]}},{"properties":{"city":"OAKLAND","name":"PTAIN LIQUOR","geo_score":1.0,"zip code":"94612","id":"a76y6pokjdg5","geo_precision":"range","address":"2531 MARTIN LUTHER KING JR WAY","state":"CA"},"type":"Feature","geometry":{"type":"Point","coordinates":[-122.272035,37.815402]}},{"properties":{"city":"OAKLAND","name":"PUSHBACK WINES","geo_score":0.382,"zip code":"94606","id":"a76y6psg1fyf","geo_precision":"street","address":"1091 LCOT PL","state":"CA"},"type":"Feature","geometry":{"type":"Point","coordinates":[-122.212111,37.825262]}},{"properties":{"city":"OAKLAND","name":"Q &amp; S MARKET","geo_score":1.0,"zip code":"94603","id":"a76y6q10z1s8","geo_precision":"range","address":"1524 100TH AVENUE","state":"CA"},"type":"Feature","geometry":{"type":"Point","coordinates":[-122.167597,37.743203]}},{"properties":{"city":"OAKLAND","name":"QUEEN OF SHEBA MARKET","geo_score":0.916,"zip code":"94601","id":"a76y6pzashyu","geo_precision":"range","address":"2286 35TH AVE","state":"CA"},"type":"Feature","geometry":{"type":"Point","coordinates":[-122.213983,37.785862]}},{"properties":{"city":"OAKLAND","name":"QUIK STOP MARKET","geo_score":0.916,"zip code":"94619","id":"a76y6pu9570d","geo_precision":"range","address":"3130 35TH AVE","state":"CA"},"type":"Feature","geometry":{"type":"Point","coordinates":[-122.204975,37.791142]}},{"properties":{"city":"OAKLAND","name":"QUIK STOP MARKET","geo_score":1.0,"zip code":"94610","id":"a76y6ps49rk8","geo_precision":"range","address":"401 MERRITT AVE","state":"CA"},"type":"Feature","geometry":{"type":"Point","coordinates":[-122.249298,37.805693]}},{"properties":{"city":"OAKLAND","name":"QUIK STOP MARKET","geo_score":1.0,"zip code":"94602","id":"a76y6ps9fs9l","geo_precision":"range","address":"3132 BEAUMONT AVE","state":"CA"},"type":"Feature","geometry":{"type":"Point","coordinates":[-122.229441,37.799032]}},{"properties":{"city":"OAKLAND","name":"QUIK STOP MARKET","geo_score":1.0,"zip code":"94601","id":"a76y6pr9cksg","geo_precision":"range","address":"2400 FRUITVALE AVE","state":"CA"},"type":"Feature","geometry":{"type":"Point","coordinates":[-122.22146,37.786924]}},{"properties":{"city":"OAKLAND","name":"QUIK STOP MARKET","geo_score":1.0,"zip code":"94610","id":"a76y6q07ztdd","geo_precision":"range","address":"66 MACARTHUR BLVD","state":"CA"},"type":"Feature","geometry":{"type":"Point","coordinates":[-122.254277,37.820339]}},{"properties":{"city":"OAKLAND","name":"ROBERT CHADDERDON SELECTIONS WEST","geo_score":1.0,"zip code":"94603","id":"a76y6ptdi9hl","geo_precision":"range","address":"9401 SAN LEANDRO ST","state":"CA"},"type":"Feature","geometry":{"type":"Point","coordinates":[-122.18325,37.742065]}},{"properties":{"city":"OAKLAND","name":"ROCKYS MARKET","geo_score":1.0,"zip code":"94602","id":"a76y6pyqp66t","geo_precision":"range","address":"1440 LEIMERT BLVD","state":"CA"},"type":"Feature","geometry":{"type":"Point","coordinates":[-122.212593,37.811714]}},{"properties":{"city":"OAKLAND","name":"ROSS FOODS MARKET","geo_score":1.0,"zip code":"94603","id":"a76y6ppsm29m","geo_precision":"range","address":"9261 INTERNATIONAL BLVD","state":"CA"},"type":"Feature","geometry":{"type":"Point","coordinates":[-122.173272,37.748169]}},{"properties":{"city":"OAKLAND","name":"ROWAID MARKET","geo_score":0.916,"zip code":"94603","id":"a76y6pozloa9","geo_precision":"range","address":"2123 90TH AVE","state":"CA"},"type":"Feature","geometry":{"type":"Point","coordinates":[-122.166594,37.753234]}},{"properties":{"city":"OAKLAND","name":"ROYAL FOOD","geo_score":1.0,"zip code":"94605","id":"a76y6pqiobfg","geo_precision":"range","address":"7615 MACARTHUR BLVD","state":"CA"},"type":"Feature","geometry":{"type":"Point","coordinates":[-122.169807,37.767321]}},{"properties":{"city":"OAKLAND","name":"RRIAGE TRADE LIQUORS","geo_score":0.916,"zip code":"94606","id":"a76y6pq2j3dh","geo_precision":"range","address":"350 E 18TH ST","state":"CA"},"type":"Feature","geometry":{"type":"Point","coordinates":[-122.251444,37.799481]}},{"properties":{"city":"OAKLAND","name":"S &amp; A INC","geo_score":0.902,"zip code":"94612","id":"a76y6q35b3ff","geo_precision":"range","address":"600 14TH STREET","state":"CA"},"type":"Feature","geometry":{"type":"Point","coordinates":[-122.274801,37.805769]}},{"properties":{"city":"OAKLAND","name":"S &amp; N MARKET","geo_score":0.986,"zip code":"94609","id":"a76y6pwttzak","geo_precision":"range","address":"3222 MARTIN LUTHER KING JR WY","state":"CA"},"type":"Feature","geometry":{"type":"Point","coordinates":[-122.270431,37.821799]}},{"properties":{"city":"OAKLAND","name":"S &amp; R ARCO","geo_score":1.0,"zip code":"94605","id":"a76y6pomdbe2","geo_precision":"range","address":"10600 MACARTHUR BLVD","state":"CA"},"type":"Feature","geometry":{"type":"Point","coordinates":[-122.152496,37.742923]}},{"properties":{"city":"OAKLAND","name":"S &amp; S MARKET","geo_score":0.916,"zip code":"94601","id":"a76y6q2j6412","geo_precision":"range","address":"2235 35TH AVENUE","state":"CA"},"type":"Feature","geometry":{"type":"Point","coordinates":[-122.214856,37.785352]}},{"properties":{"city":"OAKLAND","name":"S M S LIQUORS","geo_score":0.805,"zip code":"94608","id":"a76y6q3ctwih","geo_precision":"range","address":"1049 55TH ST","state":"CA"},"type":"Feature","geometry":{"type":"Point","coordinates":[-122.280028,37.838688]}},{"properties":{"city":"OAKLAND","name":"SAEEDS MARKET","geo_score":0.916,"zip code":"94601","id":"a76y6pqykksj","geo_precision":"range","address":"5035 E 12TH ST","state":"CA"},"type":"Feature","geometry":{"type":"Point","coordinates":[-122.210445,37.76748]}},{"properties":{"city":"OAKLAND","name":"SAFELAND MARKET","geo_score":1.0,"zip code":"94605","id":"a76y6q0qno3r","geo_precision":"range","address":"5701 FOOTHILL BLVD","state":"CA"},"type":"Feature","geometry":{"type":"Point","coordinates":[-122.193915,37.772266]}},{"properties":{"city":"OAKLAND","name":"SAFEWAY","geo_score":1.0,"zip code":"94621","id":"a76y6pz2yvk0","geo_precision":"range","address":"610 HEGENBERGER RD","state":"CA"},"type":"Feature","geometry":{"type":"Point","coordinates":[-122.196076,37.74568]}},{"properties":{"city":"OAKLAND","name":"SAIGON MARKET","geo_score":1.0,"zip code":"94612","id":"a76y6q0rcyy1","geo_precision":"range","address":"2331 TELEGRAPH AVENUE","state":"CA"},"type":"Feature","geometry":{"type":"Point","coordinates":[-122.268843,37.812882]}},{"properties":{"city":"OAKLAND","name":"SAMS LIQUOR STORE","geo_score":1.0,"zip code":"94607","id":"a76y6puhvsky","geo_precision":"range","address":"907 WASHINGTON STREET","state":"CA"},"type":"Feature","geometry":{"type":"Point","coordinates":[-122.274586,37.801416]}},{"properties":{"city":"OAKLAND","name":"SAN PABLO LIQUORS","geo_score":1.0,"zip code":"94612","id":"a76y6psan6qp","geo_precision":"range","address":"2363-67 SAN PABLO AVE","state":"CA"},"type":"Feature","geometry":{"type":"Point","coordinates":[-122.274741,37.814799]}},{"properties":{"city":"OAKLAND","name":"SANA MARKET","geo_score":1.0,"zip code":"94609","id":"a76y6pviixnh","geo_precision":"range","address":"3710 TELEGRAPH AVENUE","state":"CA"},"type":"Feature","geometry":{"type":"Point","coordinates":[-122.265526,37.825583]}},{"properties":{"city":"OAKLAND","name":"SAV MOR LIQUORS","geo_score":1.0,"zip code":"94607","id":"a76y6pq7j41i","geo_precision":"range","address":"1333 PERALTA ST","state":"CA"},"type":"Feature","geometry":{"type":"Point","coordinates":[-122.294388,37.810952]}},{"properties":{"city":"OAKLAND","name":"SAVE A LOT MARKET","geo_score":0.805,"zip code":"94608","id":"a76y6q0ir71w","geo_precision":"range","address":"1228 59TH ST","state":"CA"},"type":"Feature","geometry":{"type":"Point","coordinates":[-122.285859,37.842069]}},{"properties":{"city":"OAKLAND","name":"SAVEMORE MARKET &amp; LIQUOR","geo_score":1.0,"zip code":"94602","id":"a76y6pwjvn9k","geo_precision":"range","address":"4219 PARK BLVD","state":"CA"},"type":"Feature","geometry":{"type":"Point","coordinates":[-122.22247,37.807419]}},{"properties":{"city":"OAKLAND","name":"SCHOOL MARKET","geo_score":1.0,"zip code":"94602","id":"a76y6q3jcxzf","geo_precision":"range","address":"3051 SCHOOL ST","state":"CA"},"type":"Feature","geometry":{"type":"Point","coordinates":[-122.21197,37.794453]}},{"properties":{"city":"OAKLAND","name":"SEMINARY GAS &amp; FOOD","geo_score":1.0,"zip code":"94605","id":"a76y6po3wo6y","geo_precision":"range","address":"6235 SEMINARY AVE","state":"CA"},"type":"Feature","geometry":{"type":"Point","coordinates":[-122.174656,37.780282]}},{"properties":{"city":"OAKLAND","name":"SEMINARY LIQUORS &amp; GROCERY","geo_score":1.0,"zip code":"94605","id":"a76y6py34pdb","geo_precision":"range","address":"2611 SEMINARY AVE","state":"CA"},"type":"Feature","geometry":{"type":"Point","coordinates":[-122.189754,37.771962]}},{"properties":{"city":"OAKLAND","name":"SHARIFFS MARKET","geo_score":1.0,"zip code":"94607","id":"a76y6ppzoqwf","geo_precision":"range","address":"1044 WILLOW STREET","state":"CA"},"type":"Feature","geometry":{"type":"Point","coordinates":[-122.298683,37.810052]}},{"properties":{"city":"OAKLAND","name":"SHOPPERS MARKET","geo_score":0.916,"zip code":"94606","id":"a76y6q0ifxxb","geo_precision":"range","address":"2101 23RD AVENUE","state":"CA"},"type":"Feature","geometry":{"type":"Point","coordinates":[-122.231654,37.788668]}},{"properties":{"city":"OAKLAND","name":"SHORE ACRES GAS","geo_score":0.916,"zip code":"94606","id":"a76y6ptmm6en","geo_precision":"range","address":"403 E 12TH ST","state":"CA"},"type":"Feature","geometry":{"type":"Point","coordinates":[-122.255588,37.795822]}},{"properties":{"city":"OAKLAND","name":"SIERRA MARKET &amp; DELI","geo_score":0.951,"zip code":"94607","id":"a76y6q10oc5a","geo_precision":"range","address":"311 OAK ST C3","state":"CA"},"type":"Feature","geometry":{"type":"Point","coordinates":[-122.267374,37.793971]}},{"properties":{"city":"OAKLAND","name":"SILVER GAS","geo_score":1.0,"zip code":"94605","id":"a76y6ptc5ft9","geo_precision":"range","address":"7225 BANCROFT AVENUE","state":"CA"},"type":"Feature","geometry":{"type":"Point","coordinates":[-122.177684,37.766203]}},{"properties":{"city":"OAKLAND","name":"SMART &amp; FINAL","geo_score":0.722,"zip code":"94601","id":"a76y6pzlkhg2","geo_precision":"street","address":"1243 42ND AVE","state":"CA"},"type":"Feature","geometry":{"type":"Point","coordinates":[-122.216226,37.773061]}},{"properties":{"city":"OAKLAND","name":"SOUZAS LIQUORS","geo_score":0.902,"zip code":"94607","id":"a76y6po6gyr4","geo_precision":"range","address":"396 12TH STREET","state":"CA"},"type":"Feature","geometry":{"type":"Point","coordinates":[-122.270781,37.80245]}},{"properties":{"city":"OAKLAND","name":"STAR LIQUOR","geo_score":1.0,"zip code":"94621","id":"a76y6prxkty4","geo_precision":"range","address":"7940 INTERNATIONAL BLVD","state":"CA"},"type":"Feature","geometry":{"type":"Point","coordinates":[-122.182239,37.756963]}},{"properties":{"city":"OAKLAND","name":"STAR MARKET","geo_score":0.916,"zip code":"94606","id":"a76y6ptauhtq","geo_precision":"range","address":"1038 E 21ST ST","state":"CA"},"type":"Feature","geometry":{"type":"Point","coordinates":[-122.242944,37.796399]}},{"properties":{"city":"OAKLAND","name":"STATE MARKET LIQUORS","geo_score":1.0,"zip code":"94607","id":"a76y6q2u063b","geo_precision":"range","address":"707 WILLOW STREET","state":"CA"},"type":"Feature","geometry":{"type":"Point","coordinates":[-122.30085,37.806777]}},{"properties":{"city":"OAKLAND","name":"SUN HOP FAT 1","geo_score":0.916,"zip code":"94606","id":"a76y6prmo9e4","geo_precision":"range","address":"501 E 12TH ST","state":"CA"},"type":"Feature","geometry":{"type":"Point","coordinates":[-122.254811,37.795111]}},{"properties":{"city":"OAKLAND","name":"SUNBEAM MARKET","geo_score":1.0,"zip code":"94607","id":"a76y6pq1taob","geo_precision":"range","address":"1400 ADELINE ST","state":"CA"},"type":"Feature","geometry":{"type":"Point","coordinates":[-122.286208,37.809605]}},{"properties":{"city":"OAKLAND","name":"SUNRISE MARKET","geo_score":0.916,"zip code":"94606","id":"a76y6pz6q2ae","geo_precision":"range","address":"1880 22ND AVENUE","state":"CA"},"type":"Feature","geometry":{"type":"Point","coordinates":[-122.234391,37.788224]}},{"properties":{"city":"OAKLAND","name":"SUPERMERDO MI TIERRA","geo_score":1.0,"zip code":"94601","id":"a76y6ppg63ws","geo_precision":"range","address":"2758 FRUITVALE AVE","state":"CA"},"type":"Feature","geometry":{"type":"Point","coordinates":[-122.219702,37.791384]}},{"properties":{"city":"OAKLAND","name":"SYBIL'S LIQUORS","geo_score":0.916,"zip code":"94606","id":"a76y6pyun1nq","geo_precision":"range","address":"501 E 18TH ST","state":"CA"},"type":"Feature","geometry":{"type":"Point","coordinates":[-122.250162,37.798427]}},{"properties":{"city":"OAKLAND","name":"T &amp; K LIQUOR","geo_score":0.916,"zip code":"94606","id":"a76y6q0qe3ur","geo_precision":"range","address":"1500 23RD AVENUE","state":"CA"},"type":"Feature","geometry":{"type":"Point","coordinates":[-122.235112,37.784217]}},{"properties":{"city":"OAKLAND","name":"TAIZ MARKET","geo_score":0.916,"zip code":"94621","id":"a76y6pts11b5","geo_precision":"range","address":"874 85TH AVE","state":"CA"},"type":"Feature","geometry":{"type":"Point","coordinates":[-122.186178,37.748904]}},{"properties":{"city":"OAKLAND","name":"TEA KES &amp; JANET","geo_score":0.916,"zip code":"94619","id":"a76y6pvl1s33","geo_precision":"range","address":"3015 38TH AVE","state":"CA"},"type":"Feature","geometry":{"type":"Point","coordinates":[-122.203625,37.7874]}},{"properties":{"city":"OAKLAND","name":"TELEGRAPH QUALITY MARKET","geo_score":1.0,"zip code":"94612","id":"a76y6q2nvoyd","geo_precision":"range","address":"2429 TELEGRAPH AVENUE","state":"CA"},"type":"Feature","geometry":{"type":"Point","coordinates":[-122.268641,37.813719]}},{"properties":{"city":"OAKLAND","name":"TERRA FIRMA WINE COMPANY","geo_score":0.915,"zip code":"94611","id":"a76y6pr13a66","geo_precision":"range","address":"6601 COLTON BLVD","state":"CA"},"type":"Feature","geometry":{"type":"Point","coordinates":[-122.204136,37.833556]}},{"properties":{"city":"OAKLAND","name":"THREE AMIGOS MARKET","geo_score":0.916,"zip code":"94606","id":"a76y6pydthyd","geo_precision":"range","address":"1554 13TH AVENUE","state":"CA"},"type":"Feature","geometry":{"type":"Point","coordinates":[-122.245858,37.7909]}},{"properties":{"city":"OAKLAND","name":"TOLIN GROCERY","geo_score":0.902,"zip code":"94612","id":"a76y6pqhcvk7","geo_precision":"range","address":"799 17TH STREET","state":"CA"},"type":"Feature","geometry":{"type":"Point","coordinates":[-122.278068,37.809941]}},{"properties":{"city":"OAKLAND","name":"TOLINS LIQUORS","geo_score":1.0,"zip code":"94621","id":"a76y6q0j556f","geo_precision":"range","address":"7101 INTERNATIONAL BLVD","state":"CA"},"type":"Feature","geometry":{"type":"Point","coordinates":[-122.18903,37.760196]}},{"properties":{"city":"OAKLAND","name":"TWO STAR LIQUOR","geo_score":1.0,"zip code":"94602","id":"a76y6pzhdhom","geo_precision":"range","address":"2020 MACARTHUR BLVD","state":"CA"},"type":"Feature","geometry":{"type":"Point","coordinates":[-122.218044,37.800807]}},{"properties":{"city":"OAKLAND","name":"U &amp; I LIQUOR","geo_score":1.0,"zip code":"94601","id":"a76y6pxg567e","geo_precision":"range","address":"2710 FOOTHILL BLVD","state":"CA"},"type":"Feature","geometry":{"type":"Point","coordinates":[-122.226779,37.784327]}},{"properties":{"city":"OAKLAND","name":"U&amp;I LIQUOR STORE","geo_score":1.0,"zip code":"94609","id":"a76y6pzbwpux","geo_precision":"range","address":"4875 TELEGRAPH AVENUE","state":"CA"},"type":"Feature","geometry":{"type":"Point","coordinates":[-122.262833,37.835577]}},{"properties":{"city":"OAKLAND","name":"UNCLE ROSS MARKET","geo_score":0.916,"zip code":"94621","id":"a76y6pv9he06","geo_precision":"range","address":"1102 71ST AVE","state":"CA"},"type":"Feature","geometry":{"type":"Point","coordinates":[-122.191825,37.757945]}},{"properties":{"city":"OAKLAND","name":"UPTOWN MARKET","geo_score":1.0,"zip code":"94609","id":"a76y6pz9qamr","geo_precision":"range","address":"5635 SHATTUCK AVE","state":"CA"},"type":"Feature","geometry":{"type":"Point","coordinates":[-122.264774,37.841802]}},{"properties":{"city":"OAKLAND","name":"USA GROCERY &amp; LIQUOR","geo_score":0.916,"zip code":"94603","id":"a76y6pw7bsch","geo_precision":"range","address":"1944 90TH AVE","state":"CA"},"type":"Feature","geometry":{"type":"Point","coordinates":[-122.168523,37.75237]}},{"properties":{"city":"OAKLAND","name":"VERNON MARKET","geo_score":0.915,"zip code":"94611","id":"a76y6q34cj1k","geo_precision":"range","address":"3210 HARRISON ST","state":"CA"},"type":"Feature","geometry":{"type":"Point","coordinates":[-122.256458,37.817882]}},{"properties":{"city":"OAKLAND","name":"VIGNERON IMPORTS","geo_score":1.0,"zip code":"94602","id":"a76y6ppbfsan","geo_precision":"range","address":"6 BARNER PL","state":"CA"},"type":"Feature","geometry":{"type":"Point","coordinates":[-122.201359,37.804352]}},{"properties":{"city":"OAKLAND","name":"VILLAGE MARKET","geo_score":1.0,"zip code":"94618","id":"a76y6pz3lk70","geo_precision":"range","address":"5885 BROADWAY TER","state":"CA"},"type":"Feature","geometry":{"type":"Point","coordinates":[-122.236862,37.841014]}},{"properties":{"city":"OAKLAND","name":"VINH THANH RESTAURANT","geo_score":1.0,"zip code":"94606","id":"a76y6pz1jos6","geo_precision":"range","address":"401 INTERNATIONAL BLVD","state":"CA"},"type":"Feature","geometry":{"type":"Point","coordinates":[-122.254666,37.796499]}},{"properties":{"city":"OAKLAND","name":"VINO","geo_score":1.0,"zip code":"94618","id":"a76y6pv1llrj","geo_precision":"range","address":"6319 COLLEGE AVE","state":"CA"},"type":"Feature","geometry":{"type":"Point","coordinates":[-122.252461,37.850482]}},{"properties":{"city":"OAKLAND","name":"VINO","geo_score":0.915,"zip code":"94611","id":"a76y6pnm17k4","geo_precision":"range","address":"4027 PIEDMONT AVE","state":"CA"},"type":"Feature","geometry":{"type":"Point","coordinates":[-122.253242,37.825878]}},{"properties":{"city":"OAKLAND","name":"VINO VOLO","geo_score":1.0,"zip code":"94621","id":"a76y6q0uvdhn","geo_precision":"range","address":"1 AIRPORT DR","state":"CA"},"type":"Feature","geometry":{"type":"Point","coordinates":[-122.200254,37.729715]}},{"properties":{"city":"OAKLAND","name":"W&amp;L MARKET","geo_score":0.805,"zip code":"94608","id":"a76y6q2ba4db","geo_precision":"range","address":"942 54TH ST","state":"CA"},"type":"Feature","geometry":{"type":"Point","coordinates":[-122.275671,37.838647]}},{"properties":{"city":"OAKLAND","name":"WAH FAY LIQUOR","geo_score":0.902,"zip code":"94606","id":"a76y6pp9upmf","geo_precision":"range","address":"2101 8TH AVE","state":"CA"},"type":"Feature","geometry":{"type":"Point","coordinates":[-122.244903,37.798159]}},{"properties":{"city":"OAKLAND","name":"WAH MEI HING MARKET &amp; LIQUOR","geo_score":1.0,"zip code":"94601","id":"a76y6px6cl32","geo_precision":"range","address":"3432 INTERNATIONAL BLVD","state":"CA"},"type":"Feature","geometry":{"type":"Point","coordinates":[-122.223372,37.776471]}},{"properties":{"city":"OAKLAND","name":"WHITE HORSE LIQUORS","geo_score":1.0,"zip code":"94609","id":"a76y6pt9u4rn","geo_precision":"range","address":"6606 TELEGRAPH AVENUE","state":"CA"},"type":"Feature","geometry":{"type":"Point","coordinates":[-122.260324,37.852076]}},{"properties":{"city":"OAKLAND","name":"WILLIAMS MARKET &amp; LIQUOR","geo_score":1.0,"zip code":"94609","id":"a76y6po66h36","geo_precision":"range","address":"5830 TELEGRAPH AVENUE","state":"CA"},"type":"Feature","geometry":{"type":"Point","coordinates":[-122.261373,37.844518]}},{"properties":{"city":"OAKLAND","name":"WILLIE BROWNS LIQUOR","geo_score":1.0,"zip code":"94601","id":"a76y6ps2gbg3","geo_precision":"range","address":"1933 FRUITVALE AVE","state":"CA"},"type":"Feature","geometry":{"type":"Point","coordinates":[-122.223048,37.783114]}},{"properties":{"city":"OAKLAND","name":"WINE MINE THE","geo_score":1.0,"zip code":"94609","id":"a76y6pocbakd","geo_precision":"range","address":"5427 TELEGRAPH AVENUE","state":"CA"},"type":"Feature","geometry":{"type":"Point","coordinates":[-122.26212,37.83965]}},{"properties":{"city":"OAKLAND","name":"WINE ON PIEDMONT","geo_score":0.915,"zip code":"94611","id":"a76y6q12wmnu","geo_precision":"range","address":"4183 PIEDMONT AVE","state":"CA"},"type":"Feature","geometry":{"type":"Point","coordinates":[-122.251195,37.827422]}},{"properties":{"city":"OAKLAND","name":"WINECOMMUNE COM","geo_score":1.0,"zip code":"94621","id":"a76y6psvrbly","geo_precision":"range","address":"7305 EDGEWATER DR","state":"CA"},"type":"Feature","geometry":{"type":"Point","coordinates":[-122.207092,37.746109]}},{"properties":{"city":"OAKLAND","name":"WOODMINSTER MARKET","geo_score":1.0,"zip code":"94602","id":"a76y6puw5goe","geo_precision":"range","address":"5000 WOODMINSTER LANE","state":"CA"},"type":"Feature","geometry":{"type":"Point","coordinates":[-122.197523,37.811088]}},{"properties":{"city":"OAKLAND","name":"YEMEN MARKET THE","geo_score":0.805,"zip code":"94608","id":"a76y6pugapub","geo_precision":"range","address":"1501 34TH STREET","state":"CA"},"type":"Feature","geometry":{"type":"Point","coordinates":[-122.286338,37.825455]}},{"properties":{"city":"OAKLAND","name":"YUMIS MARKET","geo_score":1.0,"zip code":"94601","id":"a76y6q0wbofr","geo_precision":"range","address":"3501 INTERNATIONAL BLVD","state":"CA"},"type":"Feature","geometry":{"type":"Point","coordinates":[-122.222668,37.77614]}}],"is_temporal":false,"author":{"url":"","metadata":"","contact_name":"","contact_address":"","source":"","contact_phone":""},"source":"","pagination":{"sort":null,"start":0,"total":300,"limit":1000000},"state":"complete","tags":"","published":"2014-08-10T14:23:21-04:00","id":33712}