{"type":"FeatureCollection","data_type":"Dataset","url_type":null,"permissions":[{"permissions":{"download":true,"view":true},"group_id":"everyone"}],"classification":null,"title":"Book2","count":26,"stream_id":337137,"contributor":{"url":"http://geocommons.com/users/67696","name":"throble"},"data_attributes":null,"calculation_params":null,"icon_link":null,"link":"http://geocommons.com/overlays/337137.json","extent":[0.0,0.0,0.0,0.0],"geometry_types":[],"unique_name":null,"name":"Book2","feature_count":26,"description":"","next_feature":null,"is_raster":false,"short_classification":"Y","stats":{},"features":[{"properties":{"city":"г Москва","house2":"стр 1","name":"Мэджик","﻿address":"ул 3-я Мытищинская","zip":"129626","house":"д 3","geo_score":0.0,"id":"ad5mma7xaa4l","po":null,"geo_precision":"unmatched","subj":"Общество с ограниченной ответственностью"},"type":"Feature","geometry":null},{"properties":{"city":"Г МОСКВА","house2":null,"name":"МЭМРЗ КВОРУМ","﻿address":"УЛ 1-Я МЫТИЩИНСКАЯ","zip":"107996","house":"Д 27","geo_score":0.0,"id":"ad5mma69ccno","po":null,"geo_precision":"unmatched","subj":"НЕКОММЕРЧЕСКОЕ ПАРТНЕРСТВО ПО ЗАЩИТЕ ПРАВ И ИНТЕРЕСОВ АКЦИОНЕРОВ ОАО"},"type":"Feature","geometry":null},{"properties":{"city":"Г МОСКВА","house2":"КОРП 1","name":"НАМС-Спецмашкомплект","﻿address":"УЛ 1-Я МЫТИЩИНСКАЯ","zip":"129626","house":"Д 3","geo_score":0.0,"id":"ad5mm9z3hgit","po":null,"geo_precision":"unmatched","subj":"Общество с ограниченной ответственностью"},"type":"Feature","geometry":null},{"properties":{"city":"Г МОСКВА","house2":"СТР 1","name":"НАМС-Холдинг","﻿address":"УЛ 1-Я МЫТИЩИНСКАЯ","zip":"129626","house":"Д 3","geo_score":0.0,"id":"ad5mma4ra0k5","po":null,"geo_precision":"unmatched","subj":"Общество с ограниченной ответственностью"},"type":"Feature","geometry":null},{"properties":{"city":"г Москва","house2":"стр 1","name":"НАУКА","﻿address":"ул 3-я Мытищинская","zip":"129626","house":"д 3","geo_score":0.0,"id":"ad5mma511lxy","po":null,"geo_precision":"unmatched","subj":"Общество с ограниченной ответственностью"},"type":"Feature","geometry":null},{"properties":{"city":"Г МОСКВА","house2":"СТР 16","name":"НАУЧНО-ИНЖЕНЕРНЫЙ ЦЕНТР КОМПЛЕКСНОЙ АВТОМАТИЗАЦИИ И МЕХАНИЗАЦИИ ПРОИЗВОДСТВ","﻿address":"УЛ 3-Я МЫТИЩИНСКАЯ","zip":"129626","house":"Д 3","geo_score":0.0,"id":"ad5mma5beuag","po":null,"geo_precision":"unmatched","subj":"ОТКРЫТОЕ АКЦИОНЕРНОЕ ОБЩЕСТВО"},"type":"Feature","geometry":null},{"properties":{"city":"Г МОСКВА","house2":"СТР 1","name":"НАУЧНО-ИННОВАЦИОННЫЙ ЦЕНТР АКАДЕМИИ ЭЛЕКТРОТЕХНИЧЕСКИХ НАУК РОССИЙСКОЙ ФЕДЕРАЦИИ","﻿address":"УЛ МЫТИЩИНСКАЯ 1-Я","zip":"107998","house":"Д 27","geo_score":0.0,"id":"ad5mma5lsm3t","po":null,"geo_precision":"unmatched","subj":"НЕКОММЕРЧЕСКОЕ ПАРТНЕРСТВО"},"type":"Feature","geometry":null},{"properties":{"city":"г Москва","house2":null,"name":"Научно-исследовательский институт железнодорожного транспорта","﻿address":"ул 3-я Мытищинская","zip":"107996","house":"д 10","geo_score":0.0,"id":"ad5mmaawtfp3","po":null,"geo_precision":"unmatched","subj":"Открытое акционерное общество"},"type":"Feature","geometry":null},{"properties":{"city":"Г МОСКВА","house2":"КОРП 1","name":"Научно-исследовательский институт стреловых кранов","﻿address":"УЛ 1-Я МЫТИЩИНСКАЯ","zip":"129626","house":"Д 3","geo_score":0.0,"id":"ad5mma935qjo","po":null,"geo_precision":"unmatched","subj":"Общество с ограниченной ответственностью"},"type":"Feature","geometry":null},{"properties":{"city":"г Москва","house2":"стр 1","name":"Научно-производственная организация технологии и специального технологического оборудования","﻿address":"ул 3-я Мытищинская","zip":"129626","house":"д 3","geo_score":0.0,"id":"ad5mm9ydlcfm","po":null,"geo_precision":"unmatched","subj":"Открытое акционерное общество"},"type":"Feature","geometry":null},{"properties":{"city":"г Москва","house2":"стр 37","name":"Научно-производственная фирма ИнфоСистем-35","﻿address":"ул 3-я Мытищинская","zip":"129626","house":"д 16","geo_score":0.0,"id":"ad5mmabheidt","po":null,"geo_precision":"unmatched","subj":"Закрытое акционерное общество"},"type":"Feature","geometry":null},{"properties":{"city":"Г МОСКВА","house2":null,"name":"НАУЧНО-ПРОИЗВОДСТВЕННАЯ ФИРМА ТРИБОМЕТ ЛТ","﻿address":"УЛ 3-Я МЫТИЩИНСКАЯ","zip":"129851","house":"Д 10","geo_score":0.0,"id":"ad5mmab0fnmp","po":null,"geo_precision":"unmatched","subj":"ОБЩЕСТВО С ОГРАНИЧЕННОЙ ОТВЕТСТВЕННОСТЬЮ"},"type":"Feature","geometry":null},{"properties":{"city":"Г МОСКВА","house2":"СТР 2","name":"НАУЧНО-ПРОИЗВОДСТВЕННАЯ ФИРМА ЮНОНА-АВТО","﻿address":"3-Я МЫТИЩИНСКАЯ УЛ","zip":"129626","house":"Д 3","geo_score":0.0,"id":"ad5mma7j6vti","po":null,"geo_precision":"unmatched","subj":"ОБЩЕСТВО С ОГРАНИЧЕННОЙ ОТВЕТСТВЕННОСТЬЮ"},"type":"Feature","geometry":null},{"properties":{"city":"г Москва","house2":null,"name":"Научно-производственное объединение гидравлических машин","﻿address":"ул 2-я Мытищинская","zip":"129626","house":"д 2","geo_score":0.0,"id":"ad5mma75bu27","po":null,"geo_precision":"unmatched","subj":"Открытое акционерное общество"},"type":"Feature","geometry":null},{"properties":{"city":"Г МОСКВА","house2":null,"name":"Научно-производственное предприятие Квант (ОАО НПП Квант) Профессионального союза работников общего машиностроения Российской Федерации","﻿address":"УЛ 3-Я МЫТИЩИНСКАЯ","zip":"129626","house":"Д 16","geo_score":0.0,"id":"ad5mmacfowo7","po":null,"geo_precision":"unmatched","subj":"Местная общественная организация - Первичная профсоюзная организация Открытого акционерного общества"},"type":"Feature","geometry":null},{"properties":{"city":"Г МОСКВА","house2":null,"name":"Научно-производственное предприятие Квант","﻿address":"УЛ 3-Я МЫТИЩИНСКАЯ","zip":"129626","house":"Д 16","geo_score":0.0,"id":"ad5mma12ms30","po":null,"geo_precision":"unmatched","subj":"Открытое акционерное общество"},"type":"Feature","geometry":null},{"properties":{"city":"Г МОСКВА","house2":null,"name":"НАУЧНО-ПРОИЗВОДСТВЕННОЕ ПРЕДПРИЯТИЕ СЕНСОР","﻿address":"УЛ 3-Я МЫТИЩИНСКАЯ","zip":"129626","house":"Д 16","geo_score":0.0,"id":"ad5mma3hyx6i","po":null,"geo_precision":"unmatched","subj":"ЗАКРЫТОЕ АКЦИОНЕРНОЕ ОБЩЕСТВО"},"type":"Feature","geometry":null},{"properties":{"city":"Г МОСКВА","house2":null,"name":"НАУЧНО-ПРОИЗВОДСТВЕННОЕ ПРЕДПРИЯТИЕ ЦЕНТР НОРМИРОВАНИЯ ПРИРОДОПОЛЬЗОВАНИЯ","﻿address":"МЫТИЩИНСКАЯ 3-Я УЛ","zip":"129629","house":"Д 3","geo_score":0.0,"id":"ad5mma12ieyf","po":null,"geo_precision":"unmatched","subj":"УЧРЕЖДЕНИЕ"},"type":"Feature","geometry":null},{"properties":{"city":"г Москва","house2":"стр 1","name":"Научно-Технический Центр Пожарная безопасность","﻿address":"ул 1-я Мытищинская","zip":"129626","house":"д 28","geo_score":0.0,"id":"ad5mm9ynr1tv","po":null,"geo_precision":"unmatched","subj":"Общество с ограниченной ответственностью"},"type":"Feature","geometry":null},{"properties":{"city":"г Москва","house2":null,"name":"Научно-технический центр моделирования и оптимизации перевозочного процесса на железнодорожном транспорте","﻿address":"ул 3-я Мытищинская","zip":"107996","house":"д 10","geo_score":0.0,"id":"ad5mma9luh13","po":null,"geo_precision":"unmatched","subj":"Общество с ограниченной ответственностью"},"type":"Feature","geometry":null},{"properties":{"city":"г Москва","house2":null,"name":"Научно-техническое предприятие Дека","﻿address":"ул 3-я Мытищинская","zip":"129626","house":"д 16","geo_score":0.0,"id":"ad5mma6xohcc","po":null,"geo_precision":"unmatched","subj":"Общество с ограниченной ответственностью"},"type":"Feature","geometry":null},{"properties":{"city":"Г МОСКВА","house2":null,"name":"НАУЧНОЕ МЕДИЦИНСКОЕ ОБЩЕСТВО ГЕРОНТОЛОГОВ И ГЕРИАТРОВ","﻿address":"УЛ 3-Я МЫТИЩИНСКАЯ","zip":"129626","house":"Д 16","geo_score":0.0,"id":"ad5mmaazuvpi","po":null,"geo_precision":"unmatched","subj":"МЕЖРЕГИОНАЛЬНАЯ ОБЩЕСТВЕННАЯ ОРГАНИЗАЦИЯ"},"type":"Feature","geometry":null},{"properties":{"city":"Г МОСКВА","house2":"СТР 1","name":"НАЦИОНАЛЬНАЯ ГАЗОВАЯ КОМПАНИЯ РУСГАЗ","﻿address":"УЛ 1-Я МЫТИЩИНСКАЯ","zip":"129626","house":"Д 3","geo_score":0.0,"id":"ad5mma9j4nos","po":"ОФИС 311","geo_precision":"unmatched","subj":"ОБЩЕСТВО С ОГРАНИЧЕННОЙ ОТВЕТСТВЕННОСТЬЮ"},"type":"Feature","geometry":null},{"properties":{"city":"Г МЫТИЩИ","house2":null,"name":"МЫТИЩИНСКОЕ ПРОИЗВОДСТВЕННО-ТОРГОВОЕ ПРЕДПРИЯТИЕ САПФИР","﻿address":"ШАРАПОВСКИЙ ПР","zip":"141006","house":"Д 9","geo_score":0.0,"id":"ad5mma34n4he","po":null,"geo_precision":"unmatched","subj":"ОБЩЕСТВО С ОГРАНИЧЕННОЙ ОТВЕТСТВЕННОСТЬЮ"},"type":"Feature","geometry":null},{"properties":{"city":"Г МЫТИЩИ","house2":null,"name":"МЫТИЩИНСКОЕ РАЙОННОЕ АГЕНТСТВО РОСПЕЧАТЬ","﻿address":"НОВОМЫТИЩИНСКИЙ ПРОСП","zip":"141008","house":"Д 19 А","geo_score":0.0,"id":"ad5mma8hguok","po":null,"geo_precision":"unmatched","subj":"МУНИЦИПАЛЬНОЕ УНИТАРНОЕ ПРЕДПРИЯТИЕ"},"type":"Feature","geometry":null},{"properties":{"city":"Г МЫТИЩИ","house2":null,"name":"МЫТИЩИНСКОЕ РАЙОННОЕ ОТДЕЛЕНИЕ МОСКОВСКОГО ОБЛАСТНОГО РЕГИОНАЛЬНОГО ОТДЕЛЕНИЯ ОБЩЕРОССИЙСКОЙ ОБЩЕСТВЕННОЙ ОРГАНИЗАЦИИ ИНВАЛИДОВ ВНУТРЕННИХ ВОЙСК МВД РОССИИ","﻿address":"УЛ ТИТОВА","zip":"141006","house":"Д 7//6","geo_score":0.0,"id":"ad5mmab7cm65","po":null,"geo_precision":"unmatched","subj":"МОСКОВСКАЯ ОБЛАСТЬ"},"type":"Feature","geometry":null}],"is_temporal":false,"author":{"url":"","metadata":"","contact_name":"","contact_address":"","source":"","contact_phone":""},"source":"","pagination":{"sort":null,"start":0,"total":26,"limit":1000000},"state":"complete","tags":"","published":"2014-08-16T21:49:27-04:00","id":337137}