{"type":"FeatureCollection","data_type":"Dataset","url_type":null,"permissions":[{"permissions":{"download":true,"view":true},"group_id":"everyone"}],"classification":null,"title":"B Prospects","count":14,"stream_id":337724,"contributor":{"url":"http://geocommons.com/users/62909","name":"matt808"},"data_attributes":null,"calculation_params":null,"icon_link":null,"link":"http://geocommons.com/overlays/337724.json","extent":[-123.045,42.3224,-121.137,45.57],"geometry_types":["point"],"unique_name":null,"name":"B Prospects","feature_count":14,"description":"","next_feature":null,"is_raster":false,"short_classification":"Y","stats":{},"features":[{"properties":{"client name":"ATSI Group","city":"Portland","rating":"B","geo_score":1.0,"zip code":"97239","id":"ad6oytlvmlhc","address":"4522 SW Water Ave","geo_precision":"range","state":"Oregon"},"type":"Feature","geometry":{"type":"Point","coordinates":[-122.676971,45.489624]}},{"properties":{"client name":"CampusPoint","city":"Portland","rating":"B","geo_score":0.806,"zip code":"97205","id":"ad6oytvjypmw","address":"330-720 SW Washington St","geo_precision":"street","state":"Oregon"},"type":"Feature","geometry":{"type":"Point","coordinates":[-122.67889,45.520672]}},{"properties":{"client name":"Certified Personnel SVC Inc","city":"Redmond","rating":"B","geo_score":0.401,"zip code":"97756-1204","id":"ad6oytjhgdqn","address":"1707 N Highway","geo_precision":"street","state":"Oregon"},"type":"Feature","geometry":{"type":"Point","coordinates":[-121.137142,44.627546]}},{"properties":{"client name":"Cube Management","city":"Beaverton","rating":"B","geo_score":0.913,"zip code":"97205","id":"ad6oytm0ae3t","address":"740-621 SW Alder St","geo_precision":"range","state":"Oregon"},"type":"Feature","geometry":{"type":"Point","coordinates":[-122.679976,45.520096]}},{"properties":{"client name":"Depaul Industries","city":"Portland","rating":"B","geo_score":0.614,"zip code":"97211","id":"ad6oytqppo6j","address":"4950 NE Martin Luther King Blvd.","geo_precision":"street","state":"Oregon"},"type":"Feature","geometry":{"type":"Point","coordinates":[-122.652086,45.569964]}},{"properties":{"client name":"Emerald Staffing","city":"Lake Oswego","rating":"B","geo_score":1.0,"zip code":"97034","id":"ad6oytp3uvfc","address":"210-27 S State St","geo_precision":"range","state":"Oregon"},"type":"Feature","geometry":{"type":"Point","coordinates":[-122.66384,45.415549]}},{"properties":{"client name":"Employers Overload","city":"Portland","rating":"B","geo_score":0.947,"zip code":"97223","id":"ad6oytpz8jcs","address":"12540 SW 69th Ave","geo_precision":"range","state":"Oregon"},"type":"Feature","geometry":{"type":"Point","coordinates":[-122.747751,45.429487]}},{"properties":{"client name":"Hire Calling Staffing Solutions","city":"Medford","rating":"B","geo_score":0.585,"zip code":"97504","id":"ad6oytluhi4v","address":"720 E Jackson St","geo_precision":"zip","state":"Oregon"},"type":"Feature","geometry":{"type":"Point","coordinates":[-122.793659,42.322392]}},{"properties":{"client name":"HR Extras","city":"Tualatin","rating":"B","geo_score":1.0,"zip code":"97062","id":"ad6oytik0ed6","address":"7659 SW Mohawk St","geo_precision":"range","state":"Oregon"},"type":"Feature","geometry":{"type":"Point","coordinates":[-122.757058,45.37777]}},{"properties":{"client name":"Kipe Technology Resources","city":"Beaverton","rating":"B","geo_score":0.98,"zip code":"97006","id":"ad6oytiomsei","address":"14725 SW Milikan Way","geo_precision":"range","state":"Oregon"},"type":"Feature","geometry":{"type":"Point","coordinates":[-122.827879,45.49508]}},{"properties":{"client name":"On-Site Financial Solutions","city":"Portland","rating":"B","geo_score":0.806,"zip code":"97205","id":"ad6oytvhc0li","address":"310-1411 SW Morrison St","geo_precision":"street","state":"Oregon"},"type":"Feature","geometry":{"type":"Point","coordinates":[-122.679621,45.519346]}},{"properties":{"client name":"Resource Staffing Services, Inc.","city":"Portland","rating":"B","geo_score":0.806,"zip code":"97216","id":"ad6oytq37kz5","address":"10568 SE Washington St","geo_precision":"street","state":"Oregon"},"type":"Feature","geometry":{"type":"Point","coordinates":[-122.558432,45.518339]}},{"properties":{"client name":"Selectemp Employment Services","city":"Springfield","rating":"B","geo_score":1.0,"zip code":"97477","id":"ad6oytv6kwff","address":"1202 Gateway Loop","geo_precision":"range","state":"Oregon"},"type":"Feature","geometry":{"type":"Point","coordinates":[-123.045244,44.078735]}},{"properties":{"client name":"The Brentwood Group Ltd.","city":"Lake Oswego","rating":"B","geo_score":0.806,"zip code":"97035","id":"ad6oytmadoxo","address":"230-9 Monroe Parkway","geo_precision":"street","state":"Oregon"},"type":"Feature","geometry":{"type":"Point","coordinates":[-122.702609,45.432204]}}],"is_temporal":false,"author":{"url":"","metadata":"","contact_name":"","contact_address":"","source":"","contact_phone":""},"source":"","pagination":{"sort":null,"start":0,"total":14,"limit":1000000},"state":"complete","tags":"","published":"2014-08-16T22:36:35-04:00","id":337724}