{"type":"FeatureCollection","data_type":"Dataset","url_type":null,"permissions":[{"permissions":{"download":true,"view":true},"group_id":"everyone"}],"classification":null,"title":"Median Family Income in Santa Clara County 2011","count":54,"stream_id":337839,"contributor":{"url":"http://geocommons.com/users/15085","name":"tramdotcom"},"data_attributes":null,"calculation_params":null,"icon_link":null,"link":"http://geocommons.com/overlays/337839.json","extent":[-122.101,37.0233,-121.494,37.4365],"geometry_types":["point"],"unique_name":null,"name":"Median Family Income in Santa Clara County 2011","feature_count":54,"description":"","next_feature":null,"is_raster":false,"short_classification":"Y","stats":{"income":{"max":208582.0,"variance":1541944970.50908,"mean":110028.981481481,"stdev":39267.6071400981,"min":19196.0,"median":105006.0}},"features":[{"properties":{"zip":"95008","geo_score":0.714,"id":"ad6wz2gvoj7u","income":96319.0,"geo_precision":"zip"},"type":"Feature","geometry":{"type":"Point","coordinates":[-121.705327,37.189396]}},{"properties":{"zip":"94022","geo_score":0.714,"id":"ad6wz2f5qbc2","income":189954.0,"geo_precision":"zip"},"type":"Feature","geometry":{"type":"Point","coordinates":[-122.100518,37.35133]}},{"properties":{"zip":"95032","geo_score":0.714,"id":"ad6wz2cab8gk","income":151886.0,"geo_precision":"zip"},"type":"Feature","geometry":{"type":"Point","coordinates":[-121.66186,37.070923]}},{"properties":{"zip":"95037","geo_score":0.714,"id":"ad6wz2h7ha19","income":104928.0,"geo_precision":"zip"},"type":"Feature","geometry":{"type":"Point","coordinates":[-121.671613,37.150501]}},{"properties":{"zip":"94043","geo_score":0.714,"id":"ad6wz2jnwn59","income":104139.0,"geo_precision":"zip"},"type":"Feature","geometry":{"type":"Point","coordinates":[-121.705327,37.189396]}},{"properties":{"zip":"94306","geo_score":0.714,"id":"ad6wz2bc4481","income":143159.0,"geo_precision":"zip"},"type":"Feature","geometry":{"type":"Point","coordinates":[-121.705327,37.189396]}},{"properties":{"zip":"95111","geo_score":0.714,"id":"ad6wz2a2jwei","income":60385.0,"geo_precision":"zip"},"type":"Feature","geometry":{"type":"Point","coordinates":[-121.800001,37.267947]}},{"properties":{"zip":"95116","geo_score":0.714,"id":"ad6wz2l1q0iy","income":50573.0,"geo_precision":"zip"},"type":"Feature","geometry":{"type":"Point","coordinates":[-121.835344,37.35504]}},{"properties":{"zip":"95119","geo_score":0.714,"id":"ad6wz2ipt7xe","income":116483.0,"geo_precision":"zip"},"type":"Feature","geometry":{"type":"Point","coordinates":[-121.705327,37.189396]}},{"properties":{"zip":"95122","geo_score":0.714,"id":"ad6wz2fxwn1f","income":55145.0,"geo_precision":"zip"},"type":"Feature","geometry":{"type":"Point","coordinates":[-121.828333,37.33074]}},{"properties":{"zip":"95125","geo_score":0.714,"id":"ad6wz2k2okt5","income":113780.0,"geo_precision":"zip"},"type":"Feature","geometry":{"type":"Point","coordinates":[-121.705327,37.189396]}},{"properties":{"zip":"95128","geo_score":0.714,"id":"ad6wz2gp0h1m","income":71056.0,"geo_precision":"zip"},"type":"Feature","geometry":{"type":"Point","coordinates":[-121.705327,37.189396]}},{"properties":{"zip":"95131","geo_score":0.714,"id":"ad6wz2jsi2qo","income":107442.0,"geo_precision":"zip"},"type":"Feature","geometry":{"type":"Point","coordinates":[-121.886316,37.388389]}},{"properties":{"zip":"95134","geo_score":0.714,"id":"ad6wz2cnoqje","income":105000.0,"geo_precision":"zip"},"type":"Feature","geometry":{"type":"Point","coordinates":[-121.705327,37.189396]}},{"properties":{"zip":"95138","geo_score":0.714,"id":"ad6wz2fynccx","income":147500.0,"geo_precision":"zip"},"type":"Feature","geometry":{"type":"Point","coordinates":[-121.745159,37.258733]}},{"properties":{"zip":"95046","geo_score":0.714,"id":"ad6wz2c6f07q","income":80952.0,"geo_precision":"zip"},"type":"Feature","geometry":{"type":"Point","coordinates":[-121.606099,37.090125]}},{"properties":{"zip":"95054","geo_score":0.714,"id":"ad6wz2nr00qz","income":122154.0,"geo_precision":"zip"},"type":"Feature","geometry":{"type":"Point","coordinates":[-121.959125,37.394663]}},{"properties":{"zip":"94085","geo_score":0.714,"id":"ad6wz2eysyk7","income":87881.0,"geo_precision":"zip"},"type":"Feature","geometry":{"type":"Point","coordinates":[-122.079648,37.400643]}},{"properties":{"zip":"94089","geo_score":0.714,"id":"ad6wz29uubgi","income":93345.0,"geo_precision":"zip"},"type":"Feature","geometry":{"type":"Point","coordinates":[-121.705327,37.189396]}},{"properties":{"zip":"95014","geo_score":0.714,"id":"ad6wz2j8ppjq","income":145656.0,"geo_precision":"zip"},"type":"Feature","geometry":{"type":"Point","coordinates":[-121.705327,37.189396]}},{"properties":{"zip":"94024","geo_score":0.714,"id":"ad6wz2ga6cx2","income":185230.0,"geo_precision":"zip"},"type":"Feature","geometry":{"type":"Point","coordinates":[-121.705327,37.189396]}},{"properties":{"zip":"95033","geo_score":0.714,"id":"ad6wz2lxjifs","income":135214.0,"geo_precision":"zip"},"type":"Feature","geometry":{"type":"Point","coordinates":[-121.705327,37.189396]}},{"properties":{"zip":"94040","geo_score":0.714,"id":"ad6wz2cswis6","income":123448.0,"geo_precision":"zip"},"type":"Feature","geometry":{"type":"Point","coordinates":[-121.705327,37.189396]}},{"properties":{"zip":"94301","geo_score":0.714,"id":"ad6wz2ki0lkj","income":208582.0,"geo_precision":"zip"},"type":"Feature","geometry":{"type":"Point","coordinates":[-121.705327,37.189396]}},{"properties":{"zip":"95112","geo_score":0.714,"id":"ad6wz2him5qi","income":56009.0,"geo_precision":"zip"},"type":"Feature","geometry":{"type":"Point","coordinates":[-121.892093,37.37004]}},{"properties":{"zip":"95117","geo_score":0.714,"id":"ad6wz2n4hv6z","income":74133.0,"geo_precision":"zip"},"type":"Feature","geometry":{"type":"Point","coordinates":[-121.705327,37.189396]}},{"properties":{"zip":"95120","geo_score":0.714,"id":"ad6wz2drfn6f","income":156154.0,"geo_precision":"zip"},"type":"Feature","geometry":{"type":"Point","coordinates":[-121.895798,37.38478]}},{"properties":{"zip":"95123","geo_score":0.714,"id":"ad6wz2hbw6po","income":91309.0,"geo_precision":"zip"},"type":"Feature","geometry":{"type":"Point","coordinates":[-121.705327,37.189396]}},{"properties":{"zip":"95126","geo_score":0.714,"id":"ad6wz2kca7yi","income":79405.0,"geo_precision":"zip"},"type":"Feature","geometry":{"type":"Point","coordinates":[-121.705327,37.189396]}},{"properties":{"zip":"95129","geo_score":0.714,"id":"ad6wz2fxdyv4","income":129877.0,"geo_precision":"zip"},"type":"Feature","geometry":{"type":"Point","coordinates":[-121.705327,37.189396]}},{"properties":{"zip":"95132","geo_score":0.714,"id":"ad6wz2hetlwh","income":96627.0,"geo_precision":"zip"},"type":"Feature","geometry":{"type":"Point","coordinates":[-121.86051,37.386329]}},{"properties":{"zip":"95135","geo_score":0.714,"id":"ad6wz2iin5lr","income":135339.0,"geo_precision":"zip"},"type":"Feature","geometry":{"type":"Point","coordinates":[-121.723862,37.272289]}},{"properties":{"zip":"95139","geo_score":0.714,"id":"ad6wz28ll1xh","income":112355.0,"geo_precision":"zip"},"type":"Feature","geometry":{"type":"Point","coordinates":[-121.740059,37.216394]}},{"properties":{"zip":"95050","geo_score":0.714,"id":"ad6wz2ey1gbf","income":81760.0,"geo_precision":"zip"},"type":"Feature","geometry":{"type":"Point","coordinates":[-121.705327,37.189396]}},{"properties":{"zip":"95070","geo_score":0.714,"id":"ad6wz2chaqwe","income":182371.0,"geo_precision":"zip"},"type":"Feature","geometry":{"type":"Point","coordinates":[-122.00857,37.275777]}},{"properties":{"zip":"94086","geo_score":0.714,"id":"ad6wz28zkq83","income":105006.0,"geo_precision":"zip"},"type":"Feature","geometry":{"type":"Point","coordinates":[-121.705327,37.189396]}},{"properties":{"zip":"95020","geo_score":0.714,"id":"ad6wz2fj7aoo","income":87661.0,"geo_precision":"zip"},"type":"Feature","geometry":{"type":"Point","coordinates":[-121.493849,37.023347]}},{"properties":{"zip":"95030","geo_score":0.714,"id":"ad6wz2e7eia8","income":190326.0,"geo_precision":"zip"},"type":"Feature","geometry":{"type":"Point","coordinates":[-121.968847,37.160779]}},{"properties":{"zip":"95035","geo_score":0.714,"id":"ad6wz2jol30g","income":100863.0,"geo_precision":"zip"},"type":"Feature","geometry":{"type":"Point","coordinates":[-121.861989,37.436454]}},{"properties":{"zip":"94041","geo_score":0.714,"id":"ad6wz2euhw68","income":102729.0,"geo_precision":"zip"},"type":"Feature","geometry":{"type":"Point","coordinates":[-121.705327,37.189396]}},{"properties":{"zip":"94304","geo_score":0.714,"id":"ad6wz2n0zvj6","income":128580.0,"geo_precision":"zip"},"type":"Feature","geometry":{"type":"Point","coordinates":[-121.705327,37.189396]}},{"properties":{"zip":"95110","geo_score":0.714,"id":"ad6wz29e7vt7","income":56230.0,"geo_precision":"zip"},"type":"Feature","geometry":{"type":"Point","coordinates":[-121.705327,37.189396]}},{"properties":{"zip":"95113","geo_score":0.714,"id":"ad6wz2g6fmzz","income":19196.0,"geo_precision":"zip"},"type":"Feature","geometry":{"type":"Point","coordinates":[-121.705327,37.189396]}},{"properties":{"zip":"95118","geo_score":0.714,"id":"ad6wz2b1qklf","income":93951.0,"geo_precision":"zip"},"type":"Feature","geometry":{"type":"Point","coordinates":[-121.705327,37.189396]}},{"properties":{"zip":"95121","geo_score":0.714,"id":"ad6wz2l3u606","income":83926.0,"geo_precision":"zip"},"type":"Feature","geometry":{"type":"Point","coordinates":[-121.797977,37.298592]}},{"properties":{"zip":"95124","geo_score":0.714,"id":"ad6wz2a74drm","income":117400.0,"geo_precision":"zip"},"type":"Feature","geometry":{"type":"Point","coordinates":[-121.705327,37.189396]}},{"properties":{"zip":"95127","geo_score":0.714,"id":"ad6wz29cacc8","income":67838.0,"geo_precision":"zip"},"type":"Feature","geometry":{"type":"Point","coordinates":[-121.795913,37.373903]}},{"properties":{"zip":"95130","geo_score":0.714,"id":"ad6wz2h2izgi","income":115250.0,"geo_precision":"zip"},"type":"Feature","geometry":{"type":"Point","coordinates":[-121.705327,37.189396]}},{"properties":{"zip":"95133","geo_score":0.714,"id":"ad6wz2ba3uqn","income":74845.0,"geo_precision":"zip"},"type":"Feature","geometry":{"type":"Point","coordinates":[-121.864265,37.372239]}},{"properties":{"zip":"95136","geo_score":0.714,"id":"ad6wz2he3l6q","income":92522.0,"geo_precision":"zip"},"type":"Feature","geometry":{"type":"Point","coordinates":[-121.705327,37.189396]}},{"properties":{"zip":"95148","geo_score":0.714,"id":"ad6wz2lxf9kk","income":108268.0,"geo_precision":"zip"},"type":"Feature","geometry":{"type":"Point","coordinates":[-121.776861,37.335928]}},{"properties":{"zip":"95051","geo_score":0.714,"id":"ad6wz2a7yfbs","income":109638.0,"geo_precision":"zip"},"type":"Feature","geometry":{"type":"Point","coordinates":[-121.705327,37.189396]}},{"properties":{"zip":"94305","geo_score":0.714,"id":"ad6wz2bn3bu7","income":163295.0,"geo_precision":"zip"},"type":"Feature","geometry":{"type":"Point","coordinates":[-121.705327,37.189396]}},{"properties":{"zip":"94087","geo_score":0.714,"id":"ad6wz2itljs3","income":128491.0,"geo_precision":"zip"},"type":"Feature","geometry":{"type":"Point","coordinates":[-121.705327,37.189396]}}],"is_temporal":false,"author":{"url":"","metadata":"","contact_name":"","contact_address":"","source":"","contact_phone":""},"source":"","pagination":{"sort":null,"start":0,"total":54,"limit":1000000},"state":"complete","tags":"","published":"2014-08-16T22:44:50-04:00","id":337839}