{"type":"FeatureCollection","data_type":"Dataset","url_type":null,"permissions":[{"permissions":{"download":true,"view":true},"group_id":"everyone"}],"classification":null,"title":"Georgia Pediatric Locations from 2010","count":159,"stream_id":338463,"contributor":{"url":"http://geocommons.com/users/58490","name":"mhouston25"},"data_attributes":null,"calculation_params":null,"icon_link":null,"link":"http://geocommons.com/overlays/338463.json","extent":[-85.4845,30.7168,-81.1161,34.8915],"geometry_types":["point"],"unique_name":null,"name":"Georgia Pediatric Locations from 2010","feature_count":159,"description":"","next_feature":null,"is_raster":false,"short_classification":"Y","stats":{"pediatrics":{"max":327,"variance":1230.93392245841,"mean":10.2012578616352,"stdev":35.0846679114739,"min":0,"median":1}},"features":[{"properties":{"geometry_id":"a656ihtb4lyn","pediatrics":2,"county":"Appling","id":"ad8207mbhy0a"},"type":"Feature","geometry":{"type":"Point","coordinates":[-82.2996775,31.717804]}},{"properties":{"geometry_id":"a656ihjjsf8d","pediatrics":0,"county":"Atkinson","id":"ad8207kzotn4"},"type":"Feature","geometry":{"type":"Point","coordinates":[-82.8849595,31.3017715]}},{"properties":{"geometry_id":"a656ihsprx89","pediatrics":0,"county":"Bacon","id":"ad8207jco30l"},"type":"Feature","geometry":{"type":"Point","coordinates":[-82.427602,31.563803]}},{"properties":{"geometry_id":"a656ihlqpxw2","pediatrics":0,"county":"Baker","id":"ad8207ev9npq"},"type":"Feature","geometry":{"type":"Point","coordinates":[-84.391275,31.2665765]}},{"properties":{"geometry_id":"a656ihhslhc6","pediatrics":9,"county":"Baldwin","id":"ad8207gp4ypx"},"type":"Feature","geometry":{"type":"Point","coordinates":[-83.236645,33.058273]}},{"properties":{"geometry_id":"a656ihq36r6t","pediatrics":0,"county":"Banks","id":"ad8207n1p1p1"},"type":"Feature","geometry":{"type":"Point","coordinates":[-83.503913,34.344658]}},{"properties":{"geometry_id":"a656ihl9x554","pediatrics":6,"county":"Barrow","id":"ad8207h3cbjo"},"type":"Feature","geometry":{"type":"Point","coordinates":[-83.703252,34.011824]}},{"properties":{"geometry_id":"a656ihtvy5vt","pediatrics":9,"county":"Bartow","id":"ad8207j9djn3"},"type":"Feature","geometry":{"type":"Point","coordinates":[-84.8456695,34.244133]}},{"properties":{"geometry_id":"a656ihuolhyy","pediatrics":1,"county":"Ben Hill","id":"ad8207kytgbi"},"type":"Feature","geometry":{"type":"Point","coordinates":[-83.2401105,31.751751]}},{"properties":{"geometry_id":"a656ihni5x1r","pediatrics":0,"county":"Berrien","id":"ad8207sefuyk"},"type":"Feature","geometry":{"type":"Point","coordinates":[-83.2363545,31.2507445]}},{"properties":{"geometry_id":"a656ihlze1l6","pediatrics":41,"county":"Bibb","id":"ad8207mkzr83"},"type":"Feature","geometry":{"type":"Point","coordinates":[-83.691315,32.8075635]}},{"properties":{"geometry_id":"a656ihk2p2bf","pediatrics":2,"county":"Bleckley","id":"ad8207lhqnkx"},"type":"Feature","geometry":{"type":"Point","coordinates":[-83.3185395,32.428308]}},{"properties":{"geometry_id":"a656ihseqa52","pediatrics":1,"county":"Brantley","id":"ad8207oxr3qh"},"type":"Feature","geometry":{"type":"Point","coordinates":[-82.0080805,31.192005]}},{"properties":{"geometry_id":"a656ihrhxo1x","pediatrics":1,"county":"Brooks","id":"ad8207e55o0c"},"type":"Feature","geometry":{"type":"Point","coordinates":[-83.54538286,30.85806155]}},{"properties":{"geometry_id":"a656ihpw1sd8","pediatrics":4,"county":"Bryan","id":"ad8207ma1zwg"},"type":"Feature","geometry":{"type":"Point","coordinates":[-81.4602205,31.98367631]}},{"properties":{"geometry_id":"a656ihtrkhpo","pediatrics":9,"county":"Bulloch","id":"ad8207ddclea"},"type":"Feature","geometry":{"type":"Point","coordinates":[-81.7323175,32.402855]}},{"properties":{"geometry_id":"a656ihiwy18p","pediatrics":1,"county":"Burke","id":"ad8207li0egs"},"type":"Feature","geometry":{"type":"Point","coordinates":[-81.92950442,33.0504875]}},{"properties":{"geometry_id":"a656ihus9yxy","pediatrics":1,"county":"Butts","id":"ad8207eahfgu"},"type":"Feature","geometry":{"type":"Point","coordinates":[-83.965667,33.315777]}},{"properties":{"geometry_id":"a656ihui10b7","pediatrics":1,"county":"Calhoun","id":"ad8207g9g6vf"},"type":"Feature","geometry":{"type":"Point","coordinates":[-84.620287,31.5357765]}},{"properties":{"geometry_id":"a656ihomlxhz","pediatrics":5,"county":"Camden","id":"ad8207hvilbi"},"type":"Feature","geometry":{"type":"Point","coordinates":[-81.670123,30.93949]}},{"properties":{"geometry_id":"a656ihlzkdtf","pediatrics":0,"county":"Candler","id":"ad8207clxqy0"},"type":"Feature","geometry":{"type":"Point","coordinates":[-82.086658,32.414349]}},{"properties":{"geometry_id":"a656ihkmmclg","pediatrics":13,"county":"Carroll","id":"ad8207rmk3q0"},"type":"Feature","geometry":{"type":"Point","coordinates":[-85.0735673,33.6189315]}},{"properties":{"geometry_id":"a656ihfgryow","pediatrics":8,"county":"Catoosa","id":"ad8207gk4soc"},"type":"Feature","geometry":{"type":"Point","coordinates":[-85.122368,34.877643]}},{"properties":{"geometry_id":"a656ihtl9ph2","pediatrics":0,"county":"Charlton","id":"ad8207q21b1x"},"type":"Feature","geometry":{"type":"Point","coordinates":[-82.156333,30.7168365]}},{"properties":{"geometry_id":"a656ihvhmnsx","pediatrics":58,"county":"Chatham","id":"ad8207qxxdg7"},"type":"Feature","geometry":{"type":"Point","coordinates":[-81.1161245,31.9792625]}},{"properties":{"geometry_id":"a656ihi7up94","pediatrics":1,"county":"Chattahoochee","id":"ad8207k6aipf"},"type":"Feature","geometry":{"type":"Point","coordinates":[-84.8227095,32.377954]}},{"properties":{"geometry_id":"a656ihtdskyk","pediatrics":0,"county":"Chattooga","id":"ad8207iwji8r"},"type":"Feature","geometry":{"type":"Point","coordinates":[-85.3175045,34.437701]}},{"properties":{"geometry_id":"a656ihu6zu4r","pediatrics":23,"county":"Cherokee","id":"ad8207oh7hz6"},"type":"Feature","geometry":{"type":"Point","coordinates":[-84.4583265,34.242944]}},{"properties":{"geometry_id":"a656ihji3cco","pediatrics":19,"county":"Clarke","id":"ad8207kqfz8f"},"type":"Feature","geometry":{"type":"Point","coordinates":[-83.389109,33.9443395]}},{"properties":{"geometry_id":"a656ihihicyd","pediatrics":24,"county":"Clay","id":"ad8207fslavc"},"type":"Feature","geometry":{"type":"Point","coordinates":[-84.97002497,31.63316562]}},{"properties":{"geometry_id":"a656ihgjj7rw","pediatrics":32,"county":"Clayton","id":"ad8207e5mixd"},"type":"Feature","geometry":{"type":"Point","coordinates":[-84.3512735,33.500697]}},{"properties":{"geometry_id":"a656ihq9vd6b","pediatrics":0,"county":"Clinch","id":"ad8207fjici9"},"type":"Feature","geometry":{"type":"Point","coordinates":[-82.695072,30.88324746]}},{"properties":{"geometry_id":"a656ihv83wad","pediatrics":124,"county":"Cobb","id":"ad8207lg0jy6"},"type":"Feature","geometry":{"type":"Point","coordinates":[-84.557181,33.912473]}},{"properties":{"geometry_id":"a656iht2cc9v","pediatrics":6,"county":"Coffee","id":"ad8207mktqvt"},"type":"Feature","geometry":{"type":"Point","coordinates":[-82.873705,31.5900155]}},{"properties":{"geometry_id":"a656ihik8e7p","pediatrics":3,"county":"Colquitt","id":"ad8207jx34s4"},"type":"Feature","geometry":{"type":"Point","coordinates":[-83.759974,31.1804]}},{"properties":{"geometry_id":"a656ihma8hor","pediatrics":13,"county":"Columbia","id":"ad8207fy04qa"},"type":"Feature","geometry":{"type":"Point","coordinates":[-82.2354845,33.5276465]}},{"properties":{"geometry_id":"a656ihkg6qfr","pediatrics":0,"county":"Cook","id":"ad8207h2yzha"},"type":"Feature","geometry":{"type":"Point","coordinates":[-83.428335,31.1888415]}},{"properties":{"geometry_id":"a656iho91guu","pediatrics":12,"county":"Coweta","id":"ad8207htc6il"},"type":"Feature","geometry":{"type":"Point","coordinates":[-84.756109,33.3514015]}},{"properties":{"geometry_id":"a656ihj32snk","pediatrics":0,"county":"Crawford","id":"ad8207kfn9ug"},"type":"Feature","geometry":{"type":"Point","coordinates":[-83.951859,32.6935255]}},{"properties":{"geometry_id":"a656ihfr3abu","pediatrics":5,"county":"Crisp","id":"ad8207mvtb7k"},"type":"Feature","geometry":{"type":"Point","coordinates":[-83.7853925,31.917132]}},{"properties":{"geometry_id":"a656ihps4f9i","pediatrics":1,"county":"Dade","id":"ad8207ft7v6a"},"type":"Feature","geometry":{"type":"Point","coordinates":[-85.484542,34.80426783]}},{"properties":{"geometry_id":"a656ihprrf33","pediatrics":4,"county":"Dawson","id":"ad8207lv1uif"},"type":"Feature","geometry":{"type":"Point","coordinates":[-84.1518905,34.475892]}},{"properties":{"geometry_id":"a656ihieregp","pediatrics":2,"county":"Decatur","id":"ad8207ogu6v7"},"type":"Feature","geometry":{"type":"Point","coordinates":[-84.6237465,30.88470091]}},{"properties":{"geometry_id":"a656ihmlclcu","pediatrics":212,"county":"Dekalb","id":"ad8207gkr9ij"},"type":"Feature","geometry":{"type":"Point","coordinates":[-84.1869685,33.792502]}},{"properties":{"geometry_id":"a656ihhcx3rw","pediatrics":3,"county":"Dodge","id":"ad8207eu0f7s"},"type":"Feature","geometry":{"type":"Point","coordinates":[-83.122891,32.176429]}},{"properties":{"geometry_id":"a656ihvstjsl","pediatrics":0,"county":"Dooly","id":"ad8207rtxg4j"},"type":"Feature","geometry":{"type":"Point","coordinates":[-83.819625,32.160123]}},{"properties":{"geometry_id":"a656ihj2yg8n","pediatrics":19,"county":"Dougherty","id":"ad8207jcz3qd"},"type":"Feature","geometry":{"type":"Point","coordinates":[-84.2195945,31.543065]}},{"properties":{"geometry_id":"a656ihprx1tl","pediatrics":21,"county":"Douglas","id":"ad8207r3kqfw"},"type":"Feature","geometry":{"type":"Point","coordinates":[-84.744578,33.6896605]}},{"properties":{"geometry_id":"a656ihhnnud3","pediatrics":0,"county":"Early","id":"ad8207kptejx"},"type":"Feature","geometry":{"type":"Point","coordinates":[-84.871091,31.29563]}},{"properties":{"geometry_id":"a656ihkhvpoe","pediatrics":0,"county":"Echols","id":"ad8207ioe7vk"},"type":"Feature","geometry":{"type":"Point","coordinates":[-82.8577555,30.73215759]}},{"properties":{"geometry_id":"a656ihi0bv0v","pediatrics":1,"county":"Effingham","id":"ad8207sklbmq"},"type":"Feature","geometry":{"type":"Point","coordinates":[-81.333642,32.3456615]}},{"properties":{"geometry_id":"a656ihqkw1k6","pediatrics":0,"county":"Elbert","id":"ad8207lxte2f"},"type":"Feature","geometry":{"type":"Point","coordinates":[-82.8339475,34.12227404]}},{"properties":{"geometry_id":"a656ihrxvacg","pediatrics":1,"county":"Emanuel","id":"ad8207gpiz3m"},"type":"Feature","geometry":{"type":"Point","coordinates":[-82.324475,32.5664685]}},{"properties":{"geometry_id":"a656iho27ghm","pediatrics":0,"county":"Evans","id":"ad8207jq76u6"},"type":"Feature","geometry":{"type":"Point","coordinates":[-81.87191,32.163392]}},{"properties":{"geometry_id":"a656ihhjwgqf","pediatrics":2,"county":"Fannin","id":"ad8207g5uh8b"},"type":"Feature","geometry":{"type":"Point","coordinates":[-84.357884,34.7955085]}},{"properties":{"geometry_id":"a656ihndewk3","pediatrics":21,"county":"Fayette","id":"ad8207drx8zr"},"type":"Feature","geometry":{"type":"Point","coordinates":[-84.5044035,33.4038145]}},{"properties":{"geometry_id":"a656ihu9ta0o","pediatrics":16,"county":"Floyd","id":"ad8207halwng"},"type":"Feature","geometry":{"type":"Point","coordinates":[-85.23365839,34.333308]}},{"properties":{"geometry_id":"a656ihkgvvvi","pediatrics":30,"county":"Forsyth","id":"ad8207jybyuf"},"type":"Feature","geometry":{"type":"Point","coordinates":[-84.0927085,34.193041]}},{"properties":{"geometry_id":"a656ihus4hak","pediatrics":2,"county":"Franklin","id":"ad8207s0bymx"},"type":"Feature","geometry":{"type":"Point","coordinates":[-83.22439197,34.38036802]}},{"properties":{"geometry_id":"a656ihs7x4xo","pediatrics":327,"county":"Fulton","id":"ad8207s4t3ix"},"type":"Feature","geometry":{"type":"Point","coordinates":[-84.4740505,33.8444215]}},{"properties":{"geometry_id":"a656ihprnohp","pediatrics":2,"county":"Gilmer","id":"ad8207s5c76g"},"type":"Feature","geometry":{"type":"Point","coordinates":[-84.4252895,34.7020275]}},{"properties":{"geometry_id":"a656ihv2jmfj","pediatrics":0,"county":"Glascock","id":"ad8207i7adh3"},"type":"Feature","geometry":{"type":"Point","coordinates":[-82.5939165,33.2230615]}},{"properties":{"geometry_id":"a656ihljo1fu","pediatrics":14,"county":"Glynn","id":"ad8207gxm77s"},"type":"Feature","geometry":{"type":"Point","coordinates":[-81.52616951,31.233169]}},{"properties":{"geometry_id":"a656ihhq2pva","pediatrics":5,"county":"Gordon","id":"ad8207l08tg9"},"type":"Feature","geometry":{"type":"Point","coordinates":[-84.878264,34.509162]}},{"properties":{"geometry_id":"a656ihkpooc5","pediatrics":0,"county":"Grady","id":"ad8207lgtu7o"},"type":"Feature","geometry":{"type":"Point","coordinates":[-84.22681717,30.8774714]}},{"properties":{"geometry_id":"a656ihr0wwsi","pediatrics":2,"county":"Greene","id":"ad8207slay0n"},"type":"Feature","geometry":{"type":"Point","coordinates":[-83.1783285,33.55838]}},{"properties":{"geometry_id":"a656ihproxo0","pediatrics":146,"county":"Gwinnett","id":"ad8207f0bjpu"},"type":"Feature","geometry":{"type":"Point","coordinates":[-84.0378595,33.9603535]}},{"properties":{"geometry_id":"a656ihtcshr7","pediatrics":4,"county":"Habersham","id":"ad8207g3r82l"},"type":"Feature","geometry":{"type":"Point","coordinates":[-83.5104611,34.6293915]}},{"properties":{"geometry_id":"a656ihkp7i12","pediatrics":24,"county":"Hall","id":"ad8207qc164w"},"type":"Feature","geometry":{"type":"Point","coordinates":[-83.838936,34.3061855]}},{"properties":{"geometry_id":"a656ihib4glg","pediatrics":0,"county":"Hancock","id":"ad8207qxy00l"},"type":"Feature","geometry":{"type":"Point","coordinates":[-83.0107,33.2595265]}},{"properties":{"geometry_id":"a656ihmhjxfv","pediatrics":1,"county":"Haralson","id":"ad8207gx0iua"},"type":"Feature","geometry":{"type":"Point","coordinates":[-85.21157868,33.779195]}},{"properties":{"geometry_id":"a656ihh1vjx8","pediatrics":0,"county":"Harris","id":"ad8207qeyq7n"},"type":"Feature","geometry":{"type":"Point","coordinates":[-84.933895,32.727859]}},{"properties":{"geometry_id":"a656ihqtr0w2","pediatrics":0,"county":"Hart","id":"ad8207of737o"},"type":"Feature","geometry":{"type":"Point","coordinates":[-82.94461674,34.35319086]}},{"properties":{"geometry_id":"a656ihkafxxx","pediatrics":0,"county":"Heard","id":"ad8207jjrfoa"},"type":"Feature","geometry":{"type":"Point","coordinates":[-85.11646043,33.27883056]}},{"properties":{"geometry_id":"a656ihix3ifz","pediatrics":27,"county":"Henry","id":"ad8207fkg0as"},"type":"Feature","geometry":{"type":"Point","coordinates":[-84.1389685,33.472349]}},{"properties":{"geometry_id":"a656ihv32er0","pediatrics":17,"county":"Houston","id":"ad8207ga8pub"},"type":"Feature","geometry":{"type":"Point","coordinates":[-83.669622,32.487403]}},{"properties":{"geometry_id":"a656ihtm7hgi","pediatrics":1,"county":"Irwin","id":"ad8207ldjw3e"},"type":"Feature","geometry":{"type":"Point","coordinates":[-83.249754,31.620878]}},{"properties":{"geometry_id":"a656ihpw2gtu","pediatrics":3,"county":"Jackson","id":"ad8207q546j4"},"type":"Feature","geometry":{"type":"Point","coordinates":[-83.587419,34.130594]}},{"properties":{"geometry_id":"a656ihhhpldi","pediatrics":0,"county":"Jasper","id":"ad8207lbz6w2"},"type":"Feature","geometry":{"type":"Point","coordinates":[-83.6984815,33.3290285]}},{"properties":{"geometry_id":"a656ihm7puk3","pediatrics":1,"county":"Jeff Davis","id":"ad8207m6d9x7"},"type":"Feature","geometry":{"type":"Point","coordinates":[-82.6336485,31.821595]}},{"properties":{"geometry_id":"a656ihpt75ey","pediatrics":1,"county":"Jefferson","id":"ad8207gbppei"},"type":"Feature","geometry":{"type":"Point","coordinates":[-82.4471435,33.037359]}},{"properties":{"geometry_id":"a656ihn6vqva","pediatrics":0,"county":"Jenkins","id":"ad8207jcb7ts"},"type":"Feature","geometry":{"type":"Point","coordinates":[-81.9577985,32.780411]}},{"properties":{"geometry_id":"a656ihr7fbfd","pediatrics":1,"county":"Johnson","id":"ad8207g1x3f7"},"type":"Feature","geometry":{"type":"Point","coordinates":[-82.6956075,32.6659155]}},{"properties":{"geometry_id":"a656ihjemkku","pediatrics":0,"county":"Jones","id":"ad8207ly7n4i"},"type":"Feature","geometry":{"type":"Point","coordinates":[-83.587265,33.013561]}},{"properties":{"geometry_id":"a656ihps08yt","pediatrics":0,"county":"Lamar","id":"ad8207e1aeyh"},"type":"Feature","geometry":{"type":"Point","coordinates":[-84.155527,33.06716]}},{"properties":{"geometry_id":"a656ihr02aco","pediatrics":0,"county":"Lanier","id":"ad8207kjacai"},"type":"Feature","geometry":{"type":"Point","coordinates":[-83.0838205,31.015541]}},{"properties":{"geometry_id":"a656ihjve3tr","pediatrics":5,"county":"Laurens","id":"ad8207ecrjc8"},"type":"Feature","geometry":{"type":"Point","coordinates":[-82.9298525,32.431517]}},{"properties":{"geometry_id":"a656ihtwtisd","pediatrics":1,"county":"Lee","id":"ad8207lovu71"},"type":"Feature","geometry":{"type":"Point","coordinates":[-84.130549,31.769081]}},{"properties":{"geometry_id":"a656ihsru1td","pediatrics":9,"county":"Liberty","id":"ad8207fbpozc"},"type":"Feature","geometry":{"type":"Point","coordinates":[-81.477747,31.824107]}},{"properties":{"geometry_id":"a656ihhc2jrm","pediatrics":0,"county":"Lincoln","id":"ad8207h7sby6"},"type":"Feature","geometry":{"type":"Point","coordinates":[-82.432421,33.810803]}},{"properties":{"geometry_id":"a656ihuxfor7","pediatrics":0,"county":"Long","id":"ad8207dmhxsf"},"type":"Feature","geometry":{"type":"Point","coordinates":[-81.736803,31.7767635]}},{"properties":{"geometry_id":"a656ihi55ppc","pediatrics":9,"county":"Lowndes","id":"ad8207kayj5i"},"type":"Feature","geometry":{"type":"Point","coordinates":[-83.252192,30.82797656]}},{"properties":{"geometry_id":"a656ihk5jtmd","pediatrics":1,"county":"Lumpkin","id":"ad8207pwwrec"},"type":"Feature","geometry":{"type":"Point","coordinates":[-84.0125605,34.579776]}},{"properties":{"geometry_id":"a656ihfkm87x","pediatrics":1,"county":"Macon","id":"ad8207qwso5l"},"type":"Feature","geometry":{"type":"Point","coordinates":[-84.0462935,32.346399]}},{"properties":{"geometry_id":"a656ihrrzj4p","pediatrics":2,"county":"Madison","id":"ad8207qmi7m9"},"type":"Feature","geometry":{"type":"Point","coordinates":[-83.189495,34.136292]}},{"properties":{"geometry_id":"a656ihtrkpf7","pediatrics":0,"county":"Marion","id":"ad8207lzypqi"},"type":"Feature","geometry":{"type":"Point","coordinates":[-84.524418,32.3480705]}},{"properties":{"geometry_id":"a656ihn881fk","pediatrics":1,"county":"McDuffie","id":"ad8207p0qbpw"},"type":"Feature","geometry":{"type":"Point","coordinates":[-82.4719155,33.4855395]}},{"properties":{"geometry_id":"a656ihvpbelk","pediatrics":0,"county":"McIntosh","id":"ad8207g6ye58"},"type":"Feature","geometry":{"type":"Point","coordinates":[-81.4228435,31.495024]}},{"properties":{"geometry_id":"a656ihnzt89l","pediatrics":0,"county":"Meriwether","id":"ad8207scc1kb"},"type":"Feature","geometry":{"type":"Point","coordinates":[-84.6775075,33.0380705]}},{"properties":{"geometry_id":"a656ihvmj2zo","pediatrics":0,"county":"Miller","id":"ad8207i9x9f1"},"type":"Feature","geometry":{"type":"Point","coordinates":[-84.729761,31.1637575]}},{"properties":{"geometry_id":"a656ihhccv7w","pediatrics":3,"county":"Mitchell","id":"ad8207cvwm09"},"type":"Feature","geometry":{"type":"Point","coordinates":[-84.253044,31.260451]}},{"properties":{"geometry_id":"a656iho2atge","pediatrics":0,"county":"Monroe","id":"ad8207hiyun4"},"type":"Feature","geometry":{"type":"Point","coordinates":[-83.915184,33.025483]}},{"properties":{"geometry_id":"a656ihn2iwvx","pediatrics":0,"county":"Montgomery","id":"ad8207hditm3"},"type":"Feature","geometry":{"type":"Point","coordinates":[-82.532692,32.1512175]}},{"properties":{"geometry_id":"a656ihmr58xw","pediatrics":0,"county":"Morgan","id":"ad8207p5de5r"},"type":"Feature","geometry":{"type":"Point","coordinates":[-83.478374,33.626115]}},{"properties":{"geometry_id":"a656ihr27etr","pediatrics":1,"county":"Murray","id":"ad8207k0voiq"},"type":"Feature","geometry":{"type":"Point","coordinates":[-84.7634775,34.785758]}},{"properties":{"geometry_id":"a656ihsdpb0r","pediatrics":27,"county":"Muscogee","id":"ad8207plxkr6"},"type":"Feature","geometry":{"type":"Point","coordinates":[-84.87403958,32.49095706]}},{"properties":{"geometry_id":"a656ihi6w851","pediatrics":9,"county":"Newton","id":"ad8207oqu1zf"},"type":"Feature","geometry":{"type":"Point","coordinates":[-83.8649155,33.5563285]}},{"properties":{"geometry_id":"a656ihl14car","pediatrics":7,"county":"Oconee","id":"ad8207i27wv9"},"type":"Feature","geometry":{"type":"Point","coordinates":[-83.461127,33.8321525]}},{"properties":{"geometry_id":"a656ihigb57i","pediatrics":0,"county":"Oglethorpe","id":"ad8207d92yir"},"type":"Feature","geometry":{"type":"Point","coordinates":[-83.0429855,33.86919]}},{"properties":{"geometry_id":"a656ihgpcj0e","pediatrics":3,"county":"Paulding","id":"ad8207cuwc24"},"type":"Feature","geometry":{"type":"Point","coordinates":[-84.886104,33.928121]}},{"properties":{"geometry_id":"a656ihh8vbwo","pediatrics":0,"county":"Peach","id":"ad8207ppyws4"},"type":"Feature","geometry":{"type":"Point","coordinates":[-83.8596185,32.5658475]}},{"properties":{"geometry_id":"a656ihiz2yue","pediatrics":2,"county":"Pickens","id":"ad8207eeuh6j"},"type":"Feature","geometry":{"type":"Point","coordinates":[-84.455548,34.4684735]}},{"properties":{"geometry_id":"a656ihfgp8ok","pediatrics":0,"county":"Pierce","id":"ad8207iq8q0f"},"type":"Feature","geometry":{"type":"Point","coordinates":[-82.206613,31.3665095]}},{"properties":{"geometry_id":"a656ihtadbdd","pediatrics":1,"county":"Pike","id":"ad8207ds76kw"},"type":"Feature","geometry":{"type":"Point","coordinates":[-84.3930175,33.0887505]}},{"properties":{"geometry_id":"a656ihh3qtq9","pediatrics":1,"county":"Polk","id":"ad8207p074k8"},"type":"Feature","geometry":{"type":"Point","coordinates":[-85.1722974,33.99994]}},{"properties":{"geometry_id":"a656ihk7dkuu","pediatrics":1,"county":"Pulaski","id":"ad8207m937cj"},"type":"Feature","geometry":{"type":"Point","coordinates":[-83.45354,32.2527905]}},{"properties":{"geometry_id":"a656ihgh230o","pediatrics":2,"county":"Putnam","id":"ad8207ck35eo"},"type":"Feature","geometry":{"type":"Point","coordinates":[-83.3444175,33.32547]}},{"properties":{"geometry_id":"a656ihnlcl7p","pediatrics":0,"county":"Quitman","id":"ad8207rgoh0c"},"type":"Feature","geometry":{"type":"Point","coordinates":[-85.0244685,31.88141]}},{"properties":{"geometry_id":"a656ihuqd27n","pediatrics":0,"county":"Rabun","id":"ad8207e94bmr"},"type":"Feature","geometry":{"type":"Point","coordinates":[-83.38300963,34.858382]}},{"properties":{"geometry_id":"a656ihugqox9","pediatrics":0,"county":"Randolph","id":"ad8207j4k3c8"},"type":"Feature","geometry":{"type":"Point","coordinates":[-84.747242,31.775229]}},{"properties":{"geometry_id":"a656ihpwp40f","pediatrics":88,"county":"Richmond","id":"ad8207oa8zkr"},"type":"Feature","geometry":{"type":"Point","coordinates":[-82.09595668,33.3860415]}},{"properties":{"geometry_id":"a656ihpvww90","pediatrics":10,"county":"Rockdale","id":"ad8207kjeh2c"},"type":"Feature","geometry":{"type":"Point","coordinates":[-84.0488625,33.6561295]}},{"properties":{"geometry_id":"a656ihhz8iyo","pediatrics":0,"county":"Schley","id":"ad8207no6hxn"},"type":"Feature","geometry":{"type":"Point","coordinates":[-84.305936,32.293271]}},{"properties":{"geometry_id":"a656ihi95xre","pediatrics":0,"county":"Screven","id":"ad8207d3d0b0"},"type":"Feature","geometry":{"type":"Point","coordinates":[-81.6286855,32.7674339]}},{"properties":{"geometry_id":"a656ihghjpoo","pediatrics":2,"county":"Seminole","id":"ad8207mo0sfk"},"type":"Feature","geometry":{"type":"Point","coordinates":[-84.879714,30.89351415]}},{"properties":{"geometry_id":"a656ihjnfumf","pediatrics":6,"county":"Spalding","id":"ad8207h1j60i"},"type":"Feature","geometry":{"type":"Point","coordinates":[-84.298964,33.265652]}},{"properties":{"geometry_id":"a656ihgqsiyk","pediatrics":6,"county":"Stephens","id":"ad8207dfj8qf"},"type":"Feature","geometry":{"type":"Point","coordinates":[-83.28174081,34.57374011]}},{"properties":{"geometry_id":"a656ihrlk4st","pediatrics":0,"county":"Stewart","id":"ad8207h1mvl8"},"type":"Feature","geometry":{"type":"Point","coordinates":[-84.84960859,32.0766305]}},{"properties":{"geometry_id":"a656ihh0v5b7","pediatrics":4,"county":"Sumter","id":"ad8207hi9iq2"},"type":"Feature","geometry":{"type":"Point","coordinates":[-84.1816095,32.051258]}},{"properties":{"geometry_id":"a656ihl34hw4","pediatrics":0,"county":"Talbot","id":"ad8207j532a5"},"type":"Feature","geometry":{"type":"Point","coordinates":[-84.4949465,32.7011465]}},{"properties":{"geometry_id":"a656ihmwrjmb","pediatrics":0,"county":"Taliaferro","id":"ad8207hg052e"},"type":"Feature","geometry":{"type":"Point","coordinates":[-82.8470435,33.5857285]}},{"properties":{"geometry_id":"a656ihmrmoie","pediatrics":0,"county":"Tattnall","id":"ad8207ck9mo8"},"type":"Feature","geometry":{"type":"Point","coordinates":[-81.998348,32.0506595]}},{"properties":{"geometry_id":"a656ihr196nj","pediatrics":0,"county":"Taylor","id":"ad8207plgavl"},"type":"Feature","geometry":{"type":"Point","coordinates":[-84.2277365,32.559781]}},{"properties":{"geometry_id":"a656ihlle7s4","pediatrics":0,"county":"Telfair","id":"ad8207nzthxb"},"type":"Feature","geometry":{"type":"Point","coordinates":[-82.925924,31.964005]}},{"properties":{"geometry_id":"a656ihlvmbbu","pediatrics":0,"county":"Terrell","id":"ad8207dgjr4t"},"type":"Feature","geometry":{"type":"Point","coordinates":[-84.430794,31.794305]}},{"properties":{"geometry_id":"a656ihr379mt","pediatrics":13,"county":"Thomas","id":"ad8207ruh6wf"},"type":"Feature","geometry":{"type":"Point","coordinates":[-83.927785,30.86819547]}},{"properties":{"geometry_id":"a656ihhfh8gh","pediatrics":9,"county":"Tift","id":"ad8207k61lud"},"type":"Feature","geometry":{"type":"Point","coordinates":[-83.502583,31.462018]}},{"properties":{"geometry_id":"a656ihsnp49v","pediatrics":5,"county":"Toombs","id":"ad8207fk0j9b"},"type":"Feature","geometry":{"type":"Point","coordinates":[-82.3322455,32.132872]}},{"properties":{"geometry_id":"a656ihmb21be","pediatrics":0,"county":"Towns","id":"ad8207gu9pt4"},"type":"Feature","geometry":{"type":"Point","coordinates":[-83.7465785,34.8915075]}},{"properties":{"geometry_id":"a656ihkojknz","pediatrics":0,"county":"Treutlen","id":"ad8207e6ptqf"},"type":"Feature","geometry":{"type":"Point","coordinates":[-82.5652635,32.403135]}},{"properties":{"geometry_id":"a656ihmwwfjq","pediatrics":7,"county":"Troup","id":"ad8207s216s0"},"type":"Feature","geometry":{"type":"Point","coordinates":[-85.04901993,33.0465855]}},{"properties":{"geometry_id":"a656ihh9ucut","pediatrics":0,"county":"Turner","id":"ad8207clfkrh"},"type":"Feature","geometry":{"type":"Point","coordinates":[-83.6276385,31.7097315]}},{"properties":{"geometry_id":"a656ihm24r5r","pediatrics":0,"county":"Twiggs","id":"ad8207e0fq2g"},"type":"Feature","geometry":{"type":"Point","coordinates":[-83.4191135,32.6752715]}},{"properties":{"geometry_id":"a656ihpdwaiz","pediatrics":2,"county":"Union","id":"ad8207sm2p1c"},"type":"Feature","geometry":{"type":"Point","coordinates":[-83.9797805,34.814028]}},{"properties":{"geometry_id":"a656iht5hmhw","pediatrics":3,"county":"Upson","id":"ad8207nld43n"},"type":"Feature","geometry":{"type":"Point","coordinates":[-84.3283115,32.8448545]}},{"properties":{"geometry_id":"a656ihph4e00","pediatrics":1,"county":"Walker","id":"ad8207keea1w"},"type":"Feature","geometry":{"type":"Point","coordinates":[-85.29226766,34.7834955]}},{"properties":{"geometry_id":"a656ihm7sgwb","pediatrics":5,"county":"Walton","id":"ad8207mu18mp"},"type":"Feature","geometry":{"type":"Point","coordinates":[-83.743968,33.763414]}},{"properties":{"geometry_id":"a656ihjn6icb","pediatrics":5,"county":"Ware","id":"ad8207e75ff3"},"type":"Feature","geometry":{"type":"Point","coordinates":[-82.416543,31.0189425]}},{"properties":{"geometry_id":"a656ihlv60zc","pediatrics":0,"county":"Warren","id":"ad8207nrv9f4"},"type":"Feature","geometry":{"type":"Point","coordinates":[-82.625213,33.4323845]}},{"properties":{"geometry_id":"a656ihsym7q7","pediatrics":3,"county":"Washington","id":"ad8207lxtqf8"},"type":"Feature","geometry":{"type":"Point","coordinates":[-82.7922495,32.9977445]}},{"properties":{"geometry_id":"a656ihmar2zk","pediatrics":3,"county":"Wayne","id":"ad8207chwoaf"},"type":"Feature","geometry":{"type":"Point","coordinates":[-81.8802225,31.5781815]}},{"properties":{"geometry_id":"a656ihubg6cu","pediatrics":0,"county":"Webster","id":"ad8207gxnzvr"},"type":"Feature","geometry":{"type":"Point","coordinates":[-84.543517,32.0761085]}},{"properties":{"geometry_id":"a656ihif5y0f","pediatrics":0,"county":"Wheeler","id":"ad8207nbjbv4"},"type":"Feature","geometry":{"type":"Point","coordinates":[-82.7395985,32.1140835]}},{"properties":{"geometry_id":"a656ihoomh7g","pediatrics":0,"county":"White","id":"ad8207jod5fb"},"type":"Feature","geometry":{"type":"Point","coordinates":[-83.7467665,34.652486]}},{"properties":{"geometry_id":"a656ihlkjejv","pediatrics":16,"county":"Whitfield","id":"ad8207m3romn"},"type":"Feature","geometry":{"type":"Point","coordinates":[-84.9896965,34.8018695]}},{"properties":{"geometry_id":"a656ihi45521","pediatrics":0,"county":"Wilcox","id":"ad8207pp3gii"},"type":"Feature","geometry":{"type":"Point","coordinates":[-83.3945745,31.98905]}},{"properties":{"geometry_id":"a656ihrua9j0","pediatrics":0,"county":"Wilkes","id":"ad8207cc7g7o"},"type":"Feature","geometry":{"type":"Point","coordinates":[-82.7334395,33.793623]}},{"properties":{"geometry_id":"a656ihs7j1nl","pediatrics":0,"county":"Wilkinson","id":"ad8207o9edvo"},"type":"Feature","geometry":{"type":"Point","coordinates":[-83.176827,32.796492]}},{"properties":{"geometry_id":"a656ihilid8h","pediatrics":3,"county":"Worth","id":"ad8207gyeyuq"},"type":"Feature","geometry":{"type":"Point","coordinates":[-83.8411815,31.5839445]}}],"is_temporal":false,"author":{"url":"","metadata":"","contact_name":"","contact_address":"","source":"","contact_phone":""},"source":"","pagination":{"sort":null,"start":0,"total":159,"limit":1000000},"state":"complete","tags":"","published":"2014-08-16T23:23:36-04:00","id":338463}