{"type":"FeatureCollection","data_type":"Dataset","url_type":null,"permissions":[{"permissions":{"download":true,"view":true},"group_id":"everyone"}],"classification":null,"title":"Prospects_T_Export_for_Mapping","count":246,"stream_id":338519,"contributor":{"url":"http://geocommons.com/users/68196","name":"abalsinger@bullhorn.com"},"data_attributes":null,"calculation_params":null,"icon_link":null,"link":"http://geocommons.com/overlays/338519.json","extent":[-121.943,37.7398,-72.2223,40.9712],"geometry_types":["point"],"unique_name":null,"name":"Prospects_T_Export_for_Mapping","feature_count":246,"description":"","next_feature":null,"is_raster":false,"short_classification":"Y","stats":{},"features":[{"properties":{"city":"Wayne","zip":"19087","company name":"JM Search","geo_score":0.414,"id":"ad858ml5jg2j","address":"Po Box 285","geo_precision":"street","state":"Pennsylvania"},"type":"Feature","geometry":{"type":"Point","coordinates":[-75.314304,39.908608]}},{"properties":{"city":"Bound Brook","zip":"8805","company name":"Community Medical Referrals","geo_score":1.0,"id":"ad858mlmd1qs","address":"51 W Union Ave","geo_precision":"range","state":"New Jersey"},"type":"Feature","geometry":{"type":"Point","coordinates":[-74.534269,40.566692]}},{"properties":{"city":"Cherry Hill","zip":"8034","company name":"Emerson Personnel Group","geo_score":0.779,"id":"ad858mqs7m68","address":"1040 Kings Hwy N Ste 400","geo_precision":"range","state":"New Jersey"},"type":"Feature","geometry":{"type":"Point","coordinates":[-75.021098,39.904343]}},{"properties":{"city":"East Brunswick","zip":"8816","company name":"Career Management Intl","geo_score":1.0,"id":"ad858mew3e29","address":"197 State Route 18","geo_precision":"range","state":"New Jersey"},"type":"Feature","geometry":{"type":"Point","coordinates":[-74.408065,40.46854]}},{"properties":{"city":"East Brunswick","zip":"8816","company name":"Elias Associates, Inc.","geo_score":0.857,"id":"ad858mqk1jyt","address":null,"geo_precision":"zip","state":"New Jersey"},"type":"Feature","geometry":{"type":"Point","coordinates":[-74.476819,40.423995]}},{"properties":{"city":"East Brunswick","zip":"8816","company name":"Lorelei Personnel Inc","geo_score":1.0,"id":"ad858mlh94f2","address":"1 Auer Ct","geo_precision":"range","state":"New Jersey"},"type":"Feature","geometry":{"type":"Point","coordinates":[-74.390579,40.423793]}},{"properties":{"city":"Edison","zip":"8837","company name":"Momentum Resource Solutions","geo_score":0.916,"id":"ad858mpxpndi","address":"1090 King Georges Post Rd Ste 804","geo_precision":"range","state":"New Jersey"},"type":"Feature","geometry":{"type":"Point","coordinates":[-74.326186,40.524342]}},{"properties":{"city":"Princeton","zip":"8540","company name":"Pentad Inc","geo_score":0.585,"id":"ad858mnl82g6","address":"621 Executive Drive","geo_precision":"zip","state":"New Jersey"},"type":"Feature","geometry":{"type":"Point","coordinates":[-74.64795,40.363882]}},{"properties":{"city":"Hazlet","zip":"7730","company name":"National Hospitality Assoc","geo_score":1.0,"id":"ad858mkt47c3","address":"82 Bethany Rd","geo_precision":"range","state":"New Jersey"},"type":"Feature","geometry":{"type":"Point","coordinates":[-74.185773,40.411704]}},{"properties":{"city":"Aberdeen","zip":"7747","company name":"Key Data Solutions Inc","geo_score":0.927,"id":"ad858mm2s0k8","address":"675 Line Rd","geo_precision":"range","state":"New Jersey"},"type":"Feature","geometry":{"type":"Point","coordinates":[-74.209387,40.413176]}},{"properties":{"city":"Berwyn","zip":"19312","company name":"Axis Healthcare","geo_score":0.889,"id":"ad858mg6lnit","address":"1160 Swedesford Rd Ste 300","geo_precision":"range","state":"Pennsylvania"},"type":"Feature","geometry":{"type":"Point","coordinates":[-75.464333,40.061965]}},{"properties":{"city":"Scotch Plains","zip":"7076","company name":"Connections Personnel Inc","geo_score":1.0,"id":"ad858mqfa8tg","address":"1911 Westfield Ave","geo_precision":"range","state":"New Jersey"},"type":"Feature","geometry":{"type":"Point","coordinates":[-74.395702,40.650376]}},{"properties":{"city":"Cherry Hill","zip":"8034","company name":"ACCU Staffing Services","geo_score":0.973,"id":"ad858mhlj52n","address":"911 Kings Hwy N","geo_precision":"range","state":"New Jersey"},"type":"Feature","geometry":{"type":"Point","coordinates":[-75.019833,39.905244]}},{"properties":{"city":"Cherry Hill","zip":"8003","company name":"Kaye Personnel Inc","geo_score":0.805,"id":"ad858ml2xxrc","address":"1868 Route 70 East","geo_precision":"range","state":"New Jersey"},"type":"Feature","geometry":{"type":"Point","coordinates":[-74.96925,39.903886]}},{"properties":{"city":"Cherry Hill","zip":"8002","company name":"Worlco Computer Resources Inc","geo_score":0.854,"id":"ad858mmla59g","address":"901 Route 38","geo_precision":"range","state":"New Jersey"},"type":"Feature","geometry":{"type":"Point","coordinates":[-75.041162,39.93649]}},{"properties":{"city":"Warren","zip":"7059","company name":"Personnel Group","geo_score":0.857,"id":"ad858mujrv6z","address":null,"geo_precision":"zip","state":"New Jersey"},"type":"Feature","geometry":{"type":"Point","coordinates":[-74.532449,40.629101]}},{"properties":{"city":"Amityville","zip":"11701-2508","company name":"Federation Emplymnt Guide Svc","geo_score":0.857,"id":"ad858mll9xvz","address":null,"geo_precision":"zip","state":"New York"},"type":"Feature","geometry":{"type":"Point","coordinates":[-73.411866,40.686249]}},{"properties":{"city":"Freehold","zip":"7728","company name":"LJ Kushner and Associates","geo_score":0.862,"id":"ad858mobzfli","address":"36 W Main St Ste 302","geo_precision":"range","state":"New Jersey"},"type":"Feature","geometry":{"type":"Point","coordinates":[-74.275283,40.259112]}},{"properties":{"city":"Media","zip":"19063","company name":"CSS-Contemporary Staffing Solutions","geo_score":1.0,"id":"ad858mo08upx","address":"1400 N Providence Rd","geo_precision":"range","state":"Pennsylvania"},"type":"Feature","geometry":{"type":"Point","coordinates":[-75.391391,39.935421]}},{"properties":{"city":"Moorestown","zip":"8057","company name":"Business Software Solutions","geo_score":0.585,"id":"ad858mpzdorj","address":"1601 Schlumberger Dr","geo_precision":"zip","state":"New Jersey"},"type":"Feature","geometry":{"type":"Point","coordinates":[-74.982391,39.962335]}},{"properties":{"city":"East Hampton","zip":"11937","company name":"Caplan Associates Inc","geo_score":0.857,"id":"ad858mmpf2hv","address":"PO BOX 4227","geo_precision":"zip","state":"New York"},"type":"Feature","geometry":{"type":"Point","coordinates":[-72.222302,40.971211]}},{"properties":{"city":"Moorestown","zip":"08057-1549","company name":"A Respected Colleague Inc","geo_score":0.857,"id":"ad858mtdsijo","address":null,"geo_precision":"zip","state":"New Jersey"},"type":"Feature","geometry":{"type":"Point","coordinates":[-74.982391,39.962335]}},{"properties":{"city":"North Brunswick","zip":"8902","company name":"Staffing Alternatives","geo_score":0.902,"id":"ad858mfwjn0n","address":"622 Georges Rd Fl 2","geo_precision":"range","state":"New Jersey"},"type":"Feature","geometry":{"type":"Point","coordinates":[-74.452688,40.468266]}},{"properties":{"city":"Bohemia","zip":"11716-2525","company name":"Elite Technical Inc","geo_score":1.0,"id":"ad858mhu1bnh","address":"75 Orville Drive","geo_precision":"range","state":"New York"},"type":"Feature","geometry":{"type":"Point","coordinates":[-73.101875,40.776694]}},{"properties":{"city":"Levittown","zip":"11756","company name":"Magill Staffing Services","geo_score":1.0,"id":"ad858me5fqll","address":"3601 Hempstead Tpke","geo_precision":"range","state":"New York"},"type":"Feature","geometry":{"type":"Point","coordinates":[-73.507415,40.725562]}},{"properties":{"city":"Red Bank","zip":"7701","company name":"Waters &amp; Sims Employment Svcs","geo_score":0.857,"id":"ad858mn4egok","address":null,"geo_precision":"zip","state":"New Jersey"},"type":"Feature","geometry":{"type":"Point","coordinates":[-74.068143,40.358409]}},{"properties":{"city":"Malverne","zip":"11565-1233","company name":"Jacob's Advisors","geo_score":0.408,"id":"ad858mphadn3","address":"Mri Sales Consultants","geo_precision":"street","state":"New York"},"type":"Feature","geometry":{"type":"Point","coordinates":[-73.53233,40.715457]}},{"properties":{"city":"Tinton Falls","zip":"7724","company name":"Options Employment Resources - People Science","geo_score":1.0,"id":"ad858miwt82w","address":"766 Shrewsbury Ave","geo_precision":"range","state":"New Jersey"},"type":"Feature","geometry":{"type":"Point","coordinates":[-74.072578,40.320077]}},{"properties":{"city":"Somerset","zip":"8873","company name":"Delta Personnel Services Inc","geo_score":0.582,"id":"ad858mgyekx3","address":"1 Executive Dr Ste 150","geo_precision":"street","state":"New Jersey"},"type":"Feature","geometry":{"type":"Point","coordinates":[-74.522731,40.492629]}},{"properties":{"city":"Somerville","zip":"8876","company name":"Complete Personnel Service","geo_score":0.902,"id":"ad858mh2s6zd","address":"10 N Gaston Ave Ste 6","geo_precision":"range","state":"New Jersey"},"type":"Feature","geometry":{"type":"Point","coordinates":[-74.603072,40.567625]}},{"properties":{"city":"Melville","zip":"11747","company name":"Fran Rogers Agency Inc","geo_score":0.916,"id":"ad858mkmvj7o","address":"1 Huntington Quad","geo_precision":"range","state":"New York"},"type":"Feature","geometry":{"type":"Point","coordinates":[-73.41815,40.773866]}},{"properties":{"city":"Syosset","zip":"11791","company name":"Staff Managers","geo_score":0.414,"id":"ad858mozj29v","address":"Po Box 419","geo_precision":"street","state":"New York"},"type":"Feature","geometry":{"type":"Point","coordinates":[-73.228906,40.767547]}},{"properties":{"city":"New Hyde Park","zip":"11042","company name":"Todd Mitchell Associates Inc","geo_score":1.0,"id":"ad858mfu95ah","address":"3333 New Hyde Park Rd","geo_precision":"range","state":"New York"},"type":"Feature","geometry":{"type":"Point","coordinates":[-73.690708,40.76704]}},{"properties":{"city":"Bellmore","zip":"11710","company name":"Total Healthcare Staffing L","geo_score":0.659,"id":"ad858mncwwe2","address":"2527 Merrick Rd","geo_precision":"street","state":"New York"},"type":"Feature","geometry":{"type":"Point","coordinates":[-73.537441,40.699075]}},{"properties":{"city":"Great Neck","zip":"11021","company name":"A.E. Feldman Associates, Inc","geo_score":0.776,"id":"ad858mo1l5dw","address":"445 Northern Blvd Ste 10","geo_precision":"range","state":"New York"},"type":"Feature","geometry":{"type":"Point","coordinates":[-73.720637,40.780126]}},{"properties":{"city":"Hauppauge","zip":"11788","company name":"Nielsen Associates","geo_score":1.0,"id":"ad858mfyjwnb","address":"330 Motor Pkwy","geo_precision":"range","state":"New York"},"type":"Feature","geometry":{"type":"Point","coordinates":[-73.240845,40.807639]}},{"properties":{"city":"Hicksville","zip":"11801","company name":"Pryor Personnel Agency Inc","geo_score":1.0,"id":"ad858mgtkf09","address":"147 W Old Country Rd","geo_precision":"range","state":"New York"},"type":"Feature","geometry":{"type":"Point","coordinates":[-73.525105,40.762525]}},{"properties":{"city":null,"zip":"19317","company name":"About Consulting, Inc.","geo_score":0.857,"id":"ad858mna8qqx","address":null,"geo_precision":"zip","state":"Pennsylvania"},"type":"Feature","geometry":{"type":"Point","coordinates":[-75.53798,39.849278]}},{"properties":{"city":"Southampton","zip":"11968","company name":"Renaissance Unlimited","geo_score":1.0,"id":"ad858mso80yj","address":"28 Cameron Street","geo_precision":"range","state":"New York"},"type":"Feature","geometry":{"type":"Point","coordinates":[-72.386844,40.886168]}},{"properties":{"city":"Allentown,","zip":"18104","company name":"Integrity Personnel","geo_score":0.974,"id":"ad858meesneu","address":"1605 N Cedar Crest Blvd","geo_precision":"range","state":"Pennsylvania"},"type":"Feature","geometry":{"type":"Point","coordinates":[-75.533294,40.613757]}},{"properties":{"city":"Merrick","zip":"11566","company name":"Synergy Partners Inc","geo_score":1.0,"id":"ad858mlw8yan","address":"2017p Bliss Pl","geo_precision":"range","state":"New York"},"type":"Feature","geometry":{"type":"Point","coordinates":[-73.540013,40.64818]}},{"properties":{"city":"Rockville Centre","zip":"11570","company name":"AJ Polumbo &amp; Associates Inc, Val Executive Resources","geo_score":0.415,"id":"ad858ms9rn7d","address":"100 Merrick Rd Ste 302","geo_precision":"street","state":"New York"},"type":"Feature","geometry":{"type":"Point","coordinates":[-73.544977,40.668186]}},{"properties":{"city":"Sayville","zip":"11782","company name":"At Your Service","geo_score":1.0,"id":"ad858mmcz4tz","address":"275 W Main St","geo_precision":"range","state":"New York"},"type":"Feature","geometry":{"type":"Point","coordinates":[-73.090446,40.731646]}},{"properties":{"city":"Philadelphia","zip":"19103","company name":"Howard Fischer Associates","geo_score":0.707,"id":"ad858mhsu0x9","address":"1800 Kennedy Boulevard","geo_precision":"range","state":"Pennsylvania"},"type":"Feature","geometry":{"type":"Point","coordinates":[-75.077987,40.014796]}},{"properties":{"city":"Woodbury","zip":"11797","company name":"Resource Services Inc","geo_score":0.863,"id":"ad858mtv5tvx","address":"20 Crossways Park Dr N","geo_precision":"range","state":"New York"},"type":"Feature","geometry":{"type":"Point","coordinates":[-73.486342,40.810477]}},{"properties":{"city":"Mineola","zip":"11501","company name":"HVS Executive Search","geo_score":1.0,"id":"ad858meksx55","address":"372 Willis Ave","geo_precision":"range","state":"New York"},"type":"Feature","geometry":{"type":"Point","coordinates":[-73.643169,40.752901]}},{"properties":{"city":"Emmaus","zip":"18049","company name":"HTSS Inc. Howells Staffing","geo_score":0.854,"id":"ad858mj3fb5k","address":"860 Broad St Ste 111","geo_precision":"range","state":"Pennsylvania"},"type":"Feature","geometry":{"type":"Point","coordinates":[-75.499304,40.529352]}},{"properties":{"city":"Gladwyne","zip":"19035","company name":"The Beam Group","geo_score":1.0,"id":"ad858mnydxo4","address":"414 Mill Creek Rd","geo_precision":"range","state":"Pennsylvania"},"type":"Feature","geometry":{"type":"Point","coordinates":[-75.284712,40.023482]}},{"properties":{"city":"North Brunswick","zip":"8902","company name":"Hreshko Consulting Group","geo_score":0.994,"id":"ad858mf1lqhw","address":"850 US Hwy 1","geo_precision":"range","state":"New Jersey"},"type":"Feature","geometry":{"type":"Point","coordinates":[-74.471519,40.458236]}},{"properties":{"city":"West Chester","zip":"19380","company name":"Search Innovations Inc","geo_score":1.0,"id":"ad858mpm5nt3","address":"405 Beaumont Cir","geo_precision":"range","state":"Pennsylvania"},"type":"Feature","geometry":{"type":"Point","coordinates":[-75.529747,39.980778]}},{"properties":{"city":"Devon","zip":"19333","company name":"Higgins Group Inc","geo_score":0.885,"id":"ad858mk5xr1o","address":"410 W Lancaster Ave Ste 102","geo_precision":"range","state":"Pennsylvania"},"type":"Feature","geometry":{"type":"Point","coordinates":[-75.432033,40.045587]}},{"properties":{"city":"Carle Place","zip":"11514","company name":"OnPoint Partners Inc","geo_score":0.902,"id":"ad858msvjgjb","address":"234 Silverlake Blvd Ste 2","geo_precision":"range","state":"New York"},"type":"Feature","geometry":{"type":"Point","coordinates":[-73.611448,40.74905]}},{"properties":{"city":"Wynnewood","zip":"19096","company name":"Kaplan &amp; Assoc Inc","geo_score":1.0,"id":"ad858mirne3d","address":"1220 Wyngate Rd","geo_precision":"range","state":"Pennsylvania"},"type":"Feature","geometry":{"type":"Point","coordinates":[-75.277323,39.994512]}},{"properties":{"city":"Marlton","zip":"8053","company name":"David Perry Associates","geo_score":0.799,"id":"ad858mpblcnp","address":"525 Route 73 S Ste 201","geo_precision":"range","state":"New Jersey"},"type":"Feature","geometry":{"type":"Point","coordinates":[-74.922166,39.879709]}},{"properties":{"city":"Wayne","zip":"19087","company name":"Salveson Stetson Group Inc","geo_score":0.913,"id":"ad858mswv4cl","address":"995 Old Eagle School Rd Ste 315","geo_precision":"range","state":"Pennsylvania"},"type":"Feature","geometry":{"type":"Point","coordinates":[-75.410435,40.075877]}},{"properties":{"city":"Birchrunville","zip":"19421","company name":"Lee Calhoon &amp; Co Inc","geo_score":0.414,"id":"ad858mq25iae","address":"Po Box 201","geo_precision":"street","state":"Pennsylvania"},"type":"Feature","geometry":{"type":"Point","coordinates":[-75.199013,40.238119]}},{"properties":{"city":"Port Washington","zip":"11050","company name":"TeleManagement Search","geo_score":1.0,"id":"ad858msfaoix","address":"6 Litchfield Road","geo_precision":"range","state":"New York"},"type":"Feature","geometry":{"type":"Point","coordinates":[-73.69329,40.823825]}},{"properties":{"city":"Downingtown","zip":"19335","company name":"C D Warner &amp; Assoc","geo_score":1.0,"id":"ad858mu0c3dj","address":"12 Davenport Dr","geo_precision":"range","state":"Pennsylvania"},"type":"Feature","geometry":{"type":"Point","coordinates":[-75.733138,40.054393]}},{"properties":{"city":"Philadelphia","zip":"19103","company name":"Diversified Search, Inc.","geo_score":0.854,"id":"ad858muiatxd","address":"2005 Market St Ste 3300","geo_precision":"range","state":"Pennsylvania"},"type":"Feature","geometry":{"type":"Point","coordinates":[-75.175015,39.953865]}},{"properties":{"city":"Conshohocken","zip":"19428","company name":"D.A. Kreuter Associates, Inc.","geo_score":0.805,"id":"ad858mkzonmq","address":"555 North Lane","geo_precision":"street","state":"Pennsylvania"},"type":"Feature","geometry":{"type":"Point","coordinates":[-75.293885,40.089348]}},{"properties":{"city":"Belle Mead","zip":"8540","company name":"Mancino Burfield Edgerton","geo_score":0.748,"id":"ad858mtjh2uu","address":"111 West St","geo_precision":"range","state":"New Jersey"},"type":"Feature","geometry":{"type":"Point","coordinates":[-74.654548,40.332716]}},{"properties":{"city":"Philadelphia","zip":"19103","company name":"Wellington Management Group","geo_score":0.854,"id":"ad858mgy9tk5","address":"1601 Market St Ste 2902","geo_precision":"range","state":"Pennsylvania"},"type":"Feature","geometry":{"type":"Point","coordinates":[-75.168444,39.952974]}},{"properties":{"city":"Philadelphia","zip":"19103","company name":"ChaseAmerica Inc","geo_score":0.585,"id":"ad858mludrm2","address":"1800 JFK Blvd.","geo_precision":"zip","state":"Pennsylvania"},"type":"Feature","geometry":{"type":"Point","coordinates":[-75.186822,40.003361]}},{"properties":{"city":"Philadelphia","zip":"19103","company name":"Abelson Legal Search","geo_score":0.862,"id":"ad858mhoh0xo","address":"1601 Market St Ste 300","geo_precision":"range","state":"Pennsylvania"},"type":"Feature","geometry":{"type":"Point","coordinates":[-75.168444,39.952974]}},{"properties":{"city":"Yardley","zip":"19067","company name":"Rice Cohen International","geo_score":0.774,"id":"ad858mm25fyw","address":"301 Oxford Valley Rd","geo_precision":"street","state":"Pennsylvania"},"type":"Feature","geometry":{"type":"Point","coordinates":[-74.812378,40.209072]}},{"properties":{"city":"Cherry Hill","zip":"8003","company name":"J &amp; J Staffing Resources","geo_score":0.829,"id":"ad858mile4p5","address":"1763 E Marlton Pk PO Box 1620","geo_precision":"range","state":"New Jersey"},"type":"Feature","geometry":{"type":"Point","coordinates":[-74.977594,39.906711]}},{"properties":{"city":"Yardley","zip":"19067","company name":"Woldoff Associates, LTD","geo_score":0.715,"id":"ad858mf48o5v","address":"301 Oxford Valley Rd Ste 1711","geo_precision":"street","state":"Pennsylvania"},"type":"Feature","geometry":{"type":"Point","coordinates":[-74.812378,40.209072]}},{"properties":{"city":"Plymouth Meeting","zip":"19462","company name":"Concord Management Group International","geo_score":1.0,"id":"ad858mrqooip","address":"3138 Butler Pike","geo_precision":"range","state":"Pennsylvania"},"type":"Feature","geometry":{"type":"Point","coordinates":[-75.278245,40.102409]}},{"properties":{"city":"Robbinsville","zip":"8691","company name":"Diedre Moire Corp Inc","geo_score":0.465,"id":"ad858miqliie","address":"510 Horizon Dr","geo_precision":"street","state":"New Jersey"},"type":"Feature","geometry":{"type":"Point","coordinates":[-74.731188,40.196452]}},{"properties":{"city":"Malvern","zip":"19355","company name":"Gateway Search Associates, Inc","geo_score":1.0,"id":"ad858mp7ljmz","address":"7 Great Valley Pkwy","geo_precision":"range","state":"Pennsylvania"},"type":"Feature","geometry":{"type":"Point","coordinates":[-75.536012,40.06364]}},{"properties":{"city":"Allentown","zip":"18104","company name":"Barton Associates","geo_score":0.984,"id":"ad858mfmadye","address":"121 N Cedar Crest Blvd","geo_precision":"range","state":"Pennsylvania"},"type":"Feature","geometry":{"type":"Point","coordinates":[-75.525205,40.590444]}},{"properties":{"city":"Wayne","zip":"19087","company name":"Devon Consulting","geo_score":0.868,"id":"ad858mjnw3br","address":"950 W Valley Rd Ste 2602","geo_precision":"range","state":"Pennsylvania"},"type":"Feature","geometry":{"type":"Point","coordinates":[-75.424257,40.069108]}},{"properties":{"city":"Marlton","zip":"8053","company name":"Computer Methods","geo_score":0.799,"id":"ad858mlpe6kj","address":"525 Route 73 S Ste 300","geo_precision":"range","state":"New Jersey"},"type":"Feature","geometry":{"type":"Point","coordinates":[-74.922166,39.879709]}},{"properties":{"city":"Philadelphia","zip":"19102","company name":"The Bettinger Company","geo_score":0.935,"id":"ad858ml83bf0","address":"42 S 15th St","geo_precision":"range","state":"Pennsylvania"},"type":"Feature","geometry":{"type":"Point","coordinates":[-75.165583,39.951528]}},{"properties":{"city":"Philadelphia","zip":null,"company name":"Translink Outsourcing","geo_score":0.714,"id":"ad858mo51yfb","address":null,"geo_precision":"city","state":"Pennsylvania"},"type":"Feature","geometry":{"type":"Point","coordinates":[-75.11787,40.001811]}},{"properties":{"city":"Philadelphia","zip":"19128","company name":"Defined Source Cooperative","geo_score":0.862,"id":"ad858muc978i","address":"7036 Ridge Ave Ste 100","geo_precision":"range","state":"Pennsylvania"},"type":"Feature","geometry":{"type":"Point","coordinates":[-75.23202,40.045228]}},{"properties":{"city":"Freehold","zip":"7728","company name":"Encode Inc","geo_score":0.744,"id":"ad858mk6chfs","address":"4400 Route 9 South","geo_precision":"range","state":"New Jersey"},"type":"Feature","geometry":{"type":"Point","coordinates":[-74.294706,40.284816]}},{"properties":{"city":"Woodbridge","zip":"7095","company name":"Canyon Associates","geo_score":0.894,"id":"ad858mlyzd1k","address":"1 Woodbridge Ctr Ste 707","geo_precision":"range","state":"New Jersey"},"type":"Feature","geometry":{"type":"Point","coordinates":[-74.297975,40.54761]}},{"properties":{"city":"Edison","zip":"8837","company name":"RennerBrown","geo_score":1.0,"id":"ad858mh3w3cx","address":"101 Fieldcrest Ave","geo_precision":"range","state":"New Jersey"},"type":"Feature","geometry":{"type":"Point","coordinates":[-74.344972,40.515074]}},{"properties":{"city":"Shrewsbury","zip":"7702","company name":"Stratus Technology Services","geo_score":1.0,"id":"ad858mmjkn2c","address":"621 Shrewsbury Ave","geo_precision":"range","state":"New Jersey"},"type":"Feature","geometry":{"type":"Point","coordinates":[-74.073457,40.328551]}},{"properties":{"city":"Edison","zip":"8837","company name":"Chase Douglas","geo_score":1.0,"id":"ad858mq1lqkl","address":"1235 Us Highway 1","geo_precision":"range","state":"New Jersey"},"type":"Feature","geometry":{"type":"Point","coordinates":[-74.350034,40.531408]}},{"properties":{"city":"West Chester","zip":"19380","company name":"DoubleStar","geo_score":1.0,"id":"ad858mhzg92s","address":"1161 McDermott Drive","geo_precision":"range","state":"Pennsylvania"},"type":"Feature","geometry":{"type":"Point","coordinates":[-75.589218,39.999611]}},{"properties":{"city":"Somerset","zip":"8873","company name":"Galaxy Systems Inc.","geo_score":0.582,"id":"ad858mog39ew","address":"2 Executive Dr Ste 430","geo_precision":"street","state":"New Jersey"},"type":"Feature","geometry":{"type":"Point","coordinates":[-74.522731,40.492629]}},{"properties":{"city":"Flemington","zip":"8822","company name":"Grom Associates Inc.","geo_score":1.0,"id":"ad858mf94r8i","address":"1 Main St","geo_precision":"range","state":"New Jersey"},"type":"Feature","geometry":{"type":"Point","coordinates":[-74.859109,40.512136]}},{"properties":{"city":"Fort Washington","zip":"19034","company name":"Keystone Computer Associates","geo_score":1.0,"id":"ad858mpaqtw9","address":"1055 Virginia Dr","geo_precision":"range","state":"Pennsylvania"},"type":"Feature","geometry":{"type":"Point","coordinates":[-75.179463,40.136514]}},{"properties":{"city":"Matawan","zip":"7701","company name":"Configuration Management Inc.","geo_score":0.49,"id":"ad858mmos79v","address":"100 Matawan Rd Ste 120","geo_precision":"street","state":"New Jersey"},"type":"Feature","geometry":{"type":"Point","coordinates":[-74.104694,40.361052]}},{"properties":{"city":"Metuchen","zip":"8840","company name":"C-Shell","geo_score":1.0,"id":"ad858mjev502","address":"257 Lake Ave.","geo_precision":"range","state":"New Jersey"},"type":"Feature","geometry":{"type":"Point","coordinates":[-74.364441,40.539185]}},{"properties":{"city":"Philadelphia","zip":"19102","company name":"Coleman Nourian Legal Search, LLC","geo_score":0.707,"id":"ad858mh44njs","address":"2 Penn Center, 1535 JFK Boulevard","geo_precision":"range","state":"Pennsylvania"},"type":"Feature","geometry":{"type":"Point","coordinates":[-75.168126,39.946005]}},{"properties":{"city":"Somerset","zip":"8873","company name":"NewAgeSys, Inc.","geo_score":0.582,"id":"ad858mkjdx5w","address":"1 Executive Dr Ste 250","geo_precision":"street","state":"New Jersey"},"type":"Feature","geometry":{"type":"Point","coordinates":[-74.522731,40.492629]}},{"properties":{"city":"Bala Cynwyd","zip":"19004","company name":"Systems Staffing Group","geo_score":0.897,"id":"ad858mr8grd2","address":"111 Presidential Blvd Ste 208","geo_precision":"range","state":"Pennsylvania"},"type":"Feature","geometry":{"type":"Point","coordinates":[-75.21212,40.011347]}},{"properties":{"city":"Edison","zip":"8817","company name":"Tekmark Global Solutions","geo_score":0.883,"id":"ad858mp09lil","address":"100 Metroplex Dr Ste 102","geo_precision":"range","state":"New Jersey"},"type":"Feature","geometry":{"type":"Point","coordinates":[-74.411451,40.521623]}},{"properties":{"city":"Montgomeryville","zip":"18936","company name":"McCallion Staffing Specialists","geo_score":0.329,"id":"ad858mmi3a5i","address":"Po Box 550","geo_precision":"street","state":"Pennsylvania"},"type":"Feature","geometry":{"type":"Point","coordinates":[-75.135795,40.307215]}},{"properties":{"city":"Valley Forge","zip":"19482","company name":"Metropolitan Personnel, Inc.","geo_score":0.414,"id":"ad858mq2ch11","address":"Po Box 641","geo_precision":"street","state":"Pennsylvania"},"type":"Feature","geometry":{"type":"Point","coordinates":[-75.199013,40.238119]}},{"properties":{"city":"Springfield","zip":"19064","company name":"Monarch Staffing, Inc.","geo_score":0.912,"id":"ad858mhrzywg","address":"110 Baltimore Pike Ste A","geo_precision":"range","state":"Pennsylvania"},"type":"Feature","geometry":{"type":"Point","coordinates":[-75.315167,39.923472]}},{"properties":{"city":"Melville","zip":"11747","company name":"Carlyle Consulting Services","geo_score":0.788,"id":"ad858mmzqv3z","address":"200 Broadhollow Rd","geo_precision":"street","state":"New York"},"type":"Feature","geometry":{"type":"Point","coordinates":[-73.422083,40.75523]}},{"properties":{"city":"Metuchen","zip":"8840","company name":"Sunrise Systems, Inc.","geo_score":0.854,"id":"ad858mkqrars","address":"16 Pearl St Ste 101","geo_precision":"range","state":"New Jersey"},"type":"Feature","geometry":{"type":"Point","coordinates":[-74.362455,40.541098]}},{"properties":{"city":"Wayne","zip":"19087","company name":"QUAD656","geo_score":1.0,"id":"ad858mj1t3o1","address":"656 E Swedesford Rd","geo_precision":"range","state":"Pennsylvania"},"type":"Feature","geometry":{"type":"Point","coordinates":[-75.414129,40.079909]}},{"properties":{"city":"Wayne","zip":"19087","company name":"RTTEMPS/RNTEMPS","geo_score":0.357,"id":"ad858mqkqd0z","address":"P.O. Box 404","geo_precision":"street","state":"Pennsylvania"},"type":"Feature","geometry":{"type":"Point","coordinates":[-75.314304,39.908608]}},{"properties":{"city":"Doylestown","zip":"18901","company name":"Mercer Ventures Inc. - Mercer Staffing","geo_score":1.0,"id":"ad858mh2yu4y","address":"252 W Swamp Rd","geo_precision":"range","state":"Pennsylvania"},"type":"Feature","geometry":{"type":"Point","coordinates":[-75.139031,40.333846]}},{"properties":{"city":"Philadelphia","zip":"19103","company name":"JuriStaff (JuriSolutions)","geo_score":1.0,"id":"ad858mh7udjz","address":"1600 Market St","geo_precision":"range","state":"Pennsylvania"},"type":"Feature","geometry":{"type":"Point","coordinates":[-75.168444,39.952974]}},{"properties":{"city":"Exton","zip":"19341","company name":"Allied Resources Staffing","geo_score":0.389,"id":"ad858mjrxhus","address":"102 Pickering Way Ste 310","geo_precision":"street","state":"Pennsylvania"},"type":"Feature","geometry":{"type":"Point","coordinates":[-75.782671,39.82506]}},{"properties":{"city":"Marlton","zip":"8053","company name":"U1.net","geo_score":0.414,"id":"ad858mhalq9p","address":"PO Box 382","geo_precision":"street","state":"New Jersey"},"type":"Feature","geometry":{"type":"Point","coordinates":[-74.993293,39.670671]}},{"properties":{"city":"West Chester","zip":"19380","company name":"Peopleflex","geo_score":1.0,"id":"ad858mhifaxh","address":"1025 Andrew Dr","geo_precision":"range","state":"Pennsylvania"},"type":"Feature","geometry":{"type":"Point","coordinates":[-75.591117,39.985674]}},{"properties":{"city":"CINNAMINSON","zip":"8077","company name":"Enser Corporation","geo_score":1.0,"id":"ad858mrr04y4","address":"1902 TAYLORS LN","geo_precision":"range","state":"New Jersey"},"type":"Feature","geometry":{"type":"Point","coordinates":[-74.97318,40.00932]}},{"properties":{"city":"Hicksville","zip":"11801","company name":"Access Careers","geo_score":1.0,"id":"ad858ms8pj79","address":"252 W Old Country Rd","geo_precision":"range","state":"New York"},"type":"Feature","geometry":{"type":"Point","coordinates":[-73.528087,40.761755]}},{"properties":{"city":"Marlton","zip":"8053","company name":"TEG Solutions","geo_score":0.889,"id":"ad858ms41408","address":"4 Greentree Ctr Ste 403","geo_precision":"range","state":"New Jersey"},"type":"Feature","geometry":{"type":"Point","coordinates":[-74.938769,39.908972]}},{"properties":{"city":"Piscataway","zip":"8854","company name":"Logistic Solutions, Inc.","geo_score":0.894,"id":"ad858mgonr63","address":"200 Centennial Ave Ste 209","geo_precision":"range","state":"New Jersey"},"type":"Feature","geometry":{"type":"Point","coordinates":[-74.491228,40.546442]}},{"properties":{"city":"Flushing","zip":"11354","company name":"Construction Force Services","geo_score":1.0,"id":"ad858mo5wvxq","address":"3064 Whitestone Expy","geo_precision":"range","state":"New York"},"type":"Feature","geometry":{"type":"Point","coordinates":[-73.83682,40.769498]}},{"properties":{"city":"Hillsborough","zip":"8876","company name":"RHO","geo_score":0.805,"id":"ad858mj4gogk","address":"507 Omni Dr","geo_precision":"range","state":"New Jersey"},"type":"Feature","geometry":{"type":"Point","coordinates":[-74.627943,40.52525]}},{"properties":{"city":"Blue Bell","zip":"19422","company name":"Resource Development Co","geo_score":0.87,"id":"ad858mpd408x","address":"925 Harvest Dr Ste 190","geo_precision":"range","state":"Pennsylvania"},"type":"Feature","geometry":{"type":"Point","coordinates":[-75.284148,40.152506]}},{"properties":{"city":"Iselin","zip":"8830","company name":"Vedicsoft Solutions Inc.","geo_score":0.644,"id":"ad858ml904sc","address":"100 Wood Ave S Ste 105","geo_precision":"street","state":"New Jersey"},"type":"Feature","geometry":{"type":"Point","coordinates":[-74.336107,40.57299]}},{"properties":{"city":"Kings Park","zip":"11754","company name":"Integretech Consulting, Inc.","geo_score":1.0,"id":"ad858mt31hv1","address":"9 Enfield Ln","geo_precision":"range","state":"New York"},"type":"Feature","geometry":{"type":"Point","coordinates":[-73.227902,40.879991]}},{"properties":{"city":"Hauppauge","zip":"11788","company name":"TSR Consulting, Inc.","geo_score":1.0,"id":"ad858mntbpnw","address":"400 Oser Ave","geo_precision":"range","state":"New York"},"type":"Feature","geometry":{"type":"Point","coordinates":[-73.25598,40.816539]}},{"properties":{"city":"East Brunswick","zip":"8816","company name":"Alpha Consulting Corp.","geo_score":0.865,"id":"ad858mf7kjzt","address":"9 Auer Ct Ste E","geo_precision":"range","state":"New Jersey"},"type":"Feature","geometry":{"type":"Point","coordinates":[-74.391174,40.423969]}},{"properties":{"city":"Princeton","zip":"8540","company name":"R-Square Inc.","geo_score":0.902,"id":"ad858mtvweua","address":"5 Independence Way Ste 150","geo_precision":"range","state":"New Jersey"},"type":"Feature","geometry":{"type":"Point","coordinates":[-74.6011,40.361429]}},{"properties":{"city":"King of Prussia","zip":"19087","company name":"InSource, Inc.","geo_score":0.922,"id":"ad858mnvo1r4","address":"900 West Valley Road","geo_precision":"range","state":"Pennsylvania"},"type":"Feature","geometry":{"type":"Point","coordinates":[-75.424544,40.069661]}},{"properties":{"city":"Iselin","zip":"8830","company name":"Contech Systems","geo_score":0.645,"id":"ad858mre3ho0","address":"120 Wood Ave S Ste 600","geo_precision":"street","state":"New Jersey"},"type":"Feature","geometry":{"type":"Point","coordinates":[-74.336107,40.57299]}},{"properties":{"city":"Cherry Hill","zip":"8034","company name":"Therapy Force Inc.","geo_score":0.876,"id":"ad858mtuax95","address":"1040 Kings Hwy N","geo_precision":"range","state":"New Jersey"},"type":"Feature","geometry":{"type":"Point","coordinates":[-75.021098,39.904343]}},{"properties":{"city":"Hauppauge","zip":"11788","company name":"Nes Holdings Inc","geo_score":0.528,"id":"ad858mjrdlk2","address":"750 Veterans Memorial Hwy, Ste. 200","geo_precision":"street","state":"New York"},"type":"Feature","geometry":{"type":"Point","coordinates":[-73.217503,40.824666]}},{"properties":{"city":"Bala Cynwyd","zip":"19004","company name":"Jason Roberts Associates LLC","geo_score":0.888,"id":"ad858mpbolzf","address":"200 Monument Rd Ste 5","geo_precision":"range","state":"Pennsylvania"},"type":"Feature","geometry":{"type":"Point","coordinates":[-75.217546,40.011894]}},{"properties":{"city":"Iselin","zip":"8830","company name":"Aequor Technologies","geo_score":0.669,"id":"ad858mjextho","address":"33 Wood Ave S Fl 5th","geo_precision":"street","state":"New Jersey"},"type":"Feature","geometry":{"type":"Point","coordinates":[-74.336164,40.573682]}},{"properties":{"city":"Woodbridge","zip":"7095","company name":"Tephra","geo_score":0.894,"id":"ad858mkxylgb","address":"1 Woodbridge Ctr Ste 720","geo_precision":"range","state":"New Jersey"},"type":"Feature","geometry":{"type":"Point","coordinates":[-74.297975,40.54761]}},{"properties":{"city":"Plymouth Meeting","zip":"19462","company name":"Employment Corporation of America","geo_score":0.414,"id":"ad858mszzer6","address":"Po Box 561","geo_precision":"street","state":"Pennsylvania"},"type":"Feature","geometry":{"type":"Point","coordinates":[-75.199013,40.238119]}},{"properties":{"city":"Blue Bell","zip":"19422","company name":"The Carney Group","geo_score":0.878,"id":"ad858mnck783","address":"Blue Bell West","geo_precision":"street","state":"Pennsylvania"},"type":"Feature","geometry":{"type":"Point","coordinates":[-75.24922,40.169008]}},{"properties":{"city":"Cherry Hill","zip":"8003","company name":"Fourth Technologies Inc","geo_score":1.0,"id":"ad858mh5lnhs","address":"1816 Springdale Rd","geo_precision":"range","state":"New Jersey"},"type":"Feature","geometry":{"type":"Point","coordinates":[-74.966614,39.903897]}},{"properties":{"city":"Somerset","zip":"8873","company name":"The Matlen Silver Group","geo_score":0.914,"id":"ad858mjxuwto","address":"270 Davidson Ave Fl 8th","geo_precision":"range","state":"New Jersey"},"type":"Feature","geometry":{"type":"Point","coordinates":[-74.527371,40.533721]}},{"properties":{"city":"Allentown","zip":"18101","company name":"ERG Staffing Services","geo_score":1.0,"id":"ad858mth9w0g","address":"1122 W Hamilton St","geo_precision":"range","state":"Pennsylvania"},"type":"Feature","geometry":{"type":"Point","coordinates":[-75.479835,40.599996]}},{"properties":{"city":"East Brunswick","zip":"8816","company name":"Paragon Search &amp; Strategies","geo_score":1.0,"id":"ad858mkkd06p","address":"4 University Rd","geo_precision":"range","state":"New Jersey"},"type":"Feature","geometry":{"type":"Point","coordinates":[-74.41196,40.455057]}},{"properties":{"city":"Camden","zip":"8103","company name":"OnTime Staffing","geo_score":0.585,"id":"ad858mjcvlf0","address":"2 Aquarium Drive","geo_precision":"zip","state":"New Jersey"},"type":"Feature","geometry":{"type":"Point","coordinates":[-75.108519,39.933174]}},{"properties":{"city":"Melville","zip":"11747","company name":"ATC Travelers","geo_score":0.877,"id":"ad858meqxzk6","address":"175 Pinelawn Rd Ste 302","geo_precision":"range","state":"New York"},"type":"Feature","geometry":{"type":"Point","coordinates":[-73.412794,40.786676]}},{"properties":{"city":"Cherry Hill","zip":"8034","company name":"Gray Matter International, Inc.","geo_score":0.916,"id":"ad858mfermfm","address":"1879 Old Cuthbert Rd Ste 1","geo_precision":"range","state":"New Jersey"},"type":"Feature","geometry":{"type":"Point","coordinates":[-74.980442,39.907855]}},{"properties":{"city":"Iselin","zip":"8830","company name":"Patriot Consulting","geo_score":0.63,"id":"ad858mlekios","address":"517 Route One South","geo_precision":"street","state":"New Jersey"},"type":"Feature","geometry":{"type":"Point","coordinates":[-74.321047,40.570902]}},{"properties":{"city":"North Brunswick","zip":"8902","company name":"IT Trailblazers, LLC","geo_score":0.857,"id":"ad858mja7v15","address":"Brunswick Plaza","geo_precision":"zip","state":"New Jersey"},"type":"Feature","geometry":{"type":"Point","coordinates":[-74.502098,40.418162]}},{"properties":{"city":"Staten Island","zip":"10304","company name":"Enable Group","geo_score":1.0,"id":"ad858mk5sg8i","address":"26 Cobblers Ln","geo_precision":"range","state":"New York"},"type":"Feature","geometry":{"type":"Point","coordinates":[-74.088742,40.60117]}},{"properties":{"city":"Exton","zip":"19341","company name":"American Hospital Service Group","geo_score":0.894,"id":"ad858menx3gz","address":"415 Eagleview Blvd Ste 108","geo_precision":"range","state":"Pennsylvania"},"type":"Feature","geometry":{"type":"Point","coordinates":[-75.666008,40.056785]}},{"properties":{"city":"Princeton","zip":"8540","company name":"ESystems","geo_score":0.89,"id":"ad858msr2mf4","address":"4390 US Route 1","geo_precision":"range","state":"New Jersey"},"type":"Feature","geometry":{"type":"Point","coordinates":[-74.588472,40.372237]}},{"properties":{"city":"Philadelphia","zip":"19103","company name":"Armstrong Franklin","geo_score":1.0,"id":"ad858mshd3wj","address":"2005 Market Street","geo_precision":"range","state":"Pennsylvania"},"type":"Feature","geometry":{"type":"Point","coordinates":[-75.175015,39.953865]}},{"properties":{"city":"Newtown","zip":"18940","company name":"The Bergen Briller Group","geo_score":0.585,"id":"ad858mmjlvu7","address":"1787 Wrightstown Rd","geo_precision":"zip","state":"Pennsylvania"},"type":"Feature","geometry":{"type":"Point","coordinates":[-74.969334,40.262886]}},{"properties":{"city":"Slatington","zip":"18080","company name":"Job Connection Services","geo_score":1.0,"id":"ad858mtxtesy","address":"246 Main Street","geo_precision":"range","state":"Pennsylvania"},"type":"Feature","geometry":{"type":"Point","coordinates":[-75.606852,40.752619]}},{"properties":{"city":"Great Neck","zip":"11023","company name":"SVAM International, Inc.","geo_score":0.87,"id":"ad858mgikgh3","address":"233 E Shore Rd Ste 201","geo_precision":"range","state":"New York"},"type":"Feature","geometry":{"type":"Point","coordinates":[-73.712371,40.793977]}},{"properties":{"city":"East Windsor","zip":"8520","company name":"On Board Engineering","geo_score":0.602,"id":"ad858mggnjtq","address":"50 Millstone Rd Bldg 300","geo_precision":"range","state":"New Jersey"},"type":"Feature","geometry":{"type":"Point","coordinates":[-74.518278,40.283426]}},{"properties":{"city":"Piscataway","zip":"8854","company name":"NCS Technologies","geo_score":1.0,"id":"ad858mr8r0mg","address":"15 Corporate Pl S","geo_precision":"range","state":"New Jersey"},"type":"Feature","geometry":{"type":"Point","coordinates":[-74.454278,40.550852]}},{"properties":{"city":"Phildelphia","zip":null,"company name":"Attolon","geo_score":0.714,"id":"ad858mow2ydr","address":null,"geo_precision":"city","state":"Pennsylvania"},"type":"Feature","geometry":{"type":"Point","coordinates":[-75.11787,40.001811]}},{"properties":{"city":"Somerset","zip":"8873","company name":"David J. Hollinger Associates","geo_score":0.989,"id":"ad858mprpdsw","address":"1075 Easton Ave","geo_precision":"range","state":"New Jersey"},"type":"Feature","geometry":{"type":"Point","coordinates":[-74.488589,40.515492]}},{"properties":{"city":"Piscataway","zip":null,"company name":"First Tek Technologies","geo_score":0.711,"id":"ad858mu7rosx","address":"1551 S Washington Ave.","geo_precision":"street","state":"New Jersey"},"type":"Feature","geometry":{"type":"Point","coordinates":[-74.447685,40.560524]}},{"properties":{"city":"East Windsor","zip":"8520","company name":"Sedna Consulting","geo_score":0.857,"id":"ad858mulw03l","address":null,"geo_precision":"zip","state":"New Jersey"},"type":"Feature","geometry":{"type":"Point","coordinates":[-74.491264,40.263999]}},{"properties":{"city":"W Long Branch","zip":"7764","company name":"Diversant, Inc.","geo_score":0.874,"id":"ad858mgyn1pb","address":"187 State Route 36 Bldg A","geo_precision":"range","state":"New Jersey"},"type":"Feature","geometry":{"type":"Point","coordinates":[-74.022556,40.29928]}},{"properties":{"city":"Skillman","zip":"8558","company name":"PrincetonOne","geo_score":1.0,"id":"ad858mm3p2qj","address":"88 Orchard Rd","geo_precision":"range","state":"New Jersey"},"type":"Feature","geometry":{"type":"Point","coordinates":[-74.662362,40.417162]}},{"properties":{"city":"Lakewood","zip":"8701","company name":"Tender Touch Health Care Services","geo_score":0.935,"id":"ad858mhbvc2l","address":"685 River Ave","geo_precision":"range","state":"New Jersey"},"type":"Feature","geometry":{"type":"Point","coordinates":[-74.217609,40.072348]}},{"properties":{"city":"Valley Forge","zip":"19482","company name":"Hobbs &amp; Towne","geo_score":0.612,"id":"ad858mifw9oq","address":"2 Davis Rd","geo_precision":"street","state":"Pennsylvania"},"type":"Feature","geometry":{"type":"Point","coordinates":[-75.467613,40.094657]}},{"properties":{"city":"Philadelphia","zip":"19103","company name":"IronHill Partners","geo_score":0.634,"id":"ad858mo1doyn","address":"1 Logan Sq Ste 3075","geo_precision":"street","state":"Pennsylvania"},"type":"Feature","geometry":{"type":"Point","coordinates":[-75.176328,39.957924]}},{"properties":{"city":"Cherry Hill","zip":"8002","company name":"Protocall","geo_score":1.0,"id":"ad858mesex7j","address":"1 Mall Dr","geo_precision":"range","state":"New Jersey"},"type":"Feature","geometry":{"type":"Point","coordinates":[-75.021932,39.943473]}},{"properties":{"city":"Huntington","zip":"11743","company name":"Executive Alliance","geo_score":1.0,"id":"ad858mrumkrz","address":"425 New York Ave","geo_precision":"range","state":"New York"},"type":"Feature","geometry":{"type":"Point","coordinates":[-73.425965,40.868821]}},{"properties":{"city":"Dayton","zip":"8810","company name":"Nihaki Systems","geo_score":0.89,"id":"ad858mogoyqo","address":"346 Georges Rd Ste 1","geo_precision":"range","state":"New Jersey"},"type":"Feature","geometry":{"type":"Point","coordinates":[-74.511263,40.374461]}},{"properties":{"city":"Voorhees","zip":"8043","company name":"KG Search","geo_score":1.0,"id":"ad858mhhpzbw","address":"11 Passaic Avenue","geo_precision":"range","state":"New Jersey"},"type":"Feature","geometry":{"type":"Point","coordinates":[-74.99691,39.858465]}},{"properties":{"city":"Blue Bell","zip":"19422","company name":"Career Concepts Inc","geo_score":0.892,"id":"ad858mgt0wiw","address":"4 Sentry Pkwy Ste 100","geo_precision":"range","state":"Pennsylvania"},"type":"Feature","geometry":{"type":"Point","coordinates":[-75.270307,40.130877]}},{"properties":{"city":"Bohemia","zip":"11716","company name":"Strategic Nurse Staffing","geo_score":0.585,"id":"ad858mi8b2en","address":"60 Knickerbocker Ave","geo_precision":"zip","state":"New York"},"type":"Feature","geometry":{"type":"Point","coordinates":[-73.113366,40.76902]}},{"properties":{"city":"Blue Bell","zip":"19422","company name":"ML Staffing Inc.","geo_score":0.862,"id":"ad858mrsa5d1","address":"1730 Walton Rd Ste 207","geo_precision":"range","state":"Pennsylvania"},"type":"Feature","geometry":{"type":"Point","coordinates":[-75.277522,40.132513]}},{"properties":{"city":"Blue Bell","zip":"19422","company name":"TechSource Inc","geo_score":0.697,"id":"ad858mflej30","address":"660 Sentry Pkwy Ste 220","geo_precision":"street","state":"Pennsylvania"},"type":"Feature","geometry":{"type":"Point","coordinates":[-75.271292,40.132331]}},{"properties":{"city":"Fort Washington","zip":"19034","company name":"Aspire","geo_score":0.877,"id":"ad858mfx91oj","address":"220 Commerce Dr Ste 200","geo_precision":"range","state":"Pennsylvania"},"type":"Feature","geometry":{"type":"Point","coordinates":[-75.204787,40.136441]}},{"properties":{"city":"Princeton","zip":"8540","company name":"AlphaSoft Services Corporation","geo_score":0.902,"id":"ad858mlt5epw","address":"5 Independence Way Ste 309","geo_precision":"range","state":"New Jersey"},"type":"Feature","geometry":{"type":"Point","coordinates":[-74.6011,40.361429]}},{"properties":{"city":"Willow Grove","zip":"19090","company name":"Klein Hersh International","geo_score":0.879,"id":"ad858mm1mxzx","address":"2300 Computer Rd Ste C15","geo_precision":"range","state":"Pennsylvania"},"type":"Feature","geometry":{"type":"Point","coordinates":[-75.136898,40.155933]}},{"properties":{"city":"Kendall Park","zip":"8824","company name":"Compu-Vision Consulting, Inc.","geo_score":0.39,"id":"ad858mpc04s3","address":"3088 Route 27 Suite # 5","geo_precision":"street","state":"New Jersey"},"type":"Feature","geometry":{"type":"Point","coordinates":[-74.560293,40.428034]}},{"properties":{"city":"Medford","zip":"8055","company name":"Lee and Pierson Associates, LLC","geo_score":1.0,"id":"ad858mf4srzm","address":"83 N Main St","geo_precision":"range","state":"New Jersey"},"type":"Feature","geometry":{"type":"Point","coordinates":[-74.824188,39.90396]}},{"properties":{"city":"Philadelphia","zip":"19103","company name":"Bear Staffing Services, Inc.","geo_score":1.0,"id":"ad858mifwlag","address":"1800 John F Kennedy Blvd.","geo_precision":"range","state":"Pennsylvania"},"type":"Feature","geometry":{"type":"Point","coordinates":[-75.171365,39.95438]}},{"properties":{"city":"Horsham","zip":"19044","company name":"Recruitech International","geo_score":0.889,"id":"ad858mldts6s","address":"355 Business Center Dr Ste 150","geo_precision":"range","state":"Pennsylvania"},"type":"Feature","geometry":{"type":"Point","coordinates":[-75.146491,40.166838]}},{"properties":{"city":"Flemington","zip":"8822","company name":"MCA Spence Martin","geo_score":0.739,"id":"ad858mn0z4fj","address":"5 Walter E Foran Blvd Ste 2002","geo_precision":"range","state":"New Jersey"},"type":"Feature","geometry":{"type":"Point","coordinates":[-74.910875,40.482475]}},{"properties":{"city":"MELVILLE","zip":"11747-3111","company name":"LEHIGH ENGINEERING","geo_score":0.877,"id":"ad858mub6cf8","address":"35 PINELAWN RD STE 99E","geo_precision":"range","state":"New York"},"type":"Feature","geometry":{"type":"Point","coordinates":[-73.410313,40.783455]}},{"properties":{"city":"Horsham","zip":"19044","company name":"Skilled Nursing Inc.","geo_score":0.87,"id":"ad858mkmyxf1","address":"955 Horsham Rd Ste 205","geo_precision":"range","state":"Pennsylvania"},"type":"Feature","geometry":{"type":"Point","coordinates":[-75.172333,40.203979]}},{"properties":{"city":"Matawan","zip":"7747","company name":"Zeta Consulting","geo_score":0.844,"id":"ad858mi417mb","address":"171 Main St Ste 100","geo_precision":"range","state":"New Jersey"},"type":"Feature","geometry":{"type":"Point","coordinates":[-74.230619,40.413348]}},{"properties":{"city":"East Brunswick","zip":"8816","company name":"Business Success Management","geo_score":1.0,"id":"ad858mfougfl","address":"2 Tower Center Boulevard","geo_precision":"range","state":"New Jersey"},"type":"Feature","geometry":{"type":"Point","coordinates":[-74.409131,40.478662]}},{"properties":{"city":"South Plainfield","zip":"7080","company name":"Mutex Systems","geo_score":0.877,"id":"ad858mqz3ckg","address":"50 Cragwood Rd Ste 224","geo_precision":"range","state":"New Jersey"},"type":"Feature","geometry":{"type":"Point","coordinates":[-74.418268,40.553965]}},{"properties":{"city":"New Hope","zip":"18938","company name":"Recruitment Alliance Inc","geo_score":1.0,"id":"ad858mm6vl8x","address":"6206 Greenhill Rd","geo_precision":"range","state":"Pennsylvania"},"type":"Feature","geometry":{"type":"Point","coordinates":[-75.027401,40.366584]}},{"properties":{"city":"Princeton Junction","zip":"8558","company name":"SysMind","geo_score":0.805,"id":"ad858msmd86d","address":"38 Washington Rd","geo_precision":"range","state":"New Jersey"},"type":"Feature","geometry":{"type":"Point","coordinates":[-74.655582,40.348796]}},{"properties":{"city":"Philadelphia","zip":"19103","company name":"Opus Search Partners","geo_score":0.854,"id":"ad858mry99dz","address":"1616 Walnut St Ste 1812","geo_precision":"range","state":"Pennsylvania"},"type":"Feature","geometry":{"type":"Point","coordinates":[-75.168916,39.949836]}},{"properties":{"city":"Radnor","zip":"19087","company name":"Kilcullen &amp; Company","geo_score":0.876,"id":"ad858mt39if2","address":"150 N Radnor Chester Rd Ste C210","geo_precision":"range","state":"Pennsylvania"},"type":"Feature","geometry":{"type":"Point","coordinates":[-75.366079,40.038734]}},{"properties":{"city":"Dresher","zip":"19025","company name":"MSB Resources , LLC","geo_score":1.0,"id":"ad858mnyu3ne","address":"1425 Candlebrook Dr","geo_precision":"range","state":"Pennsylvania"},"type":"Feature","geometry":{"type":"Point","coordinates":[-75.173188,40.149128]}},{"properties":{"city":"Piscataway","zip":"8830","company name":"CGS Technology Associates, Inc","geo_score":0.721,"id":"ad858mhcrwfp","address":"242 Old New Brunswick Rd Ste 420","geo_precision":"range","state":"New Jersey"},"type":"Feature","geometry":{"type":"Point","coordinates":[-74.475524,40.551085]}},{"properties":{"city":"Princeton","zip":"8540","company name":"APN Consulting Inc.","geo_score":1.0,"id":"ad858mio7uqz","address":"475 Wall St","geo_precision":"range","state":"New Jersey"},"type":"Feature","geometry":{"type":"Point","coordinates":[-74.650173,40.396232]}},{"properties":{"city":"King of Prussia","zip":"19406","company name":"Xelerate","geo_score":0.875,"id":"ad858mj8ccsd","address":"620 Allendale Rd Ste 100a","geo_precision":"range","state":"Pennsylvania"},"type":"Feature","geometry":{"type":"Point","coordinates":[-75.397461,40.100919]}},{"properties":{"city":"Middletown","zip":"7748","company name":"Navesink Logistics, Inc.","geo_score":1.0,"id":"ad858muj0r58","address":"32 Marcshire Drive","geo_precision":"range","state":"New Jersey"},"type":"Feature","geometry":{"type":"Point","coordinates":[-74.123434,40.362049]}},{"properties":{"city":"Princeton Junction","zip":"8550","company name":"Lorven Technologies Inc","geo_score":1.0,"id":"ad858mp00okk","address":"55 Princeton Hightstown Rd","geo_precision":"range","state":"New Jersey"},"type":"Feature","geometry":{"type":"Point","coordinates":[-74.619985,40.316333]}},{"properties":{"city":"King of Prussia","zip":"19406","company name":"Columbus Educational Services","geo_score":0.935,"id":"ad858mqu4c63","address":"1012 W 9th Ave","geo_precision":"range","state":"Pennsylvania"},"type":"Feature","geometry":{"type":"Point","coordinates":[-75.414669,40.10078]}},{"properties":{"city":"Piscataway","zip":"8854","company name":"International Business Solutions","geo_score":0.932,"id":"ad858mebfbqt","address":"255 Old New Brunswick Rd Ste N230","geo_precision":"range","state":"New Jersey"},"type":"Feature","geometry":{"type":"Point","coordinates":[-74.474905,40.552335]}},{"properties":{"city":"Melville","zip":"11747","company name":"Sriven Systems Inc","geo_score":0.88,"id":"ad858moh1wgs","address":"560 Broadhollow Rd Ste 311","geo_precision":"range","state":"New York"},"type":"Feature","geometry":{"type":"Point","coordinates":[-73.423369,40.763069]}},{"properties":{"city":"Wayne","zip":"19087","company name":"Assigned Counsel Inc.","geo_score":0.852,"id":"ad858mealt3t","address":"950 W Valley Rd Ste 2600","geo_precision":"range","state":"Pennsylvania"},"type":"Feature","geometry":{"type":"Point","coordinates":[-75.424257,40.069108]}},{"properties":{"city":"Norristown","zip":"19403","company name":"Revere Group","geo_score":1.0,"id":"ad858moagcj7","address":"224 Miami Ave","geo_precision":"range","state":"Pennsylvania"},"type":"Feature","geometry":{"type":"Point","coordinates":[-75.405938,40.141205]}},{"properties":{"city":"Piscataway","zip":"8854","company name":"EAPT Solutions","geo_score":0.894,"id":"ad858ms64imt","address":"15 Corporate Pl S Ste 401","geo_precision":"range","state":"New Jersey"},"type":"Feature","geometry":{"type":"Point","coordinates":[-74.454278,40.550852]}},{"properties":{"city":"Woodbridge","zip":"7095","company name":"E*Pro Inc","geo_score":0.837,"id":"ad858mlmq1lf","address":"1000 Us Highway 9 N Ste 303","geo_precision":"range","state":"New Jersey"},"type":"Feature","geometry":{"type":"Point","coordinates":[-74.296799,40.566852]}},{"properties":{"city":"Woodbridge","zip":"7095","company name":"GSP International","geo_score":0.857,"id":"ad858mk2i1jt","address":null,"geo_precision":"zip","state":"New Jersey"},"type":"Feature","geometry":{"type":"Point","coordinates":[-74.288023,40.553254]}},{"properties":{"city":"Lafayette Hill","zip":"19444","company name":"TalenTactics LLC Headquarters","geo_score":0.414,"id":"ad858mn7rprs","address":"Po Box 276","geo_precision":"street","state":"Pennsylvania"},"type":"Feature","geometry":{"type":"Point","coordinates":[-75.199013,40.238119]}},{"properties":{"city":"Bala Cynwyd","zip":"19004","company name":"Liberty Healthcare Corporation","geo_score":0.861,"id":"ad858mk9nz6s","address":"401 E City Ave Ste 820","geo_precision":"range","state":"Pennsylvania"},"type":"Feature","geometry":{"type":"Point","coordinates":[-75.213754,40.007146]}},{"properties":{"city":"Cranbury","zip":"8512","company name":"Real Soft Incorporated","geo_score":0.685,"id":"ad858mek7v5v","address":"2540 Us Highway 130 Ste 118","geo_precision":"street","state":"New Jersey"},"type":"Feature","geometry":{"type":"Point","coordinates":[-74.506349,40.328103]}},{"properties":{"city":"Blue Bell","zip":"19422","company name":"Kopos &amp; Baker/ 21st Century Staffing","geo_score":0.889,"id":"ad858mospcbo","address":"1787 Sentry Pkwy W Ste 110","geo_precision":"range","state":"Pennsylvania"},"type":"Feature","geometry":{"type":"Point","coordinates":[-75.279507,40.134329]}},{"properties":{"city":"Medford","zip":"8055","company name":"3 HTi","geo_score":0.6,"id":"ad858mq3ib6o","address":"7 Cliff Swallow Drive, Suite 201","geo_precision":"street","state":"New Jersey"},"type":"Feature","geometry":{"type":"Point","coordinates":[-74.834451,39.835457]}},{"properties":{"city":"Bridgewater","zip":"8807","company name":"cyberThink, Inc.","geo_score":0.74,"id":"ad858mr3gj5y","address":"1125 US Hwy 22 Suite 1","geo_precision":"range","state":"New Jersey"},"type":"Feature","geometry":{"type":"Point","coordinates":[-74.586114,40.578067]}},{"properties":{"city":"Plymoth Meeting","zip":"19406","company name":"Therapy Source Inc","geo_score":0.492,"id":"ad858mgfczh1","address":"5215 Militia Hill Road Suite A","geo_precision":"street","state":"Pennsylvania"},"type":"Feature","geometry":{"type":"Point","coordinates":[-75.330225,40.087211]}},{"properties":{"city":"Blue Bell","zip":"19422","company name":"Turnberry Solutions, Inc","geo_score":0.857,"id":"ad858mnp3kx2","address":null,"geo_precision":"zip","state":"Pennsylvania"},"type":"Feature","geometry":{"type":"Point","coordinates":[-75.2899,40.167052]}},{"properties":{"city":"Allentown","zip":"18109","company name":"Allied Personnel Services","geo_score":1.0,"id":"ad858mmexbvo","address":"752 Union Blvd","geo_precision":"range","state":"Pennsylvania"},"type":"Feature","geometry":{"type":"Point","coordinates":[-75.444797,40.624044]}},{"properties":{"city":null,"zip":"19382","company name":"Pharmpro Associates","geo_score":0.717,"id":"ad858mkoroav","address":"601 Upland Ave","geo_precision":"range","state":"Pennsylvania"},"type":"Feature","geometry":{"type":"Point","coordinates":[-75.653799,40.00143]}},{"properties":{"city":"Paoli","zip":"19301","company name":"Blue Plate Minds Inc","geo_score":0.659,"id":"ad858mphsyi1","address":"2 Station Sq Ste 105","geo_precision":"range","state":"Pennsylvania"},"type":"Feature","geometry":{"type":"Point","coordinates":[-75.422823,40.04922]}},{"properties":{"city":"Princeton","zip":"8540","company name":"Core Education &amp; Technologies","geo_score":0.902,"id":"ad858mhc2tm5","address":"5 Independence Way Ste 160","geo_precision":"range","state":"New Jersey"},"type":"Feature","geometry":{"type":"Point","coordinates":[-74.6011,40.361429]}},{"properties":{"city":"Lansdale","zip":"19446","company name":"Kane Partners","geo_score":0.387,"id":"ad858mgzosmv","address":"1816 W Point Pike Ste 221","geo_precision":"street","state":"Pennsylvania"},"type":"Feature","geometry":{"type":"Point","coordinates":[-75.301828,40.171289]}},{"properties":{"city":"San Ramon","zip":null,"company name":"aurionPro Solutions, Inc","geo_score":0.416,"id":"ad858mu2qy44","address":"2410 Camino Ramon #3","geo_precision":"street","state":"California"},"type":"Feature","geometry":{"type":"Point","coordinates":[-121.942782,37.739768]}},{"properties":{"city":"Mount Holly","zip":"8060","company name":"Pharmatech Staffing, Inc.","geo_score":0.59,"id":"ad858mm08qtp","address":"55 High St Ste 209","geo_precision":"range","state":"New Jersey"},"type":"Feature","geometry":{"type":"Point","coordinates":[-75.475834,39.573063]}},{"properties":{"city":"Hamilton","zip":"8619","company name":"Best Source Pro","geo_score":0.918,"id":"ad858mo3civd","address":"3240 E State Street Ext","geo_precision":"range","state":"New Jersey"},"type":"Feature","geometry":{"type":"Point","coordinates":[-74.704295,40.244433]}},{"properties":{"city":"Philadelphia","zip":null,"company name":"Genesis Search Group","geo_score":0.714,"id":"ad858msbmkmk","address":null,"geo_precision":"city","state":"Pennsylvania"},"type":"Feature","geometry":{"type":"Point","coordinates":[-75.11787,40.001811]}},{"properties":{"city":"Bristol","zip":"19007","company name":"Synchron Systems","geo_score":0.48,"id":"ad858moe14od","address":"1250 Veterans Hwy Ste G16","geo_precision":"street","state":"Pennsylvania"},"type":"Feature","geometry":{"type":"Point","coordinates":[-75.392059,39.91831]}},{"properties":{"city":"King of Prussia","zip":"19406","company name":"Liberty Personnel Services. Inc.","geo_score":1.0,"id":"ad858mlzn8t2","address":"410 Feheley Drive","geo_precision":"range","state":"Pennsylvania"},"type":"Feature","geometry":{"type":"Point","coordinates":[-75.337301,40.089591]}},{"properties":{"city":"Bala Cynwyd","zip":"19004","company name":"Becker Staffing Services LLC","geo_score":0.403,"id":"ad858mpt1lof","address":"Po Box 2471","geo_precision":"street","state":"Pennsylvania"},"type":"Feature","geometry":{"type":"Point","coordinates":[-75.314304,39.908608]}},{"properties":{"city":"King of Prussia","zip":"19406","company name":"PeopleShare","geo_score":1.0,"id":"ad858morjvx8","address":"200 North Warner Road","geo_precision":"range","state":"Pennsylvania"},"type":"Feature","geometry":{"type":"Point","coordinates":[-75.400876,40.085471]}},{"properties":{"city":"Melville","zip":"11747","company name":"The Whitman Group","geo_score":0.877,"id":"ad858mg2mxdi","address":"145 Pinelawn Rd Ste 345","geo_precision":"range","state":"New York"},"type":"Feature","geometry":{"type":"Point","coordinates":[-73.412262,40.785986]}},{"properties":{"city":"Horsham","zip":"19044","company name":"Ohm Systems, Inc.","geo_score":0.87,"id":"ad858me6hrpa","address":"955 Horsham Rd Ste 202","geo_precision":"range","state":"Pennsylvania"},"type":"Feature","geometry":{"type":"Point","coordinates":[-75.172333,40.203979]}},{"properties":{"city":"Iselin","zip":"8830","company name":"Winsor CDL Staffing","geo_score":1.0,"id":"ad858mear64z","address":"521 Green Street","geo_precision":"range","state":"New Jersey"},"type":"Feature","geometry":{"type":"Point","coordinates":[-74.299161,40.562104]}},{"properties":{"city":"Cherry Hill","zip":null,"company name":"MetaSense Inc","geo_score":0.714,"id":"ad858mtenff4","address":null,"geo_precision":"city","state":"New Jersey"},"type":"Feature","geometry":{"type":"Point","coordinates":[-75.010307,39.908663]}},{"properties":{"city":"Berwyn","zip":"19312","company name":"MatchPoint Consulting Group","geo_score":1.0,"id":"ad858mp89y80","address":"1125 Millbrook Rd","geo_precision":"range","state":"Pennsylvania"},"type":"Feature","geometry":{"type":"Point","coordinates":[-75.430898,40.013082]}},{"properties":{"city":"Freehold","zip":"7728","company name":"Nexera Solution","geo_score":0.521,"id":"ad858mm181tr","address":"3587 Highway 9 # 162","geo_precision":"street","state":"New Jersey"},"type":"Feature","geometry":{"type":"Point","coordinates":[-74.261631,40.215176]}},{"properties":{"city":"Lower Gwynedd","zip":"19002","company name":"The Merwin Group","geo_score":0.932,"id":"ad858mtziq4q","address":"809 North Bethlehem Pike","geo_precision":"range","state":"Pennsylvania"},"type":"Feature","geometry":{"type":"Point","coordinates":[-75.225672,40.178364]}},{"properties":{"city":"Water Mill","zip":"11976","company name":"Robert Gatto Associates, Ltd.","geo_score":0.799,"id":"ad858mlei3w9","address":"670 Montauk Hwy","geo_precision":"street","state":"New York"},"type":"Feature","geometry":{"type":"Point","coordinates":[-72.356386,40.907643]}},{"properties":{"city":"Somerset","zip":"8873","company name":"Rangam Consultants Inc.","geo_score":0.862,"id":"ad858mgad0xx","address":"370 Campus Dr Ste 103","geo_precision":"range","state":"New Jersey"},"type":"Feature","geometry":{"type":"Point","coordinates":[-74.543936,40.54707]}},{"properties":{"city":"Edison","zip":"8817","company name":"Diaspark","geo_score":0.869,"id":"ad858mkyjxv6","address":"200 Metroplex Dr Ste 401","geo_precision":"range","state":"New Jersey"},"type":"Feature","geometry":{"type":"Point","coordinates":[-74.41309,40.521499]}},{"properties":{"city":"princeton","zip":"8540","company name":"iNine","geo_score":1.0,"id":"ad858mg34z5s","address":"3 independence way","geo_precision":"range","state":"New Jersey"},"type":"Feature","geometry":{"type":"Point","coordinates":[-74.601317,40.361528]}},{"properties":{"city":"Voorhees","zip":"8043","company name":"KGTiger","geo_score":1.0,"id":"ad858mky78xs","address":"111 Passaic Ave","geo_precision":"range","state":"New Jersey"},"type":"Feature","geometry":{"type":"Point","coordinates":[-74.99689,39.857394]}},{"properties":{"city":"Edison","zip":"8837","company name":"Chenoa Inc.","geo_score":0.585,"id":"ad858mksyehh","address":"10 Parsonage Road, Suite #312","geo_precision":"range","state":"New Jersey"},"type":"Feature","geometry":{"type":"Point","coordinates":[-74.340633,40.554486]}},{"properties":{"city":"Bala Cynwyd","zip":"19004","company name":"Becker Technical Staffing","geo_score":0.901,"id":"ad858mls8va0","address":"Three Bala Plaza","geo_precision":"street","state":"Pennsylvania"},"type":"Feature","geometry":{"type":"Point","coordinates":[-75.228738,40.000144]}},{"properties":{"city":"Freehold","zip":"7728","company name":"Slate Professional Resources, Inc.","geo_score":1.0,"id":"ad858mgjbn9k","address":"800 West Main Street, Suite 204","geo_precision":"street","state":"New Jersey"},"type":"Feature","geometry":{"type":"Point","coordinates":[-74.275656,40.259121]}},{"properties":{"city":"Kennett Square","zip":"19348","company name":"Vitalize Consulting Solutions","geo_score":1.0,"id":"ad858mt8q0qs","address":"500 North Walnut Road","geo_precision":"range","state":"Pennsylvania"},"type":"Feature","geometry":{"type":"Point","coordinates":[-75.705777,39.85188]}},{"properties":{"city":"North Brunswick","zip":"8902","company name":"Benvia LLC","geo_score":1.0,"id":"ad858mh5wmnf","address":"10 Chipwood Lane","geo_precision":"range","state":"New Jersey"},"type":"Feature","geometry":{"type":"Point","coordinates":[-74.49658,40.464618]}},{"properties":{"city":"Edison","zip":"8837","company name":"3 R Connect Systems","geo_score":1.0,"id":"ad858mtqoszy","address":"379 Thornall St","geo_precision":"range","state":"New Jersey"},"type":"Feature","geometry":{"type":"Point","coordinates":[-74.332121,40.564518]}},{"properties":{"city":"Horsham","zip":"19044","company name":"NextGen Technologies","geo_score":1.0,"id":"ad858mmm60mr","address":"795 Horsham Road","geo_precision":"range","state":"Pennsylvania"},"type":"Feature","geometry":{"type":"Point","coordinates":[-75.153335,40.192546]}},{"properties":{"city":"Woodbridge","zip":"7095","company name":"Knack Systems","geo_score":0.956,"id":"ad858mpkji40","address":"1 Woodbridge Center","geo_precision":"range","state":"New Jersey"},"type":"Feature","geometry":{"type":"Point","coordinates":[-74.297975,40.54761]}},{"properties":{"city":"Melville","zip":"11747","company name":"Engage Partners Inc.","geo_score":0.585,"id":"ad858mik7x1l","address":"68 South Service Road","geo_precision":"zip","state":"New York"},"type":"Feature","geometry":{"type":"Point","coordinates":[-73.405573,40.787248]}},{"properties":{"city":"Southampton","zip":"18966","company name":"Clarity Service Group","geo_score":0.807,"id":"ad858mh2hw94","address":"408 Lakeside Drive","geo_precision":"street","state":"Pennsylvania"},"type":"Feature","geometry":{"type":"Point","coordinates":[-74.992953,40.184722]}},{"properties":{"city":"Blue Bell","zip":"19422","company name":"Germer International","geo_score":0.611,"id":"ad858migzxcv","address":"1717 Swede Road","geo_precision":"street","state":"Pennsylvania"},"type":"Feature","geometry":{"type":"Point","coordinates":[-75.331937,40.135186]}},{"properties":{"city":"Cherry Hill","zip":"8034","company name":"two95 International Inc.","geo_score":0.707,"id":"ad858mryyts8","address":"1101, N Kings Hwy, Suite #200","geo_precision":"range","state":"New Jersey"},"type":"Feature","geometry":{"type":"Point","coordinates":[-75.012002,39.912514]}},{"properties":{"city":"Woodbridge","zip":"7095","company name":"E*Pro.Inc","geo_score":0.744,"id":"ad858mjbqon6","address":"1000 Route 9 North","geo_precision":"range","state":"New Jersey"},"type":"Feature","geometry":{"type":"Point","coordinates":[-74.296799,40.566852]}},{"properties":{"city":"Philadelphia","zip":"19102","company name":"Elayne Scott Associates","geo_score":1.0,"id":"ad858mhefi2f","address":"1500 Market Street","geo_precision":"range","state":"Pennsylvania"},"type":"Feature","geometry":{"type":"Point","coordinates":[-75.166857,39.952779]}},{"properties":{"city":"Philadelphia","zip":null,"company name":"TRG  Staffing","geo_score":0.714,"id":"ad858mj0ew60","address":null,"geo_precision":"city","state":"Pennsylvania"},"type":"Feature","geometry":{"type":"Point","coordinates":[-75.11787,40.001811]}},{"properties":{"city":"Hauppauge","zip":"11788","company name":"Performance Resources","geo_score":1.0,"id":"ad858mkgcu32","address":"200 Motor Parkway, Suite D-26","geo_precision":"street","state":"New York"},"type":"Feature","geometry":{"type":"Point","coordinates":[-73.248759,40.807123]}},{"properties":{"city":"Warminster","zip":"18974","company name":"SearchStone Partners","geo_score":0.991,"id":"ad858mhsb4hq","address":"678 Louis Drive","geo_precision":"range","state":"Pennsylvania"},"type":"Feature","geometry":{"type":"Point","coordinates":[-75.086011,40.201139]}},{"properties":{"city":"Yardley","zip":"19067","company name":"Global Systems Technologies","geo_score":1.0,"id":"ad858mn8ilq2","address":"109 Floral Vale Blvd","geo_precision":"range","state":"Pennsylvania"},"type":"Feature","geometry":{"type":"Point","coordinates":[-74.884869,40.2188]}},{"properties":{"city":"West Chester","zip":"19382","company name":"KP Consulting","geo_score":1.0,"id":"ad858mtey1q3","address":"113 Piedmont Road","geo_precision":"range","state":"Pennsylvania"},"type":"Feature","geometry":{"type":"Point","coordinates":[-75.577186,39.925812]}},{"properties":{"city":"Somerset","zip":"8873","company name":"Synergy Global Technologies Inc","geo_score":0.578,"id":"ad858mhzotcf","address":"3 Executive Drive Suite 360","geo_precision":"street","state":"New Jersey"},"type":"Feature","geometry":{"type":"Point","coordinates":[-74.522731,40.492629]}},{"properties":{"city":"Philadelphia","zip":"19102","company name":"FranklyLegal","geo_score":0.989,"id":"ad858meetfk7","address":"1515 Market Street, Suite 1120","geo_precision":"street","state":"Pennsylvania"},"type":"Feature","geometry":{"type":"Point","coordinates":[-75.165225,39.952576]}},{"properties":{"city":"Chadds Ford","zip":"19317","company name":"SwitchLane","geo_score":0.685,"id":"ad858mq3i5a4","address":"1204 Baltimore Pike Suite 203","geo_precision":"street","state":"Pennsylvania"},"type":"Feature","geometry":{"type":"Point","coordinates":[-75.649745,39.869954]}},{"properties":{"city":"Somerset","zip":"8873","company name":"Cygnus Professionals Inc","geo_score":0.643,"id":"ad858mpiffqg","address":"100 Franklin Square Dr, Suite 402","geo_precision":"street","state":"New Jersey"},"type":"Feature","geometry":{"type":"Point","coordinates":[-74.525041,40.535997]}}],"is_temporal":false,"author":{"url":"","metadata":null,"contact_name":null,"contact_address":null,"source":null,"contact_phone":null},"source":"","pagination":{"sort":null,"start":0,"total":246,"limit":1000000},"state":"complete","tags":"","published":"2014-08-16T23:25:36-04:00","id":338519}