{"type":"FeatureCollection","data_type":"Dataset","url_type":null,"permissions":[{"permissions":{"download":true,"view":true},"group_id":"everyone"}],"classification":null,"title":"Telmon Tech deplolments Q1 2013","count":271,"stream_id":338680,"contributor":{"url":"http://geocommons.com/users/50950","name":"snelson"},"data_attributes":null,"calculation_params":null,"icon_link":null,"link":"http://geocommons.com/overlays/338680.json","extent":[-123.618,25.7743,-68.8789,47.6626],"geometry_types":["point"],"unique_name":null,"name":"Telmon Tech deplolments Q1 2013","feature_count":271,"description":"","next_feature":null,"is_raster":false,"short_classification":"Y","stats":{},"features":[{"properties":{"city":"Boston","geo_score":0.714,"id":"ad8x1blfmsdv","geo_precision":"city","state":"MA"},"type":"Feature","geometry":{"type":"Point","coordinates":[-71.026964,42.370567]}},{"properties":{"city":"Riverton","geo_score":0.714,"id":"ad8x1btsjdju","geo_precision":"city","state":"UT"},"type":"Feature","geometry":{"type":"Point","coordinates":[-112.00627,40.495129]}},{"properties":{"city":"Los Angeles","geo_score":0.714,"id":"ad8x1budi0ky","geo_precision":"city","state":"CA"},"type":"Feature","geometry":{"type":"Point","coordinates":[-120.618608,38.052816]}},{"properties":{"city":"Phoenix","geo_score":0.0,"id":"ad8x1bvxlpb0","geo_precision":"unmatched","state":"AZ"},"type":"Feature","geometry":null},{"properties":{"city":"Arlington Heights","geo_score":0.714,"id":"ad8x1bq8jdda","geo_precision":"city","state":"IL"},"type":"Feature","geometry":{"type":"Point","coordinates":[-89.240006,41.43043]}},{"properties":{"city":"Dallas","geo_score":0.714,"id":"ad8x1bp1bg5p","geo_precision":"city","state":"TX"},"type":"Feature","geometry":{"type":"Point","coordinates":[-96.240533,32.370699]}},{"properties":{"city":"Warrenville","geo_score":0.714,"id":"ad8x1bpwn27v","geo_precision":"city","state":"IL"},"type":"Feature","geometry":{"type":"Point","coordinates":[-88.171551,41.805422]}},{"properties":{"city":"Hendersonville","geo_score":0.714,"id":"ad8x1by2x2fg","geo_precision":"city","state":"TN"},"type":"Feature","geometry":{"type":"Point","coordinates":[-86.612045,36.347551]}},{"properties":{"city":"Boston","geo_score":0.714,"id":"ad8x1bytc5a3","geo_precision":"city","state":"MA"},"type":"Feature","geometry":{"type":"Point","coordinates":[-71.026964,42.370567]}},{"properties":{"city":"Danvers","geo_score":0.714,"id":"ad8x1buor99m","geo_precision":"city","state":"MA"},"type":"Feature","geometry":{"type":"Point","coordinates":[-70.920328,42.548428]}},{"properties":{"city":"Solon","geo_score":0.714,"id":"ad8x1bt946bc","geo_precision":"city","state":"OH"},"type":"Feature","geometry":{"type":"Point","coordinates":[-82.493781,41.371715]}},{"properties":{"city":"Phoenix","geo_score":0.0,"id":"ad8x1brb9c17","geo_precision":"unmatched","state":"AZ"},"type":"Feature","geometry":null},{"properties":{"city":"Boston","geo_score":0.714,"id":"ad8x1bpbmm5a","geo_precision":"city","state":"MA"},"type":"Feature","geometry":{"type":"Point","coordinates":[-71.026964,42.370567]}},{"properties":{"city":"Warrenville","geo_score":0.714,"id":"ad8x1bx0qw0z","geo_precision":"city","state":"IL"},"type":"Feature","geometry":{"type":"Point","coordinates":[-88.171551,41.805422]}},{"properties":{"city":"Houston","geo_score":0.714,"id":"ad8x1bohy9fq","geo_precision":"city","state":"TX"},"type":"Feature","geometry":{"type":"Point","coordinates":[-96.919704,29.845783]}},{"properties":{"city":"Greece","geo_score":0.714,"id":"ad8x1bx1td4l","geo_precision":"city","state":"NY"},"type":"Feature","geometry":{"type":"Point","coordinates":[-74.3159,44.21955]}},{"properties":{"city":"Chicago","geo_score":0.714,"id":"ad8x1bs31dyf","geo_precision":"city","state":"IL"},"type":"Feature","geometry":{"type":"Point","coordinates":[-87.68732,41.811929]}},{"properties":{"city":"Birmingham","geo_score":0.714,"id":"ad8x1blam66c","geo_precision":"city","state":"AL"},"type":"Feature","geometry":{"type":"Point","coordinates":[-86.801904,33.456412]}},{"properties":{"city":"Fairfax","geo_score":0.0,"id":"ad8x1boeoqzw","geo_precision":"unmatched","state":"VA"},"type":"Feature","geometry":null},{"properties":{"city":"Mineola","geo_score":0.714,"id":"ad8x1blqnobd","geo_precision":"city","state":"NY"},"type":"Feature","geometry":{"type":"Point","coordinates":[-79.440048,42.175057]}},{"properties":{"city":"Merrillville","geo_score":0.714,"id":"ad8x1bww1e70","geo_precision":"city","state":"IN"},"type":"Feature","geometry":{"type":"Point","coordinates":[-87.338656,41.497212]}},{"properties":{"city":"Ruston","geo_score":0.714,"id":"ad8x1bsd9ak3","geo_precision":"city","state":"LA"},"type":"Feature","geometry":{"type":"Point","coordinates":[-92.639756,32.580553]}},{"properties":{"city":"Phoenix","geo_score":0.0,"id":"ad8x1bzdlf8q","geo_precision":"unmatched","state":"AZ"},"type":"Feature","geometry":null},{"properties":{"city":"Chattanooga","geo_score":0.714,"id":"ad8x1bn71cvx","geo_precision":"city","state":"TN"},"type":"Feature","geometry":{"type":"Point","coordinates":[-85.206426,35.017818]}},{"properties":{"city":"Kent","geo_score":0.714,"id":"ad8x1bpcsywe","geo_precision":"city","state":"WA"},"type":"Feature","geometry":{"type":"Point","coordinates":[-122.16538,47.379972]}},{"properties":{"city":"Spokane","geo_score":0.714,"id":"ad8x1buj2k1z","geo_precision":"city","state":"WA"},"type":"Feature","geometry":{"type":"Point","coordinates":[-117.435997,47.66264]}},{"properties":{"city":"Kingwood","geo_score":0.714,"id":"ad8x1bojxb1k","geo_precision":"city","state":"TX"},"type":"Feature","geometry":{"type":"Point","coordinates":[-95.261044,30.033553]}},{"properties":{"city":"Boston","geo_score":0.714,"id":"ad8x1bwvwj1v","geo_precision":"city","state":"MA"},"type":"Feature","geometry":{"type":"Point","coordinates":[-71.026964,42.370567]}},{"properties":{"city":"Boston","geo_score":0.714,"id":"ad8x1byed9z5","geo_precision":"city","state":"MA"},"type":"Feature","geometry":{"type":"Point","coordinates":[-71.026964,42.370567]}},{"properties":{"city":"Columbia","geo_score":0.714,"id":"ad8x1bxw4evr","geo_precision":"city","state":"MD"},"type":"Feature","geometry":{"type":"Point","coordinates":[-76.887905,39.206132]}},{"properties":{"city":"Freehold","geo_score":0.714,"id":"ad8x1byw7gsm","geo_precision":"city","state":"NJ"},"type":"Feature","geometry":{"type":"Point","coordinates":[-74.306284,40.236423]}},{"properties":{"city":"Rockville","geo_score":0.0,"id":"ad8x1bls5haz","geo_precision":"unmatched","state":"MD"},"type":"Feature","geometry":null},{"properties":{"city":"Cincinnati","geo_score":0.714,"id":"ad8x1bxe0cp5","geo_precision":"city","state":"OH"},"type":"Feature","geometry":{"type":"Point","coordinates":[-84.53822,39.166759]}},{"properties":{"city":"Brentwood","geo_score":0.714,"id":"ad8x1bp5aecd","geo_precision":"city","state":"CA"},"type":"Feature","geometry":{"type":"Point","coordinates":[-118.473969,34.051954]}},{"properties":{"city":"Tracy","geo_score":0.714,"id":"ad8x1bvsqq29","geo_precision":"city","state":"CA"},"type":"Feature","geometry":{"type":"Point","coordinates":[-121.407804,37.688679]}},{"properties":{"city":"Uniondale","geo_score":0.714,"id":"ad8x1bsu42v1","geo_precision":"city","state":"NY"},"type":"Feature","geometry":{"type":"Point","coordinates":[-73.591421,40.705868]}},{"properties":{"city":"Warrenville","geo_score":0.714,"id":"ad8x1bqvp2o5","geo_precision":"city","state":"IL"},"type":"Feature","geometry":{"type":"Point","coordinates":[-88.171551,41.805422]}},{"properties":{"city":"Covington","geo_score":0.714,"id":"ad8x1bu7wcgb","geo_precision":"city","state":"LA"},"type":"Feature","geometry":{"type":"Point","coordinates":[-90.011991,30.435893]}},{"properties":{"city":"Fairfield","geo_score":0.714,"id":"ad8x1bw3rsd3","geo_precision":"city","state":"OH"},"type":"Feature","geometry":{"type":"Point","coordinates":[-82.475156,39.915898]}},{"properties":{"city":"Hunt Valley","geo_score":0.714,"id":"ad8x1bz6k4vt","geo_precision":"city","state":"MD"},"type":"Feature","geometry":{"type":"Point","coordinates":[-76.39135,39.53344]}},{"properties":{"city":"Memphis","geo_score":0.714,"id":"ad8x1bs0fsyy","geo_precision":"city","state":"TN"},"type":"Feature","geometry":{"type":"Point","coordinates":[-89.990415,35.169255]}},{"properties":{"city":"Allentown","geo_score":0.714,"id":"ad8x1blal03f","geo_precision":"city","state":"PA"},"type":"Feature","geometry":{"type":"Point","coordinates":[-75.470026,40.607497]}},{"properties":{"city":"Chandler","geo_score":0.714,"id":"ad8x1bvpv13q","geo_precision":"city","state":"AZ"},"type":"Feature","geometry":{"type":"Point","coordinates":[-111.686171,33.212186]}},{"properties":{"city":"Weston","geo_score":0.714,"id":"ad8x1bs86th7","geo_precision":"city","state":"MA"},"type":"Feature","geometry":{"type":"Point","coordinates":[-71.459405,42.446396]}},{"properties":{"city":"San Jose","geo_score":0.714,"id":"ad8x1c0w12go","geo_precision":"city","state":"CA"},"type":"Feature","geometry":{"type":"Point","coordinates":[-121.705327,37.189396]}},{"properties":{"city":"Wausau","geo_score":0.714,"id":"ad8x1bmuk6vg","geo_precision":"city","state":"WI"},"type":"Feature","geometry":{"type":"Point","coordinates":[-89.794002,44.961874]}},{"properties":{"city":"Missoula","geo_score":0.714,"id":"ad8x1bleyw42","geo_precision":"city","state":"MT"},"type":"Feature","geometry":{"type":"Point","coordinates":[-113.909123,46.853606]}},{"properties":{"city":"Williamsburg","geo_score":0.714,"id":"ad8x1brxw21s","geo_precision":"city","state":"VA"},"type":"Feature","geometry":{"type":"Point","coordinates":[-76.746769,37.310451]}},{"properties":{"city":"Sacramento","geo_score":0.714,"id":"ad8x1bpm8ncf","geo_precision":"city","state":"CA"},"type":"Feature","geometry":{"type":"Point","coordinates":[-121.555406,38.380456]}},{"properties":{"city":"New York","geo_score":0.714,"id":"ad8x1bua8spr","geo_precision":"city","state":"NY"},"type":"Feature","geometry":{"type":"Point","coordinates":[-74.005973,40.714269]}},{"properties":{"city":"Tampa","geo_score":0.714,"id":"ad8x1bs6vs4f","geo_precision":"city","state":"FL"},"type":"Feature","geometry":{"type":"Point","coordinates":[-82.582035,27.996097]}},{"properties":{"city":"St Louis","geo_score":0.0,"id":"ad8x1bsxg76p","geo_precision":"unmatched","state":"MO"},"type":"Feature","geometry":null},{"properties":{"city":"Woodland Hills","geo_score":0.714,"id":"ad8x1bwnrihm","geo_precision":"city","state":"CA"},"type":"Feature","geometry":{"type":"Point","coordinates":[-121.397892,39.08337]}},{"properties":{"city":"Pittsburgh","geo_score":0.714,"id":"ad8x1brk9s8x","geo_precision":"city","state":"PA"},"type":"Feature","geometry":{"type":"Point","coordinates":[-80.024817,40.434436]}},{"properties":{"city":"Franklin","geo_score":0.714,"id":"ad8x1bswfsfy","geo_precision":"city","state":"TN"},"type":"Feature","geometry":{"type":"Point","coordinates":[-86.965691,35.890746]}},{"properties":{"city":"Troy","geo_score":0.714,"id":"ad8x1byeu42a","geo_precision":"city","state":"MI"},"type":"Feature","geometry":{"type":"Point","coordinates":[-82.89105,43.675016]}},{"properties":{"city":"Ridgeland","geo_score":0.714,"id":"ad8x1bx24sbs","geo_precision":"city","state":"MS"},"type":"Feature","geometry":{"type":"Point","coordinates":[-90.13731,32.436064]}},{"properties":{"city":"Raleigh","geo_score":0.714,"id":"ad8x1brfguqo","geo_precision":"city","state":"NC"},"type":"Feature","geometry":{"type":"Point","coordinates":[-82.293464,36.034279]}},{"properties":{"city":"Maitland","geo_score":0.714,"id":"ad8x1bvg17si","geo_precision":"city","state":"FL"},"type":"Feature","geometry":{"type":"Point","coordinates":[-81.36459,28.625476]}},{"properties":{"city":"Springfield","geo_score":0.714,"id":"ad8x1byiieoh","geo_precision":"city","state":"MO"},"type":"Feature","geometry":{"type":"Point","coordinates":[-92.02405,37.762541]}},{"properties":{"city":"New Castle","geo_score":0.714,"id":"ad8x1boqlkhv","geo_precision":"city","state":"PA"},"type":"Feature","geometry":{"type":"Point","coordinates":[-78.059448,41.593398]}},{"properties":{"city":"Phoenix","geo_score":0.0,"id":"ad8x1bz7o2fq","geo_precision":"unmatched","state":"AZ"},"type":"Feature","geometry":null},{"properties":{"city":"Mishawaka","geo_score":0.714,"id":"ad8x1bqkn316","geo_precision":"city","state":"IN"},"type":"Feature","geometry":{"type":"Point","coordinates":[-86.287884,41.61536]}},{"properties":{"city":"Newark","geo_score":0.714,"id":"ad8x1bmp5hih","geo_precision":"city","state":"DE"},"type":"Feature","geometry":{"type":"Point","coordinates":[-75.701277,39.614737]}},{"properties":{"city":"West Chester","geo_score":0.714,"id":"ad8x1bxbmi56","geo_precision":"city","state":"OH"},"type":"Feature","geometry":{"type":"Point","coordinates":[-81.344278,40.23368]}},{"properties":{"city":"Columbus","geo_score":0.714,"id":"ad8x1bw2t8h4","geo_precision":"city","state":"OH"},"type":"Feature","geometry":{"type":"Point","coordinates":[-84.15053,40.97793]}},{"properties":{"city":"Williamsburg","geo_score":0.714,"id":"ad8x1bwj71xy","geo_precision":"city","state":"VA"},"type":"Feature","geometry":{"type":"Point","coordinates":[-76.746769,37.310451]}},{"properties":{"city":"Memphis","geo_score":0.714,"id":"ad8x1blu1mtg","geo_precision":"city","state":"TN"},"type":"Feature","geometry":{"type":"Point","coordinates":[-89.990415,35.169255]}},{"properties":{"city":"Orange","geo_score":0.714,"id":"ad8x1bxvrjh2","geo_precision":"city","state":"CA"},"type":"Feature","geometry":{"type":"Point","coordinates":[-117.853112,33.787795]}},{"properties":{"city":"Pittsburgh","geo_score":0.714,"id":"ad8x1bo7kkbw","geo_precision":"city","state":"PA"},"type":"Feature","geometry":{"type":"Point","coordinates":[-80.024817,40.434436]}},{"properties":{"city":"Richardson","geo_score":0.714,"id":"ad8x1bql2y2b","geo_precision":"city","state":"TX"},"type":"Feature","geometry":{"type":"Point","coordinates":[-96.726826,32.962811]}},{"properties":{"city":"Louisville","geo_score":0.714,"id":"ad8x1btcae4t","geo_precision":"city","state":"KY"},"type":"Feature","geometry":{"type":"Point","coordinates":[-85.676819,38.188962]}},{"properties":{"city":"Uniondale","geo_score":0.714,"id":"ad8x1bx5eahx","geo_precision":"city","state":"NY"},"type":"Feature","geometry":{"type":"Point","coordinates":[-73.591421,40.705868]}},{"properties":{"city":"Wheatfield","geo_score":0.714,"id":"ad8x1c189ggr","geo_precision":"city","state":"NY"},"type":"Feature","geometry":{"type":"Point","coordinates":[-74.224314,41.81426]}},{"properties":{"city":"Richardson","geo_score":0.714,"id":"ad8x1brrm3ok","geo_precision":"city","state":"TX"},"type":"Feature","geometry":{"type":"Point","coordinates":[-96.726826,32.962811]}},{"properties":{"city":"Voorhees","geo_score":0.714,"id":"ad8x1bxred3j","geo_precision":"city","state":"NJ"},"type":"Feature","geometry":{"type":"Point","coordinates":[-74.965057,39.839156]}},{"properties":{"city":"Owings Mills","geo_score":0.714,"id":"ad8x1bphw2p6","geo_precision":"city","state":"MD"},"type":"Feature","geometry":{"type":"Point","coordinates":[-76.787696,39.429055]}},{"properties":{"city":"Boston","geo_score":0.714,"id":"ad8x1bohj7ua","geo_precision":"city","state":"MA"},"type":"Feature","geometry":{"type":"Point","coordinates":[-71.026964,42.370567]}},{"properties":{"city":"Henderson","geo_score":0.714,"id":"ad8x1bo3xoad","geo_precision":"city","state":"NV"},"type":"Feature","geometry":{"type":"Point","coordinates":[-114.972061,35.927901]}},{"properties":{"city":"Chicago","geo_score":0.714,"id":"ad8x1bs9kvz9","geo_precision":"city","state":"IL"},"type":"Feature","geometry":{"type":"Point","coordinates":[-87.68732,41.811929]}},{"properties":{"city":"Troy","geo_score":0.714,"id":"ad8x1bwxstpn","geo_precision":"city","state":"MI"},"type":"Feature","geometry":{"type":"Point","coordinates":[-82.89105,43.675016]}},{"properties":{"city":"Hunt Valley","geo_score":0.714,"id":"ad8x1bsd37nn","geo_precision":"city","state":"MD"},"type":"Feature","geometry":{"type":"Point","coordinates":[-76.39135,39.53344]}},{"properties":{"city":"Sacramento","geo_score":0.714,"id":"ad8x1bsqiswa","geo_precision":"city","state":"CA"},"type":"Feature","geometry":{"type":"Point","coordinates":[-121.555406,38.380456]}},{"properties":{"city":"Boston","geo_score":0.714,"id":"ad8x1bvj0q9n","geo_precision":"city","state":"MA"},"type":"Feature","geometry":{"type":"Point","coordinates":[-71.026964,42.370567]}},{"properties":{"city":"Kennesaw","geo_score":0.714,"id":"ad8x1bxsilfz","geo_precision":"city","state":"GA"},"type":"Feature","geometry":{"type":"Point","coordinates":[-84.597433,34.03384]}},{"properties":{"city":"Orange","geo_score":0.714,"id":"ad8x1bsx2351","geo_precision":"city","state":"CA"},"type":"Feature","geometry":{"type":"Point","coordinates":[-117.853112,33.787795]}},{"properties":{"city":"Bangor","geo_score":0.714,"id":"ad8x1bp3yr3s","geo_precision":"city","state":"ME"},"type":"Feature","geometry":{"type":"Point","coordinates":[-68.878893,45.061744]}},{"properties":{"city":"Allentown","geo_score":0.714,"id":"ad8x1bwo9i2d","geo_precision":"city","state":"PA"},"type":"Feature","geometry":{"type":"Point","coordinates":[-75.470026,40.607497]}},{"properties":{"city":"Covington","geo_score":0.714,"id":"ad8x1c1h3gx0","geo_precision":"city","state":"LA"},"type":"Feature","geometry":{"type":"Point","coordinates":[-90.011991,30.435893]}},{"properties":{"city":"Victor","geo_score":0.714,"id":"ad8x1botcy5v","geo_precision":"city","state":"NY"},"type":"Feature","geometry":{"type":"Point","coordinates":[-77.426906,42.973715]}},{"properties":{"city":"New York","geo_score":0.714,"id":"ad8x1braojx8","geo_precision":"city","state":"NY"},"type":"Feature","geometry":{"type":"Point","coordinates":[-74.005973,40.714269]}},{"properties":{"city":"Elk Grove","geo_score":0.714,"id":"ad8x1bxqidyk","geo_precision":"city","state":"CA"},"type":"Feature","geometry":{"type":"Point","coordinates":[-123.618031,39.076371]}},{"properties":{"city":"Boston","geo_score":0.714,"id":"ad8x1btn9hzc","geo_precision":"city","state":"MA"},"type":"Feature","geometry":{"type":"Point","coordinates":[-71.026964,42.370567]}},{"properties":{"city":"Boston","geo_score":0.714,"id":"ad8x1bv2ddyq","geo_precision":"city","state":"MA"},"type":"Feature","geometry":{"type":"Point","coordinates":[-71.026964,42.370567]}},{"properties":{"city":"Farmingdale","geo_score":0.714,"id":"ad8x1buxxjee","geo_precision":"city","state":"NY"},"type":"Feature","geometry":{"type":"Point","coordinates":[-73.601772,40.754757]}},{"properties":{"city":"Irving","geo_score":0.714,"id":"ad8x1bzqb6u7","geo_precision":"city","state":"TX"},"type":"Feature","geometry":{"type":"Point","coordinates":[-96.777626,32.767268]}},{"properties":{"city":"Irving","geo_score":0.714,"id":"ad8x1c0xhzwl","geo_precision":"city","state":"TX"},"type":"Feature","geometry":{"type":"Point","coordinates":[-96.777626,32.767268]}},{"properties":{"city":"Centennial","geo_score":0.714,"id":"ad8x1blndklj","geo_precision":"city","state":"CO"},"type":"Feature","geometry":{"type":"Point","coordinates":[-104.876923,39.579155]}},{"properties":{"city":"Middlebury","geo_score":0.714,"id":"ad8x1bss9ul8","geo_precision":"city","state":"CT"},"type":"Feature","geometry":{"type":"Point","coordinates":[-73.116458,41.528274]}},{"properties":{"city":"Middlebury","geo_score":0.714,"id":"ad8x1brdmrnw","geo_precision":"city","state":"CT"},"type":"Feature","geometry":{"type":"Point","coordinates":[-73.116458,41.528274]}},{"properties":{"city":"Dover","geo_score":0.714,"id":"ad8x1br9llyb","geo_precision":"city","state":"NH"},"type":"Feature","geometry":{"type":"Point","coordinates":[-70.992042,43.297309]}},{"properties":{"city":"Saddle Brook","geo_score":0.714,"id":"ad8x1bl90za6","geo_precision":"city","state":"NJ"},"type":"Feature","geometry":{"type":"Point","coordinates":[-74.092642,40.898988]}},{"properties":{"city":"Saddle Brook","geo_score":0.714,"id":"ad8x1bwbckor","geo_precision":"city","state":"NJ"},"type":"Feature","geometry":{"type":"Point","coordinates":[-74.092642,40.898988]}},{"properties":{"city":"Rocky Hill","geo_score":0.0,"id":"ad8x1byusnan","geo_precision":"unmatched","state":"CT"},"type":"Feature","geometry":null},{"properties":{"city":"Irving","geo_score":0.714,"id":"ad8x1bssrujx","geo_precision":"city","state":"TX"},"type":"Feature","geometry":{"type":"Point","coordinates":[-96.777626,32.767268]}},{"properties":{"city":"Covington","geo_score":0.714,"id":"ad8x1bmo7lgr","geo_precision":"city","state":"LA"},"type":"Feature","geometry":{"type":"Point","coordinates":[-90.011991,30.435893]}},{"properties":{"city":"Phoenix","geo_score":0.0,"id":"ad8x1bwvp0m5","geo_precision":"unmatched","state":"AZ"},"type":"Feature","geometry":null},{"properties":{"city":"Walnut Creek","geo_score":0.714,"id":"ad8x1bw84cuw","geo_precision":"city","state":"CA"},"type":"Feature","geometry":{"type":"Point","coordinates":[-122.481647,38.517964]}},{"properties":{"city":"Irving","geo_score":0.714,"id":"ad8x1bli60xu","geo_precision":"city","state":"TX"},"type":"Feature","geometry":{"type":"Point","coordinates":[-96.777626,32.767268]}},{"properties":{"city":"Heathrow","geo_score":0.714,"id":"ad8x1bn0ox5t","geo_precision":"city","state":"FL"},"type":"Feature","geometry":{"type":"Point","coordinates":[-81.372245,28.763333]}},{"properties":{"city":"Williamsburg","geo_score":0.714,"id":"ad8x1bwgldnr","geo_precision":"city","state":"VA"},"type":"Feature","geometry":{"type":"Point","coordinates":[-76.746769,37.310451]}},{"properties":{"city":"Hunt Valley","geo_score":0.714,"id":"ad8x1bnlzykt","geo_precision":"city","state":"MD"},"type":"Feature","geometry":{"type":"Point","coordinates":[-76.39135,39.53344]}},{"properties":{"city":"Miami","geo_score":0.714,"id":"ad8x1bqcxemt","geo_precision":"city","state":"FL"},"type":"Feature","geometry":{"type":"Point","coordinates":[-80.193659,25.774266]}},{"properties":{"city":"Heathrow","geo_score":0.714,"id":"ad8x1byrbv31","geo_precision":"city","state":"FL"},"type":"Feature","geometry":{"type":"Point","coordinates":[-81.372245,28.763333]}},{"properties":{"city":"Boston","geo_score":0.714,"id":"ad8x1by3pq5n","geo_precision":"city","state":"MA"},"type":"Feature","geometry":{"type":"Point","coordinates":[-71.026964,42.370567]}},{"properties":{"city":"St Peters","geo_score":0.0,"id":"ad8x1bsh4rwy","geo_precision":"unmatched","state":"MO"},"type":"Feature","geometry":null},{"properties":{"city":"Boston","geo_score":0.714,"id":"ad8x1bpykagv","geo_precision":"city","state":"MA"},"type":"Feature","geometry":{"type":"Point","coordinates":[-71.026964,42.370567]}},{"properties":{"city":"Spokane Valley","geo_score":0.714,"id":"ad8x1c17s11a","geo_precision":"city","state":"WA"},"type":"Feature","geometry":{"type":"Point","coordinates":[-122.656235,46.845101]}},{"properties":{"city":"Nashville","geo_score":0.714,"id":"ad8x1bt0e395","geo_precision":"city","state":"TN"},"type":"Feature","geometry":{"type":"Point","coordinates":[-86.778098,36.165688]}},{"properties":{"city":"Holland","geo_score":0.714,"id":"ad8x1c1gme4e","geo_precision":"city","state":"MI"},"type":"Feature","geometry":{"type":"Point","coordinates":[-83.422549,42.701111]}},{"properties":{"city":"Boston","geo_score":0.714,"id":"ad8x1bn65h12","geo_precision":"city","state":"MA"},"type":"Feature","geometry":{"type":"Point","coordinates":[-71.026964,42.370567]}},{"properties":{"city":"Georgetown","geo_score":0.714,"id":"ad8x1btj5fpm","geo_precision":"city","state":"TX"},"type":"Feature","geometry":{"type":"Point","coordinates":[-97.574706,30.668034]}},{"properties":{"city":"Ruston","geo_score":0.714,"id":"ad8x1bsgo1b4","geo_precision":"city","state":"LA"},"type":"Feature","geometry":{"type":"Point","coordinates":[-92.639756,32.580553]}},{"properties":{"city":"Henderson","geo_score":0.714,"id":"ad8x1bt78vc8","geo_precision":"city","state":"NV"},"type":"Feature","geometry":{"type":"Point","coordinates":[-114.972061,35.927901]}},{"properties":{"city":"Springfield","geo_score":0.714,"id":"ad8x1bzmp4s6","geo_precision":"city","state":"MO"},"type":"Feature","geometry":{"type":"Point","coordinates":[-92.02405,37.762541]}},{"properties":{"city":"El Paso","geo_score":0.714,"id":"ad8x1bzyx145","geo_precision":"city","state":"TX"},"type":"Feature","geometry":{"type":"Point","coordinates":[-99.561747,32.342351]}},{"properties":{"city":"Roseland","geo_score":0.714,"id":"ad8x1bz486o4","geo_precision":"city","state":"NJ"},"type":"Feature","geometry":{"type":"Point","coordinates":[-74.306093,40.820499]}},{"properties":{"city":"Walnut Creek","geo_score":0.714,"id":"ad8x1bl8u37l","geo_precision":"city","state":"CA"},"type":"Feature","geometry":{"type":"Point","coordinates":[-122.481647,38.517964]}},{"properties":{"city":"Lexington","geo_score":0.0,"id":"ad8x1c1gz8eg","geo_precision":"unmatched","state":"KY"},"type":"Feature","geometry":null},{"properties":{"city":"Frisco","geo_score":0.714,"id":"ad8x1bxhqd7w","geo_precision":"city","state":"TX"},"type":"Feature","geometry":{"type":"Point","coordinates":[-96.542746,30.642421]}},{"properties":{"city":"Providence","geo_score":0.714,"id":"ad8x1bvns3xj","geo_precision":"city","state":"RI"},"type":"Feature","geometry":{"type":"Point","coordinates":[-71.414451,41.82275]}},{"properties":{"city":"Phoenix","geo_score":0.0,"id":"ad8x1brm62fu","geo_precision":"unmatched","state":"AZ"},"type":"Feature","geometry":null},{"properties":{"city":"Bangor","geo_score":0.714,"id":"ad8x1bx6s9jg","geo_precision":"city","state":"ME"},"type":"Feature","geometry":{"type":"Point","coordinates":[-68.878893,45.061744]}},{"properties":{"city":"Weston","geo_score":0.714,"id":"ad8x1bokdk9c","geo_precision":"city","state":"MA"},"type":"Feature","geometry":{"type":"Point","coordinates":[-71.459405,42.446396]}},{"properties":{"city":"McKinney","geo_score":0.714,"id":"ad8x1bzqffdm","geo_precision":"city","state":"TX"},"type":"Feature","geometry":{"type":"Point","coordinates":[-95.127718,33.088731]}},{"properties":{"city":"St Louis","geo_score":0.0,"id":"ad8x1bsz8gsy","geo_precision":"unmatched","state":"MO"},"type":"Feature","geometry":null},{"properties":{"city":"Federal Way","geo_score":0.714,"id":"ad8x1bzkvdtm","geo_precision":"city","state":"WA"},"type":"Feature","geometry":{"type":"Point","coordinates":[-121.803388,47.432251]}},{"properties":{"city":"Houston","geo_score":0.714,"id":"ad8x1c0ej4rh","geo_precision":"city","state":"TX"},"type":"Feature","geometry":{"type":"Point","coordinates":[-96.919704,29.845783]}},{"properties":{"city":"Orange","geo_score":0.714,"id":"ad8x1bnwxz80","geo_precision":"city","state":"CA"},"type":"Feature","geometry":{"type":"Point","coordinates":[-117.853112,33.787795]}},{"properties":{"city":"Warrenville","geo_score":0.714,"id":"ad8x1bo8e79g","geo_precision":"city","state":"IL"},"type":"Feature","geometry":{"type":"Point","coordinates":[-88.171551,41.805422]}},{"properties":{"city":"Warrenville","geo_score":0.714,"id":"ad8x1by11o6x","geo_precision":"city","state":"IL"},"type":"Feature","geometry":{"type":"Point","coordinates":[-88.171551,41.805422]}},{"properties":{"city":"Uniondale","geo_score":0.714,"id":"ad8x1bsr39sg","geo_precision":"city","state":"NY"},"type":"Feature","geometry":{"type":"Point","coordinates":[-73.591421,40.705868]}},{"properties":{"city":"Salt Lake City","geo_score":0.714,"id":"ad8x1bwvig2u","geo_precision":"city","state":"UT"},"type":"Feature","geometry":{"type":"Point","coordinates":[-111.900719,40.756095]}},{"properties":{"city":"Arlington Heights","geo_score":0.714,"id":"ad8x1btgpuhm","geo_precision":"city","state":"IL"},"type":"Feature","geometry":{"type":"Point","coordinates":[-89.240006,41.43043]}},{"properties":{"city":"Phoenix","geo_score":0.0,"id":"ad8x1byukyfb","geo_precision":"unmatched","state":"AZ"},"type":"Feature","geometry":null},{"properties":{"city":"El Paso","geo_score":0.714,"id":"ad8x1br8rjz9","geo_precision":"city","state":"TX"},"type":"Feature","geometry":{"type":"Point","coordinates":[-99.561747,32.342351]}},{"properties":{"city":"Centennial","geo_score":0.714,"id":"ad8x1bqe4o6p","geo_precision":"city","state":"CO"},"type":"Feature","geometry":{"type":"Point","coordinates":[-104.876923,39.579155]}},{"properties":{"city":"Albany","geo_score":0.714,"id":"ad8x1bsjd2ct","geo_precision":"city","state":"NY"},"type":"Feature","geometry":{"type":"Point","coordinates":[-73.970812,42.614852]}},{"properties":{"city":"Southfield","geo_score":0.714,"id":"ad8x1byitade","geo_precision":"city","state":"MI"},"type":"Feature","geometry":{"type":"Point","coordinates":[-83.279164,42.478495]}},{"properties":{"city":"Charlotte","geo_score":0.714,"id":"ad8x1bnzftti","geo_precision":"city","state":"NC"},"type":"Feature","geometry":{"type":"Point","coordinates":[-80.804151,35.26002]}},{"properties":{"city":"Phoenix","geo_score":0.0,"id":"ad8x1bwmlpok","geo_precision":"unmatched","state":"AZ"},"type":"Feature","geometry":null},{"properties":{"city":"Irving","geo_score":0.714,"id":"ad8x1bzafxlq","geo_precision":"city","state":"TX"},"type":"Feature","geometry":{"type":"Point","coordinates":[-96.777626,32.767268]}},{"properties":{"city":"Houston","geo_score":0.714,"id":"ad8x1bz5hxhz","geo_precision":"city","state":"TX"},"type":"Feature","geometry":{"type":"Point","coordinates":[-96.919704,29.845783]}},{"properties":{"city":"Centennial","geo_score":0.714,"id":"ad8x1bqxbujp","geo_precision":"city","state":"CO"},"type":"Feature","geometry":{"type":"Point","coordinates":[-104.876923,39.579155]}},{"properties":{"city":"Ruston","geo_score":0.714,"id":"ad8x1bsl2ttr","geo_precision":"city","state":"LA"},"type":"Feature","geometry":{"type":"Point","coordinates":[-92.639756,32.580553]}},{"properties":{"city":"East Syracuse","geo_score":0.714,"id":"ad8x1bubzah9","geo_precision":"city","state":"NY"},"type":"Feature","geometry":{"type":"Point","coordinates":[-76.047426,43.096216]}},{"properties":{"city":"New York","geo_score":0.714,"id":"ad8x1bpmf25m","geo_precision":"city","state":"NY"},"type":"Feature","geometry":{"type":"Point","coordinates":[-74.005973,40.714269]}},{"properties":{"city":"Tampa","geo_score":0.714,"id":"ad8x1c0hjzgn","geo_precision":"city","state":"FL"},"type":"Feature","geometry":{"type":"Point","coordinates":[-82.582035,27.996097]}},{"properties":{"city":"Wallingford","geo_score":0.714,"id":"ad8x1byjw6kf","geo_precision":"city","state":"CT"},"type":"Feature","geometry":{"type":"Point","coordinates":[-72.81892,41.449868]}},{"properties":{"city":"Farmingdale","geo_score":0.714,"id":"ad8x1bzzl6l6","geo_precision":"city","state":"NY"},"type":"Feature","geometry":{"type":"Point","coordinates":[-73.601772,40.754757]}},{"properties":{"city":"Multi","geo_score":0.571,"id":"ad8x1bsiypq3","geo_precision":"city","state":"Sites"},"type":"Feature","geometry":{"type":"Point","coordinates":[-99.1992,28.581928]}},{"properties":{"city":"Mooresville","geo_score":0.714,"id":"ad8x1bmiy9um","geo_precision":"city","state":"NC"},"type":"Feature","geometry":{"type":"Point","coordinates":[-80.819825,35.688136]}},{"properties":{"city":"Weston","geo_score":0.714,"id":"ad8x1bs6o4ug","geo_precision":"city","state":"MA"},"type":"Feature","geometry":{"type":"Point","coordinates":[-71.459405,42.446396]}},{"properties":{"city":"Toledo","geo_score":0.714,"id":"ad8x1bs0en5v","geo_precision":"city","state":"OH"},"type":"Feature","geometry":{"type":"Point","coordinates":[-84.124257,41.58568]}},{"properties":{"city":"Walnut Creek","geo_score":0.714,"id":"ad8x1bwdy7kg","geo_precision":"city","state":"CA"},"type":"Feature","geometry":{"type":"Point","coordinates":[-122.481647,38.517964]}},{"properties":{"city":"Farmington","geo_score":0.714,"id":"ad8x1brzzs7s","geo_precision":"city","state":"CT"},"type":"Feature","geometry":{"type":"Point","coordinates":[-72.718832,41.791776]}},{"properties":{"city":"Saddle Brook","geo_score":0.714,"id":"ad8x1bmc7d8q","geo_precision":"city","state":"NJ"},"type":"Feature","geometry":{"type":"Point","coordinates":[-74.092642,40.898988]}},{"properties":{"city":"Saddle Brook","geo_score":0.714,"id":"ad8x1bo1zq22","geo_precision":"city","state":"NJ"},"type":"Feature","geometry":{"type":"Point","coordinates":[-74.092642,40.898988]}},{"properties":{"city":"Eagan","geo_score":0.714,"id":"ad8x1bsy4s0c","geo_precision":"city","state":"MN"},"type":"Feature","geometry":{"type":"Point","coordinates":[-93.166886,44.804132]}},{"properties":{"city":"Albuquerque","geo_score":0.714,"id":"ad8x1bra9pax","geo_precision":"city","state":"NM"},"type":"Feature","geometry":{"type":"Point","coordinates":[-106.651137,35.084491]}},{"properties":{"city":"Murfreesboro","geo_score":0.714,"id":"ad8x1bt5wbee","geo_precision":"city","state":"TN"},"type":"Feature","geometry":{"type":"Point","coordinates":[-86.372158,35.762951]}},{"properties":{"city":"Portsmouth","geo_score":0.714,"id":"ad8x1bwqz3gv","geo_precision":"city","state":"NH"},"type":"Feature","geometry":{"type":"Point","coordinates":[-71.013202,43.005895]}},{"properties":{"city":"Portsmouth","geo_score":0.714,"id":"ad8x1bowy17f","geo_precision":"city","state":"NH"},"type":"Feature","geometry":{"type":"Point","coordinates":[-71.013202,43.005895]}},{"properties":{"city":"Portsmouth","geo_score":0.714,"id":"ad8x1blqwv5b","geo_precision":"city","state":"NH"},"type":"Feature","geometry":{"type":"Point","coordinates":[-71.013202,43.005895]}},{"properties":{"city":"Georgetown","geo_score":0.714,"id":"ad8x1bpnlman","geo_precision":"city","state":"TX"},"type":"Feature","geometry":{"type":"Point","coordinates":[-97.574706,30.668034]}},{"properties":{"city":"Rocky Hill","geo_score":0.0,"id":"ad8x1bt1iiqi","geo_precision":"unmatched","state":"CT"},"type":"Feature","geometry":null},{"properties":{"city":"East Syracuse","geo_score":0.714,"id":"ad8x1bvldbvh","geo_precision":"city","state":"NY"},"type":"Feature","geometry":{"type":"Point","coordinates":[-76.047426,43.096216]}},{"properties":{"city":"El Paso","geo_score":0.714,"id":"ad8x1c16h9e3","geo_precision":"city","state":"TX"},"type":"Feature","geometry":{"type":"Point","coordinates":[-99.561747,32.342351]}},{"properties":{"city":"Shreveport","geo_score":0.714,"id":"ad8x1btrzk8e","geo_precision":"city","state":"LA"},"type":"Feature","geometry":{"type":"Point","coordinates":[-93.750228,32.498202]}},{"properties":{"city":"Portsmouth","geo_score":0.714,"id":"ad8x1bvujo1z","geo_precision":"city","state":"NH"},"type":"Feature","geometry":{"type":"Point","coordinates":[-71.013202,43.005895]}},{"properties":{"city":"Aliso Viejo","geo_score":0.714,"id":"ad8x1bxmh42n","geo_precision":"city","state":"CA"},"type":"Feature","geometry":{"type":"Point","coordinates":[-117.751341,33.603459]}},{"properties":{"city":"Waukasha","geo_score":0.714,"id":"ad8x1bl4px7u","geo_precision":"city","state":"WI"},"type":"Feature","geometry":{"type":"Point","coordinates":[-88.217715,42.987835]}},{"properties":{"city":"Phoenix","geo_score":0.0,"id":"ad8x1bsof2f0","geo_precision":"unmatched","state":"AZ"},"type":"Feature","geometry":null},{"properties":{"city":"Liberty Lake","geo_score":0.714,"id":"ad8x1bsu2qvm","geo_precision":"city","state":"WA"},"type":"Feature","geometry":{"type":"Point","coordinates":[-117.085845,47.651635]}},{"properties":{"city":"Houston","geo_score":0.714,"id":"ad8x1bo4r5g1","geo_precision":"city","state":"TX"},"type":"Feature","geometry":{"type":"Point","coordinates":[-96.919704,29.845783]}},{"properties":{"city":"Irving","geo_score":0.714,"id":"ad8x1bm0htbj","geo_precision":"city","state":"TX"},"type":"Feature","geometry":{"type":"Point","coordinates":[-96.777626,32.767268]}},{"properties":{"city":"Scottsdale","geo_score":0.714,"id":"ad8x1bwob9zz","geo_precision":"city","state":"AZ"},"type":"Feature","geometry":{"type":"Point","coordinates":[-111.874248,33.524143]}},{"properties":{"city":"Weston","geo_score":0.714,"id":"ad8x1bt2t5s5","geo_precision":"city","state":"MA"},"type":"Feature","geometry":{"type":"Point","coordinates":[-71.459405,42.446396]}},{"properties":{"city":"Wausau","geo_score":0.714,"id":"ad8x1bw15f78","geo_precision":"city","state":"WI"},"type":"Feature","geometry":{"type":"Point","coordinates":[-89.794002,44.961874]}},{"properties":{"city":"Tucson","geo_score":0.714,"id":"ad8x1bzv2fgj","geo_precision":"city","state":"AZ"},"type":"Feature","geometry":{"type":"Point","coordinates":[-110.970869,32.217975]}},{"properties":{"city":"Prescott","geo_score":0.714,"id":"ad8x1bmh7w0f","geo_precision":"city","state":"AZ"},"type":"Feature","geometry":{"type":"Point","coordinates":[-112.307777,34.668291]}},{"properties":{"city":"Hunt Valley","geo_score":0.714,"id":"ad8x1bm8d85n","geo_precision":"city","state":"MD"},"type":"Feature","geometry":{"type":"Point","coordinates":[-76.39135,39.53344]}},{"properties":{"city":"Shreveport","geo_score":0.714,"id":"ad8x1bns1ch8","geo_precision":"city","state":"LA"},"type":"Feature","geometry":{"type":"Point","coordinates":[-93.750228,32.498202]}},{"properties":{"city":"Vestal","geo_score":0.714,"id":"ad8x1bs0iqn9","geo_precision":"city","state":"NY"},"type":"Feature","geometry":{"type":"Point","coordinates":[-76.027088,42.055476]}},{"properties":{"city":"Shreveport","geo_score":0.714,"id":"ad8x1bpzh7bo","geo_precision":"city","state":"LA"},"type":"Feature","geometry":{"type":"Point","coordinates":[-93.750228,32.498202]}},{"properties":{"city":"Chicago","geo_score":0.714,"id":"ad8x1bypkv9h","geo_precision":"city","state":"IL"},"type":"Feature","geometry":{"type":"Point","coordinates":[-87.68732,41.811929]}},{"properties":{"city":"Richardson","geo_score":0.714,"id":"ad8x1buu034g","geo_precision":"city","state":"TX"},"type":"Feature","geometry":{"type":"Point","coordinates":[-96.726826,32.962811]}},{"properties":{"city":"Maple Grove","geo_score":0.714,"id":"ad8x1bv7igx6","geo_precision":"city","state":"MN"},"type":"Feature","geometry":{"type":"Point","coordinates":[-93.455788,45.072464]}},{"properties":{"city":"Albuquerque","geo_score":0.714,"id":"ad8x1bvfjjqk","geo_precision":"city","state":"NM"},"type":"Feature","geometry":{"type":"Point","coordinates":[-106.651137,35.084491]}},{"properties":{"city":"Middleton","geo_score":0.714,"id":"ad8x1bndszuk","geo_precision":"city","state":"WI"},"type":"Feature","geometry":{"type":"Point","coordinates":[-89.529153,43.114772]}},{"properties":{"city":"Boston","geo_score":0.714,"id":"ad8x1bo1m1hv","geo_precision":"city","state":"MA"},"type":"Feature","geometry":{"type":"Point","coordinates":[-71.026964,42.370567]}},{"properties":{"city":"Mooresville","geo_score":0.714,"id":"ad8x1bra0s04","geo_precision":"city","state":"NC"},"type":"Feature","geometry":{"type":"Point","coordinates":[-80.819825,35.688136]}},{"properties":{"city":"Albuquerque","geo_score":0.714,"id":"ad8x1by5xn3q","geo_precision":"city","state":"NM"},"type":"Feature","geometry":{"type":"Point","coordinates":[-106.651137,35.084491]}},{"properties":{"city":"Ramsey","geo_score":0.714,"id":"ad8x1bwie9pq","geo_precision":"city","state":"NJ"},"type":"Feature","geometry":{"type":"Point","coordinates":[-74.133441,41.059124]}},{"properties":{"city":"Greece","geo_score":0.714,"id":"ad8x1bofs8al","geo_precision":"city","state":"NY"},"type":"Feature","geometry":{"type":"Point","coordinates":[-74.3159,44.21955]}},{"properties":{"city":"Mahwah","geo_score":0.714,"id":"ad8x1bywl4cm","geo_precision":"city","state":"NJ"},"type":"Feature","geometry":{"type":"Point","coordinates":[-74.172766,41.053446]}},{"properties":{"city":"Brentwood","geo_score":0.714,"id":"ad8x1c193z8n","geo_precision":"city","state":"TN"},"type":"Feature","geometry":{"type":"Point","coordinates":[-86.907565,35.874553]}},{"properties":{"city":"Dallas","geo_score":0.714,"id":"ad8x1bn29hbs","geo_precision":"city","state":"TX"},"type":"Feature","geometry":{"type":"Point","coordinates":[-96.240533,32.370699]}},{"properties":{"city":"Boston","geo_score":0.714,"id":"ad8x1bsb93jc","geo_precision":"city","state":"MA"},"type":"Feature","geometry":{"type":"Point","coordinates":[-71.026964,42.370567]}},{"properties":{"city":"Rocky Hill","geo_score":0.0,"id":"ad8x1bx0bmqo","geo_precision":"unmatched","state":"CT"},"type":"Feature","geometry":null},{"properties":{"city":"Greece","geo_score":0.714,"id":"ad8x1blxjvby","geo_precision":"city","state":"NY"},"type":"Feature","geometry":{"type":"Point","coordinates":[-74.3159,44.21955]}},{"properties":{"city":"Scottsdale","geo_score":0.714,"id":"ad8x1bru1dpg","geo_precision":"city","state":"AZ"},"type":"Feature","geometry":{"type":"Point","coordinates":[-111.874248,33.524143]}},{"properties":{"city":"Irving","geo_score":0.714,"id":"ad8x1bn4sjby","geo_precision":"city","state":"TX"},"type":"Feature","geometry":{"type":"Point","coordinates":[-96.777626,32.767268]}},{"properties":{"city":"Farmingdale","geo_score":0.714,"id":"ad8x1byn9v1v","geo_precision":"city","state":"NY"},"type":"Feature","geometry":{"type":"Point","coordinates":[-73.601772,40.754757]}},{"properties":{"city":"Sewell","geo_score":0.714,"id":"ad8x1brpokjj","geo_precision":"city","state":"NJ"},"type":"Feature","geometry":{"type":"Point","coordinates":[-75.201593,39.75521]}},{"properties":{"city":"Tampa","geo_score":0.714,"id":"ad8x1c0s3ahn","geo_precision":"city","state":"FL"},"type":"Feature","geometry":{"type":"Point","coordinates":[-82.582035,27.996097]}},{"properties":{"city":"Irving","geo_score":0.714,"id":"ad8x1bpj3pa6","geo_precision":"city","state":"TX"},"type":"Feature","geometry":{"type":"Point","coordinates":[-96.777626,32.767268]}},{"properties":{"city":"Roseland","geo_score":0.714,"id":"ad8x1bo7len3","geo_precision":"city","state":"NJ"},"type":"Feature","geometry":{"type":"Point","coordinates":[-74.306093,40.820499]}},{"properties":{"city":"Port Jefferson Station","geo_score":0.714,"id":"ad8x1bmzsolx","geo_precision":"city","state":"NY"},"type":"Feature","geometry":{"type":"Point","coordinates":[-74.905417,41.782874]}},{"properties":{"city":"Bedford","geo_score":0.714,"id":"ad8x1brntii4","geo_precision":"city","state":"NH"},"type":"Feature","geometry":{"type":"Point","coordinates":[-71.535515,42.93743]}},{"properties":{"city":"Hoffman Estates","geo_score":0.714,"id":"ad8x1bsuduqb","geo_precision":"city","state":"IL"},"type":"Feature","geometry":{"type":"Point","coordinates":[-88.223655,42.079336]}},{"properties":{"city":"Commack","geo_score":0.0,"id":"ad8x1bpflu37","geo_precision":"unmatched","state":"NY"},"type":"Feature","geometry":null},{"properties":{"city":"Hunt Valley","geo_score":0.714,"id":"ad8x1bs4p7fc","geo_precision":"city","state":"MD"},"type":"Feature","geometry":{"type":"Point","coordinates":[-76.39135,39.53344]}},{"properties":{"city":"Middlebury","geo_score":0.714,"id":"ad8x1bqyquyt","geo_precision":"city","state":"CT"},"type":"Feature","geometry":{"type":"Point","coordinates":[-73.116458,41.528274]}},{"properties":{"city":"Allentown","geo_score":0.714,"id":"ad8x1bxr60z4","geo_precision":"city","state":"PA"},"type":"Feature","geometry":{"type":"Point","coordinates":[-75.470026,40.607497]}},{"properties":{"city":"Houston","geo_score":0.714,"id":"ad8x1bxpeqbq","geo_precision":"city","state":"TX"},"type":"Feature","geometry":{"type":"Point","coordinates":[-96.919704,29.845783]}},{"properties":{"city":"Kingwood","geo_score":0.714,"id":"ad8x1bxhvq1n","geo_precision":"city","state":"TX"},"type":"Feature","geometry":{"type":"Point","coordinates":[-95.261044,30.033553]}},{"properties":{"city":"Ontario","geo_score":0.714,"id":"ad8x1bttcswn","geo_precision":"city","state":"CA"},"type":"Feature","geometry":{"type":"Point","coordinates":[-115.967051,34.839964]}},{"properties":{"city":"Port Jefferson Station","geo_score":0.714,"id":"ad8x1c17antc","geo_precision":"city","state":"NY"},"type":"Feature","geometry":{"type":"Point","coordinates":[-74.905417,41.782874]}},{"properties":{"city":"Phoenix","geo_score":0.0,"id":"ad8x1bqxeqa9","geo_precision":"unmatched","state":"AZ"},"type":"Feature","geometry":null},{"properties":{"city":"Gaineville","geo_score":0.0,"id":"ad8x1c1eiiyq","geo_precision":"unmatched","state":"GA"},"type":"Feature","geometry":null},{"properties":{"city":"San Antonio","geo_score":0.714,"id":"ad8x1bo2m3y3","geo_precision":"city","state":"TX"},"type":"Feature","geometry":{"type":"Point","coordinates":[-102.192713,33.770506]}},{"properties":{"city":"Walnut Creek","geo_score":0.714,"id":"ad8x1bpdhdpp","geo_precision":"city","state":"CA"},"type":"Feature","geometry":{"type":"Point","coordinates":[-122.481647,38.517964]}},{"properties":{"city":"Hunt Valley","geo_score":0.714,"id":"ad8x1bvsz774","geo_precision":"city","state":"MD"},"type":"Feature","geometry":{"type":"Point","coordinates":[-76.39135,39.53344]}},{"properties":{"city":"Chino Hills","geo_score":0.714,"id":"ad8x1bv63rfd","geo_precision":"city","state":"CA"},"type":"Feature","geometry":{"type":"Point","coordinates":[-115.967051,34.839964]}},{"properties":{"city":"Saddle Brook","geo_score":0.714,"id":"ad8x1bn4tl43","geo_precision":"city","state":"NJ"},"type":"Feature","geometry":{"type":"Point","coordinates":[-74.092642,40.898988]}},{"properties":{"city":"Shreveport","geo_score":0.714,"id":"ad8x1bx1xiwm","geo_precision":"city","state":"LA"},"type":"Feature","geometry":{"type":"Point","coordinates":[-93.750228,32.498202]}},{"properties":{"city":"Phoenix","geo_score":0.0,"id":"ad8x1bs6rn3c","geo_precision":"unmatched","state":"AZ"},"type":"Feature","geometry":null},{"properties":{"city":"Weston","geo_score":0.714,"id":"ad8x1bz08rlx","geo_precision":"city","state":"MA"},"type":"Feature","geometry":{"type":"Point","coordinates":[-71.459405,42.446396]}},{"properties":{"city":"Orange","geo_score":0.714,"id":"ad8x1bntg2od","geo_precision":"city","state":"CA"},"type":"Feature","geometry":{"type":"Point","coordinates":[-117.853112,33.787795]}},{"properties":{"city":"Vestal","geo_score":0.714,"id":"ad8x1bp115j1","geo_precision":"city","state":"NY"},"type":"Feature","geometry":{"type":"Point","coordinates":[-76.027088,42.055476]}},{"properties":{"city":"Richardson","geo_score":0.714,"id":"ad8x1c0w9djv","geo_precision":"city","state":"TX"},"type":"Feature","geometry":{"type":"Point","coordinates":[-96.726826,32.962811]}},{"properties":{"city":"Roseland","geo_score":0.714,"id":"ad8x1bm760ng","geo_precision":"city","state":"NJ"},"type":"Feature","geometry":{"type":"Point","coordinates":[-74.306093,40.820499]}},{"properties":{"city":"Roseland","geo_score":0.714,"id":"ad8x1bp45ibq","geo_precision":"city","state":"NJ"},"type":"Feature","geometry":{"type":"Point","coordinates":[-74.306093,40.820499]}},{"properties":{"city":"Roseland","geo_score":0.714,"id":"ad8x1bn3i519","geo_precision":"city","state":"NJ"},"type":"Feature","geometry":{"type":"Point","coordinates":[-74.306093,40.820499]}},{"properties":{"city":"Denver","geo_score":0.714,"id":"ad8x1bnqh6gk","geo_precision":"city","state":"CO"},"type":"Feature","geometry":{"type":"Point","coordinates":[-104.856808,39.726303]}},{"properties":{"city":"CENTENNIAL","geo_score":0.714,"id":"ad8x1bn0ttn5","geo_precision":"city","state":"CO"},"type":"Feature","geometry":{"type":"Point","coordinates":[-104.876923,39.579155]}},{"properties":{"city":"GOLDEN","geo_score":0.714,"id":"ad8x1brghf7r","geo_precision":"city","state":"CO"},"type":"Feature","geometry":{"type":"Point","coordinates":[-104.500735,40.536158]}},{"properties":{"city":"CENTENNIAL","geo_score":0.714,"id":"ad8x1by4zk7v","geo_precision":"city","state":"CO"},"type":"Feature","geometry":{"type":"Point","coordinates":[-104.876923,39.579155]}},{"properties":{"city":"MIAMI","geo_score":0.714,"id":"ad8x1bxjj5ig","geo_precision":"city","state":"FL"},"type":"Feature","geometry":{"type":"Point","coordinates":[-80.193659,25.774266]}},{"properties":{"city":"ROSELAND","geo_score":0.714,"id":"ad8x1bn9hnc7","geo_precision":"city","state":"NJ"},"type":"Feature","geometry":{"type":"Point","coordinates":[-74.306093,40.820499]}},{"properties":{"city":"OVERLAND PARK","geo_score":0.714,"id":"ad8x1btrp364","geo_precision":"city","state":"KS"},"type":"Feature","geometry":{"type":"Point","coordinates":[-100.233439,39.063922]}},{"properties":{"city":"OVERLAND PARK","geo_score":0.714,"id":"ad8x1c10fsp6","geo_precision":"city","state":"KS"},"type":"Feature","geometry":{"type":"Point","coordinates":[-100.233439,39.063922]}},{"properties":{"city":"KANSAS CITY","geo_score":0.714,"id":"ad8x1bokav26","geo_precision":"city","state":"MO"},"type":"Feature","geometry":{"type":"Point","coordinates":[-94.598583,39.102404]}},{"properties":{"city":"KANSAS CITY","geo_score":0.714,"id":"ad8x1byj76ak","geo_precision":"city","state":"MO"},"type":"Feature","geometry":{"type":"Point","coordinates":[-94.598583,39.102404]}},{"properties":{"city":"NORTH ALBUQUERQUE","geo_score":0.714,"id":"ad8x1bpkfrjf","geo_precision":"city","state":"NM"},"type":"Feature","geometry":{"type":"Point","coordinates":[-106.651137,35.084491]}},{"properties":{"city":"PHOENIX","geo_score":0.0,"id":"ad8x1bx7s6v7","geo_precision":"unmatched","state":"AZ"},"type":"Feature","geometry":null},{"properties":{"city":"GILBERT","geo_score":0.714,"id":"ad8x1bt19t8z","geo_precision":"city","state":"AZ"},"type":"Feature","geometry":{"type":"Point","coordinates":[-111.815281,33.335401]}},{"properties":{"city":"PHOENIX","geo_score":0.0,"id":"ad8x1byed9ua","geo_precision":"unmatched","state":"AZ"},"type":"Feature","geometry":null},{"properties":{"city":"CHANDLER","geo_score":0.714,"id":"ad8x1bmhrndi","geo_precision":"city","state":"AZ"},"type":"Feature","geometry":{"type":"Point","coordinates":[-111.686171,33.212186]}},{"properties":{"city":"PHOENIX","geo_score":0.0,"id":"ad8x1bvars9o","geo_precision":"unmatched","state":"AZ"},"type":"Feature","geometry":null},{"properties":{"city":"SAN DIEGO","geo_score":0.714,"id":"ad8x1bvh4zwz","geo_precision":"city","state":"CA"},"type":"Feature","geometry":{"type":"Point","coordinates":[-117.174366,32.7211]}},{"properties":{"city":"CARLSBAD","geo_score":0.714,"id":"ad8x1bmk6i40","geo_precision":"city","state":"CA"},"type":"Feature","geometry":{"type":"Point","coordinates":[-116.846046,33.016928]}},{"properties":{"city":"BIRMINGHAM","geo_score":0.714,"id":"ad8x1bq2wf9f","geo_precision":"city","state":"AL"},"type":"Feature","geometry":{"type":"Point","coordinates":[-86.801904,33.456412]}},{"properties":{"city":"WALNUT CREEK","geo_score":0.714,"id":"ad8x1bz4a6zw","geo_precision":"city","state":"CA"},"type":"Feature","geometry":{"type":"Point","coordinates":[-122.481647,38.517964]}},{"properties":{"city":"Pleasanton","geo_score":0.714,"id":"ad8x1c06tr4h","geo_precision":"city","state":"CA"},"type":"Feature","geometry":{"type":"Point","coordinates":[-120.662985,38.68296]}},{"properties":{"city":"SAN FRANCISCO","geo_score":0.714,"id":"ad8x1blcnprs","geo_precision":"city","state":"CA"},"type":"Feature","geometry":{"type":"Point","coordinates":[-118.298662,33.786594]}},{"properties":{"city":"Elk Grove","geo_score":0.714,"id":"ad8x1bxe2a8z","geo_precision":"city","state":"CA"},"type":"Feature","geometry":{"type":"Point","coordinates":[-123.618031,39.076371]}},{"properties":{"city":"SAN RAMON","geo_score":0.714,"id":"ad8x1bz8wc1r","geo_precision":"city","state":"CA"},"type":"Feature","geometry":{"type":"Point","coordinates":[-116.976549,33.031572]}},{"properties":{"city":"SACRAMENTO","geo_score":0.714,"id":"ad8x1bq7njax","geo_precision":"city","state":"CA"},"type":"Feature","geometry":{"type":"Point","coordinates":[-121.555406,38.380456]}},{"properties":{"city":"Tucson","geo_score":0.714,"id":"ad8x1btwbufi","geo_precision":"city","state":"AZ"},"type":"Feature","geometry":{"type":"Point","coordinates":[-110.970869,32.217975]}}],"is_temporal":false,"author":{"url":"","metadata":"","contact_name":"","contact_address":"","source":"","contact_phone":""},"source":"","pagination":{"sort":null,"start":0,"total":271,"limit":1000000},"state":"complete","tags":"","published":"2014-08-16T23:34:47-04:00","id":338680}