{"type":"FeatureCollection","data_type":"Dataset","url_type":null,"permissions":[{"permissions":{"download":true,"view":true},"group_id":"everyone"}],"classification":null,"title":"Gages","count":98,"stream_id":340172,"contributor":{"url":"http://geocommons.com/users/68645","name":"canfheat"},"data_attributes":null,"calculation_params":null,"icon_link":null,"link":"http://geocommons.com/overlays/340172.json","extent":[-112.284,40.8416,-110.784,42.7291],"geometry_types":["point"],"unique_name":null,"name":"Gages","feature_count":98,"description":"Water Quality Stations Locations","next_feature":null,"is_raster":false,"short_classification":"Y","stats":{"USGS_HUC":{"max":16010204.0,"variance":2118.51083526194,"mean":16010173.6734694,"stdev":46.0272835963838,"min":16010101.0,"median":16010202.0},"LONGITUDE":{"max":-110.78406,"variance":0.199536541658247,"mean":-111.568813571429,"stdev":0.446695132789968,"min":-112.28413,"median":-111.69828},"LATITUDE":{"max":42.72909,"variance":0.202005033096907,"mean":41.8147028571429,"stdev":0.449449700296826,"min":40.84161,"median":41.74576},"ELEVATION":{"max":9120.0,"variance":4728886.19403405,"mean":5027.1737755102,"stdev":2174.60023775269,"min":0.0,"median":5371.0},"DRAINAGE_A":{"max":7029.0,"variance":2373760.46978915,"mean":727.506020408163,"stdev":1540.70129155173,"min":0.0,"median":52.4},"STATION":{"max":414500112000200,"variance":5.15105673587016e+27,"mean":12688788705996.0,"stdev":71770862722069.6,"min":10010400,"median":10087500}},"features":[{"properties":{"LAT_LONG_D":"NAD83","USGS_HUC":16010101.0,"LONGITUDE":-110.78406,"LATITUDE":40.87356,"STATION_TY":"Stream/River","STATE":"Utah","ELEVATION_":"NGVD29","ELEVATION":8760.0,"STATION_NA":"EAST FK BEAR RIVER NR EVANSTON, WYOMING","id":"adce6qc7zsjx","STATION":10010400,"DRAINAGE_A":34.6,"COUNTY":"Summit"},"type":"Feature","geometry":{"type":"Point","coordinates":[-110.784059999964,40.8735600007089]}},{"properties":{"LAT_LONG_D":"NAD83","USGS_HUC":16010101.0,"LONGITUDE":-110.82156,"LATITUDE":40.91661,"STATION_TY":"Stream/River","STATE":"Utah","ELEVATION_":"NGVD29","ELEVATION":8500.0,"STATION_NA":"HILLIARD-E FK CANAL NR ST LINE NR EVANSTON, WYO.","id":"adce6q5l9gi2","STATION":10010500,"DRAINAGE_A":0.0,"COUNTY":"Summit"},"type":"Feature","geometry":{"type":"Point","coordinates":[-110.821559999964,40.9166100007092]}},{"properties":{"LAT_LONG_D":"NAD83","USGS_HUC":16010101.0,"LONGITUDE":-110.92712,"LATITUDE":40.84161,"STATION_TY":"Stream/River","STATE":"Utah","ELEVATION_":"NGVD29","ELEVATION":9120.0,"STATION_NA":"WEST FORK BEAR RIVER AT WHITNEY DAM, NR OAKLEY, UT","id":"adce6qgy30jd","STATION":10011200,"DRAINAGE_A":6.79,"COUNTY":"Summit"},"type":"Feature","geometry":{"type":"Point","coordinates":[-110.927119999965,40.8416100007087]}},{"properties":{"LAT_LONG_D":"NAD83","USGS_HUC":16010101.0,"LONGITUDE":-110.86184,"LATITUDE":40.94439,"STATION_TY":"Stream/River","STATE":"Utah","ELEVATION_":"NGVD29","ELEVATION":8190.0,"STATION_NA":"WEST FK BEAR RIVER BL DEER CR NR EVANSTON, WYO","id":"adce6qdquw3c","STATION":10011400,"DRAINAGE_A":52.2,"COUNTY":"Summit"},"type":"Feature","geometry":{"type":"Point","coordinates":[-110.861839999965,40.9443900007094]}},{"properties":{"LAT_LONG_D":"NAD83","USGS_HUC":16010101.0,"LONGITUDE":-110.85351,"LATITUDE":40.96523,"STATION_TY":"Stream/River","STATE":"Utah","ELEVATION_":"NGVD29","ELEVATION":7965.0,"STATION_NA":"BEAR RIVER NEAR UTAH-WYOMING STATE LINE","id":"adce6qgllbz4","STATION":10011500,"DRAINAGE_A":59.1,"COUNTY":"Summit"},"type":"Feature","geometry":{"type":"Point","coordinates":[-110.853509999965,40.9652300007096]}},{"properties":{"LAT_LONG_D":"NAD83","USGS_HUC":16010101.0,"LONGITUDE":-110.8424,"LATITUDE":40.99161,"STATION_TY":"Stream/River","STATE":"Utah","ELEVATION_":"NGVD29","ELEVATION":7860.0,"STATION_NA":"MILL CREEK AT UTAH-WYOMING STATE LINE","id":"adce6q2wplp9","STATION":10012000,"DRAINAGE_A":59.0,"COUNTY":"Summit"},"type":"Feature","geometry":{"type":"Point","coordinates":[-110.842399999965,40.9916100007098]}},{"properties":{"LAT_LONG_D":"NAD83","USGS_HUC":16010101.0,"LONGITUDE":-110.85906,"LATITUDE":41.00828,"STATION_TY":"Stream/River","STATE":"Wyoming","ELEVATION_":"NGVD29","ELEVATION":7750.0,"STATION_NA":"MILL CREEK NR EVANSTON WYO","id":"adce6q9gqpx2","STATION":10012500,"DRAINAGE_A":60.6,"COUNTY":"Uinta"},"type":"Feature","geometry":{"type":"Point","coordinates":[-110.859059999965,41.0082800007099]}},{"properties":{"LAT_LONG_D":"NAD83","USGS_HUC":16010101.0,"LONGITUDE":-110.88073,"LATITUDE":41.16661,"STATION_TY":"Stream/River","STATE":"Wyoming","ELEVATION_":"NGVD29","ELEVATION":7130.0,"STATION_NA":"BEAR R AB SULPHUR CR NR EVANSTON WYO","id":"adce6q1dvngs","STATION":10014000,"DRAINAGE_A":282.0,"COUNTY":"Uinta"},"type":"Feature","geometry":{"type":"Point","coordinates":[-110.880729999965,41.166610000711]}},{"properties":{"LAT_LONG_D":"NAD83","USGS_HUC":16010101.0,"LONGITUDE":-110.80656,"LATITUDE":41.12911,"STATION_TY":"Stream/River","STATE":"Wyoming","ELEVATION_":"NGVD29","ELEVATION":7180.0,"STATION_NA":"SULPHUR CR.AB.RES.BL.LA CHAPELLE CR.NR EVANSTON,WY","id":"adce6q58c7th","STATION":10015700,"DRAINAGE_A":64.2,"COUNTY":"Uinta"},"type":"Feature","geometry":{"type":"Point","coordinates":[-110.806559999964,41.1291100007108]}},{"properties":{"LAT_LONG_D":"NAD83","USGS_HUC":16010101.0,"LONGITUDE":-110.85907,"LATITUDE":41.15828,"STATION_TY":"Stream/River","STATE":"Wyoming","ELEVATION_":"NGVD29","ELEVATION":7070.0,"STATION_NA":"SULPHUR CREEK NR EVANSTON WYO","id":"adce6qe7l224","STATION":10016000,"DRAINAGE_A":80.5,"COUNTY":"Uinta"},"type":"Feature","geometry":{"type":"Point","coordinates":[-110.859069999965,41.158280000711]}},{"properties":{"LAT_LONG_D":"NAD83","USGS_HUC":16010101.0,"LONGITUDE":-110.96379,"LATITUDE":41.27022,"STATION_TY":"Stream/River","STATE":"Wyoming","ELEVATION_":"NGVD29","ELEVATION":6730.0,"STATION_NA":"BEAR RIVER AT EVANSTON, WY","id":"adce6q759rss","STATION":10016900,"DRAINAGE_A":443.0,"COUNTY":"Uinta"},"type":"Feature","geometry":{"type":"Point","coordinates":[-110.963789999965,41.2702200007118]}},{"properties":{"LAT_LONG_D":"NAD83","USGS_HUC":16010101.0,"LONGITUDE":-111.05352,"LATITUDE":41.14411,"STATION_TY":"Stream/River","STATE":"Utah","ELEVATION_":"NGVD29","ELEVATION":6920.0,"STATION_NA":"YELLOW CREEK NEAR EVANSTON, WYOMING","id":"adce6q4t9ute","STATION":10017000,"DRAINAGE_A":79.2,"COUNTY":"Summit"},"type":"Feature","geometry":{"type":"Point","coordinates":[-111.053519999966,41.1441100007109]}},{"properties":{"LAT_LONG_D":"NAD83","USGS_HUC":16010101.0,"LONGITUDE":-111.0413,"LATITUDE":41.40661,"STATION_TY":"Stream/River","STATE":"Wyoming","ELEVATION_":"NGVD29","ELEVATION":6570.0,"STATION_NA":"CHAPMAN CANAL AT STATE LINE NEAR EVANSTON, WYO","id":"adce6qea0y1b","STATION":10019500,"DRAINAGE_A":0.01,"COUNTY":"Uinta"},"type":"Feature","geometry":{"type":"Point","coordinates":[-111.041299999966,41.4066100007127]}},{"properties":{"LAT_LONG_D":"NAD83","USGS_HUC":16010101.0,"LONGITUDE":-111.01769,"LATITUDE":41.43439,"STATION_TY":"Stream/River","STATE":"Wyoming","ELEVATION_":"NGVD29","ELEVATION":6455.0,"STATION_NA":"BEAR RIVER ABOVE RESERVOIR, NEAR WOODRUFF, UT","id":"adce6qc6q7y4","STATION":10020100,"DRAINAGE_A":754.9,"COUNTY":"Uinta"},"type":"Feature","geometry":{"type":"Point","coordinates":[-111.017689999966,41.4343900007129]}},{"properties":{"LAT_LONG_D":"NAD83","USGS_HUC":16010101.0,"LONGITUDE":-111.01463,"LATITUDE":41.5055,"STATION_TY":"Stream/River","STATE":"Wyoming","ELEVATION_":"NGVD29","ELEVATION":6400.0,"STATION_NA":"BEAR RIVER BELOW RESERVOIR, NEAR WOODRUFF, UT","id":"adce6q6oy4iv","STATION":10020300,"DRAINAGE_A":784.0,"COUNTY":"Uinta"},"type":"Feature","geometry":{"type":"Point","coordinates":[-111.014629999966,41.5055000007134]}},{"properties":{"LAT_LONG_D":"NAD83","USGS_HUC":16010101.0,"LONGITUDE":-111.04797,"LATITUDE":41.52356,"STATION_TY":"Stream/River","STATE":"Wyoming","ELEVATION_":"NGVD29","ELEVATION":6360.0,"STATION_NA":"BEAR RIVER NEAR WOODRUFF, UTAH","id":"adce6q2qpuys","STATION":10020500,"DRAINAGE_A":870.0,"COUNTY":"Uinta"},"type":"Feature","geometry":{"type":"Point","coordinates":[-111.047969999966,41.5235600007135]}},{"properties":{"LAT_LONG_D":"NAD83","USGS_HUC":16010101.0,"LONGITUDE":-111.31575,"LATITUDE":41.468,"STATION_TY":"Stream/River","STATE":"Utah","ELEVATION_":"NGVD29","ELEVATION":6770.0,"STATION_NA":"WOODRUFF CREEK BELOW RESERVOIR NR WOODRUFF, UTAH","id":"adce6qelzdqk","STATION":10020900,"DRAINAGE_A":50.0,"COUNTY":"Rich"},"type":"Feature","geometry":{"type":"Point","coordinates":[-111.315749999967,41.4680000007132]}},{"properties":{"LAT_LONG_D":"NAD83","USGS_HUC":16010101.0,"LONGITUDE":-111.26686,"LATITUDE":41.48189,"STATION_TY":"Stream/River","STATE":"Utah","ELEVATION_":"NGVD29","ELEVATION":6600.0,"STATION_NA":"WOODRUFF CREEK NEAR WOODRUFF, UTAH","id":"adce6q6a8un6","STATION":10021000,"DRAINAGE_A":56.8,"COUNTY":"Rich"},"type":"Feature","geometry":{"type":"Point","coordinates":[-111.266859999967,41.4818900007132]}},{"properties":{"LAT_LONG_D":"NAD83","USGS_HUC":16010101.0,"LONGITUDE":-111.25409,"LATITUDE":41.60994,"STATION_TY":"Stream/River","STATE":"Utah","ELEVATION_":"NGVD29","ELEVATION":6410.0,"STATION_NA":"BIG CREEK NEAR RANDOLPH, UT","id":"adce6qav7fcn","STATION":10023000,"DRAINAGE_A":52.4,"COUNTY":"Rich"},"type":"Feature","geometry":{"type":"Point","coordinates":[-111.254089999967,41.6099400007141]}},{"properties":{"LAT_LONG_D":"NAD83","USGS_HUC":16010101.0,"LONGITUDE":-111.07297,"LATITUDE":41.8005,"STATION_TY":"Stream/River","STATE":"Utah","ELEVATION_":"NGVD29","ELEVATION":6200.0,"STATION_NA":"BEAR RIVER NEAR RANDOLPH, UTAH","id":"adce6qgpgjrw","STATION":10026500,"DRAINAGE_A":1616.0,"COUNTY":"Rich"},"type":"Feature","geometry":{"type":"Point","coordinates":[-111.072969999966,41.8005000007154]}},{"properties":{"LAT_LONG_D":"NAD83","USGS_HUC":16010102.0,"LONGITUDE":-110.98547,"LATITUDE":41.93883,"STATION_TY":"Stream/River","STATE":"Wyoming","ELEVATION_":"NGVD29","ELEVATION":6185.0,"STATION_NA":"BEAR RIVER BELOW PIXLEY DAM, NEAR COKEVILLE, WY","id":"adce6qfnflz9","STATION":10028500,"DRAINAGE_A":2032.0,"COUNTY":"Lincoln"},"type":"Feature","geometry":{"type":"Point","coordinates":[-110.985469999965,41.9388300007163]}},{"properties":{"LAT_LONG_D":"NAD83","USGS_HUC":16010102.0,"LONGITUDE":-110.87241,"LATITUDE":42.29327,"STATION_TY":"Stream/River","STATE":"Wyoming","ELEVATION_":"NGVD29","ELEVATION":6650.0,"STATION_NA":"SMITHS FORK NEAR BORDER, WY","id":"adce6q5g0elj","STATION":10032000,"DRAINAGE_A":165.0,"COUNTY":"Lincoln"},"type":"Feature","geometry":{"type":"Point","coordinates":[-110.872409999965,42.2932700007186]}},{"properties":{"LAT_LONG_D":"NAD83","USGS_HUC":16010102.0,"LONGITUDE":-110.97324,"LATITUDE":42.1266,"STATION_TY":"Stream/River","STATE":"Wyoming","ELEVATION_":"NGVD29","ELEVATION":6140.0,"STATION_NA":"BEAR RIVER BLW SMITHS FORK, NR COKEVILLE, WY","id":"adce6qeper88","STATION":10038000,"DRAINAGE_A":2447.0,"COUNTY":"Lincoln"},"type":"Feature","geometry":{"type":"Point","coordinates":[-110.973239999965,42.1266000007176]}},{"properties":{"LAT_LONG_D":"NAD83","USGS_HUC":16010102.0,"LONGITUDE":-111.0538,"LATITUDE":42.21104,"STATION_TY":"Stream/River","STATE":"Idaho","ELEVATION_":"NGVD29","ELEVATION":6051.63,"STATION_NA":"BEAR RIVER AT BORDER, WY","id":"adce6qcy9i5i","STATION":10039500,"DRAINAGE_A":2480.0,"COUNTY":"Bear Lake"},"type":"Feature","geometry":{"type":"Point","coordinates":[-111.053799999966,42.2110400007181]}},{"properties":{"LAT_LONG_D":"NAD83","USGS_HUC":16010102.0,"LONGITUDE":-110.98408,"LATITUDE":42.3916,"STATION_TY":"Stream/River","STATE":"Wyoming","ELEVATION_":"NGVD29","ELEVATION":6400.0,"STATION_NA":"THOMAS FORK NEAR GENEVA, IDAHO","id":"adce6q76nkm2","STATION":10040000,"DRAINAGE_A":45.3,"COUNTY":"Lincoln"},"type":"Feature","geometry":{"type":"Point","coordinates":[-110.984079999965,42.3916000007193]}},{"properties":{"LAT_LONG_D":"NAD83","USGS_HUC":16010102.0,"LONGITUDE":-110.99241,"LATITUDE":42.39993,"STATION_TY":"Stream/River","STATE":"Wyoming","ELEVATION_":"NGVD29","ELEVATION":6350.0,"STATION_NA":"SALT CREEK NEAR GENEVA, IDAHO","id":"adce6qg7hw31","STATION":10040500,"DRAINAGE_A":37.6,"COUNTY":"Lincoln"},"type":"Feature","geometry":{"type":"Point","coordinates":[-110.992409999965,42.3999300007193]}},{"properties":{"LAT_LONG_D":"NAD83","USGS_HUC":16010102.0,"LONGITUDE":-111.02575,"LATITUDE":42.40271,"STATION_TY":"Stream/River","STATE":"Wyoming","ELEVATION_":"NGVD29","ELEVATION":6280.0,"STATION_NA":"THOMAS FORK NEAR WYOMING-IDAHO STATE LINE","id":"adce6qheghc1","STATION":10041000,"DRAINAGE_A":113.0,"COUNTY":"Lincoln"},"type":"Feature","geometry":{"type":"Point","coordinates":[-111.025749999966,42.4027100007193]}},{"properties":{"LAT_LONG_D":"NAD83","USGS_HUC":16010102.0,"LONGITUDE":-111.16881,"LATITUDE":42.19715,"STATION_TY":"Stream/River","STATE":"Idaho","ELEVATION_":"NGVD29","ELEVATION":6000.0,"STATION_NA":"BEAR RIVER AT HARER, ID","id":"adce6qhfgwee","STATION":10044000,"DRAINAGE_A":2830.0,"COUNTY":"Bear Lake"},"type":"Feature","geometry":{"type":"Point","coordinates":[-111.168809999966,42.197150000718]}},{"properties":{"LAT_LONG_D":"NAD83","USGS_HUC":16010201.0,"LONGITUDE":-111.26965,"LATITUDE":42.20549,"STATION_TY":"Stream/River","STATE":"Idaho","ELEVATION_":"NGVD29","ELEVATION":5950.0,"STATION_NA":"DINGLE INLET CANAL NEAR DINGLE, ID","id":"adce6q4dlx7z","STATION":10044300,"DRAINAGE_A":0.0,"COUNTY":"Bear Lake"},"type":"Feature","geometry":{"type":"Point","coordinates":[-111.269649999967,42.2054900007181]}},{"properties":{"LAT_LONG_D":"NAD83","USGS_HUC":16010201.0,"LONGITUDE":-111.29604,"LATITUDE":42.22993,"STATION_TY":"Stream/River","STATE":"Idaho","ELEVATION_":"NGVD29","ELEVATION":5922.0,"STATION_NA":"RAINBOW INLET CANAL NEAR DINGLE, ID","id":"adce6qh0lcnv","STATION":10046000,"DRAINAGE_A":0.01,"COUNTY":"Bear Lake"},"type":"Feature","geometry":{"type":"Point","coordinates":[-111.296039999967,42.2299300007182]}},{"properties":{"LAT_LONG_D":"NAD83","USGS_HUC":16010201.0,"LONGITUDE":-111.29381,"LATITUDE":42.25382,"STATION_TY":"Stream/River","STATE":"Idaho","ELEVATION_":"NGVD29","ELEVATION":5950.0,"STATION_NA":"BEAR RIVER BL STEWART DAM NR MONTPELIER, ID","id":"adce6q2mlcan","STATION":10046500,"DRAINAGE_A":2853.0,"COUNTY":"Bear Lake"},"type":"Feature","geometry":{"type":"Point","coordinates":[-111.293809999967,42.2538200007184]}},{"properties":{"LAT_LONG_D":"NAD83","USGS_HUC":16010201.0,"LONGITUDE":-111.18409,"LATITUDE":42.34993,"STATION_TY":"Stream/River","STATE":"Idaho","ELEVATION_":"NGVD29","ELEVATION":6427.46,"STATION_NA":"MONTPELIER CREEK NEAR MONTPELIER, ID","id":"adce6q8fnkhw","STATION":10047000,"DRAINAGE_A":28.2,"COUNTY":"Bear Lake"},"type":"Feature","geometry":{"type":"Point","coordinates":[-111.184089999967,42.349930000719]}},{"properties":{"LAT_LONG_D":"NAD83","USGS_HUC":16010201.0,"LONGITUDE":-111.23742,"LATITUDE":42.32965,"STATION_TY":"Stream/River","STATE":"Idaho","ELEVATION_":"NGVD29","ELEVATION":6210.0,"STATION_NA":"MONTPELIER CR AT IRRIG. WEIR, NR MONTPELIER, ID","id":"adce6q9ctygg","STATION":10047500,"DRAINAGE_A":49.5,"COUNTY":"Bear Lake"},"type":"Feature","geometry":{"type":"Point","coordinates":[-111.237419999967,42.3296500007189]}},{"properties":{"LAT_LONG_D":"NAD83","USGS_HUC":16010201.0,"LONGITUDE":-111.4591,"LATITUDE":42.10965,"STATION_TY":"Stream/River","STATE":"Idaho","ELEVATION_":"NGVD29","ELEVATION":6220.0,"STATION_NA":"ST. CHARLES CREEK ABV DIV NEAR ST. CHARLES, ID","id":"adce6qfnbtm6","STATION":10054600,"DRAINAGE_A":17.4,"COUNTY":"Bear Lake"},"type":"Feature","geometry":{"type":"Point","coordinates":[-111.459099999968,42.1096500007174]}},{"properties":{"LAT_LONG_D":"NAD83","USGS_HUC":16010201.0,"LONGITUDE":-111.42576,"LATITUDE":42.18465,"STATION_TY":"Stream/River","STATE":"Idaho","ELEVATION_":"NGVD29","ELEVATION":6070.0,"STATION_NA":"BLOOMINGTON CREEK AT BLOOMINGTON, ID","id":"adce6qfjsybb","STATION":10058600,"DRAINAGE_A":24.0,"COUNTY":"Bear Lake"},"type":"Feature","geometry":{"type":"Point","coordinates":[-111.425759999968,42.1846500007179]}},{"properties":{"LAT_LONG_D":"NAD83","USGS_HUC":16010201.0,"LONGITUDE":-111.34382,"LATITUDE":42.21659,"STATION_TY":"Stream/River","STATE":"Idaho","ELEVATION_":"NGVD29","ELEVATION":5912.6,"STATION_NA":"BEAR LAKE OUTLET CANAL NEAR PARIS, ID","id":"adce6qf5q3rz","STATION":10059500,"DRAINAGE_A":0.01,"COUNTY":"Bear Lake"},"type":"Feature","geometry":{"type":"Point","coordinates":[-111.343819999968,42.2165900007181]}},{"properties":{"LAT_LONG_D":"NAD83","USGS_HUC":16010201.0,"LONGITUDE":-111.4841,"LATITUDE":42.36659,"STATION_TY":"Stream/River","STATE":"Idaho","ELEVATION_":"NGVD29","ELEVATION":6290.0,"STATION_NA":"MILL CREEK NEAR LIBERTY, ID","id":"adce6q9xhp14","STATION":10063000,"DRAINAGE_A":27.2,"COUNTY":"Bear Lake"},"type":"Feature","geometry":{"type":"Point","coordinates":[-111.484099999968,42.3665900007191]}},{"properties":{"LAT_LONG_D":"NAD83","USGS_HUC":16010201.0,"LONGITUDE":-111.35688,"LATITUDE":42.40159,"STATION_TY":"Stream/River","STATE":"Idaho","ELEVATION_":"NGVD29","ELEVATION":5950.0,"STATION_NA":"BEAR RIVER AT PESCADERO, ID","id":"adce6q3v1aoo","STATION":10068500,"DRAINAGE_A":3705.0,"COUNTY":"Bear Lake"},"type":"Feature","geometry":{"type":"Point","coordinates":[-111.356879999968,42.4015900007193]}},{"properties":{"LAT_LONG_D":"NAD83","USGS_HUC":16010201.0,"LONGITUDE":-111.31465,"LATITUDE":42.49576,"STATION_TY":"Stream/River","STATE":"Idaho","ELEVATION_":"NGVD29","ELEVATION":6350.0,"STATION_NA":"GEORGETOWN CREEK NEAR GEORGETOWN, ID","id":"adce6q4e7q9l","STATION":10069000,"DRAINAGE_A":22.2,"COUNTY":"Bear Lake"},"type":"Feature","geometry":{"type":"Point","coordinates":[-111.314649999967,42.4957600007199]}},{"properties":{"LAT_LONG_D":"NAD83","USGS_HUC":16010202.0,"LONGITUDE":-111.46744,"LATITUDE":42.48326,"STATION_TY":"Stream/River","STATE":"Idaho","ELEVATION_":"NGVD29","ELEVATION":6100.0,"STATION_NA":"SKINNER CREEK NEAR NOUNAN, ID","id":"adce6qfj6s0g","STATION":10071500,"DRAINAGE_A":5.41,"COUNTY":"Bear Lake"},"type":"Feature","geometry":{"type":"Point","coordinates":[-111.467439999968,42.4832600007198]}},{"properties":{"LAT_LONG_D":"NAD83","USGS_HUC":16010202.0,"LONGITUDE":-111.41743,"LATITUDE":42.46659,"STATION_TY":"Stream/River","STATE":"Idaho","ELEVATION_":"NGVD29","ELEVATION":5900.0,"STATION_NA":"STAUFFER CREEK NEAR NOUNAN, ID","id":"adce6q7r49t2","STATION":10072000,"DRAINAGE_A":0.0,"COUNTY":"Bear Lake"},"type":"Feature","geometry":{"type":"Point","coordinates":[-111.417429999968,42.4665900007197]}},{"properties":{"LAT_LONG_D":"NAD83","USGS_HUC":16010201.0,"LONGITUDE":-111.573,"LATITUDE":42.53742,"STATION_TY":"Stream/River","STATE":"Idaho","ELEVATION_":"NGVD29","ELEVATION":6170.0,"STATION_NA":"EIGHTMILE CREEK NEAR SODA SPRINGS, ID","id":"adce6q1jgzs0","STATION":10072800,"DRAINAGE_A":22.6,"COUNTY":"Bear Lake"},"type":"Feature","geometry":{"type":"Point","coordinates":[-111.572999999969,42.5374200007201]}},{"properties":{"LAT_LONG_D":"NAD83","USGS_HUC":16010201.0,"LONGITUDE":-111.58356,"LATITUDE":42.61381,"STATION_TY":"Stream/River","STATE":"Idaho","ELEVATION_":"NGVD29","ELEVATION":5760.0,"STATION_NA":"BEAR RIVER AT SODA SPRINGS, ID","id":"adce6q5hhqj6","STATION":10075000,"DRAINAGE_A":3970.0,"COUNTY":"Caribou"},"type":"Feature","geometry":{"type":"Point","coordinates":[-111.583559999969,42.6138100007206]}},{"properties":{"LAT_LONG_D":"NAD83","USGS_HUC":16010201.0,"LONGITUDE":-111.61606,"LATITUDE":42.72909,"STATION_TY":"Stream/River","STATE":"Idaho","ELEVATION_":"NGVD29","ELEVATION":5980.0,"STATION_NA":"SODA CRK @ FIVEMILE MEADOWS NR SODA SPRINGS, ID","id":"adce6qg6eb7q","STATION":10076400,"DRAINAGE_A":51.7,"COUNTY":"Caribou"},"type":"Feature","geometry":{"type":"Point","coordinates":[-111.616059999969,42.7290900007213]}},{"properties":{"LAT_LONG_D":"NAD83","USGS_HUC":16010202.0,"LONGITUDE":-111.69828,"LATITUDE":42.64492,"STATION_TY":"Stream/River","STATE":"Idaho","ELEVATION_":"NGVD29","ELEVATION":5630.0,"STATION_NA":"BEAR RIVER AT ALEXANDER, ID","id":"adce6q4qr7pr","STATION":10079500,"DRAINAGE_A":4092.6,"COUNTY":"Caribou"},"type":"Feature","geometry":{"type":"Point","coordinates":[-111.69827999997,42.6449200007208]}},{"properties":{"LAT_LONG_D":"NAD83","USGS_HUC":16010202.0,"LONGITUDE":-111.73162,"LATITUDE":42.58631,"STATION_TY":"Stream/River","STATE":"Idaho","ELEVATION_":null,"ELEVATION":0.0,"STATION_NA":"BEAR RIVER BELOW GRACE DAM, NEAR GRACE, ID","id":"adce6qcmrndy","STATION":10080000,"DRAINAGE_A":4110.0,"COUNTY":"Caribou"},"type":"Feature","geometry":{"type":"Point","coordinates":[-111.73161999997,42.5863100007204]}},{"properties":{"LAT_LONG_D":"NAD83","USGS_HUC":16010202.0,"LONGITUDE":-111.91746,"LATITUDE":42.38325,"STATION_TY":"Stream/River","STATE":"Idaho","ELEVATION_":"NGVD29","ELEVATION":5950.0,"STATION_NA":"COTTONWOOD CREEK NEAR SWAN LAKE, ID","id":"adce6q9r2pmc","STATION":10084000,"DRAINAGE_A":42.6,"COUNTY":"Franklin"},"type":"Feature","geometry":{"type":"Point","coordinates":[-111.917459999971,42.3832500007191]}},{"properties":{"LAT_LONG_D":"NAD83","USGS_HUC":16010202.0,"LONGITUDE":-111.77495,"LATITUDE":42.33242,"STATION_TY":"Stream/River","STATE":"Idaho","ELEVATION_":"NGVD29","ELEVATION":5150.0,"STATION_NA":"COTTONWOOD CREEK NEAR CLEVELAND, ID","id":"adce6qfuq6vd","STATION":10084500,"DRAINAGE_A":61.7,"COUNTY":"Franklin"},"type":"Feature","geometry":{"type":"Point","coordinates":[-111.77494999997,42.3324200007188]}},{"properties":{"LAT_LONG_D":"NAD83","USGS_HUC":16010202.0,"LONGITUDE":-111.75189,"LATITUDE":42.26659,"STATION_TY":"Stream/River","STATE":"Idaho","ELEVATION_":"NGVD29","ELEVATION":4760.0,"STATION_NA":"BEAR RIVER BELOW UP&amp;L CO. TAILRACE, AT ONEIDA, ID","id":"adce6qg049e5","STATION":10086500,"DRAINAGE_A":4456.0,"COUNTY":"Franklin"},"type":"Feature","geometry":{"type":"Point","coordinates":[-111.75188999997,42.2665900007184]}},{"properties":{"LAT_LONG_D":"NAD83","USGS_HUC":16010202.0,"LONGITUDE":-111.67578,"LATITUDE":42.25826,"STATION_TY":"Stream/River","STATE":"Idaho","ELEVATION_":"NGVD29","ELEVATION":5300.0,"STATION_NA":"MINK CREEK BELOW DRY FORK, NEAR MINK CREEK, ID","id":"adce6qficped","STATION":10087500,"DRAINAGE_A":19.3,"COUNTY":"Franklin"},"type":"Feature","geometry":{"type":"Point","coordinates":[-111.67577999997,42.2582600007184]}},{"properties":{"LAT_LONG_D":"NAD83","USGS_HUC":16010202.0,"LONGITUDE":-111.85051,"LATITUDE":42.16798,"STATION_TY":"Stream/River","STATE":"Idaho","ELEVATION_":"NGVD29","ELEVATION":4524.8,"STATION_NA":"BEAR RIVER NEAR PRESTON, ID","id":"adce6qd9odh9","STATION":10090500,"DRAINAGE_A":4545.0,"COUNTY":"Franklin"},"type":"Feature","geometry":{"type":"Point","coordinates":[-111.850509999971,42.1679800007177]}},{"properties":{"LAT_LONG_D":"NAD83","USGS_HUC":16010202.0,"LONGITUDE":-111.92134,"LATITUDE":42.01298,"STATION_TY":"Stream/River","STATE":"Idaho","ELEVATION_":"NGVD29","ELEVATION":4420.0,"STATION_NA":"BEAR RIVER AT IDAHO-UTAH STATE LINE","id":"adce6q7gxlbm","STATION":10092700,"DRAINAGE_A":4884.4,"COUNTY":"Franklin"},"type":"Feature","geometry":{"type":"Point","coordinates":[-111.921339999971,42.0129800007167]}},{"properties":{"LAT_LONG_D":"NAD83","USGS_HUC":16010202.0,"LONGITUDE":-111.68939,"LATITUDE":42.14104,"STATION_TY":"Stream/River","STATE":"Idaho","ELEVATION_":"NGVD29","ELEVATION":5285.1,"STATION_NA":"CUB RIVER NEAR PRESTON, ID","id":"adce6q5z54co","STATION":10093000,"DRAINAGE_A":31.6,"COUNTY":"Franklin"},"type":"Feature","geometry":{"type":"Point","coordinates":[-111.68938999997,42.1410400007176]}},{"properties":{"LAT_LONG_D":"NAD83","USGS_HUC":16010202.0,"LONGITUDE":-111.86745,"LATITUDE":41.99576,"STATION_TY":"Stream/River","STATE":"Utah","ELEVATION_":null,"ELEVATION":0.0,"STATION_NA":"EAST BR CUB R CANAL N LEWISTON UT","id":"adce6q4mi0q2","STATION":10095900,"DRAINAGE_A":0.0,"COUNTY":"Cache"},"type":"Feature","geometry":{"type":"Point","coordinates":[-111.867449999971,41.9957600007166]}},{"properties":{"LAT_LONG_D":"NAD83","USGS_HUC":16010202.0,"LONGITUDE":-111.74522,"LATITUDE":41.97771,"STATION_TY":"Stream/River","STATE":"Utah","ELEVATION_":"NGVD29","ELEVATION":5250.0,"STATION_NA":"HIGH CREEK NEAR RICHMOND, UTAH","id":"adce6qggsdy0","STATION":10099000,"DRAINAGE_A":16.2,"COUNTY":"Cache"},"type":"Feature","geometry":{"type":"Point","coordinates":[-111.74521999997,41.9777100007165]}},{"properties":{"LAT_LONG_D":"NAD83","USGS_HUC":16010202.0,"LONGITUDE":-111.85356,"LATITUDE":41.92632,"STATION_TY":"Stream/River","STATE":"Utah","ELEVATION_":"NGVD29","ELEVATION":4460.0,"STATION_NA":"CUB R NR RICHMOND UTAH","id":"adce6qfcqqlh","STATION":10102200,"DRAINAGE_A":200.0,"COUNTY":"Cache"},"type":"Feature","geometry":{"type":"Point","coordinates":[-111.853559999971,41.9263200007162]}},{"properties":{"LAT_LONG_D":"NAD83","USGS_HUC":16010202.0,"LONGITUDE":-111.88161,"LATITUDE":41.83993,"STATION_TY":"Stream/River","STATE":"Utah","ELEVATION_":"NGVD29","ELEVATION":4399.89,"STATION_NA":"BEAR RIVER NEAR SMITHFIELD, UT","id":"adce6q6t596k","STATION":10102250,"DRAINAGE_A":5193.0,"COUNTY":"Cache"},"type":"Feature","geometry":{"type":"Point","coordinates":[-111.881609999971,41.8399300007156]}},{"properties":{"LAT_LONG_D":"NAD83","USGS_HUC":16010202.0,"LONGITUDE":-111.75911,"LATITUDE":41.86937,"STATION_TY":"Stream/River","STATE":"Utah","ELEVATION_":"NGVD29","ELEVATION":5371.0,"STATION_NA":"SUMMIT CREEK ABV DIVERSIONS NR SMITHFIELD, UTAH","id":"adce6q99vko6","STATION":10102300,"DRAINAGE_A":11.6,"COUNTY":"Cache"},"type":"Feature","geometry":{"type":"Point","coordinates":[-111.75910999997,41.8693700007158]}},{"properties":{"LAT_LONG_D":"NAD83","USGS_HUC":16010202.0,"LONGITUDE":-111.81383,"LATITUDE":41.84326,"STATION_TY":"Stream/River","STATE":"Utah","ELEVATION_":"NGVD29","ELEVATION":4720.0,"STATION_NA":"LOGAN,HYDE PK,&amp; SMITHFIELD CNL.NR. SMITHFIELD,UT","id":"adce6q76s15n","STATION":10103010,"DRAINAGE_A":101.0,"COUNTY":"Cache"},"type":"Feature","geometry":{"type":"Point","coordinates":[-111.81382999997,41.8432600007156]}},{"properties":{"LAT_LONG_D":"NAD83","USGS_HUC":16010203.0,"LONGITUDE":-111.81661,"LATITUDE":41.50021,"STATION_TY":"Stream/River","STATE":"Utah","ELEVATION_":"NGVD29","ELEVATION":5090.0,"STATION_NA":"SOUTH FORK LITTLE BEAR RIVER NEAR AVON, UTAH","id":"adce6qc5bmz5","STATION":10104600,"DRAINAGE_A":26.0,"COUNTY":"Cache"},"type":"Feature","geometry":{"type":"Point","coordinates":[-111.81660999997,41.5002100007133]}},{"properties":{"LAT_LONG_D":"NAD83","USGS_HUC":16010203.0,"LONGITUDE":-111.81189,"LATITUDE":41.51244,"STATION_TY":"Stream/River","STATE":"Utah","ELEVATION_":"NGVD29","ELEVATION":5020.0,"STATION_NA":"LITTLE BEAR R BL DAVENPORT C NR AVON UT","id":"adce6q74u0fj","STATION":10104700,"DRAINAGE_A":61.6,"COUNTY":"Cache"},"type":"Feature","geometry":{"type":"Point","coordinates":[-111.81188999997,41.5124400007134]}},{"properties":{"LAT_LONG_D":"NAD83","USGS_HUC":16010203.0,"LONGITUDE":-111.71438,"LATITUDE":41.51827,"STATION_TY":"Stream/River","STATE":"Utah","ELEVATION_":"NGVD29","ELEVATION":5390.0,"STATION_NA":"EAST FK LT BEAR RIV AB RESV NR AVON UTAH","id":"adce6qdf3y6f","STATION":10104900,"DRAINAGE_A":56.7,"COUNTY":"Cache"},"type":"Feature","geometry":{"type":"Point","coordinates":[-111.71437999997,41.5182700007134]}},{"properties":{"LAT_LONG_D":"NAD83","USGS_HUC":16010203.0,"LONGITUDE":-111.75077,"LATITUDE":41.5166,"STATION_TY":"Stream/River","STATE":"Utah","ELEVATION_":"NGVD29","ELEVATION":5250.0,"STATION_NA":"EAST FORK LITTLE BEAR R NR AVON UTAH","id":"adce6q81xul9","STATION":10105000,"DRAINAGE_A":63.8,"COUNTY":"Cache"},"type":"Feature","geometry":{"type":"Point","coordinates":[-111.75076999997,41.5166000007134]}},{"properties":{"LAT_LONG_D":"NAD83","USGS_HUC":16010203.0,"LONGITUDE":-111.85522,"LATITUDE":41.57549,"STATION_TY":"Stream/River","STATE":"Utah","ELEVATION_":"NGVD29","ELEVATION":4740.0,"STATION_NA":"LITTLE BEAR RIVER AT PARADISE, UT","id":"adce6q4dldbb","STATION":10105900,"DRAINAGE_A":182.0,"COUNTY":"Cache"},"type":"Feature","geometry":{"type":"Point","coordinates":[-111.85521999997,41.5754900007138]}},{"properties":{"LAT_LONG_D":"NAD83","USGS_HUC":16010203.0,"LONGITUDE":-111.85355,"LATITUDE":41.59021,"STATION_TY":"Stream/River","STATE":"Utah","ELEVATION_":"NGVD29","ELEVATION":4680.0,"STATION_NA":"LITTLE BEAR RIVER NEAR PARADISE, UTAH","id":"adce6q805htl","STATION":10106000,"DRAINAGE_A":198.0,"COUNTY":"Cache"},"type":"Feature","geometry":{"type":"Point","coordinates":[-111.85354999997,41.5902100007139]}},{"properties":{"LAT_LONG_D":"NAD83","USGS_HUC":16010203.0,"LONGITUDE":-111.88411,"LATITUDE":41.63327,"STATION_TY":"Stream/River","STATE":"Utah","ELEVATION_":"NGVD29","ELEVATION":4520.0,"STATION_NA":"LITTLE BEAR RIVER NEAR HYRUM, UTAH","id":"adce6qdcd1up","STATION":10107500,"DRAINAGE_A":218.0,"COUNTY":"Cache"},"type":"Feature","geometry":{"type":"Point","coordinates":[-111.884109999971,41.6332700007142]}},{"properties":{"LAT_LONG_D":"NAD83","USGS_HUC":16010203.0,"LONGITUDE":-111.92356,"LATITUDE":41.64743,"STATION_TY":"Stream/River","STATE":"Utah","ELEVATION_":"NGVD29","ELEVATION":4465.0,"STATION_NA":"LITTLE BEAR RIV AT WELLSVILLE UTAH","id":"adce6q8pe2yt","STATION":10107600,"DRAINAGE_A":245.0,"COUNTY":"Cache"},"type":"Feature","geometry":{"type":"Point","coordinates":[-111.923559999971,41.6474300007143]}},{"properties":{"LAT_LONG_D":"NAD83","USGS_HUC":16010203.0,"LONGITUDE":-111.78411,"LATITUDE":41.74438,"STATION_TY":"Stream/River","STATE":"Utah","ELEVATION_":"NGVD29","ELEVATION":4680.0,"STATION_NA":"UTAH POWER AND LIGHT TAILRACE NR LOGAN UTAH","id":"adce6qf86x7e","STATION":10108000,"DRAINAGE_A":0.0,"COUNTY":"Cache"},"type":"Feature","geometry":{"type":"Point","coordinates":[-111.78410999997,41.744380000715]}},{"properties":{"LAT_LONG_D":"NAD83","USGS_HUC":16010203.0,"LONGITUDE":-111.76189,"LATITUDE":41.74299,"STATION_TY":"Stream/River","STATE":"Utah","ELEVATION_":"NGVD29","ELEVATION":4857.66,"STATION_NA":"LOGAN,HYD PK &amp; SMTHFLD CANAL AT HEAD, NR LOGAN, UT","id":"adce6q1r260e","STATION":10108400,"DRAINAGE_A":0.01,"COUNTY":"Cache"},"type":"Feature","geometry":{"type":"Point","coordinates":[-111.76188999997,41.742990000715]}},{"properties":{"LAT_LONG_D":"NAD83","USGS_HUC":16010203.0,"LONGITUDE":-111.7855,"LATITUDE":41.74576,"STATION_TY":"Stream/River","STATE":"Utah","ELEVATION_":null,"ELEVATION":0.0,"STATION_NA":"LOGAN HYD P AN SM CA N LOGAN UTAH","id":"adce6qf82ryj","STATION":10108500,"DRAINAGE_A":0.0,"COUNTY":"Cache"},"type":"Feature","geometry":{"type":"Point","coordinates":[-111.78549999997,41.745760000715]}},{"properties":{"LAT_LONG_D":"NAD83","USGS_HUC":16010203.0,"LONGITUDE":-111.78272,"LATITUDE":41.74326,"STATION_TY":"Stream/River","STATE":"Utah","ELEVATION_":"NGVD29","ELEVATION":4680.0,"STATION_NA":"LOGAN RIVER ABOVE STATE DAM, NEAR LOGAN, UT","id":"adce6qb0cagf","STATION":10109000,"DRAINAGE_A":214.0,"COUNTY":"Cache"},"type":"Feature","geometry":{"type":"Point","coordinates":[-111.78271999997,41.743260000715]}},{"properties":{"LAT_LONG_D":"NAD83","USGS_HUC":16010203.0,"LONGITUDE":-111.78439,"LATITUDE":41.74438,"STATION_TY":"Stream/River","STATE":"Utah","ELEVATION_":"NGVD29","ELEVATION":4680.0,"STATION_NA":"COM F LOGAN R AB ST D AND LO HP AND SM C N LO UT","id":"adce6q87oo7m","STATION":10109001,"DRAINAGE_A":214.0,"COUNTY":"Cache"},"type":"Feature","geometry":{"type":"Point","coordinates":[-111.78438999997,41.744380000715]}},{"properties":{"LAT_LONG_D":"NAD83","USGS_HUC":16010203.0,"LONGITUDE":-111.56743,"LATITUDE":41.59438,"STATION_TY":"Stream/River","STATE":"Utah","ELEVATION_":"NGVD29","ELEVATION":5544.76,"STATION_NA":"BLACKSMITH F B MILL C N HYRUM UT","id":"adce6qddolig","STATION":10111700,"DRAINAGE_A":78.0,"COUNTY":"Cache"},"type":"Feature","geometry":{"type":"Point","coordinates":[-111.567429999969,41.594380000714]}},{"properties":{"LAT_LONG_D":"NAD83","USGS_HUC":16010203.0,"LONGITUDE":-111.61743,"LATITUDE":41.6166,"STATION_TY":"Stream/River","STATE":"Utah","ELEVATION_":"NGVD29","ELEVATION":5340.0,"STATION_NA":"BLACKSMITH F A H RAN N HYRUM UTAH","id":"adce6qackcsr","STATION":10112000,"DRAINAGE_A":130.0,"COUNTY":"Cache"},"type":"Feature","geometry":{"type":"Point","coordinates":[-111.617429999969,41.6166000007141]}},{"properties":{"LAT_LONG_D":"NAD83","USGS_HUC":16010203.0,"LONGITUDE":-111.73883,"LATITUDE":41.62355,"STATION_TY":"Stream/River","STATE":"Utah","ELEVATION_":"NGVD29","ELEVATION":5020.6,"STATION_NA":"BLACKSMITH FORK AB UP&amp;L CO'S DAM NR HYRUM, UT","id":"adce6qdgn347","STATION":10113500,"DRAINAGE_A":263.0,"COUNTY":"Cache"},"type":"Feature","geometry":{"type":"Point","coordinates":[-111.73882999997,41.6235500007142]}},{"properties":{"LAT_LONG_D":"NAD83","USGS_HUC":16010203.0,"LONGITUDE":-111.88633,"LATITUDE":41.72076,"STATION_TY":"Stream/River","STATE":"Utah","ELEVATION_":"NGVD29","ELEVATION":4424.0,"STATION_NA":"LOGAN RIVER BLW BLACKSMITH FORK NR LOGAN, UTAH","id":"adce6qca9s6v","STATION":10115200,"DRAINAGE_A":528.8,"COUNTY":"Cache"},"type":"Feature","geometry":{"type":"Point","coordinates":[-111.886329999971,41.7207600007148]}},{"properties":{"LAT_LONG_D":"NAD83","USGS_HUC":16010204.0,"LONGITUDE":-112.05745,"LATITUDE":41.83076,"STATION_TY":"Stream/River","STATE":"Utah","ELEVATION_":null,"ELEVATION":0.0,"STATION_NA":"HAMMOND (EAST SIDE) CANAL NEAR COLLINSTON, UT","id":"adce6q98laa5","STATION":10117000,"DRAINAGE_A":0.01,"COUNTY":"Box Elder"},"type":"Feature","geometry":{"type":"Point","coordinates":[-112.057449999972,41.8307600007154]}},{"properties":{"LAT_LONG_D":"NAD83","USGS_HUC":16010204.0,"LONGITUDE":-112.06079,"LATITUDE":41.83187,"STATION_TY":"Stream/River","STATE":"Utah","ELEVATION_":null,"ELEVATION":0.0,"STATION_NA":"WEST SIDE CANAL NEAR COLLINSTON, UT","id":"adce6qfur2wm","STATION":10117500,"DRAINAGE_A":0.01,"COUNTY":"Box Elder"},"type":"Feature","geometry":{"type":"Point","coordinates":[-112.060789999972,41.8318700007154]}},{"properties":{"LAT_LONG_D":"NAD83","USGS_HUC":16010204.0,"LONGITUDE":-112.22745,"LATITUDE":41.71409,"STATION_TY":"Stream/River","STATE":"Utah","ELEVATION_":"NGVD29","ELEVATION":4340.0,"STATION_NA":"WEST CANAL ABV SALT CREEK DIV NR TREMONTON UT","id":"adce6qb1d5xj","STATION":10117510,"DRAINAGE_A":0.0,"COUNTY":"Box Elder"},"type":"Feature","geometry":{"type":"Point","coordinates":[-112.227449999973,41.7140900007145]}},{"properties":{"LAT_LONG_D":"NAD83","USGS_HUC":16010204.0,"LONGITUDE":-112.22884,"LATITUDE":41.71298,"STATION_TY":"Stream/River","STATE":"Utah","ELEVATION_":"NGVD29","ELEVATION":4340.0,"STATION_NA":"WEST CANAL BLW SALT CREEK DIV NR TREMONTON, UT","id":"adce6q2oxzki","STATION":10117530,"DRAINAGE_A":0.0,"COUNTY":"Box Elder"},"type":"Feature","geometry":{"type":"Point","coordinates":[-112.228839999973,41.7129800007144]}},{"properties":{"LAT_LONG_D":"NAD83","USGS_HUC":16010204.0,"LONGITUDE":-112.05523,"LATITUDE":41.83409,"STATION_TY":"Stream/River","STATE":"Utah","ELEVATION_":"NGVD29","ELEVATION":4276.13,"STATION_NA":"BEAR RIVER NEAR COLLINSTON, UT","id":"adce6q9z627y","STATION":10118000,"DRAINAGE_A":6270.7,"COUNTY":"Box Elder"},"type":"Feature","geometry":{"type":"Point","coordinates":[-112.055229999972,41.8340900007154]}},{"properties":{"LAT_LONG_D":"NAD83","USGS_HUC":16010204.0,"LONGITUDE":-112.28413,"LATITUDE":42.21659,"STATION_TY":"Stream/River","STATE":"Idaho","ELEVATION_":"NGVD29","ELEVATION":4695.0,"STATION_NA":"DEVIL CREEK NEAR MALAD CITY, ID","id":"adce6q1h22d1","STATION":10123500,"DRAINAGE_A":39.0,"COUNTY":"Oneida"},"type":"Feature","geometry":{"type":"Point","coordinates":[-112.284129999973,42.2165900007177]}},{"properties":{"LAT_LONG_D":"NAD83","USGS_HUC":16010204.0,"LONGITUDE":-112.14773,"LATITUDE":41.83854,"STATION_TY":"Stream/River","STATE":"Utah","ELEVATION_":"NGVD29","ELEVATION":4307.0,"STATION_NA":"MALAD RIVER NEAR PLYMOUTH, UTAH","id":"adce6qcaresl","STATION":10125600,"DRAINAGE_A":623.0,"COUNTY":"Box Elder"},"type":"Feature","geometry":{"type":"Point","coordinates":[-112.147729999972,41.8385400007154]}},{"properties":{"LAT_LONG_D":"NAD83","USGS_HUC":16010204.0,"LONGITUDE":-112.16023,"LATITUDE":41.65632,"STATION_TY":"Stream/River","STATE":"Utah","ELEVATION_":"NGVD29","ELEVATION":4258.0,"STATION_NA":"BEAR RIVER DUCK CLUB CAN NR BEAR RIVER CITY, UT","id":"adce6qhd4tej","STATION":10125700,"DRAINAGE_A":0.0,"COUNTY":"Box Elder"},"type":"Feature","geometry":{"type":"Point","coordinates":[-112.160229999972,41.6563200007141]}},{"properties":{"LAT_LONG_D":"NAD83","USGS_HUC":16010204.0,"LONGITUDE":-112.16273,"LATITUDE":41.65354,"STATION_TY":"Stream/River","STATE":"Utah","ELEVATION_":"NGVD29","ELEVATION":4252.0,"STATION_NA":"MALAD R BL BRN DUCK CL CAN NR BEAR RIVER CITY, UT","id":"adce6qb63ab9","STATION":10125800,"DRAINAGE_A":698.0,"COUNTY":"Box Elder"},"type":"Feature","geometry":{"type":"Point","coordinates":[-112.162729999972,41.6535400007141]}},{"properties":{"LAT_LONG_D":"NAD83","USGS_HUC":16010204.0,"LONGITUDE":-112.10078,"LATITUDE":41.57632,"STATION_TY":"Stream/River","STATE":"Utah","ELEVATION_":"NGVD29","ELEVATION":4204.6,"STATION_NA":"BEAR RIVER NEAR CORINNE, UT","id":"adce6q6mlz41","STATION":10126000,"DRAINAGE_A":7029.0,"COUNTY":"Box Elder"},"type":"Feature","geometry":{"type":"Point","coordinates":[-112.100779999972,41.5763200007137]}},{"properties":{"LAT_LONG_D":"NAD83","USGS_HUC":16010204.0,"LONGITUDE":-112.2194,"LATITUDE":41.57354,"STATION_TY":"Stream/River","STATE":"Utah","ELEVATION_":"NGVD29","ELEVATION":4228.8,"STATION_NA":"SULPHUR CREEK NR. CORINNE, UT","id":"adce6q2245sj","STATION":10126180,"DRAINAGE_A":15.4,"COUNTY":"Box Elder"},"type":"Feature","geometry":{"type":"Point","coordinates":[-112.219399999973,41.5735400007135]}},{"properties":{"LAT_LONG_D":"NAD83","USGS_HUC":16010204.0,"LONGITUDE":-111.94772,"LATITUDE":41.48271,"STATION_TY":"Stream/River","STATE":"Utah","ELEVATION_":"NGVD29","ELEVATION":5230.0,"STATION_NA":"BOX ELDER CR AT MANTUA UTAH","id":"adce6q4kq4gw","STATION":10126400,"DRAINAGE_A":14.0,"COUNTY":"Box Elder"},"type":"Feature","geometry":{"type":"Point","coordinates":[-111.947719999971,41.4827100007131]}},{"properties":{"LAT_LONG_D":"NAD83","USGS_HUC":16010204.0,"LONGITUDE":-112.22801,"LATITUDE":41.71215,"STATION_TY":"Stream/River","STATE":"Utah","ELEVATION_":"NGVD29","ELEVATION":4280.0,"STATION_NA":"SALT SPRING NEAR TREMONTON UTAH","id":"adce6qeu1e81","STATION":10127040,"DRAINAGE_A":0.01,"COUNTY":"Box Elder"},"type":"Feature","geometry":{"type":"Point","coordinates":[-112.228009999973,41.7121500007144]}},{"properties":{"LAT_LONG_D":"NAD83","USGS_HUC":16010204.0,"LONGITUDE":-112.22745,"LATITUDE":41.71132,"STATION_TY":"Stream/River","STATE":"Utah","ELEVATION_":"NGVD29","ELEVATION":4280.0,"STATION_NA":"SALT CREEK BLW SALT SPRING NR TREMONTON UTAH","id":"adce6qh6oeem","STATION":10127050,"DRAINAGE_A":0.01,"COUNTY":"Box Elder"},"type":"Feature","geometry":{"type":"Point","coordinates":[-112.227449999973,41.7113200007144]}},{"properties":{"LAT_LONG_D":"NAD83","USGS_HUC":16010204.0,"LONGITUDE":-112.07689,"LATITUDE":41.50993,"STATION_TY":"Stream/River","STATE":"Utah","ELEVATION_":"NGVD29","ELEVATION":4210.0,"STATION_NA":"BLACK SLOUGH NEAR BRIGHAM CITY, UTAH","id":"adce6q7gi3lg","STATION":10127100,"DRAINAGE_A":31.1,"COUNTY":"Box Elder"},"type":"Feature","geometry":{"type":"Point","coordinates":[-112.076889999972,41.5099300007132]}},{"properties":{"LAT_LONG_D":"NAD83","USGS_HUC":16010204.0,"LONGITUDE":-112.06745,"LATITUDE":41.53327,"STATION_TY":"Stream/River","STATE":"Utah","ELEVATION_":null,"ELEVATION":0.0,"STATION_NA":"HWY 83 CULVERTS","id":"adce6qh38k0d","STATION":10127107,"DRAINAGE_A":0.0,"COUNTY":"Box Elder"},"type":"Feature","geometry":{"type":"Point","coordinates":[-112.067449999972,41.5332700007134]}},{"properties":{"LAT_LONG_D":"NAD83","USGS_HUC":16010204.0,"LONGITUDE":-112.13412,"LATITUDE":41.53327,"STATION_TY":"Stream/River","STATE":"Utah","ELEVATION_":null,"ELEVATION":0.0,"STATION_NA":"SULPHUR CREEK AND BLACK SLOUGH","id":"adce6qbu80cm","STATION":10127108,"DRAINAGE_A":0.0,"COUNTY":"Box Elder"},"type":"Feature","geometry":{"type":"Point","coordinates":[-112.134119999972,41.5332700007133]}},{"properties":{"LAT_LONG_D":"NAD83","USGS_HUC":16010204.0,"LONGITUDE":-112.08411,"LATITUDE":41.53327,"STATION_TY":"Stream/River","STATE":"Utah","ELEVATION_":null,"ELEVATION":0.0,"STATION_NA":"CULVERTS AND SULPHUR CR AND BLACK SLOUGH","id":"adce6qao8a0r","STATION":10127109,"DRAINAGE_A":0.0,"COUNTY":"Box Elder"},"type":"Feature","geometry":{"type":"Point","coordinates":[-112.084109999972,41.5332700007134]}},{"properties":{"LAT_LONG_D":"NAD83","USGS_HUC":16010204.0,"LONGITUDE":-112.09606,"LATITUDE":41.54549,"STATION_TY":"Stream/River","STATE":"Utah","ELEVATION_":null,"ELEVATION":0.0,"STATION_NA":"B R BASIN OUTFLOW AC ST HWY 83 NR CORINNE, UT","id":"adce6q90nza3","STATION":10127110,"DRAINAGE_A":0.01,"COUNTY":"Box Elder"},"type":"Feature","geometry":{"type":"Point","coordinates":[-112.096059999972,41.5454900007134]}},{"properties":{"LAT_LONG_D":"NAD83","USGS_HUC":16010203.0,"LONGITUDE":-112.00078,"LATITUDE":41.74993,"STATION_TY":"Stream/River","STATE":"Utah","ELEVATION_":null,"ELEVATION":0.0,"STATION_NA":"COM FLOW BEAR AREA GSL INFLOW GROUP 1","id":"adce6qc5er0x","STATION":414500112000000,"DRAINAGE_A":0.0,"COUNTY":"Cache"},"type":"Feature","geometry":{"type":"Point","coordinates":[-112.000779999971,41.7499300007149]}},{"properties":{"LAT_LONG_D":"NAD83","USGS_HUC":16010203.0,"LONGITUDE":-112.00106,"LATITUDE":41.74993,"STATION_TY":"Stream/River","STATE":"Utah","ELEVATION_":null,"ELEVATION":0.0,"STATION_NA":"COM FLOW BEAR AREA GSL INFLOW GROUP 2","id":"adce6qebzjd4","STATION":414500112000100,"DRAINAGE_A":0.0,"COUNTY":"Cache"},"type":"Feature","geometry":{"type":"Point","coordinates":[-112.001059999971,41.7499300007149]}},{"properties":{"LAT_LONG_D":"NAD83","USGS_HUC":16010203.0,"LONGITUDE":-112.00134,"LATITUDE":41.74993,"STATION_TY":"Stream/River","STATE":"Utah","ELEVATION_":null,"ELEVATION":0.0,"STATION_NA":"COM FLOW BEAR AREA GSL INFLOW GROUP 3","id":"adce6qevfd0h","STATION":414500112000200,"DRAINAGE_A":0.0,"COUNTY":"Cache"},"type":"Feature","geometry":{"type":"Point","coordinates":[-112.001339999971,41.7499300007149]}}],"is_temporal":false,"author":{"url":"http://bearriverinfo.org/htm/gis-mapping/dataset-downloads","metadata":"http://water.epa.gov/scitech/datait/models/basins/index.cfm","contact_name":"","contact_address":"","source":"Bear River Watershed Information System","contact_phone":""},"source":"http://bearriverinfo.org/htm/gis-mapping/dataset-downloads","pagination":{"sort":null,"start":0,"total":98,"limit":1000000},"state":"complete","tags":"","published":"2013-04-03T16:00:00Z","id":340172}