{"type":"FeatureCollection","data_type":"Dataset","url_type":null,"permissions":[{"permissions":{"download":true,"view":true},"group_id":"everyone"}],"classification":null,"title":"over95 zip","count":411,"stream_id":340436,"contributor":{"url":"http://geocommons.com/users/68670","name":"tbpratt"},"data_attributes":null,"calculation_params":null,"icon_link":null,"link":"http://geocommons.com/overlays/340436.json","extent":[-89.9343,35.0095,-81.7963,36.6245],"geometry_types":["point"],"unique_name":null,"name":"over95 zip","feature_count":411,"description":"","next_feature":null,"is_raster":false,"short_classification":"Y","stats":{"over95_in_2cat":{"count":6,"max":13,"variance":0.636674381342352,"mean":0.197080291970803,"counts_by_value":{"0":355,"1":47,"13":1,"2":5,"3":1,"4":2},"list":[1,0,4,2,3,13],"stdev":0.797918781169081,"min":0,"median":0}},"features":[{"properties":{"zipcode":"37013","geo_score":0.714,"over95_in_2cat":1,"id":"adchj1lkt992","geo_precision":"zip"},"type":"Feature","geometry":{"type":"Point","coordinates":[-86.645598,36.036032]}},{"properties":{"zipcode":"37015","geo_score":0.714,"over95_in_2cat":0,"id":"adchj1kypfqk","geo_precision":"zip"},"type":"Feature","geometry":{"type":"Point","coordinates":[-87.120837,36.345885]}},{"properties":{"zipcode":"37016","geo_score":0.714,"over95_in_2cat":0,"id":"adchj1fusefh","geo_precision":"zip"},"type":"Feature","geometry":{"type":"Point","coordinates":[-86.058878,35.98034]}},{"properties":{"zipcode":"37022","geo_score":0.714,"over95_in_2cat":0,"id":"adchj1lsp4ah","geo_precision":"zip"},"type":"Feature","geometry":{"type":"Point","coordinates":[-86.236934,36.43588]}},{"properties":{"zipcode":"37023","geo_score":0.714,"over95_in_2cat":0,"id":"adchj1cu4k8b","geo_precision":"zip"},"type":"Feature","geometry":{"type":"Point","coordinates":[-87.774854,36.580898]}},{"properties":{"zipcode":"37026","geo_score":0.714,"over95_in_2cat":0,"id":"adchj1c815s0","geo_precision":"zip"},"type":"Feature","geometry":{"type":"Point","coordinates":[-86.107742,35.701738]}},{"properties":{"zipcode":"37027","geo_score":0.714,"over95_in_2cat":1,"id":"adchj1n46yx7","geo_precision":"zip"},"type":"Feature","geometry":{"type":"Point","coordinates":[-86.816058,35.982981]}},{"properties":{"zipcode":"37029","geo_score":0.714,"over95_in_2cat":0,"id":"adchj1at2u49","geo_precision":"zip"},"type":"Feature","geometry":{"type":"Point","coordinates":[-87.230287,35.985619]}},{"properties":{"zipcode":"37030","geo_score":0.714,"over95_in_2cat":0,"id":"adchj1lkcikb","geo_precision":"zip"},"type":"Feature","geometry":{"type":"Point","coordinates":[-86.071656,36.261997]}},{"properties":{"zipcode":"37032","geo_score":0.714,"over95_in_2cat":0,"id":"adchj18wc690","geo_precision":"zip"},"type":"Feature","geometry":{"type":"Point","coordinates":[-87.040001,36.487824]}},{"properties":{"zipcode":"37033","geo_score":0.714,"over95_in_2cat":4,"id":"adchj1ggqzf9","geo_precision":"zip"},"type":"Feature","geometry":{"type":"Point","coordinates":[-87.502405,35.750099]}},{"properties":{"zipcode":"37034","geo_score":0.714,"over95_in_2cat":0,"id":"adchj16v8ryy","geo_precision":"zip"},"type":"Feature","geometry":{"type":"Point","coordinates":[-86.596662,35.673124]}},{"properties":{"zipcode":"37035","geo_score":0.714,"over95_in_2cat":0,"id":"adchj1autwb8","geo_precision":"zip"},"type":"Feature","geometry":{"type":"Point","coordinates":[-87.156116,36.332552]}},{"properties":{"zipcode":"37036","geo_score":0.714,"over95_in_2cat":0,"id":"adchj1d5rw4g","geo_precision":"zip"},"type":"Feature","geometry":{"type":"Point","coordinates":[-87.188894,36.275888]}},{"properties":{"zipcode":"37037","geo_score":0.714,"over95_in_2cat":0,"id":"adchj1kgwwmb","geo_precision":"zip"},"type":"Feature","geometry":{"type":"Point","coordinates":[-86.506381,35.716734]}},{"properties":{"zipcode":"37040","geo_score":0.714,"over95_in_2cat":0,"id":"adchj1940a6f","geo_precision":"zip"},"type":"Feature","geometry":{"type":"Point","coordinates":[-87.184727,36.463938]}},{"properties":{"zipcode":"37042","geo_score":0.714,"over95_in_2cat":0,"id":"adchj17ft43m","geo_precision":"zip"},"type":"Feature","geometry":{"type":"Point","coordinates":[-87.220839,36.506437]}},{"properties":{"zipcode":"37043","geo_score":0.714,"over95_in_2cat":1,"id":"adchj1kgs5tr","geo_precision":"zip"},"type":"Feature","geometry":{"type":"Point","coordinates":[-87.218617,36.439772]}},{"properties":{"zipcode":"37044","geo_score":0.714,"over95_in_2cat":0,"id":"adchj1cvjhnj","geo_precision":"zip"},"type":"Feature","geometry":{"type":"Point","coordinates":[-87.353008,36.531398]}},{"properties":{"zipcode":"37046","geo_score":0.714,"over95_in_2cat":0,"id":"adchj1f0euk6","geo_precision":"zip"},"type":"Feature","geometry":{"type":"Point","coordinates":[-86.691941,35.754789]}},{"properties":{"zipcode":"37047","geo_score":0.714,"over95_in_2cat":1,"id":"adchj1jis2kc","geo_precision":"zip"},"type":"Feature","geometry":{"type":"Point","coordinates":[-86.839724,35.372854]}},{"properties":{"zipcode":"37048","geo_score":0.714,"over95_in_2cat":0,"id":"adchj1mp4yxx","geo_precision":"zip"},"type":"Feature","geometry":{"type":"Point","coordinates":[-86.613051,36.484211]}},{"properties":{"zipcode":"37049","geo_score":0.714,"over95_in_2cat":0,"id":"adchj1buoj9g","geo_precision":"zip"},"type":"Feature","geometry":{"type":"Point","coordinates":[-86.665829,36.512822]}},{"properties":{"zipcode":"37052","geo_score":0.714,"over95_in_2cat":0,"id":"adchj1emtwyu","geo_precision":"zip"},"type":"Feature","geometry":{"type":"Point","coordinates":[-87.376496,36.398614]}},{"properties":{"zipcode":"37055","geo_score":0.714,"over95_in_2cat":0,"id":"adchj1e2o97z","geo_precision":"zip"},"type":"Feature","geometry":{"type":"Point","coordinates":[-87.335012,36.012007]}},{"properties":{"zipcode":"37058","geo_score":0.714,"over95_in_2cat":0,"id":"adchj1m57tdz","geo_precision":"zip"},"type":"Feature","geometry":{"type":"Point","coordinates":[-87.868913,36.557551]}},{"properties":{"zipcode":"37059","geo_score":0.714,"over95_in_2cat":0,"id":"adchj18rdt2y","geo_precision":"zip"},"type":"Feature","geometry":{"type":"Point","coordinates":[-85.876653,35.984229]}},{"properties":{"zipcode":"37060","geo_score":0.714,"over95_in_2cat":0,"id":"adchj1k1fobp","geo_precision":"zip"},"type":"Feature","geometry":{"type":"Point","coordinates":[-86.558626,35.73168]}},{"properties":{"zipcode":"37061","geo_score":0.714,"over95_in_2cat":0,"id":"adchj1klm3ia","geo_precision":"zip"},"type":"Feature","geometry":{"type":"Point","coordinates":[-87.719743,36.218668]}},{"properties":{"zipcode":"37062","geo_score":0.714,"over95_in_2cat":0,"id":"adchj1fld74f","geo_precision":"zip"},"type":"Feature","geometry":{"type":"Point","coordinates":[-87.159729,36.01784]}},{"properties":{"zipcode":"37064","geo_score":0.714,"over95_in_2cat":1,"id":"adchj1mv8z2y","geo_precision":"zip"},"type":"Feature","geometry":{"type":"Point","coordinates":[-87.079172,35.954508]}},{"properties":{"zipcode":"37066","geo_score":0.714,"over95_in_2cat":0,"id":"adchj1g2yhgi","geo_precision":"zip"},"type":"Feature","geometry":{"type":"Point","coordinates":[-86.466104,36.480322]}},{"properties":{"zipcode":"37067","geo_score":0.714,"over95_in_2cat":0,"id":"adchj19c0gwh","geo_precision":"zip"},"type":"Feature","geometry":{"type":"Point","coordinates":[-86.765537,35.912072]}},{"properties":{"zipcode":"37069","geo_score":0.714,"over95_in_2cat":0,"id":"adchj1efdyzn","geo_precision":"zip"},"type":"Feature","geometry":{"type":"Point","coordinates":[-86.910623,35.979553]}},{"properties":{"zipcode":"37071","geo_score":0.714,"over95_in_2cat":0,"id":"adchj1kghgi7","geo_precision":"zip"},"type":"Feature","geometry":{"type":"Point","coordinates":[-86.304922,36.156231]}},{"properties":{"zipcode":"37072","geo_score":0.714,"over95_in_2cat":0,"id":"adchj1euzxns","geo_precision":"zip"},"type":"Feature","geometry":{"type":"Point","coordinates":[-86.709997,36.371161]}},{"properties":{"zipcode":"37073","geo_score":0.714,"over95_in_2cat":0,"id":"adchj1imfnor","geo_precision":"zip"},"type":"Feature","geometry":{"type":"Point","coordinates":[-86.809567,36.437397]}},{"properties":{"zipcode":"37075","geo_score":0.714,"over95_in_2cat":0,"id":"adchj1dwst0w","geo_precision":"zip"},"type":"Feature","geometry":{"type":"Point","coordinates":[-86.101377,36.36894]}},{"properties":{"zipcode":"37076","geo_score":0.714,"over95_in_2cat":0,"id":"adchj1g0ivme","geo_precision":"zip"},"type":"Feature","geometry":{"type":"Point","coordinates":[-86.633052,36.201444]}},{"properties":{"zipcode":"37080","geo_score":0.714,"over95_in_2cat":0,"id":"adchj1mgvclc","geo_precision":"zip"},"type":"Feature","geometry":{"type":"Point","coordinates":[-86.893889,36.288109]}},{"properties":{"zipcode":"37082","geo_score":0.714,"over95_in_2cat":0,"id":"adchj1dbzllb","geo_precision":"zip"},"type":"Feature","geometry":{"type":"Point","coordinates":[-87.158062,36.112837]}},{"properties":{"zipcode":"37083","geo_score":0.714,"over95_in_2cat":1,"id":"adchj19r3fom","geo_precision":"zip"},"type":"Feature","geometry":{"type":"Point","coordinates":[-86.020817,36.553107]}},{"properties":{"zipcode":"37085","geo_score":0.714,"over95_in_2cat":0,"id":"adchj1bfoap8","geo_precision":"zip"},"type":"Feature","geometry":{"type":"Point","coordinates":[-86.291678,35.936886]}},{"properties":{"zipcode":"37086","geo_score":0.714,"over95_in_2cat":0,"id":"adchj1ic1f3f","geo_precision":"zip"},"type":"Feature","geometry":{"type":"Point","coordinates":[-86.566661,36.006452]}},{"properties":{"zipcode":"37087","geo_score":0.714,"over95_in_2cat":1,"id":"adchj1dp1kf7","geo_precision":"zip"},"type":"Feature","geometry":{"type":"Point","coordinates":[-86.199712,36.275608]}},{"properties":{"zipcode":"37090","geo_score":0.714,"over95_in_2cat":0,"id":"adchj18bdw3a","geo_precision":"zip"},"type":"Feature","geometry":{"type":"Point","coordinates":[-86.263,36.118515]}},{"properties":{"zipcode":"37091","geo_score":0.714,"over95_in_2cat":0,"id":"adchj1fsita0","geo_precision":"zip"},"type":"Feature","geometry":{"type":"Point","coordinates":[-86.779444,35.460907]}},{"properties":{"zipcode":"37096","geo_score":0.714,"over95_in_2cat":1,"id":"adchj1h4is8v","geo_precision":"zip"},"type":"Feature","geometry":{"type":"Point","coordinates":[-87.80947,35.630069]}},{"properties":{"zipcode":"37097","geo_score":0.714,"over95_in_2cat":0,"id":"adchj1h9rjde","geo_precision":"zip"},"type":"Feature","geometry":{"type":"Point","coordinates":[-87.810858,35.738122]}},{"properties":{"zipcode":"37098","geo_score":0.714,"over95_in_2cat":1,"id":"adchj1gbmc9i","geo_precision":"zip"},"type":"Feature","geometry":{"type":"Point","coordinates":[-87.310844,35.927842]}},{"properties":{"zipcode":"37101","geo_score":0.714,"over95_in_2cat":0,"id":"adchj1bkuj4u","geo_precision":"zip"},"type":"Feature","geometry":{"type":"Point","coordinates":[-87.659245,36.066188]}},{"properties":{"zipcode":"37110","geo_score":0.714,"over95_in_2cat":1,"id":"adchj18suocg","geo_precision":"zip"},"type":"Feature","geometry":{"type":"Point","coordinates":[-85.78526,35.669793]}},{"properties":{"zipcode":"37115","geo_score":0.714,"over95_in_2cat":0,"id":"adchj1ispo7b","geo_precision":"zip"},"type":"Feature","geometry":{"type":"Point","coordinates":[-86.706296,36.259503]}},{"properties":{"zipcode":"37122","geo_score":0.714,"over95_in_2cat":0,"id":"adchj180u6pl","geo_precision":"zip"},"type":"Feature","geometry":{"type":"Point","coordinates":[-86.468695,36.184603]}},{"properties":{"zipcode":"37127","geo_score":0.714,"over95_in_2cat":0,"id":"adchj1d5rs91","geo_precision":"zip"},"type":"Feature","geometry":{"type":"Point","coordinates":[-86.372158,35.762951]}},{"properties":{"zipcode":"37128","geo_score":0.714,"over95_in_2cat":0,"id":"adchj1hd8l6u","geo_precision":"zip"},"type":"Feature","geometry":{"type":"Point","coordinates":[-86.486683,35.845418]}},{"properties":{"zipcode":"37129","geo_score":0.714,"over95_in_2cat":0,"id":"adchj1ls2zur","geo_precision":"zip"},"type":"Feature","geometry":{"type":"Point","coordinates":[-86.423535,35.901746]}},{"properties":{"zipcode":"37130","geo_score":0.714,"over95_in_2cat":0,"id":"adchj191vxum","geo_precision":"zip"},"type":"Feature","geometry":{"type":"Point","coordinates":[-86.521382,35.90312]}},{"properties":{"zipcode":"37132","geo_score":0.714,"over95_in_2cat":0,"id":"adchj19e8hok","geo_precision":"zip"},"type":"Feature","geometry":{"type":"Point","coordinates":[-86.420958,35.859565]}},{"properties":{"zipcode":"37134","geo_score":0.714,"over95_in_2cat":0,"id":"adchj17ns6h3","geo_precision":"zip"},"type":"Feature","geometry":{"type":"Point","coordinates":[-87.938738,36.014193]}},{"properties":{"zipcode":"37135","geo_score":0.714,"over95_in_2cat":0,"id":"adchj176sstb","geo_precision":"zip"},"type":"Feature","geometry":{"type":"Point","coordinates":[-86.675349,35.925201]}},{"properties":{"zipcode":"37138","geo_score":0.714,"over95_in_2cat":0,"id":"adchj1jkz3o6","geo_precision":"zip"},"type":"Feature","geometry":{"type":"Point","coordinates":[-86.633545,36.137706]}},{"properties":{"zipcode":"37143","geo_score":0.714,"over95_in_2cat":0,"id":"adchj1aoh1j0","geo_precision":"zip"},"type":"Feature","geometry":{"type":"Point","coordinates":[-87.039855,36.135105]}},{"properties":{"zipcode":"37144","geo_score":0.714,"over95_in_2cat":0,"id":"adchj1cu80up","geo_precision":"zip"},"type":"Feature","geometry":{"type":"Point","coordinates":[-86.538328,35.334799]}},{"properties":{"zipcode":"37146","geo_score":0.714,"over95_in_2cat":0,"id":"adchj1ey5vta","geo_precision":"zip"},"type":"Feature","geometry":{"type":"Point","coordinates":[-87.047966,36.271077]}},{"properties":{"zipcode":"37148","geo_score":0.714,"over95_in_2cat":0,"id":"adchj1kww6hf","geo_precision":"zip"},"type":"Feature","geometry":{"type":"Point","coordinates":[-86.425548,36.57782]}},{"properties":{"zipcode":"37149","geo_score":0.714,"over95_in_2cat":0,"id":"adchj1hka0r0","geo_precision":"zip"},"type":"Feature","geometry":{"type":"Point","coordinates":[-86.142769,35.818401]}},{"properties":{"zipcode":"37150","geo_score":0.714,"over95_in_2cat":0,"id":"adchj1a2s13o","geo_precision":"zip"},"type":"Feature","geometry":{"type":"Point","coordinates":[-85.829979,36.5745]}},{"properties":{"zipcode":"37152","geo_score":0.714,"over95_in_2cat":0,"id":"adchj1aibay5","geo_precision":"zip"},"type":"Feature","geometry":{"type":"Point","coordinates":[-86.772247,36.402548]}},{"properties":{"zipcode":"37153","geo_score":0.714,"over95_in_2cat":0,"id":"adchj17s0cak","geo_precision":"zip"},"type":"Feature","geometry":{"type":"Point","coordinates":[-86.541382,35.729511]}},{"properties":{"zipcode":"37160","geo_score":0.714,"over95_in_2cat":0,"id":"adchj1l4fd4y","geo_precision":"zip"},"type":"Feature","geometry":{"type":"Point","coordinates":[-86.537495,35.417574]}},{"properties":{"zipcode":"37166","geo_score":0.714,"over95_in_2cat":0,"id":"adchj1dvrs7a","geo_precision":"zip"},"type":"Feature","geometry":{"type":"Point","coordinates":[-85.879708,35.903954]}},{"properties":{"zipcode":"37167","geo_score":0.714,"over95_in_2cat":0,"id":"adchj1a2hsdp","geo_precision":"zip"},"type":"Feature","geometry":{"type":"Point","coordinates":[-86.494993,36.006452]}},{"properties":{"zipcode":"37172","geo_score":0.714,"over95_in_2cat":0,"id":"adchj1l8h7ex","geo_precision":"zip"},"type":"Feature","geometry":{"type":"Point","coordinates":[-86.888887,36.5431]}},{"properties":{"zipcode":"37174","geo_score":0.714,"over95_in_2cat":0,"id":"adchj1fdf52c","geo_precision":"zip"},"type":"Feature","geometry":{"type":"Point","coordinates":[-86.898335,35.702291]}},{"properties":{"zipcode":"37178","geo_score":0.714,"over95_in_2cat":0,"id":"adchj1mth8ex","geo_precision":"zip"},"type":"Feature","geometry":{"type":"Point","coordinates":[-87.798852,36.315226]}},{"properties":{"zipcode":"37179","geo_score":0.714,"over95_in_2cat":0,"id":"adchj1e058jx","geo_precision":"zip"},"type":"Feature","geometry":{"type":"Point","coordinates":[-86.983337,35.812567]}},{"properties":{"zipcode":"37180","geo_score":0.714,"over95_in_2cat":1,"id":"adchj1jb7m86","geo_precision":"zip"},"type":"Feature","geometry":{"type":"Point","coordinates":[-86.573246,35.622306]}},{"properties":{"zipcode":"37181","geo_score":0.714,"over95_in_2cat":0,"id":"adchj18bapxy","geo_precision":"zip"},"type":"Feature","geometry":{"type":"Point","coordinates":[-87.465507,36.245657]}},{"properties":{"zipcode":"37183","geo_score":0.714,"over95_in_2cat":1,"id":"adchj1bfjms6","geo_precision":"zip"},"type":"Feature","geometry":{"type":"Point","coordinates":[-86.301659,35.457853]}},{"properties":{"zipcode":"37184","geo_score":0.714,"over95_in_2cat":0,"id":"adchj19u4gxj","geo_precision":"zip"},"type":"Feature","geometry":{"type":"Point","coordinates":[-86.103323,36.140057]}},{"properties":{"zipcode":"37185","geo_score":0.714,"over95_in_2cat":0,"id":"adchj1ik7vqm","geo_precision":"zip"},"type":"Feature","geometry":{"type":"Point","coordinates":[-87.874195,35.943674]}},{"properties":{"zipcode":"37186","geo_score":0.714,"over95_in_2cat":0,"id":"adchj1gnb8xr","geo_precision":"zip"},"type":"Feature","geometry":{"type":"Point","coordinates":[-86.225266,36.600044]}},{"properties":{"zipcode":"37187","geo_score":0.714,"over95_in_2cat":0,"id":"adchj1hph65g","geo_precision":"zip"},"type":"Feature","geometry":{"type":"Point","coordinates":[-87.226354,36.124378]}},{"properties":{"zipcode":"37188","geo_score":0.714,"over95_in_2cat":0,"id":"adchj1htq361","geo_precision":"zip"},"type":"Feature","geometry":{"type":"Point","coordinates":[-86.689867,36.481635]}},{"properties":{"zipcode":"37189","geo_score":0.714,"over95_in_2cat":0,"id":"adchj1di72p6","geo_precision":"zip"},"type":"Feature","geometry":{"type":"Point","coordinates":[-86.832048,36.276652]}},{"properties":{"zipcode":"37190","geo_score":0.714,"over95_in_2cat":0,"id":"adchj1i00c5v","geo_precision":"zip"},"type":"Feature","geometry":{"type":"Point","coordinates":[-86.033176,35.836335]}},{"properties":{"zipcode":"37191","geo_score":0.714,"over95_in_2cat":0,"id":"adchj1iqdub0","geo_precision":"zip"},"type":"Feature","geometry":{"type":"Point","coordinates":[-87.559181,36.477828]}},{"properties":{"zipcode":"37203","geo_score":0.714,"over95_in_2cat":0,"id":"adchj1b7vhw6","geo_precision":"zip"},"type":"Feature","geometry":{"type":"Point","coordinates":[-86.791598,36.150406]}},{"properties":{"zipcode":"37204","geo_score":0.714,"over95_in_2cat":0,"id":"adchj1hcn365","geo_precision":"zip"},"type":"Feature","geometry":{"type":"Point","coordinates":[-86.850099,36.119294]}},{"properties":{"zipcode":"37205","geo_score":0.714,"over95_in_2cat":0,"id":"adchj17xv8nu","geo_precision":"zip"},"type":"Feature","geometry":{"type":"Point","coordinates":[-86.887223,36.117836]}},{"properties":{"zipcode":"37206","geo_score":0.714,"over95_in_2cat":2,"id":"adchj1cc4kt4","geo_precision":"zip"},"type":"Feature","geometry":{"type":"Point","coordinates":[-86.73575,36.180143]}},{"properties":{"zipcode":"37207","geo_score":0.714,"over95_in_2cat":0,"id":"adchj1kbg86u","geo_precision":"zip"},"type":"Feature","geometry":{"type":"Point","coordinates":[-86.784698,36.233916]}},{"properties":{"zipcode":"37208","geo_score":0.714,"over95_in_2cat":0,"id":"adchj1c8qnwz","geo_precision":"zip"},"type":"Feature","geometry":{"type":"Point","coordinates":[-86.810198,36.174256]}},{"properties":{"zipcode":"37209","geo_score":0.714,"over95_in_2cat":0,"id":"adchj1izwvh9","geo_precision":"zip"},"type":"Feature","geometry":{"type":"Point","coordinates":[-86.89995,36.142007]}},{"properties":{"zipcode":"37210","geo_score":0.714,"over95_in_2cat":0,"id":"adchj1m6mcle","geo_precision":"zip"},"type":"Feature","geometry":{"type":"Point","coordinates":[-86.729947,36.137475]}},{"properties":{"zipcode":"37211","geo_score":0.714,"over95_in_2cat":0,"id":"adchj1ew29om","geo_precision":"zip"},"type":"Feature","geometry":{"type":"Point","coordinates":[-82.758763,36.175103]}},{"properties":{"zipcode":"37212","geo_score":0.714,"over95_in_2cat":0,"id":"adchj1irj47t","geo_precision":"zip"},"type":"Feature","geometry":{"type":"Point","coordinates":[-87.010281,36.027284]}},{"properties":{"zipcode":"37214","geo_score":0.714,"over95_in_2cat":1,"id":"adchj1cvffgd","geo_precision":"zip"},"type":"Feature","geometry":{"type":"Point","coordinates":[-86.662146,36.174205]}},{"properties":{"zipcode":"37215","geo_score":0.714,"over95_in_2cat":0,"id":"adchj1ezlb79","geo_precision":"zip"},"type":"Feature","geometry":{"type":"Point","coordinates":[-86.885987,36.086531]}},{"properties":{"zipcode":"37216","geo_score":0.714,"over95_in_2cat":0,"id":"adchj1k2tk8r","geo_precision":"zip"},"type":"Feature","geometry":{"type":"Point","coordinates":[-86.723997,36.204255]}},{"properties":{"zipcode":"37217","geo_score":0.714,"over95_in_2cat":0,"id":"adchj1dm32cn","geo_precision":"zip"},"type":"Feature","geometry":{"type":"Point","coordinates":[-86.662914,36.107372]}},{"properties":{"zipcode":"37218","geo_score":0.714,"over95_in_2cat":0,"id":"adchj1j1877r","geo_precision":"zip"},"type":"Feature","geometry":{"type":"Point","coordinates":[-86.89585,36.234304]}},{"properties":{"zipcode":"37220","geo_score":0.714,"over95_in_2cat":0,"id":"adchj1l7i4rv","geo_precision":"zip"},"type":"Feature","geometry":{"type":"Point","coordinates":[-86.782098,36.067109]}},{"properties":{"zipcode":"37221","geo_score":0.714,"over95_in_2cat":0,"id":"adchj1h2eq4c","geo_precision":"zip"},"type":"Feature","geometry":{"type":"Point","coordinates":[-86.963852,36.06616]}},{"properties":{"zipcode":"37301","geo_score":0.714,"over95_in_2cat":0,"id":"adchj1fezkfo","geo_precision":"zip"},"type":"Feature","geometry":{"type":"Point","coordinates":[-85.789682,35.360328]}},{"properties":{"zipcode":"37303","geo_score":0.714,"over95_in_2cat":0,"id":"adchj1ktwy8q","geo_precision":"zip"},"type":"Feature","geometry":{"type":"Point","coordinates":[-84.559377,35.362851]}},{"properties":{"zipcode":"37307","geo_score":0.714,"over95_in_2cat":0,"id":"adchj1mkt8fe","geo_precision":"zip"},"type":"Feature","geometry":{"type":"Point","coordinates":[-84.619657,35.181185]}},{"properties":{"zipcode":"37309","geo_score":0.714,"over95_in_2cat":0,"id":"adchj193qvrp","geo_precision":"zip"},"type":"Feature","geometry":{"type":"Point","coordinates":[-84.740774,35.292851]}},{"properties":{"zipcode":"37310","geo_score":0.714,"over95_in_2cat":0,"id":"adchj19s8yvo","geo_precision":"zip"},"type":"Feature","geometry":{"type":"Point","coordinates":[-84.893556,35.122852]}},{"properties":{"zipcode":"37311","geo_score":0.714,"over95_in_2cat":1,"id":"adchj1ahbjfo","geo_precision":"zip"},"type":"Feature","geometry":{"type":"Point","coordinates":[-84.799941,35.030354]}},{"properties":{"zipcode":"37312","geo_score":0.714,"over95_in_2cat":1,"id":"adchj1c0cqj4","geo_precision":"zip"},"type":"Feature","geometry":{"type":"Point","coordinates":[-84.86844,35.255097]}},{"properties":{"zipcode":"37313","geo_score":0.714,"over95_in_2cat":0,"id":"adchj1jnctaz","geo_precision":"zip"},"type":"Feature","geometry":{"type":"Point","coordinates":[-85.717474,35.334521]}},{"properties":{"zipcode":"37317","geo_score":0.714,"over95_in_2cat":0,"id":"adchj1acg0pz","geo_precision":"zip"},"type":"Feature","geometry":{"type":"Point","coordinates":[-84.303809,35.013692]}},{"properties":{"zipcode":"37318","geo_score":0.714,"over95_in_2cat":0,"id":"adchj1l4pbpj","geo_precision":"zip"},"type":"Feature","geometry":{"type":"Point","coordinates":[-86.016657,35.178335]}},{"properties":{"zipcode":"37320","geo_score":0.714,"over95_in_2cat":0,"id":"adchj1jd8box","geo_precision":"zip"},"type":"Feature","geometry":{"type":"Point","coordinates":[-84.861885,35.17272]}},{"properties":{"zipcode":"37321","geo_score":0.714,"over95_in_2cat":0,"id":"adchj17bmyhj","geo_precision":"zip"},"type":"Feature","geometry":{"type":"Point","coordinates":[-85.029121,35.503403]}},{"properties":{"zipcode":"37322","geo_score":0.714,"over95_in_2cat":0,"id":"adchj1ipa97b","geo_precision":"zip"},"type":"Feature","geometry":{"type":"Point","coordinates":[-84.739942,35.535628]}},{"properties":{"zipcode":"37323","geo_score":0.714,"over95_in_2cat":0,"id":"adchj1lwjb5z","geo_precision":"zip"},"type":"Feature","geometry":{"type":"Point","coordinates":[-84.900504,35.393127]}},{"properties":{"zipcode":"37324","geo_score":0.714,"over95_in_2cat":0,"id":"adchj1dmlp5s","geo_precision":"zip"},"type":"Feature","geometry":{"type":"Point","coordinates":[-85.999982,35.257304]}},{"properties":{"zipcode":"37327","geo_score":0.714,"over95_in_2cat":0,"id":"adchj1ltgfae","geo_precision":"zip"},"type":"Feature","geometry":{"type":"Point","coordinates":[-85.319965,35.470623]}},{"properties":{"zipcode":"37329","geo_score":0.714,"over95_in_2cat":0,"id":"adchj1mc9h8g","geo_precision":"zip"},"type":"Feature","geometry":{"type":"Point","coordinates":[-84.437427,35.382297]}},{"properties":{"zipcode":"37330","geo_score":0.714,"over95_in_2cat":0,"id":"adchj1gmf0i8","geo_precision":"zip"},"type":"Feature","geometry":{"type":"Point","coordinates":[-86.065262,35.291192]}},{"properties":{"zipcode":"37331","geo_score":0.714,"over95_in_2cat":0,"id":"adchj1ix6b2x","geo_precision":"zip"},"type":"Feature","geometry":{"type":"Point","coordinates":[-84.54382,35.309795]}},{"properties":{"zipcode":"37332","geo_score":0.714,"over95_in_2cat":0,"id":"adchj1epxxke","geo_precision":"zip"},"type":"Feature","geometry":{"type":"Point","coordinates":[-84.945661,35.531335]}},{"properties":{"zipcode":"37334","geo_score":0.714,"over95_in_2cat":0,"id":"adchj16xyb21","geo_precision":"zip"},"type":"Feature","geometry":{"type":"Point","coordinates":[-86.588607,35.09064]}},{"properties":{"zipcode":"37335","geo_score":0.714,"over95_in_2cat":0,"id":"adchj17daakr","geo_precision":"zip"},"type":"Feature","geometry":{"type":"Point","coordinates":[-86.335268,35.104252]}},{"properties":{"zipcode":"37339","geo_score":0.714,"over95_in_2cat":0,"id":"adchj17sspyg","geo_precision":"zip"},"type":"Feature","geometry":{"type":"Point","coordinates":[-85.653738,35.385223]}},{"properties":{"zipcode":"37342","geo_score":0.714,"over95_in_2cat":0,"id":"adchj1g93ezy","geo_precision":"zip"},"type":"Feature","geometry":{"type":"Point","coordinates":[-85.966093,35.343691]}},{"properties":{"zipcode":"37345","geo_score":0.714,"over95_in_2cat":0,"id":"adchj1l14v1w","geo_precision":"zip"},"type":"Feature","geometry":{"type":"Point","coordinates":[-86.269988,35.08953]}},{"properties":{"zipcode":"37347","geo_score":0.714,"over95_in_2cat":0,"id":"adchj1cit0tk","geo_precision":"zip"},"type":"Feature","geometry":{"type":"Point","coordinates":[-85.671914,35.047857]}},{"properties":{"zipcode":"37352","geo_score":0.714,"over95_in_2cat":0,"id":"adchj1bu0xfx","geo_precision":"zip"},"type":"Feature","geometry":{"type":"Point","coordinates":[-86.321936,35.294802]}},{"properties":{"zipcode":"37354","geo_score":0.714,"over95_in_2cat":0,"id":"adchj1gbm0y8","geo_precision":"zip"},"type":"Feature","geometry":{"type":"Point","coordinates":[-84.350756,35.441743]}},{"properties":{"zipcode":"37355","geo_score":0.714,"over95_in_2cat":0,"id":"adchj1iaqonk","geo_precision":"zip"},"type":"Feature","geometry":{"type":"Point","coordinates":[-86.106656,35.540075]}},{"properties":{"zipcode":"37356","geo_score":0.714,"over95_in_2cat":0,"id":"adchj1mpzafl","geo_precision":"zip"},"type":"Feature","geometry":{"type":"Point","coordinates":[-85.822933,35.264698]}},{"properties":{"zipcode":"37357","geo_score":0.714,"over95_in_2cat":0,"id":"adchj1bdlye2","geo_precision":"zip"},"type":"Feature","geometry":{"type":"Point","coordinates":[-85.985265,35.61924]}},{"properties":{"zipcode":"37362","geo_score":0.714,"over95_in_2cat":0,"id":"adchj17c4s8m","geo_precision":"zip"},"type":"Feature","geometry":{"type":"Point","coordinates":[-84.686881,35.009521]}},{"properties":{"zipcode":"37364","geo_score":0.714,"over95_in_2cat":0,"id":"adchj1gjqsxg","geo_precision":"zip"},"type":"Feature","geometry":{"type":"Point","coordinates":[-84.861885,35.17272]}},{"properties":{"zipcode":"37365","geo_score":0.714,"over95_in_2cat":0,"id":"adchj1h347dm","geo_precision":"zip"},"type":"Feature","geometry":{"type":"Point","coordinates":[-85.553026,35.391737]}},{"properties":{"zipcode":"37366","geo_score":0.714,"over95_in_2cat":0,"id":"adchj1kyezio","geo_precision":"zip"},"type":"Feature","geometry":{"type":"Point","coordinates":[-85.831367,35.358411]}},{"properties":{"zipcode":"37367","geo_score":0.714,"over95_in_2cat":0,"id":"adchj1ffqthf","geo_precision":"zip"},"type":"Feature","geometry":{"type":"Point","coordinates":[-85.095513,35.699791]}},{"properties":{"zipcode":"37370","geo_score":0.714,"over95_in_2cat":0,"id":"adchj177f5ux","geo_precision":"zip"},"type":"Feature","geometry":{"type":"Point","coordinates":[-84.62688,35.363406]}},{"properties":{"zipcode":"37375","geo_score":0.714,"over95_in_2cat":0,"id":"adchj1eaupu7","geo_precision":"zip"},"type":"Feature","geometry":{"type":"Point","coordinates":[-86.06546,35.184313]}},{"properties":{"zipcode":"37380","geo_score":0.714,"over95_in_2cat":0,"id":"adchj1jcqsjy","geo_precision":"zip"},"type":"Feature","geometry":{"type":"Point","coordinates":[-85.742194,35.12758]}},{"properties":{"zipcode":"37381","geo_score":0.714,"over95_in_2cat":0,"id":"adchj1a3pibm","geo_precision":"zip"},"type":"Feature","geometry":{"type":"Point","coordinates":[-84.855502,35.645349]}},{"properties":{"zipcode":"37385","geo_score":0.714,"over95_in_2cat":2,"id":"adchj1n45k6f","geo_precision":"zip"},"type":"Feature","geometry":{"type":"Point","coordinates":[-84.361868,35.344243]}},{"properties":{"zipcode":"37387","geo_score":0.714,"over95_in_2cat":0,"id":"adchj1cs798x","geo_precision":"zip"},"type":"Feature","geometry":{"type":"Point","coordinates":[-85.799141,35.253691]}},{"properties":{"zipcode":"37388","geo_score":0.714,"over95_in_2cat":0,"id":"adchj1hs58rm","geo_precision":"zip"},"type":"Feature","geometry":{"type":"Point","coordinates":[-86.201101,35.347302]}},{"properties":{"zipcode":"37397","geo_score":0.714,"over95_in_2cat":1,"id":"adchj1ejk9gs","geo_precision":"zip"},"type":"Feature","geometry":{"type":"Point","coordinates":[-85.516076,35.126742]}},{"properties":{"zipcode":"37398","geo_score":0.714,"over95_in_2cat":0,"id":"adchj1mmjxm3","geo_precision":"zip"},"type":"Feature","geometry":{"type":"Point","coordinates":[-86.323324,35.203416]}},{"properties":{"zipcode":"37601","geo_score":0.714,"over95_in_2cat":0,"id":"adchj1g84vsl","geo_precision":"zip"},"type":"Feature","geometry":{"type":"Point","coordinates":[-82.376807,36.34455]}},{"properties":{"zipcode":"37604","geo_score":0.714,"over95_in_2cat":0,"id":"adchj1hi2623","geo_precision":"zip"},"type":"Feature","geometry":{"type":"Point","coordinates":[-82.387422,36.308229]}},{"properties":{"zipcode":"37614","geo_score":0.714,"over95_in_2cat":0,"id":"adchj1fadiv6","geo_precision":"zip"},"type":"Feature","geometry":{"type":"Point","coordinates":[-82.562649,36.157086]}},{"properties":{"zipcode":"37615","geo_score":0.714,"over95_in_2cat":1,"id":"adchj1lxawdh","geo_precision":"zip"},"type":"Feature","geometry":{"type":"Point","coordinates":[-82.569039,36.365937]}},{"properties":{"zipcode":"37616","geo_score":0.714,"over95_in_2cat":0,"id":"adchj1ln6baj","geo_precision":"zip"},"type":"Feature","geometry":{"type":"Point","coordinates":[-82.782101,36.307601]}},{"properties":{"zipcode":"37617","geo_score":0.714,"over95_in_2cat":0,"id":"adchj1g9daas","geo_precision":"zip"},"type":"Feature","geometry":{"type":"Point","coordinates":[-82.317083,36.51177]}},{"properties":{"zipcode":"37618","geo_score":0.714,"over95_in_2cat":0,"id":"adchj1cfzqwl","geo_precision":"zip"},"type":"Feature","geometry":{"type":"Point","coordinates":[-82.261059,36.479403]}},{"properties":{"zipcode":"37620","geo_score":0.714,"over95_in_2cat":0,"id":"adchj1m670oj","geo_precision":"zip"},"type":"Feature","geometry":{"type":"Point","coordinates":[-82.184854,36.527051]}},{"properties":{"zipcode":"37640","geo_score":0.714,"over95_in_2cat":0,"id":"adchj180aseh","geo_precision":"zip"},"type":"Feature","geometry":{"type":"Point","coordinates":[-81.958173,36.245679]}},{"properties":{"zipcode":"37641","geo_score":0.714,"over95_in_2cat":0,"id":"adchj16xyx9a","geo_precision":"zip"},"type":"Feature","geometry":{"type":"Point","coordinates":[-82.636537,36.169827]}},{"properties":{"zipcode":"37642","geo_score":0.714,"over95_in_2cat":0,"id":"adchj1ephe7c","geo_precision":"zip"},"type":"Feature","geometry":{"type":"Point","coordinates":[-82.676824,36.53621]}},{"properties":{"zipcode":"37643","geo_score":0.714,"over95_in_2cat":2,"id":"adchj1m5ou61","geo_precision":"zip"},"type":"Feature","geometry":{"type":"Point","coordinates":[-82.150129,36.347889]}},{"properties":{"zipcode":"37645","geo_score":0.714,"over95_in_2cat":0,"id":"adchj19l8s5d","geo_precision":"zip"},"type":"Feature","geometry":{"type":"Point","coordinates":[-82.683281,36.564092]}},{"properties":{"zipcode":"37650","geo_score":0.714,"over95_in_2cat":0,"id":"adchj1dpbfsh","geo_precision":"zip"},"type":"Feature","geometry":{"type":"Point","coordinates":[-82.458475,36.181218]}},{"properties":{"zipcode":"37658","geo_score":0.714,"over95_in_2cat":0,"id":"adchj1jzikj4","geo_precision":"zip"},"type":"Feature","geometry":{"type":"Point","coordinates":[-82.149749,36.25366]}},{"properties":{"zipcode":"37659","geo_score":0.714,"over95_in_2cat":0,"id":"adchj1buqrtg","geo_precision":"zip"},"type":"Feature","geometry":{"type":"Point","coordinates":[-82.489065,36.289189]}},{"properties":{"zipcode":"37660","geo_score":0.714,"over95_in_2cat":0,"id":"adchj19a8g80","geo_precision":"zip"},"type":"Feature","geometry":{"type":"Point","coordinates":[-82.53404,36.572879]}},{"properties":{"zipcode":"37663","geo_score":0.714,"over95_in_2cat":0,"id":"adchj18izwd4","geo_precision":"zip"},"type":"Feature","geometry":{"type":"Point","coordinates":[-82.490425,36.481769]}},{"properties":{"zipcode":"37664","geo_score":0.714,"over95_in_2cat":1,"id":"adchj1a7m1em","geo_precision":"zip"},"type":"Feature","geometry":{"type":"Point","coordinates":[-82.435702,36.567602]}},{"properties":{"zipcode":"37680","geo_score":0.714,"over95_in_2cat":0,"id":"adchj1gbtdtq","geo_precision":"zip"},"type":"Feature","geometry":{"type":"Point","coordinates":[-81.796303,36.526206]}},{"properties":{"zipcode":"37681","geo_score":0.714,"over95_in_2cat":0,"id":"adchj1aatafv","geo_precision":"zip"},"type":"Feature","geometry":{"type":"Point","coordinates":[-82.645152,36.311492]}},{"properties":{"zipcode":"37683","geo_score":0.714,"over95_in_2cat":0,"id":"adchj1l82yt3","geo_precision":"zip"},"type":"Feature","geometry":{"type":"Point","coordinates":[-81.863728,36.393176]}},{"properties":{"zipcode":"37686","geo_score":0.714,"over95_in_2cat":0,"id":"adchj1kofqhn","geo_precision":"zip"},"type":"Feature","geometry":{"type":"Point","coordinates":[-82.340731,36.449142]}},{"properties":{"zipcode":"37687","geo_score":0.714,"over95_in_2cat":0,"id":"adchj1l0ybv8","geo_precision":"zip"},"type":"Feature","geometry":{"type":"Point","coordinates":[-82.119846,36.140951]}},{"properties":{"zipcode":"37690","geo_score":0.714,"over95_in_2cat":0,"id":"adchj1fp7pxf","geo_precision":"zip"},"type":"Feature","geometry":{"type":"Point","coordinates":[-82.56404,36.244143]}},{"properties":{"zipcode":"37692","geo_score":0.714,"over95_in_2cat":0,"id":"adchj1hlmi2v","geo_precision":"zip"},"type":"Feature","geometry":{"type":"Point","coordinates":[-82.316667,36.201952]}},{"properties":{"zipcode":"37694","geo_score":0.714,"over95_in_2cat":0,"id":"adchj1cvi9gx","geo_precision":"zip"},"type":"Feature","geometry":{"type":"Point","coordinates":[-82.265135,36.368995]}},{"properties":{"zipcode":"37705","geo_score":0.714,"over95_in_2cat":0,"id":"adchj1cnrp2b","geo_precision":"zip"},"type":"Feature","geometry":{"type":"Point","coordinates":[-83.952692,36.226468]}},{"properties":{"zipcode":"37708","geo_score":0.714,"over95_in_2cat":0,"id":"adchj17loi9h","geo_precision":"zip"},"type":"Feature","geometry":{"type":"Point","coordinates":[-83.493998,36.250636]}},{"properties":{"zipcode":"37710","geo_score":0.714,"over95_in_2cat":1,"id":"adchj1j5dp1j","geo_precision":"zip"},"type":"Feature","geometry":{"type":"Point","coordinates":[-84.314097,36.207301]}},{"properties":{"zipcode":"37711","geo_score":0.714,"over95_in_2cat":0,"id":"adchj1du2dc2","geo_precision":"zip"},"type":"Feature","geometry":{"type":"Point","coordinates":[-83.029049,36.221487]}},{"properties":{"zipcode":"37714","geo_score":0.714,"over95_in_2cat":0,"id":"adchj1n8b8ef","geo_precision":"zip"},"type":"Feature","geometry":{"type":"Point","coordinates":[-84.161036,36.262579]}},{"properties":{"zipcode":"37715","geo_score":0.714,"over95_in_2cat":0,"id":"adchj1g3z20z","geo_precision":"zip"},"type":"Feature","geometry":{"type":"Point","coordinates":[-83.934367,36.565914]}},{"properties":{"zipcode":"37716","geo_score":0.714,"over95_in_2cat":0,"id":"adchj1mx6q95","geo_precision":"zip"},"type":"Feature","geometry":{"type":"Point","coordinates":[-84.123531,36.154801]}},{"properties":{"zipcode":"37719","geo_score":0.714,"over95_in_2cat":0,"id":"adchj1egphk1","geo_precision":"zip"},"type":"Feature","geometry":{"type":"Point","coordinates":[-84.390727,36.035211]}},{"properties":{"zipcode":"37721","geo_score":0.714,"over95_in_2cat":1,"id":"adchj1lp043b","geo_precision":"zip"},"type":"Feature","geometry":{"type":"Point","coordinates":[-83.825464,36.159526]}},{"properties":{"zipcode":"37722","geo_score":0.714,"over95_in_2cat":0,"id":"adchj1leszfi","geo_precision":"zip"},"type":"Feature","geometry":{"type":"Point","coordinates":[-83.187098,35.849819]}},{"properties":{"zipcode":"37723","geo_score":0.714,"over95_in_2cat":0,"id":"adchj1mkzaf8","geo_precision":"zip"},"type":"Feature","geometry":{"type":"Point","coordinates":[-84.812093,35.951478]}},{"properties":{"zipcode":"37724","geo_score":0.714,"over95_in_2cat":0,"id":"adchj1e7xbbf","geo_precision":"zip"},"type":"Feature","geometry":{"type":"Point","coordinates":[-83.678803,36.582582]}},{"properties":{"zipcode":"37725","geo_score":0.714,"over95_in_2cat":2,"id":"adchj1htbc0i","geo_precision":"zip"},"type":"Feature","geometry":{"type":"Point","coordinates":[-83.403778,36.024258]}},{"properties":{"zipcode":"37727","geo_score":0.714,"over95_in_2cat":0,"id":"adchj1kprkc6","geo_precision":"zip"},"type":"Feature","geometry":{"type":"Point","coordinates":[-82.94487,35.923435]}},{"properties":{"zipcode":"37729","geo_score":0.714,"over95_in_2cat":0,"id":"adchj1aqjo32","geo_precision":"zip"},"type":"Feature","geometry":{"type":"Point","coordinates":[-84.053537,36.524247]}},{"properties":{"zipcode":"37731","geo_score":0.714,"over95_in_2cat":0,"id":"adchj1ctskxw","geo_precision":"zip"},"type":"Feature","geometry":{"type":"Point","coordinates":[-83.057056,36.510756]}},{"properties":{"zipcode":"37737","geo_score":0.714,"over95_in_2cat":0,"id":"adchj1moyoyh","geo_precision":"zip"},"type":"Feature","geometry":{"type":"Point","coordinates":[-84.101182,35.758228]}},{"properties":{"zipcode":"37738","geo_score":0.714,"over95_in_2cat":0,"id":"adchj1i2gsji","geo_precision":"zip"},"type":"Feature","geometry":{"type":"Point","coordinates":[-83.436982,35.727782]}},{"properties":{"zipcode":"37742","geo_score":0.714,"over95_in_2cat":0,"id":"adchj198i63m","geo_precision":"zip"},"type":"Feature","geometry":{"type":"Point","coordinates":[-84.179636,35.746746]}},{"properties":{"zipcode":"37743","geo_score":0.714,"over95_in_2cat":0,"id":"adchj1ekhwiy","geo_precision":"zip"},"type":"Feature","geometry":{"type":"Point","coordinates":[-82.910991,36.242044]}},{"properties":{"zipcode":"37745","geo_score":0.714,"over95_in_2cat":0,"id":"adchj1f2byza","geo_precision":"zip"},"type":"Feature","geometry":{"type":"Point","coordinates":[-82.82378,36.245521]}},{"properties":{"zipcode":"37748","geo_score":0.714,"over95_in_2cat":1,"id":"adchj1mwtgk8","geo_precision":"zip"},"type":"Feature","geometry":{"type":"Point","coordinates":[-84.533547,35.96202]}},{"properties":{"zipcode":"37752","geo_score":0.714,"over95_in_2cat":1,"id":"adchj1h4pjle","geo_precision":"zip"},"type":"Feature","geometry":{"type":"Point","coordinates":[-83.573282,36.532527]}},{"properties":{"zipcode":"37753","geo_score":0.714,"over95_in_2cat":0,"id":"adchj1g0isys","geo_precision":"zip"},"type":"Feature","geometry":{"type":"Point","coordinates":[-83.098214,35.82414]}},{"properties":{"zipcode":"37754","geo_score":0.714,"over95_in_2cat":0,"id":"adchj17opsbc","geo_precision":"zip"},"type":"Feature","geometry":{"type":"Point","coordinates":[-84.041266,36.087461]}},{"properties":{"zipcode":"37756","geo_score":0.714,"over95_in_2cat":0,"id":"adchj1l6hfvj","geo_precision":"zip"},"type":"Feature","geometry":{"type":"Point","coordinates":[-84.38549,36.337024]}},{"properties":{"zipcode":"37757","geo_score":0.714,"over95_in_2cat":0,"id":"adchj1i7wgdy","geo_precision":"zip"},"type":"Feature","geometry":{"type":"Point","coordinates":[-84.15575,36.307449]}},{"properties":{"zipcode":"37760","geo_score":0.714,"over95_in_2cat":1,"id":"adchj1fixz9x","geo_precision":"zip"},"type":"Feature","geometry":{"type":"Point","coordinates":[-83.477671,36.062312]}},{"properties":{"zipcode":"37762","geo_score":0.714,"over95_in_2cat":0,"id":"adchj1jppcjd","geo_precision":"zip"},"type":"Feature","geometry":{"type":"Point","coordinates":[-84.18382,36.576748]}},{"properties":{"zipcode":"37763","geo_score":0.714,"over95_in_2cat":0,"id":"adchj17obhug","geo_precision":"zip"},"type":"Feature","geometry":{"type":"Point","coordinates":[-84.415206,35.874243]}},{"properties":{"zipcode":"37764","geo_score":0.714,"over95_in_2cat":0,"id":"adchj1d6qhwp","geo_precision":"zip"},"type":"Feature","geometry":{"type":"Point","coordinates":[-83.593783,35.957866]}},{"properties":{"zipcode":"37766","geo_score":0.714,"over95_in_2cat":0,"id":"adchj1ftqscr","geo_precision":"zip"},"type":"Feature","geometry":{"type":"Point","coordinates":[-84.090654,36.424766]}},{"properties":{"zipcode":"37769","geo_score":0.714,"over95_in_2cat":0,"id":"adchj1liqh0n","geo_precision":"zip"},"type":"Feature","geometry":{"type":"Point","coordinates":[-84.144924,36.250912]}},{"properties":{"zipcode":"37771","geo_score":0.714,"over95_in_2cat":0,"id":"adchj19tmkrq","geo_precision":"zip"},"type":"Feature","geometry":{"type":"Point","coordinates":[-84.356314,35.83341]}},{"properties":{"zipcode":"37772","geo_score":0.714,"over95_in_2cat":0,"id":"adchj1hkbxq7","geo_precision":"zip"},"type":"Feature","geometry":{"type":"Point","coordinates":[-84.256679,35.787243]}},{"properties":{"zipcode":"37774","geo_score":0.714,"over95_in_2cat":0,"id":"adchj1kmalb1","geo_precision":"zip"},"type":"Feature","geometry":{"type":"Point","coordinates":[-84.292142,35.745633]}},{"properties":{"zipcode":"37777","geo_score":0.714,"over95_in_2cat":0,"id":"adchj1b3cmvs","geo_precision":"zip"},"type":"Feature","geometry":{"type":"Point","coordinates":[-84.132413,35.828969]}},{"properties":{"zipcode":"37779","geo_score":0.714,"over95_in_2cat":0,"id":"adchj17148w5","geo_precision":"zip"},"type":"Feature","geometry":{"type":"Point","coordinates":[-83.793682,36.181016]}},{"properties":{"zipcode":"37801","geo_score":0.714,"over95_in_2cat":0,"id":"adchj1lwqw4e","geo_precision":"zip"},"type":"Feature","geometry":{"type":"Point","coordinates":[-83.979071,35.756472]}},{"properties":{"zipcode":"37803","geo_score":0.714,"over95_in_2cat":1,"id":"adchj1kcbhng","geo_precision":"zip"},"type":"Feature","geometry":{"type":"Point","coordinates":[-83.995621,35.653917]}},{"properties":{"zipcode":"37804","geo_score":0.714,"over95_in_2cat":1,"id":"adchj1gsfqh1","geo_precision":"zip"},"type":"Feature","geometry":{"type":"Point","coordinates":[-83.885212,35.799053]}},{"properties":{"zipcode":"37807","geo_score":0.714,"over95_in_2cat":1,"id":"adchj1mx61gy","geo_precision":"zip"},"type":"Feature","geometry":{"type":"Point","coordinates":[-83.800467,36.287581]}},{"properties":{"zipcode":"37810","geo_score":0.714,"over95_in_2cat":0,"id":"adchj1ac2nzd","geo_precision":"zip"},"type":"Feature","geometry":{"type":"Point","coordinates":[-83.079883,36.179264]}},{"properties":{"zipcode":"37811","geo_score":0.714,"over95_in_2cat":0,"id":"adchj1n4o4d5","geo_precision":"zip"},"type":"Feature","geometry":{"type":"Point","coordinates":[-83.178503,36.351481]}},{"properties":{"zipcode":"37813","geo_score":0.714,"over95_in_2cat":0,"id":"adchj18tus6l","geo_precision":"zip"},"type":"Feature","geometry":{"type":"Point","coordinates":[-83.261343,36.188826]}},{"properties":{"zipcode":"37814","geo_score":0.714,"over95_in_2cat":0,"id":"adchj1h8grwy","geo_precision":"zip"},"type":"Feature","geometry":{"type":"Point","coordinates":[-83.282671,36.25287]}},{"properties":{"zipcode":"37818","geo_score":0.714,"over95_in_2cat":0,"id":"adchj1frhnwx","geo_precision":"zip"},"type":"Feature","geometry":{"type":"Point","coordinates":[-83.040434,36.097321]}},{"properties":{"zipcode":"37820","geo_score":0.714,"over95_in_2cat":0,"id":"adchj1h9v8w3","geo_precision":"zip"},"type":"Feature","geometry":{"type":"Point","coordinates":[-83.525454,36.156477]}},{"properties":{"zipcode":"37821","geo_score":0.714,"over95_in_2cat":0,"id":"adchj17fz8c7","geo_precision":"zip"},"type":"Feature","geometry":{"type":"Point","coordinates":[-83.200992,35.96593]}},{"properties":{"zipcode":"37825","geo_score":0.714,"over95_in_2cat":0,"id":"adchj17a6j1f","geo_precision":"zip"},"type":"Feature","geometry":{"type":"Point","coordinates":[-83.722134,36.423414]}},{"properties":{"zipcode":"37826","geo_score":0.714,"over95_in_2cat":0,"id":"adchj1hjjb6n","geo_precision":"zip"},"type":"Feature","geometry":{"type":"Point","coordinates":[-84.50493,35.520352]}},{"properties":{"zipcode":"37828","geo_score":0.714,"over95_in_2cat":0,"id":"adchj1e9hrpa","geo_precision":"zip"},"type":"Feature","geometry":{"type":"Point","coordinates":[-84.085785,36.200476]}},{"properties":{"zipcode":"37829","geo_score":0.714,"over95_in_2cat":0,"id":"adchj1kkiilv","geo_precision":"zip"},"type":"Feature","geometry":{"type":"Point","coordinates":[-84.653829,35.968129]}},{"properties":{"zipcode":"37830","geo_score":0.714,"over95_in_2cat":1,"id":"adchj1i7ze18","geo_precision":"zip"},"type":"Feature","geometry":{"type":"Point","coordinates":[-84.202976,36.052579]}},{"properties":{"zipcode":"37840","geo_score":0.714,"over95_in_2cat":0,"id":"adchj1bdi3u2","geo_precision":"zip"},"type":"Feature","geometry":{"type":"Point","coordinates":[-84.361039,36.037578]}},{"properties":{"zipcode":"37841","geo_score":0.714,"over95_in_2cat":0,"id":"adchj19a3yca","geo_precision":"zip"},"type":"Feature","geometry":{"type":"Point","coordinates":[-84.494383,36.453968]}},{"properties":{"zipcode":"37843","geo_score":0.714,"over95_in_2cat":0,"id":"adchj1mqtumi","geo_precision":"zip"},"type":"Feature","geometry":{"type":"Point","coordinates":[-83.020985,35.987045]}},{"properties":{"zipcode":"37846","geo_score":0.714,"over95_in_2cat":0,"id":"adchj1ftetko","geo_precision":"zip"},"type":"Feature","geometry":{"type":"Point","coordinates":[-84.431236,35.678118]}},{"properties":{"zipcode":"37847","geo_score":0.714,"over95_in_2cat":0,"id":"adchj18ljt3r","geo_precision":"zip"},"type":"Feature","geometry":{"type":"Point","coordinates":[-84.260486,36.382302]}},{"properties":{"zipcode":"37849","geo_score":0.714,"over95_in_2cat":0,"id":"adchj1aj4m3u","geo_precision":"zip"},"type":"Feature","geometry":{"type":"Point","coordinates":[-84.137417,36.04008]}},{"properties":{"zipcode":"37852","geo_score":0.714,"over95_in_2cat":0,"id":"adchj1khrmt1","geo_precision":"zip"},"type":"Feature","geometry":{"type":"Point","coordinates":[-84.611608,36.358132]}},{"properties":{"zipcode":"37853","geo_score":0.714,"over95_in_2cat":0,"id":"adchj1fugsg0","geo_precision":"zip"},"type":"Feature","geometry":{"type":"Point","coordinates":[-83.906157,35.837548]}},{"properties":{"zipcode":"37854","geo_score":0.714,"over95_in_2cat":0,"id":"adchj1k4x767","geo_precision":"zip"},"type":"Feature","geometry":{"type":"Point","coordinates":[-84.637438,35.870351]}},{"properties":{"zipcode":"37857","geo_score":0.714,"over95_in_2cat":1,"id":"adchj1bt8rjn","geo_precision":"zip"},"type":"Feature","geometry":{"type":"Point","coordinates":[-87.015563,35.199524]}},{"properties":{"zipcode":"37860","geo_score":0.714,"over95_in_2cat":0,"id":"adchj1mdu347","geo_precision":"zip"},"type":"Feature","geometry":{"type":"Point","coordinates":[-83.16461,36.220929]}},{"properties":{"zipcode":"37861","geo_score":0.714,"over95_in_2cat":0,"id":"adchj16xib0j","geo_precision":"zip"},"type":"Feature","geometry":{"type":"Point","coordinates":[-83.454343,36.222867]}},{"properties":{"zipcode":"37862","geo_score":0.714,"over95_in_2cat":3,"id":"adchj187hqqw","geo_precision":"zip"},"type":"Feature","geometry":{"type":"Point","coordinates":[-83.417385,35.845093]}},{"properties":{"zipcode":"37863","geo_score":0.714,"over95_in_2cat":0,"id":"adchj1gy5393","geo_precision":"zip"},"type":"Feature","geometry":{"type":"Point","coordinates":[-83.568939,35.83391]}},{"properties":{"zipcode":"37865","geo_score":0.714,"over95_in_2cat":0,"id":"adchj1acv6jv","geo_precision":"zip"},"type":"Feature","geometry":{"type":"Point","coordinates":[-83.70934,35.847865]}},{"properties":{"zipcode":"37866","geo_score":0.714,"over95_in_2cat":0,"id":"adchj1kot4w0","geo_precision":"zip"},"type":"Feature","geometry":{"type":"Point","coordinates":[-83.82039,36.342768]}},{"properties":{"zipcode":"37869","geo_score":0.714,"over95_in_2cat":0,"id":"adchj17wgj9k","geo_precision":"zip"},"type":"Feature","geometry":{"type":"Point","coordinates":[-83.240175,36.460922]}},{"properties":{"zipcode":"37870","geo_score":0.714,"over95_in_2cat":0,"id":"adchj1bffxi4","geo_precision":"zip"},"type":"Feature","geometry":{"type":"Point","coordinates":[-83.738804,36.528969]}},{"properties":{"zipcode":"37871","geo_score":0.714,"over95_in_2cat":0,"id":"adchj1beifoy","geo_precision":"zip"},"type":"Feature","geometry":{"type":"Point","coordinates":[-83.720178,36.027864]}},{"properties":{"zipcode":"37872","geo_score":0.714,"over95_in_2cat":0,"id":"adchj1m9unvr","geo_precision":"zip"},"type":"Feature","geometry":{"type":"Point","coordinates":[-84.653277,36.279243]}},{"properties":{"zipcode":"37873","geo_score":0.714,"over95_in_2cat":0,"id":"adchj1dpzwan","geo_precision":"zip"},"type":"Feature","geometry":{"type":"Point","coordinates":[-82.822107,36.490097]}},{"properties":{"zipcode":"37874","geo_score":0.714,"over95_in_2cat":0,"id":"adchj1hn8mu7","geo_precision":"zip"},"type":"Feature","geometry":{"type":"Point","coordinates":[-84.368257,35.600354]}},{"properties":{"zipcode":"37876","geo_score":0.714,"over95_in_2cat":1,"id":"adchj1ft9klq","geo_precision":"zip"},"type":"Feature","geometry":{"type":"Point","coordinates":[-82.133182,36.220671]}},{"properties":{"zipcode":"37877","geo_score":0.714,"over95_in_2cat":0,"id":"adchj1efnwbh","geo_precision":"zip"},"type":"Feature","geometry":{"type":"Point","coordinates":[-83.415172,36.15259]}},{"properties":{"zipcode":"37879","geo_score":0.714,"over95_in_2cat":0,"id":"adchj1f2bnlb","geo_precision":"zip"},"type":"Feature","geometry":{"type":"Point","coordinates":[-83.52435,36.424251]}},{"properties":{"zipcode":"37880","geo_score":0.714,"over95_in_2cat":0,"id":"adchj183vago","geo_precision":"zip"},"type":"Feature","geometry":{"type":"Point","coordinates":[-84.688828,35.712017]}},{"properties":{"zipcode":"37882","geo_score":0.714,"over95_in_2cat":0,"id":"adchj17mhvy9","geo_precision":"zip"},"type":"Feature","geometry":{"type":"Point","coordinates":[-83.796285,35.687031]}},{"properties":{"zipcode":"37885","geo_score":0.714,"over95_in_2cat":0,"id":"adchj1n2wga4","geo_precision":"zip"},"type":"Feature","geometry":{"type":"Point","coordinates":[-84.225767,35.531891]}},{"properties":{"zipcode":"37886","geo_score":0.714,"over95_in_2cat":0,"id":"adchj1h2pcdj","geo_precision":"zip"},"type":"Feature","geometry":{"type":"Point","coordinates":[-83.787952,35.738142]}},{"properties":{"zipcode":"37887","geo_score":0.714,"over95_in_2cat":1,"id":"adchj1h11iyc","geo_precision":"zip"},"type":"Feature","geometry":{"type":"Point","coordinates":[-84.560491,36.031584]}},{"properties":{"zipcode":"37888","geo_score":0.714,"over95_in_2cat":0,"id":"adchj1m9kct4","geo_precision":"zip"},"type":"Feature","geometry":{"type":"Point","coordinates":[-83.61435,36.317584]}},{"properties":{"zipcode":"37890","geo_score":0.714,"over95_in_2cat":0,"id":"adchj1746rt7","geo_precision":"zip"},"type":"Feature","geometry":{"type":"Point","coordinates":[-83.295721,36.063705]}},{"properties":{"zipcode":"37891","geo_score":0.714,"over95_in_2cat":0,"id":"adchj1ajui08","geo_precision":"zip"},"type":"Feature","geometry":{"type":"Point","coordinates":[-83.146114,36.256858]}},{"properties":{"zipcode":"37892","geo_score":0.714,"over95_in_2cat":0,"id":"adchj1av43hl","geo_precision":"zip"},"type":"Feature","geometry":{"type":"Point","coordinates":[-84.415492,36.578691]}},{"properties":{"zipcode":"37902","geo_score":0.714,"over95_in_2cat":0,"id":"adchj1hn3lbo","geo_precision":"zip"},"type":"Feature","geometry":{"type":"Point","coordinates":[-83.875822,35.944976]}},{"properties":{"zipcode":"37909","geo_score":0.714,"over95_in_2cat":0,"id":"adchj1gyunox","geo_precision":"zip"},"type":"Feature","geometry":{"type":"Point","coordinates":[-84.010109,35.944822]}},{"properties":{"zipcode":"37912","geo_score":0.714,"over95_in_2cat":0,"id":"adchj19wj91s","geo_precision":"zip"},"type":"Feature","geometry":{"type":"Point","coordinates":[-84.011578,36.012859]}},{"properties":{"zipcode":"37914","geo_score":0.714,"over95_in_2cat":0,"id":"adchj1a8elws","geo_precision":"zip"},"type":"Feature","geometry":{"type":"Point","coordinates":[-83.843516,36.040917]}},{"properties":{"zipcode":"37915","geo_score":0.714,"over95_in_2cat":0,"id":"adchj1iyt29p","geo_precision":"zip"},"type":"Feature","geometry":{"type":"Point","coordinates":[-83.905415,35.990369]}},{"properties":{"zipcode":"37916","geo_score":0.714,"over95_in_2cat":0,"id":"adchj19agpx6","geo_precision":"zip"},"type":"Feature","geometry":{"type":"Point","coordinates":[-83.973635,35.933783]}},{"properties":{"zipcode":"37917","geo_score":0.714,"over95_in_2cat":0,"id":"adchj1dzl74n","geo_precision":"zip"},"type":"Feature","geometry":{"type":"Point","coordinates":[-83.912407,36.002027]}},{"properties":{"zipcode":"37918","geo_score":0.714,"over95_in_2cat":0,"id":"adchj1brxgkb","geo_precision":"zip"},"type":"Feature","geometry":{"type":"Point","coordinates":[-83.771014,36.063418]}},{"properties":{"zipcode":"37919","geo_score":0.714,"over95_in_2cat":0,"id":"adchj1lky6en","geo_precision":"zip"},"type":"Feature","geometry":{"type":"Point","coordinates":[-84.043521,35.907025]}},{"properties":{"zipcode":"37920","geo_score":0.714,"over95_in_2cat":0,"id":"adchj1782if5","geo_precision":"zip"},"type":"Feature","geometry":{"type":"Point","coordinates":[-83.922128,35.927027]}},{"properties":{"zipcode":"37921","geo_score":0.714,"over95_in_2cat":0,"id":"adchj1k9c1im","geo_precision":"zip"},"type":"Feature","geometry":{"type":"Point","coordinates":[-84.181307,35.980079]}},{"properties":{"zipcode":"37922","geo_score":0.714,"over95_in_2cat":4,"id":"adchj1my3w2r","geo_precision":"zip"},"type":"Feature","geometry":{"type":"Point","coordinates":[-84.165471,35.870079]}},{"properties":{"zipcode":"37923","geo_score":0.714,"over95_in_2cat":0,"id":"adchj1bksdcx","geo_precision":"zip"},"type":"Feature","geometry":{"type":"Point","coordinates":[-84.082405,35.924795]}},{"properties":{"zipcode":"37924","geo_score":0.714,"over95_in_2cat":0,"id":"adchj1960ngu","geo_precision":"zip"},"type":"Feature","geometry":{"type":"Point","coordinates":[-83.975603,35.985081]}},{"properties":{"zipcode":"37931","geo_score":0.714,"over95_in_2cat":0,"id":"adchj17ecrw3","geo_precision":"zip"},"type":"Feature","geometry":{"type":"Point","coordinates":[-84.125653,35.976167]}},{"properties":{"zipcode":"37932","geo_score":0.714,"over95_in_2cat":0,"id":"adchj1gjpm2k","geo_precision":"zip"},"type":"Feature","geometry":{"type":"Point","coordinates":[-84.148074,35.933487]}},{"properties":{"zipcode":"37938","geo_score":0.714,"over95_in_2cat":0,"id":"adchj1fac499","geo_precision":"zip"},"type":"Feature","geometry":{"type":"Point","coordinates":[-83.937408,36.032026]}},{"properties":{"zipcode":"38001","geo_score":0.714,"over95_in_2cat":0,"id":"adchj1il40zp","geo_precision":"zip"},"type":"Feature","geometry":{"type":"Point","coordinates":[-89.166179,35.823406]}},{"properties":{"zipcode":"38004","geo_score":0.714,"over95_in_2cat":0,"id":"adchj17a7i4i","geo_precision":"zip"},"type":"Feature","geometry":{"type":"Point","coordinates":[-89.809562,35.454301]}},{"properties":{"zipcode":"38006","geo_score":0.714,"over95_in_2cat":0,"id":"adchj1dfpk5z","geo_precision":"zip"},"type":"Feature","geometry":{"type":"Point","coordinates":[-89.195623,35.767296]}},{"properties":{"zipcode":"38008","geo_score":0.714,"over95_in_2cat":0,"id":"adchj1lwwc95","geo_precision":"zip"},"type":"Feature","geometry":{"type":"Point","coordinates":[-88.843668,35.169251]}},{"properties":{"zipcode":"38011","geo_score":0.714,"over95_in_2cat":0,"id":"adchj1ifw3hj","geo_precision":"zip"},"type":"Feature","geometry":{"type":"Point","coordinates":[-89.739247,35.529804]}},{"properties":{"zipcode":"38012","geo_score":0.714,"over95_in_2cat":0,"id":"adchj1hdsek5","geo_precision":"zip"},"type":"Feature","geometry":{"type":"Point","coordinates":[-89.347015,35.698688]}},{"properties":{"zipcode":"38019","geo_score":0.714,"over95_in_2cat":1,"id":"adchj19adsjw","geo_precision":"zip"},"type":"Feature","geometry":{"type":"Point","coordinates":[-89.752581,35.588414]}},{"properties":{"zipcode":"38023","geo_score":0.714,"over95_in_2cat":0,"id":"adchj1lkybyi","geo_precision":"zip"},"type":"Feature","geometry":{"type":"Point","coordinates":[-89.93429,35.460696]}},{"properties":{"zipcode":"38024","geo_score":0.714,"over95_in_2cat":1,"id":"adchj1fqj287","geo_precision":"zip"},"type":"Feature","geometry":{"type":"Point","coordinates":[-89.255626,36.032293]}},{"properties":{"zipcode":"38030","geo_score":0.714,"over95_in_2cat":0,"id":"adchj1du4mrn","geo_precision":"zip"},"type":"Feature","geometry":{"type":"Point","coordinates":[-89.675635,36.050627]}},{"properties":{"zipcode":"38034","geo_score":0.714,"over95_in_2cat":0,"id":"adchj1j4w3vh","geo_precision":"zip"},"type":"Feature","geometry":{"type":"Point","coordinates":[-89.177569,35.964516]}},{"properties":{"zipcode":"38037","geo_score":0.714,"over95_in_2cat":0,"id":"adchj17iwwny","geo_precision":"zip"},"type":"Feature","geometry":{"type":"Point","coordinates":[-89.385072,35.774243]}},{"properties":{"zipcode":"38039","geo_score":0.714,"over95_in_2cat":0,"id":"adchj1b8fvva","geo_precision":"zip"},"type":"Feature","geometry":{"type":"Point","coordinates":[-89.140622,35.055153]}},{"properties":{"zipcode":"38040","geo_score":0.714,"over95_in_2cat":0,"id":"adchj19n72ty","geo_precision":"zip"},"type":"Feature","geometry":{"type":"Point","coordinates":[-89.436184,35.95174]}},{"properties":{"zipcode":"38044","geo_score":0.714,"over95_in_2cat":1,"id":"adchj17b5mdt","geo_precision":"zip"},"type":"Feature","geometry":{"type":"Point","coordinates":[-88.955968,35.189276]}},{"properties":{"zipcode":"38049","geo_score":0.714,"over95_in_2cat":1,"id":"adchj1ct3v0w","geo_precision":"zip"},"type":"Feature","geometry":{"type":"Point","coordinates":[-89.563798,35.443164]}},{"properties":{"zipcode":"38050","geo_score":0.714,"over95_in_2cat":0,"id":"adchj19xcyth","geo_precision":"zip"},"type":"Feature","geometry":{"type":"Point","coordinates":[-89.283126,35.840907]}},{"properties":{"zipcode":"38052","geo_score":0.714,"over95_in_2cat":1,"id":"adchj1cmqagh","geo_precision":"zip"},"type":"Feature","geometry":{"type":"Point","coordinates":[-88.912495,35.086247]}},{"properties":{"zipcode":"38057","geo_score":0.714,"over95_in_2cat":0,"id":"adchj1m8p0ek","geo_precision":"zip"},"type":"Feature","geometry":{"type":"Point","coordinates":[-89.471743,35.045924]}},{"properties":{"zipcode":"38058","geo_score":0.714,"over95_in_2cat":0,"id":"adchj1dkcmj7","geo_precision":"zip"},"type":"Feature","geometry":{"type":"Point","coordinates":[-89.542576,35.585913]}},{"properties":{"zipcode":"38059","geo_score":0.714,"over95_in_2cat":0,"id":"adchj175rvwu","geo_precision":"zip"},"type":"Feature","geometry":{"type":"Point","coordinates":[-89.272827,36.113717]}},{"properties":{"zipcode":"38060","geo_score":0.714,"over95_in_2cat":0,"id":"adchj173s9lt","geo_precision":"zip"},"type":"Feature","geometry":{"type":"Point","coordinates":[-89.489977,35.234809]}},{"properties":{"zipcode":"38063","geo_score":0.714,"over95_in_2cat":0,"id":"adchj19vfas7","geo_precision":"zip"},"type":"Feature","geometry":{"type":"Point","coordinates":[-89.415628,35.73841]}},{"properties":{"zipcode":"38068","geo_score":0.714,"over95_in_2cat":1,"id":"adchj1jb2gj1","geo_precision":"zip"},"type":"Feature","geometry":{"type":"Point","coordinates":[-89.48452,35.312863]}},{"properties":{"zipcode":"38075","geo_score":0.714,"over95_in_2cat":0,"id":"adchj1abuyxu","geo_precision":"zip"},"type":"Feature","geometry":{"type":"Point","coordinates":[-89.126324,35.314672]}},{"properties":{"zipcode":"38076","geo_score":0.714,"over95_in_2cat":0,"id":"adchj1d0lrbr","geo_precision":"zip"},"type":"Feature","geometry":{"type":"Point","coordinates":[-89.422466,35.141626]}},{"properties":{"zipcode":"38079","geo_score":0.714,"over95_in_2cat":0,"id":"adchj1cmjfc3","geo_precision":"zip"},"type":"Feature","geometry":{"type":"Point","coordinates":[-89.477297,36.434508]}},{"properties":{"zipcode":"38080","geo_score":0.714,"over95_in_2cat":0,"id":"adchj1fs6ydu","geo_precision":"zip"},"type":"Feature","geometry":{"type":"Point","coordinates":[-89.442019,36.335622]}},{"properties":{"zipcode":"38201","geo_score":0.714,"over95_in_2cat":0,"id":"adchj1k8688s","geo_precision":"zip"},"type":"Feature","geometry":{"type":"Point","coordinates":[-88.43755,36.127839]}},{"properties":{"zipcode":"38220","geo_score":0.714,"over95_in_2cat":0,"id":"adchj1azhlfj","geo_precision":"zip"},"type":"Feature","geometry":{"type":"Point","coordinates":[-88.635869,35.98991]}},{"properties":{"zipcode":"38221","geo_score":0.714,"over95_in_2cat":0,"id":"adchj1am6hyc","geo_precision":"zip"},"type":"Feature","geometry":{"type":"Point","coordinates":[-88.001978,36.255334]}},{"properties":{"zipcode":"38222","geo_score":0.714,"over95_in_2cat":0,"id":"adchj1cpj3py","geo_precision":"zip"},"type":"Feature","geometry":{"type":"Point","coordinates":[-88.263651,36.459778]}},{"properties":{"zipcode":"38225","geo_score":0.714,"over95_in_2cat":0,"id":"adchj1lm8qgy","geo_precision":"zip"},"type":"Feature","geometry":{"type":"Point","coordinates":[-88.714222,36.423394]}},{"properties":{"zipcode":"38229","geo_score":0.714,"over95_in_2cat":0,"id":"adchj1d76ms8","geo_precision":"zip"},"type":"Feature","geometry":{"type":"Point","coordinates":[-88.616346,36.224842]}},{"properties":{"zipcode":"38230","geo_score":0.714,"over95_in_2cat":0,"id":"adchj1ker4a4","geo_precision":"zip"},"type":"Feature","geometry":{"type":"Point","coordinates":[-88.864784,36.180343]}},{"properties":{"zipcode":"38231","geo_score":0.714,"over95_in_2cat":0,"id":"adchj1fdnbnm","geo_precision":"zip"},"type":"Feature","geometry":{"type":"Point","coordinates":[-88.421701,36.221214]}},{"properties":{"zipcode":"38232","geo_score":0.714,"over95_in_2cat":0,"id":"adchj1b7hx7i","geo_precision":"zip"},"type":"Feature","geometry":{"type":"Point","coordinates":[-89.333345,36.35288]}},{"properties":{"zipcode":"38233","geo_score":0.714,"over95_in_2cat":0,"id":"adchj1ahoopf","geo_precision":"zip"},"type":"Feature","geometry":{"type":"Point","coordinates":[-88.983121,36.221178]}},{"properties":{"zipcode":"38235","geo_score":0.714,"over95_in_2cat":0,"id":"adchj1dlhwjq","geo_precision":"zip"},"type":"Feature","geometry":{"type":"Point","coordinates":[-88.574447,35.977824]}},{"properties":{"zipcode":"38237","geo_score":0.714,"over95_in_2cat":0,"id":"adchj17iw14i","geo_precision":"zip"},"type":"Feature","geometry":{"type":"Point","coordinates":[-88.782561,36.324103]}},{"properties":{"zipcode":"38242","geo_score":0.714,"over95_in_2cat":2,"id":"adchj1mt50tj","geo_precision":"zip"},"type":"Feature","geometry":{"type":"Point","coordinates":[-88.305599,36.310613]}},{"properties":{"zipcode":"38251","geo_score":0.714,"over95_in_2cat":0,"id":"adchj1avq009","geo_precision":"zip"},"type":"Feature","geometry":{"type":"Point","coordinates":[-88.294207,36.449778]}},{"properties":{"zipcode":"38255","geo_score":0.714,"over95_in_2cat":0,"id":"adchj1jdy8dy","geo_precision":"zip"},"type":"Feature","geometry":{"type":"Point","coordinates":[-88.860371,36.241614]}},{"properties":{"zipcode":"38257","geo_score":0.714,"over95_in_2cat":1,"id":"adchj1j8wtpi","geo_precision":"zip"},"type":"Feature","geometry":{"type":"Point","coordinates":[-89.08396,36.381482]}},{"properties":{"zipcode":"38258","geo_score":0.714,"over95_in_2cat":0,"id":"adchj1fmz1jc","geo_precision":"zip"},"type":"Feature","geometry":{"type":"Point","coordinates":[-88.696726,36.048398]}},{"properties":{"zipcode":"38259","geo_score":0.714,"over95_in_2cat":0,"id":"adchj18hzts1","geo_precision":"zip"},"type":"Feature","geometry":{"type":"Point","coordinates":[-89.198503,36.168626]}},{"properties":{"zipcode":"38260","geo_score":0.714,"over95_in_2cat":0,"id":"adchj1ataui2","geo_precision":"zip"},"type":"Feature","geometry":{"type":"Point","coordinates":[-89.210108,36.358606]}},{"properties":{"zipcode":"38261","geo_score":0.714,"over95_in_2cat":1,"id":"adchj1b4dbfc","geo_precision":"zip"},"type":"Feature","geometry":{"type":"Point","coordinates":[-88.949784,36.446729]}},{"properties":{"zipcode":"38301","geo_score":0.714,"over95_in_2cat":0,"id":"adchj1exg6fh","geo_precision":"zip"},"type":"Feature","geometry":{"type":"Point","coordinates":[-88.829781,35.630072]}},{"properties":{"zipcode":"38305","geo_score":0.714,"over95_in_2cat":1,"id":"adchj1h0gzvx","geo_precision":"zip"},"type":"Feature","geometry":{"type":"Point","coordinates":[-88.835682,35.652446]}},{"properties":{"zipcode":"38310","geo_score":0.714,"over95_in_2cat":1,"id":"adchj1igfabc","geo_precision":"zip"},"type":"Feature","geometry":{"type":"Point","coordinates":[-88.350317,35.255081]}},{"properties":{"zipcode":"38313","geo_score":0.714,"over95_in_2cat":0,"id":"adchj179sys9","geo_precision":"zip"},"type":"Feature","geometry":{"type":"Point","coordinates":[-88.260043,35.910063]}},{"properties":{"zipcode":"38315","geo_score":0.714,"over95_in_2cat":0,"id":"adchj19l1cza","geo_precision":"zip"},"type":"Feature","geometry":{"type":"Point","coordinates":[-88.627272,35.312025]}},{"properties":{"zipcode":"38317","geo_score":0.714,"over95_in_2cat":0,"id":"adchj1dx9cmk","geo_precision":"zip"},"type":"Feature","geometry":{"type":"Point","coordinates":[-88.282103,36.056026]}},{"properties":{"zipcode":"38320","geo_score":0.714,"over95_in_2cat":0,"id":"adchj1n34pzb","geo_precision":"zip"},"type":"Feature","geometry":{"type":"Point","coordinates":[-88.191985,36.036449]}},{"properties":{"zipcode":"38324","geo_score":0.714,"over95_in_2cat":0,"id":"adchj1een23l","geo_precision":"zip"},"type":"Feature","geometry":{"type":"Point","coordinates":[-88.39343,35.867454]}},{"properties":{"zipcode":"38326","geo_score":0.714,"over95_in_2cat":0,"id":"adchj1ehlg4s","geo_precision":"zip"},"type":"Feature","geometry":{"type":"Point","coordinates":[-88.292167,35.110079]}},{"properties":{"zipcode":"38329","geo_score":0.714,"over95_in_2cat":1,"id":"adchj1jztaif","geo_precision":"zip"},"type":"Feature","geometry":{"type":"Point","coordinates":[-88.114375,35.536264]}},{"properties":{"zipcode":"38330","geo_score":0.714,"over95_in_2cat":0,"id":"adchj1at7xjb","geo_precision":"zip"},"type":"Feature","geometry":{"type":"Point","coordinates":[-89.042845,36.043125]}},{"properties":{"zipcode":"38337","geo_score":0.714,"over95_in_2cat":0,"id":"adchj1d9xv4g","geo_precision":"zip"},"type":"Feature","geometry":{"type":"Point","coordinates":[-89.026456,35.780292]}},{"properties":{"zipcode":"38340","geo_score":0.714,"over95_in_2cat":0,"id":"adchj1m3e2hu","geo_precision":"zip"},"type":"Feature","geometry":{"type":"Point","coordinates":[-88.693386,35.393689]}},{"properties":{"zipcode":"38341","geo_score":0.714,"over95_in_2cat":0,"id":"adchj1eq66eb","geo_precision":"zip"},"type":"Feature","geometry":{"type":"Point","coordinates":[-88.078052,35.905992]}},{"properties":{"zipcode":"38343","geo_score":0.714,"over95_in_2cat":0,"id":"adchj18fgefj","geo_precision":"zip"},"type":"Feature","geometry":{"type":"Point","coordinates":[-88.93101,35.880408]}},{"properties":{"zipcode":"38344","geo_score":0.714,"over95_in_2cat":0,"id":"adchj1fammac","geo_precision":"zip"},"type":"Feature","geometry":{"type":"Point","coordinates":[-88.353659,36.030895]}},{"properties":{"zipcode":"38345","geo_score":0.714,"over95_in_2cat":0,"id":"adchj1bgzqyr","geo_precision":"zip"},"type":"Feature","geometry":{"type":"Point","coordinates":[-88.496219,35.621106]}},{"properties":{"zipcode":"38347","geo_score":0.714,"over95_in_2cat":0,"id":"adchj1ibph3v","geo_precision":"zip"},"type":"Feature","geometry":{"type":"Point","coordinates":[-88.491318,35.471954]}},{"properties":{"zipcode":"38351","geo_score":0.714,"over95_in_2cat":0,"id":"adchj1ix3116","geo_precision":"zip"},"type":"Feature","geometry":{"type":"Point","coordinates":[-88.556163,35.718401]}},{"properties":{"zipcode":"38355","geo_score":0.714,"over95_in_2cat":0,"id":"adchj1ea277b","geo_precision":"zip"},"type":"Feature","geometry":{"type":"Point","coordinates":[-88.753157,35.813893]}},{"properties":{"zipcode":"38357","geo_score":0.714,"over95_in_2cat":0,"id":"adchj1ldpf04","geo_precision":"zip"},"type":"Feature","geometry":{"type":"Point","coordinates":[-88.365875,35.138139]}},{"properties":{"zipcode":"38363","geo_score":0.714,"over95_in_2cat":1,"id":"adchj1lvx9oq","geo_precision":"zip"},"type":"Feature","geometry":{"type":"Point","coordinates":[-88.041699,35.620625]}},{"properties":{"zipcode":"38366","geo_score":0.714,"over95_in_2cat":0,"id":"adchj1k414yl","geo_precision":"zip"},"type":"Feature","geometry":{"type":"Point","coordinates":[-88.80589,35.4123]}},{"properties":{"zipcode":"38367","geo_score":0.714,"over95_in_2cat":0,"id":"adchj1ccj12p","geo_precision":"zip"},"type":"Feature","geometry":{"type":"Point","coordinates":[-88.641833,35.065178]}},{"properties":{"zipcode":"38368","geo_score":0.714,"over95_in_2cat":1,"id":"adchj18psycl","geo_precision":"zip"},"type":"Feature","geometry":{"type":"Point","coordinates":[-88.368317,35.501858]}},{"properties":{"zipcode":"38369","geo_score":0.714,"over95_in_2cat":0,"id":"adchj1czrn0m","geo_precision":"zip"},"type":"Feature","geometry":{"type":"Point","coordinates":[-88.959639,36.127152]}},{"properties":{"zipcode":"38372","geo_score":0.714,"over95_in_2cat":1,"id":"adchj1fx3lcg","geo_precision":"zip"},"type":"Feature","geometry":{"type":"Point","coordinates":[-88.256706,35.114806]}},{"properties":{"zipcode":"38374","geo_score":0.714,"over95_in_2cat":0,"id":"adchj1khk07r","geo_precision":"zip"},"type":"Feature","geometry":{"type":"Point","coordinates":[-88.2138,35.466358]}},{"properties":{"zipcode":"38375","geo_score":0.714,"over95_in_2cat":0,"id":"adchj1n7fjiv","geo_precision":"zip"},"type":"Feature","geometry":{"type":"Point","coordinates":[-88.601438,35.144806]}},{"properties":{"zipcode":"38381","geo_score":0.714,"over95_in_2cat":0,"id":"adchj1i0bw4u","geo_precision":"zip"},"type":"Feature","geometry":{"type":"Point","coordinates":[-88.942458,35.343473]}},{"properties":{"zipcode":"38382","geo_score":0.714,"over95_in_2cat":0,"id":"adchj1fdcvwc","geo_precision":"zip"},"type":"Feature","geometry":{"type":"Point","coordinates":[-89.062566,35.91757]}},{"properties":{"zipcode":"38388","geo_score":0.714,"over95_in_2cat":0,"id":"adchj19mxm2t","geo_precision":"zip"},"type":"Feature","geometry":{"type":"Point","coordinates":[-88.392335,35.783757]}},{"properties":{"zipcode":"38389","geo_score":0.714,"over95_in_2cat":0,"id":"adchj1f19lqj","geo_precision":"zip"},"type":"Feature","geometry":{"type":"Point","coordinates":[-89.111653,36.135364]}},{"properties":{"zipcode":"38391","geo_score":0.714,"over95_in_2cat":0,"id":"adchj1ca2q6h","geo_precision":"zip"},"type":"Feature","geometry":{"type":"Point","coordinates":[-89.056453,35.557021]}},{"properties":{"zipcode":"38401","geo_score":0.714,"over95_in_2cat":0,"id":"adchj191iurh","geo_precision":"zip"},"type":"Feature","geometry":{"type":"Point","coordinates":[-86.866668,35.573127]}},{"properties":{"zipcode":"38425","geo_score":0.714,"over95_in_2cat":0,"id":"adchj19cposp","geo_precision":"zip"},"type":"Feature","geometry":{"type":"Point","coordinates":[-87.930163,35.388038]}},{"properties":{"zipcode":"38450","geo_score":0.714,"over95_in_2cat":1,"id":"adchj19q6jmx","geo_precision":"zip"},"type":"Feature","geometry":{"type":"Point","coordinates":[-87.671135,35.183969]}},{"properties":{"zipcode":"38451","geo_score":0.714,"over95_in_2cat":0,"id":"adchj17ffex3","geo_precision":"zip"},"type":"Feature","geometry":{"type":"Point","coordinates":[-87.098897,35.470631]}},{"properties":{"zipcode":"38455","geo_score":0.714,"over95_in_2cat":0,"id":"adchj197bgat","geo_precision":"zip"},"type":"Feature","geometry":{"type":"Point","coordinates":[-86.895305,35.05392]}},{"properties":{"zipcode":"38456","geo_score":0.714,"over95_in_2cat":0,"id":"adchj1cx9xks","geo_precision":"zip"},"type":"Feature","geometry":{"type":"Point","coordinates":[-87.350572,35.300635]}},{"properties":{"zipcode":"38461","geo_score":0.714,"over95_in_2cat":0,"id":"adchj1bsm33o","geo_precision":"zip"},"type":"Feature","geometry":{"type":"Point","coordinates":[-87.274178,35.635905]}},{"properties":{"zipcode":"38462","geo_score":0.714,"over95_in_2cat":0,"id":"adchj1itf8qf","geo_precision":"zip"},"type":"Feature","geometry":{"type":"Point","coordinates":[-87.540296,35.555073]}},{"properties":{"zipcode":"38464","geo_score":0.714,"over95_in_2cat":1,"id":"adchj1b5e63z","geo_precision":"zip"},"type":"Feature","geometry":{"type":"Point","coordinates":[-87.46613,35.215913]}},{"properties":{"zipcode":"38468","geo_score":0.714,"over95_in_2cat":0,"id":"adchj1js5ywo","geo_precision":"zip"},"type":"Feature","geometry":{"type":"Point","coordinates":[-87.329741,35.077304]}},{"properties":{"zipcode":"38469","geo_score":0.714,"over95_in_2cat":0,"id":"adchj1cojvhj","geo_precision":"zip"},"type":"Feature","geometry":{"type":"Point","coordinates":[-87.372519,35.143137]}},{"properties":{"zipcode":"38472","geo_score":0.714,"over95_in_2cat":0,"id":"adchj1aelgf9","geo_precision":"zip"},"type":"Feature","geometry":{"type":"Point","coordinates":[-87.12362,35.387299]}},{"properties":{"zipcode":"38473","geo_score":0.714,"over95_in_2cat":0,"id":"adchj1l46klv","geo_precision":"zip"},"type":"Feature","geometry":{"type":"Point","coordinates":[-87.150744,35.036274]}},{"properties":{"zipcode":"38474","geo_score":0.714,"over95_in_2cat":0,"id":"adchj1cnuq28","geo_precision":"zip"},"type":"Feature","geometry":{"type":"Point","coordinates":[-87.251677,35.633683]}},{"properties":{"zipcode":"38478","geo_score":0.714,"over95_in_2cat":0,"id":"adchj1b1gtlf","geo_precision":"zip"},"type":"Feature","geometry":{"type":"Point","coordinates":[-86.904448,35.283967]}},{"properties":{"zipcode":"38482","geo_score":0.714,"over95_in_2cat":0,"id":"adchj17q1bze","geo_precision":"zip"},"type":"Feature","geometry":{"type":"Point","coordinates":[-87.189453,35.74118]}},{"properties":{"zipcode":"38483","geo_score":0.714,"over95_in_2cat":0,"id":"adchj1l1s6io","geo_precision":"zip"},"type":"Feature","geometry":{"type":"Point","coordinates":[-87.304737,35.372578]}},{"properties":{"zipcode":"38485","geo_score":0.714,"over95_in_2cat":0,"id":"adchj17qv2x7","geo_precision":"zip"},"type":"Feature","geometry":{"type":"Point","coordinates":[-87.847804,35.394242]}},{"properties":{"zipcode":"38488","geo_score":0.714,"over95_in_2cat":0,"id":"adchj1apxev2","geo_precision":"zip"},"type":"Feature","geometry":{"type":"Point","coordinates":[-86.717885,35.052581]}},{"properties":{"zipcode":"38501","geo_score":0.714,"over95_in_2cat":0,"id":"adchj1lg7mzr","geo_precision":"zip"},"type":"Feature","geometry":{"type":"Point","coordinates":[-85.484417,36.334783]}},{"properties":{"zipcode":"38504","geo_score":0.714,"over95_in_2cat":0,"id":"adchj1ahmyfa","geo_precision":"zip"},"type":"Feature","geometry":{"type":"Point","coordinates":[-84.782167,36.37424]}},{"properties":{"zipcode":"38506","geo_score":0.714,"over95_in_2cat":0,"id":"adchj1e8fxly","geo_precision":"zip"},"type":"Feature","geometry":{"type":"Point","coordinates":[-85.469451,36.182723]}},{"properties":{"zipcode":"38541","geo_score":0.714,"over95_in_2cat":0,"id":"adchj1krcf7w","geo_precision":"zip"},"type":"Feature","geometry":{"type":"Point","coordinates":[-85.310519,36.507841]}},{"properties":{"zipcode":"38544","geo_score":0.714,"over95_in_2cat":0,"id":"adchj1k77dzp","geo_precision":"zip"},"type":"Feature","geometry":{"type":"Point","coordinates":[-85.746094,36.181449]}},{"properties":{"zipcode":"38549","geo_score":0.714,"over95_in_2cat":0,"id":"adchj1f116yt","geo_precision":"zip"},"type":"Feature","geometry":{"type":"Point","coordinates":[-85.192736,36.580343]}},{"properties":{"zipcode":"38551","geo_score":0.714,"over95_in_2cat":0,"id":"adchj1kop1se","geo_precision":"zip"},"type":"Feature","geometry":{"type":"Point","coordinates":[-85.432466,36.624506]}},{"properties":{"zipcode":"38553","geo_score":0.714,"over95_in_2cat":0,"id":"adchj1hyqn9h","geo_precision":"zip"},"type":"Feature","geometry":{"type":"Point","coordinates":[-85.011311,36.197616]}},{"properties":{"zipcode":"38554","geo_score":0.714,"over95_in_2cat":0,"id":"adchj1boe79u","geo_precision":"zip"},"type":"Feature","geometry":{"type":"Point","coordinates":[-85.11885,36.260622]}},{"properties":{"zipcode":"38555","geo_score":0.714,"over95_in_2cat":0,"id":"adchj184dknm","geo_precision":"zip"},"type":"Feature","geometry":{"type":"Point","coordinates":[-85.043014,36.02229]}},{"properties":{"zipcode":"38556","geo_score":0.714,"over95_in_2cat":0,"id":"adchj1mrjmcb","geo_precision":"zip"},"type":"Feature","geometry":{"type":"Point","coordinates":[-85.083288,36.397289]}},{"properties":{"zipcode":"38559","geo_score":0.714,"over95_in_2cat":0,"id":"adchj1ef5hu7","geo_precision":"zip"},"type":"Feature","geometry":{"type":"Point","coordinates":[-85.519057,35.835572]}},{"properties":{"zipcode":"38560","geo_score":0.714,"over95_in_2cat":0,"id":"adchj1d7mdeg","geo_precision":"zip"},"type":"Feature","geometry":{"type":"Point","coordinates":[-85.862182,36.218759]}},{"properties":{"zipcode":"38562","geo_score":0.714,"over95_in_2cat":0,"id":"adchj1ao7mzv","geo_precision":"zip"},"type":"Feature","geometry":{"type":"Point","coordinates":[-85.608589,36.263948]}},{"properties":{"zipcode":"38563","geo_score":0.714,"over95_in_2cat":0,"id":"adchj1gi6kq3","geo_precision":"zip"},"type":"Feature","geometry":{"type":"Point","coordinates":[-86.072211,36.188944]}},{"properties":{"zipcode":"38565","geo_score":0.714,"over95_in_2cat":0,"id":"adchj1jzg874","geo_precision":"zip"},"type":"Feature","geometry":{"type":"Point","coordinates":[-85.00154,36.259849]}},{"properties":{"zipcode":"38568","geo_score":0.714,"over95_in_2cat":0,"id":"adchj1j2uyla","geo_precision":"zip"},"type":"Feature","geometry":{"type":"Point","coordinates":[-85.509417,36.38506]}},{"properties":{"zipcode":"38570","geo_score":0.714,"over95_in_2cat":0,"id":"adchj1fe7w7g","geo_precision":"zip"},"type":"Feature","geometry":{"type":"Point","coordinates":[-85.339969,36.326451]}},{"properties":{"zipcode":"38571","geo_score":0.714,"over95_in_2cat":0,"id":"adchj19lgk1m","geo_precision":"zip"},"type":"Feature","geometry":{"type":"Point","coordinates":[-85.199366,35.976621]}},{"properties":{"zipcode":"38572","geo_score":0.714,"over95_in_2cat":0,"id":"adchj1ncf404","geo_precision":"zip"},"type":"Feature","geometry":{"type":"Point","coordinates":[-85.199366,35.976621]}},{"properties":{"zipcode":"38574","geo_score":0.714,"over95_in_2cat":0,"id":"adchj1bthf70","geo_precision":"zip"},"type":"Feature","geometry":{"type":"Point","coordinates":[-85.322193,36.190341]}},{"properties":{"zipcode":"38578","geo_score":0.714,"over95_in_2cat":0,"id":"adchj1g4rw6k","geo_precision":"zip"},"type":"Feature","geometry":{"type":"Point","coordinates":[-85.162272,36.007405]}},{"properties":{"zipcode":"38580","geo_score":0.714,"over95_in_2cat":0,"id":"adchj18itg69","geo_precision":"zip"},"type":"Feature","geometry":{"type":"Point","coordinates":[-85.33747,36.269784]}},{"properties":{"zipcode":"38581","geo_score":0.714,"over95_in_2cat":0,"id":"adchj1bsnvlb","geo_precision":"zip"},"type":"Feature","geometry":{"type":"Point","coordinates":[-85.601367,35.740902]}},{"properties":{"zipcode":"38583","geo_score":0.714,"over95_in_2cat":1,"id":"adchj17snbs2","geo_precision":"zip"},"type":"Feature","geometry":{"type":"Point","coordinates":[-85.215799,35.918677]}},{"properties":{"zipcode":"38585","geo_score":0.714,"over95_in_2cat":0,"id":"adchj1bmqe5u","geo_precision":"zip"},"type":"Feature","geometry":{"type":"Point","coordinates":[-85.337469,35.745623]}},{"properties":{"zipcode":"38587","geo_score":0.714,"over95_in_2cat":0,"id":"adchj1ko0scg","geo_precision":"zip"},"type":"Feature","geometry":{"type":"Point","coordinates":[-85.59359,35.849511]}},{"properties":{"zipcode":null,"geo_score":0.0,"over95_in_2cat":13,"id":"adchj1aftqch","geo_precision":null},"type":"Feature","geometry":null}],"is_temporal":false,"author":{"url":"","metadata":"","contact_name":"","contact_address":"","source":"","contact_phone":""},"source":"","pagination":{"sort":null,"start":0,"total":411,"limit":1000000},"state":"complete","tags":"","published":"2014-08-16T13:32:08-04:00","id":340436}