{"type":"FeatureCollection","data_type":"Dataset","url_type":null,"permissions":[{"permissions":{"download":true,"view":true},"group_id":"everyone"}],"classification":null,"title":"cancer","count":50,"stream_id":340710,"contributor":{"url":"http://geocommons.com/users/68679","name":"chrisandresen"},"data_attributes":null,"calculation_params":null,"icon_link":null,"link":"http://geocommons.com/overlays/340710.json","extent":[-157.517,20.5755,-69.0284,61.4946],"geometry_types":["point"],"unique_name":null,"name":"cancer","feature_count":50,"description":"","next_feature":null,"is_raster":false,"short_classification":"Y","stats":{"latitude":{"max":61.49463401,"variance":39.1153879905987,"mean":39.5570723032,"stdev":6.25422960808114,"min":20.57545311,"median":39.74809298},"death rate":{"max":66.5,"variance":76.3089632653061,"mean":51.296,"stdev":8.73550017258921,"min":22.0,"median":52.0},"longitude":{"max":-69.02839014,"variance":377.990063554842,"mean":-93.7662997578,"stdev":19.4419665557485,"min":-157.5167511,"median":-89.86707555}},"features":[{"properties":{"latitude":38.9210566,"death rate":66.5,"longitude":-80.18731287,"id":"adcm16mn2vwz","state":"West Virginia"},"type":"Feature","geometry":{"type":"Point","coordinates":[-80.18731287,38.9210566]}},{"properties":{"latitude":35.83422151,"death rate":65.8,"longitude":-85.97886026,"id":"adcm16fw6178","state":"Tennessee"},"type":"Feature","geometry":{"type":"Point","coordinates":[-85.97886026,35.83422151]}},{"properties":{"latitude":32.59998842,"death rate":64.5,"longitude":-89.86707555,"id":"adcm16hufppy","state":"Mississippi"},"type":"Feature","geometry":{"type":"Point","coordinates":[-89.86707555,32.59998842]}},{"properties":{"latitude":35.31130735,"death rate":64.0,"longitude":-98.71313073,"id":"adcm16h79vop","state":"Oklahoma"},"type":"Feature","geometry":{"type":"Point","coordinates":[-98.71313073,35.31130735]}},{"properties":{"latitude":34.75148134,"death rate":63.6,"longitude":-92.13136815,"id":"adcm16h3ye7l","state":"Arkansas"},"type":"Feature","geometry":{"type":"Point","coordinates":[-92.13136815,34.75148134]}},{"properties":{"latitude":32.62481896,"death rate":61.5,"longitude":-86.6834839,"id":"adcm16edqgkm","state":"Alabama"},"type":"Feature","geometry":{"type":"Point","coordinates":[-86.6834839,32.62481896]}},{"properties":{"latitude":39.77088229,"death rate":61.4,"longitude":-86.44446803,"id":"adcm169s8pxf","state":"Indiana"},"type":"Feature","geometry":{"type":"Point","coordinates":[-86.44446803,39.77088229]}},{"properties":{"latitude":38.2997204,"death rate":60.3,"longitude":-92.43625673,"id":"adcm16fcc0fq","state":"Missouri"},"type":"Feature","geometry":{"type":"Point","coordinates":[-92.43625673,38.2997204]}},{"properties":{"latitude":40.19369154,"death rate":59.0,"longitude":-82.66603338,"id":"adcm16isqvuo","state":"Ohio"},"type":"Feature","geometry":{"type":"Point","coordinates":[-82.66603338,40.19369154]}},{"properties":{"latitude":30.98153904,"death rate":58.9,"longitude":-91.53179419,"id":"adcm16mdcx0z","state":"Louisiana"},"type":"Feature","geometry":{"type":"Point","coordinates":[-91.53179419,30.98153904]}},{"properties":{"latitude":35.23596621,"death rate":57.8,"longitude":-79.89017696,"id":"adcm16bwzxis","state":"North Carolina"},"type":"Feature","geometry":{"type":"Point","coordinates":[-79.89017696,35.23596621]}},{"properties":{"latitude":39.1448606,"death rate":57.0,"longitude":-75.41835879,"id":"adcm16jolad3","state":"Delaware"},"type":"Feature","geometry":{"type":"Point","coordinates":[-75.41835879,39.1448606]}},{"properties":{"latitude":33.63826517,"death rate":56.4,"longitude":-80.96506932,"id":"adcm16j83otb","state":"South Carolina"},"type":"Feature","geometry":{"type":"Point","coordinates":[-80.96506932,33.63826517]}},{"properties":{"latitude":43.86960212,"death rate":56.4,"longitude":-72.47068651,"id":"adcm16hgjgwo","state":"Vermont"},"type":"Feature","geometry":{"type":"Point","coordinates":[-72.47068651,43.86960212]}},{"properties":{"latitude":45.27219253,"death rate":56.3,"longitude":-69.02839014,"id":"adcm16c5ymwc","state":"Maine"},"type":"Feature","geometry":{"type":"Point","coordinates":[-69.02839014,45.27219253]}},{"properties":{"latitude":61.49463401,"death rate":56.1,"longitude":-154.1049169,"id":"adcm16o4obop","state":"Alaska"},"type":"Feature","geometry":{"type":"Point","coordinates":[-154.1049169,61.49463401]}},{"properties":{"latitude":44.93564502,"death rate":55.5,"longitude":-86.41401786,"id":"adcm16p0a23m","state":"Michigan"},"type":"Feature","geometry":{"type":"Point","coordinates":[-86.41401786,44.93564502]}},{"properties":{"latitude":32.68082927,"death rate":54.8,"longitude":-83.2518569,"id":"adcm16l9xihu","state":"Georgia"},"type":"Feature","geometry":{"type":"Point","coordinates":[-83.2518569,32.68082927]}},{"properties":{"latitude":41.66824148,"death rate":54.6,"longitude":-71.49190558,"id":"adcm16kdcz5t","state":"Rhode Island"},"type":"Feature","geometry":{"type":"Point","coordinates":[-71.49190558,41.66824148]}},{"properties":{"latitude":39.74809298,"death rate":54.0,"longitude":-89.51209675,"id":"adcm16dhkd8l","state":"Illinois"},"type":"Feature","geometry":{"type":"Point","coordinates":[-89.51209675,39.74809298]}},{"properties":{"latitude":38.49777576,"death rate":53.9,"longitude":-117.0168584,"id":"adcm16n3myji","state":"Nevada"},"type":"Feature","geometry":{"type":"Point","coordinates":[-117.0168584,38.49777576]}},{"properties":{"latitude":44.00003633,"death rate":53.3,"longitude":-71.64378366,"id":"adcm16evldbm","state":"New Hampshire"},"type":"Feature","geometry":{"type":"Point","coordinates":[-71.64378366,44.00003633]}},{"properties":{"latitude":37.99931082,"death rate":53.0,"longitude":-79.45869803,"id":"adcm16g531eu","state":"Virginia"},"type":"Feature","geometry":{"type":"Point","coordinates":[-79.45869803,37.99931082]}},{"properties":{"latitude":41.93670203,"death rate":52.4,"longitude":-93.39175297,"id":"adcm16mwprij","state":"Iowa"},"type":"Feature","geometry":{"type":"Point","coordinates":[-93.39175297,41.93670203]}},{"properties":{"latitude":40.99332035,"death rate":52.0,"longitude":-77.61305381,"id":"adcm16nyizuq","state":"Pennsylvania"},"type":"Feature","geometry":{"type":"Point","coordinates":[-77.61305381,40.99332035]}},{"properties":{"latitude":46.67683322,"death rate":51.4,"longitude":-110.0533018,"id":"adcm16bnaqeb","state":"Montana"},"type":"Feature","geometry":{"type":"Point","coordinates":[-110.0533018,46.67683322]}},{"properties":{"latitude":38.49593181,"death rate":51.3,"longitude":-98.32637995,"id":"adcm16dwklxe","state":"Kansas"},"type":"Feature","geometry":{"type":"Point","coordinates":[-98.32637995,38.49593181]}},{"properties":{"latitude":42.06257858,"death rate":50.8,"longitude":-71.7083099,"id":"adcm16g63ero","state":"Massachusetts"},"type":"Feature","geometry":{"type":"Point","coordinates":[-71.7083099,42.06257858]}},{"properties":{"latitude":38.84785799,"death rate":50.3,"longitude":-77.2677439,"id":"adcm16eowarj","state":"Maryland"},"type":"Feature","geometry":{"type":"Point","coordinates":[-77.2677439,38.84785799]}},{"properties":{"latitude":44.11188188,"death rate":50.0,"longitude":-120.5150179,"id":"adcm16ie6y8t","state":"Oregon"},"type":"Feature","geometry":{"type":"Point","coordinates":[-120.5150179,44.11188188]}},{"properties":{"latitude":47.27151208,"death rate":49.8,"longitude":-120.8259511,"id":"adcm16emhpg0","state":"Washington"},"type":"Feature","geometry":{"type":"Point","coordinates":[-120.8259511,47.27151208]}},{"properties":{"latitude":41.49782869,"death rate":49.1,"longitude":-99.6824583,"id":"adcm16ixd1xz","state":"Nebraska"},"type":"Feature","geometry":{"type":"Point","coordinates":[-99.6824583,41.49782869]}},{"properties":{"latitude":27.97976682,"death rate":48.8,"longitude":-83.83831119,"id":"adcm16nzjsch","state":"Florida"},"type":"Feature","geometry":{"type":"Point","coordinates":[-83.83831119,27.97976682]}},{"properties":{"latitude":44.72081619,"death rate":48.6,"longitude":-89.92655482,"id":"adcm16o7x2s1","state":"Wisconsin"},"type":"Feature","geometry":{"type":"Point","coordinates":[-89.92655482,44.72081619]}},{"properties":{"latitude":31.16973507,"death rate":47.6,"longitude":-100.0787254,"id":"adcm16e337a8","state":"Texas"},"type":"Feature","geometry":{"type":"Point","coordinates":[-100.0787254,31.16973507]}},{"properties":{"latitude":38.89088755,"death rate":47.2,"longitude":-77.0166165,"id":"adcm16onc3nu","state":"District of Columbia"},"type":"Feature","geometry":{"type":"Point","coordinates":[-77.0166165,38.89088755]}},{"properties":{"latitude":40.15362776,"death rate":47.1,"longitude":-74.73319127,"id":"adcm16fue72y","state":"New Jersey"},"type":"Feature","geometry":{"type":"Point","coordinates":[-74.73319127,40.15362776]}},{"properties":{"latitude":44.21600327,"death rate":46.8,"longitude":-100.2502154,"id":"adcm16dov1zn","state":"South Dakota"},"type":"Feature","geometry":{"type":"Point","coordinates":[-100.2502154,44.21600327]}},{"properties":{"latitude":42.99854103,"death rate":46.1,"longitude":-107.5525671,"id":"adcm16hvu8sq","state":"Wyoming"},"type":"Feature","geometry":{"type":"Point","coordinates":[-107.5525671,42.99854103]}},{"properties":{"latitude":41.52291025,"death rate":45.9,"longitude":-72.75674326,"id":"adcm16lveckw","state":"Connecticut"},"type":"Feature","geometry":{"type":"Point","coordinates":[-72.75674326,41.52291025]}},{"properties":{"latitude":46.43491612,"death rate":45.7,"longitude":-93.38005479,"id":"adcm16gmx2ew","state":"Minnesota"},"type":"Feature","geometry":{"type":"Point","coordinates":[-93.38005479,46.43491612]}},{"properties":{"latitude":42.75607104,"death rate":44.2,"longitude":-75.81661084,"id":"adcm16iiy0qu","state":"New York"},"type":"Feature","geometry":{"type":"Point","coordinates":[-75.81661084,42.75607104]}},{"properties":{"latitude":45.49727496,"death rate":41.6,"longitude":-114.141846,"id":"adcm169p5clm","state":"Idaho"},"type":"Feature","geometry":{"type":"Point","coordinates":[-114.141846,45.49727496]}},{"properties":{"latitude":47.46542445,"death rate":41.1,"longitude":-100.307461,"id":"adcm16i1r56m","state":"North Dakota"},"type":"Feature","geometry":{"type":"Point","coordinates":[-100.307461,47.46542445]}},{"properties":{"latitude":37.26898656,"death rate":39.5,"longitude":-119.2589342,"id":"adcm16an7u0m","state":"California"},"type":"Feature","geometry":{"type":"Point","coordinates":[-119.2589342,37.26898656]}},{"properties":{"latitude":34.16978002,"death rate":39.4,"longitude":-111.9336881,"id":"adcm16gjs80p","state":"Arizona"},"type":"Feature","geometry":{"type":"Point","coordinates":[-111.9336881,34.16978002]}},{"properties":{"latitude":34.17160662,"death rate":37.8,"longitude":-106.0243736,"id":"adcm16mgcwey","state":"New Mexico"},"type":"Feature","geometry":{"type":"Point","coordinates":[-106.0243736,34.17160662]}},{"properties":{"latitude":38.99618452,"death rate":37.7,"longitude":-105.5465344,"id":"adcm16nved5e","state":"Colorado"},"type":"Feature","geometry":{"type":"Point","coordinates":[-105.5465344,38.99618452]}},{"properties":{"latitude":20.57545311,"death rate":36.0,"longitude":-157.5167511,"id":"adcm16dntnbr","state":"Hawaii"},"type":"Feature","geometry":{"type":"Point","coordinates":[-157.5167511,20.57545311]}},{"properties":{"latitude":39.49702344,"death rate":22.0,"longitude":-111.5452397,"id":"adcm16g06wmo","state":"Utah"},"type":"Feature","geometry":{"type":"Point","coordinates":[-111.5452397,39.49702344]}}],"is_temporal":false,"author":{"url":"","metadata":"","contact_name":"","contact_address":"","source":"","contact_phone":""},"source":"","pagination":{"sort":null,"start":0,"total":50,"limit":1000000},"state":"complete","tags":"","published":"2014-08-16T13:48:20-04:00","id":340710}