{"type":"FeatureCollection","data_type":"Dataset","url_type":null,"permissions":[{"permissions":{"download":true,"view":true},"group_id":"everyone"}],"classification":null,"title":"crime@GT","count":28,"stream_id":34167,"contributor":{"url":"http://geocommons.com/users/12009","name":"kchampion3"},"data_attributes":null,"calculation_params":null,"icon_link":null,"link":"http://geocommons.com/overlays/34167.json","extent":[-86.3904,33.8339,-85.5586,34.5831],"geometry_types":["point"],"unique_name":null,"name":"crime@GT","feature_count":28,"description":"","next_feature":null,"is_raster":false,"short_classification":"Y","stats":{"geo_score":{"max":0.829,"mean":0.611464285714286,"variance":0.0326209246031746,"stdev":0.180612636886721,"min":0.0,"median":0.635}},"features":[{"properties":{"city":"Atlanta, GA 30318","date":{"end_time":"2010/02/25 00:00:01 -0500","original":"Thu Feb 25 00:00:00 -0500 2010","granularity":"sec","time":"2010/02/25 00:00:00 -0500"},"geo_score":0.612,"crime type":"Breaking and Entering","id":"a62uyyajvjgg","address":"200 10TH STREET, NW","geo_precision":"street"},"type":"Feature","geometry":{"type":"Point","coordinates":[-86.248453,33.83391]}},{"properties":{"city":"Atlanta, GA 30318","date":{"end_time":"2010/03/11 00:00:01 -0500","original":"Thu Mar 11 00:00:00 -0500 2010","granularity":"sec","time":"2010/03/11 00:00:00 -0500"},"geo_score":0.829,"crime type":"Theft","id":"a62uyychx47y","address":"200 FERST DRIVE, NW","geo_precision":"range"},"type":"Feature","geometry":{"type":"Point","coordinates":[-85.789462,34.582979]}},{"properties":{"city":"Atlanta, GA 30318","date":{"end_time":"2010/02/25 00:00:01 -0500","original":"Thu Feb 25 00:00:00 -0500 2010","granularity":"sec","time":"2010/02/25 00:00:00 -0500"},"geo_score":0.395,"crime type":"Theft","id":"a62uyyiuem4d","address":"900 HEMPHILL AVENUE, NW","geo_precision":"city"},"type":"Feature","geometry":{"type":"Point","coordinates":[-85.558572,34.132319]}},{"properties":{"city":"Atlanta, GA 30318","date":{"end_time":"2010/03/10 00:00:01 -0500","original":"Wed Mar 10 00:00:00 -0500 2010","granularity":"sec","time":"2010/03/10 00:00:00 -0500"},"geo_score":0.707,"crime type":"Theft","id":"a62uyy60ulxi","address":"100 BOBBY DODD WAY, NW","geo_precision":"range"},"type":"Feature","geometry":{"type":"Point","coordinates":[-86.390392,34.129365]}},{"properties":{"city":"Atlanta, GA 30318","date":{"end_time":"2010/03/02 00:00:01 -0500","original":"Tue Mar 02 00:00:00 -0500 2010","granularity":"sec","time":"2010/03/02 00:00:00 -0500"},"geo_score":0.829,"crime type":"Theft","id":"a62uyyf7c1ww","address":"500 TURNER PLACE, NW","geo_precision":"range"},"type":"Feature","geometry":{"type":"Point","coordinates":[-85.989774,34.057]}},{"properties":{"city":"Atlanta, GA 30318","date":{"end_time":"2010/03/11 00:00:01 -0500","original":"Thu Mar 11 00:00:00 -0500 2010","granularity":"sec","time":"2010/03/11 00:00:00 -0500"},"geo_score":0.785,"crime type":"Theft","id":"a62uyyj1yjbz","address":"500  6TH STREET, NW","geo_precision":"range"},"type":"Feature","geometry":{"type":"Point","coordinates":[-85.722448,34.447802]}},{"properties":{"city":"Atlanta, GA 30318","date":{"end_time":"2010/02/25 00:00:01 -0500","original":"Thu Feb 25 00:00:00 -0500 2010","granularity":"sec","time":"2010/02/25 00:00:00 -0500"},"geo_score":0.785,"crime type":"Theft","id":"a62uyyazv1yw","address":"500  6TH STREET, NW","geo_precision":"range"},"type":"Feature","geometry":{"type":"Point","coordinates":[-85.722448,34.447802]}},{"properties":{"city":"Atlanta, GA 30318","date":{"end_time":"2010/03/16 00:00:01 -0400","original":"Tue Mar 16 00:00:00 -0400 2010","granularity":"sec","time":"2010/03/16 00:00:00 -0400"},"geo_score":0.708,"crime type":"Theft","id":"a62uyy67hc0f","address":"700 STATE STREET, NW","geo_precision":"street"},"type":"Feature","geometry":{"type":"Point","coordinates":[-85.967385,34.005963]}},{"properties":{"city":"Atlanta, GA 30318","date":{"end_time":"2010/02/17 00:00:01 -0500","original":"Wed Feb 17 00:00:00 -0500 2010","granularity":"sec","time":"2010/02/17 00:00:00 -0500"},"geo_score":0.396,"crime type":"Theft","id":"a62uyyfk1wd9","address":"800 ATLANTIC DRIVE, NW","geo_precision":"city"},"type":"Feature","geometry":{"type":"Point","coordinates":[-85.558572,34.132319]}},{"properties":{"city":"Atlanta, GA 30318","date":{"end_time":"2010/03/15 00:00:01 -0400","original":"Mon Mar 15 00:00:00 -0400 2010","granularity":"sec","time":"2010/03/15 00:00:00 -0400"},"geo_score":0.396,"crime type":"Theft","id":"a62uyyatjt29","address":"700 ATLANTIC DRIVE, NW","geo_precision":"city"},"type":"Feature","geometry":{"type":"Point","coordinates":[-85.558572,34.132319]}},{"properties":{"city":"Atlanta, GA 30318","date":{"end_time":"2010/02/20 00:00:01 -0500","original":"Sat Feb 20 00:00:00 -0500 2010","granularity":"sec","time":"2010/02/20 00:00:00 -0500"},"geo_score":0.396,"crime type":"Theft","id":"a62uyy9rqsrt","address":"700 ATLANTIC DRIVE, NW","geo_precision":"city"},"type":"Feature","geometry":{"type":"Point","coordinates":[-85.558572,34.132319]}},{"properties":{"city":"Atlanta, GA 30318","date":{"end_time":"2010/02/19 00:00:01 -0500","original":"Fri Feb 19 00:00:00 -0500 2010","granularity":"sec","time":"2010/02/19 00:00:00 -0500"},"geo_score":0.622,"crime type":"Theft","id":"a62uyyf6z2jr","address":"600 CHERRY STREET, NW","geo_precision":"range"},"type":"Feature","geometry":{"type":"Point","coordinates":[-85.656776,34.134433]}},{"properties":{"city":"Atlanta, GA 30318","date":{"end_time":"2010/02/19 00:00:01 -0500","original":"Fri Feb 19 00:00:00 -0500 2010","granularity":"sec","time":"2010/02/19 00:00:00 -0500"},"geo_score":0.622,"crime type":"Theft","id":"a62uyycby5ct","address":"600 CHERRY STREET, NW","geo_precision":"range"},"type":"Feature","geometry":{"type":"Point","coordinates":[-85.656776,34.134433]}},{"properties":{"city":"Atlanta, GA 30318","date":{"end_time":"2010/03/15 00:00:01 -0400","original":"Mon Mar 15 00:00:00 -0400 2010","granularity":"sec","time":"2010/03/15 00:00:00 -0400"},"geo_score":0.591,"crime type":"Theft","id":"a62uyy83794c","address":"500 8TH STREET, NW","geo_precision":"street"},"type":"Feature","geometry":{"type":"Point","coordinates":[-85.73014,34.437414]}},{"properties":{"city":"Atlanta, GA 30318","date":{"end_time":"2010/02/16 00:00:01 -0500","original":"Tue Feb 16 00:00:00 -0500 2010","granularity":"sec","time":"2010/02/16 00:00:00 -0500"},"geo_score":0.635,"crime type":"Theft","id":"a62uyycbkgzi","address":"700 FERST DRIVE, NW","geo_precision":"street"},"type":"Feature","geometry":{"type":"Point","coordinates":[-85.788894,34.583103]}},{"properties":{"city":"Atlanta, GA 30318","date":{"end_time":"2010/03/17 00:00:01 -0400","original":"Wed Mar 17 00:00:00 -0400 2010","granularity":"sec","time":"2010/03/17 00:00:00 -0400"},"geo_score":0.591,"crime type":"Theft","id":"a62uyyjpwxfl","address":"500 8TH STREET, NW","geo_precision":"street"},"type":"Feature","geometry":{"type":"Point","coordinates":[-85.73014,34.437414]}},{"properties":{"city":"Atlanta, GA 30318","date":{"end_time":"2010/03/12 00:00:01 -0500","original":"Fri Mar 12 00:00:00 -0500 2010","granularity":"sec","time":"2010/03/12 00:00:00 -0500"},"geo_score":0.0,"crime type":"Theft","id":"a62uyygqxld5","address":"700 TECHWOOD DRIVE","geo_precision":"unmatched"},"type":"Feature","geometry":null},{"properties":{"city":"Atlanta, GA 30318","date":{"end_time":"2010/03/16 00:00:01 -0400","original":"Tue Mar 16 00:00:00 -0400 2010","granularity":"sec","time":"2010/03/16 00:00:00 -0400"},"geo_score":0.785,"crime type":"Theft","id":"a62uyyhveaw3","address":"200 4TH STREET, NW","geo_precision":"range"},"type":"Feature","geometry":{"type":"Point","coordinates":[-85.722194,34.444334]}},{"properties":{"city":"Atlanta, GA 30318","date":{"end_time":"2010/03/03 00:00:01 -0500","original":"Wed Mar 03 00:00:00 -0500 2010","granularity":"sec","time":"2010/03/03 00:00:00 -0500"},"geo_score":0.708,"crime type":"Theft","id":"a62uyy99geef","address":"700 FOWLER STREET, NW","geo_precision":"street"},"type":"Feature","geometry":{"type":"Point","coordinates":[-86.041496,34.032272]}},{"properties":{"city":"Atlanta, GA 30318","date":{"end_time":"2010/02/22 00:00:01 -0500","original":"Mon Feb 22 00:00:00 -0500 2010","granularity":"sec","time":"2010/02/22 00:00:00 -0500"},"geo_score":0.708,"crime type":"Theft","id":"a62uyylwhvuj","address":"700 FOWLER STREET, NW","geo_precision":"street"},"type":"Feature","geometry":{"type":"Point","coordinates":[-86.041496,34.032272]}},{"properties":{"city":"Atlanta, GA 30318","date":{"end_time":"2010/03/03 00:00:01 -0500","original":"Wed Mar 03 00:00:00 -0500 2010","granularity":"sec","time":"2010/03/03 00:00:00 -0500"},"geo_score":0.622,"crime type":"Theft","id":"a62uyyco5ln1","address":"700 CHERRY STREET, NW","geo_precision":"range"},"type":"Feature","geometry":{"type":"Point","coordinates":[-85.656773,34.134271]}},{"properties":{"city":"Atlanta, GA 30318","date":{"end_time":"2010/03/15 00:00:01 -0400","original":"Mon Mar 15 00:00:00 -0400 2010","granularity":"sec","time":"2010/03/15 00:00:00 -0400"},"geo_score":0.635,"crime type":"Theft","id":"a62uyy8i0bmx","address":"700 FERST DRIVE, NW","geo_precision":"street"},"type":"Feature","geometry":{"type":"Point","coordinates":[-85.788894,34.583103]}},{"properties":{"city":"Atlanta, GA 30318","date":{"end_time":"2010/03/08 00:00:01 -0500","original":"Mon Mar 08 00:00:00 -0500 2010","granularity":"sec","time":"2010/03/08 00:00:00 -0500"},"geo_score":0.635,"crime type":"Theft","id":"a62uyye7sj2a","address":"700 FERST DRIVE, NW","geo_precision":"street"},"type":"Feature","geometry":{"type":"Point","coordinates":[-85.788894,34.583103]}},{"properties":{"city":"Atlanta, GA 30318","date":{"end_time":"2010/03/04 00:00:01 -0500","original":"Thu Mar 04 00:00:00 -0500 2010","granularity":"sec","time":"2010/03/04 00:00:00 -0500"},"geo_score":0.635,"crime type":"Theft","id":"a62uyykiv2gh","address":"700 FERST DRIVE, NW","geo_precision":"street"},"type":"Feature","geometry":{"type":"Point","coordinates":[-85.788894,34.583103]}},{"properties":{"city":"Atlanta, GA 30318","date":{"end_time":"2010/02/25 00:00:01 -0500","original":"Thu Feb 25 00:00:00 -0500 2010","granularity":"sec","time":"2010/02/25 00:00:00 -0500"},"geo_score":0.635,"crime type":"Theft","id":"a62uyy6nnva8","address":"700 FERST DRIVE, NW","geo_precision":"street"},"type":"Feature","geometry":{"type":"Point","coordinates":[-85.788894,34.583103]}},{"properties":{"city":"Atlanta, GA 30318","date":{"end_time":"2010/02/17 00:00:01 -0500","original":"Wed Feb 17 00:00:00 -0500 2010","granularity":"sec","time":"2010/02/17 00:00:00 -0500"},"geo_score":0.635,"crime type":"Theft","id":"a62uyyjktb4j","address":"700 FERST DRIVE, NW","geo_precision":"street"},"type":"Feature","geometry":{"type":"Point","coordinates":[-85.788894,34.583103]}},{"properties":{"city":"Atlanta, GA 30318","date":{"end_time":"2010/02/22 00:00:01 -0500","original":"Mon Feb 22 00:00:00 -0500 2010","granularity":"sec","time":"2010/02/22 00:00:00 -0500"},"geo_score":0.829,"crime type":"Theft","id":"a62uyyf1b2sd","address":"200 FERST DRIVE, NW","geo_precision":"range"},"type":"Feature","geometry":{"type":"Point","coordinates":[-85.789462,34.582979]}},{"properties":{"city":"Atlanta, GA 30318","date":{"end_time":"2010/02/22 00:00:01 -0500","original":"Mon Feb 22 00:00:00 -0500 2010","granularity":"sec","time":"2010/02/22 00:00:00 -0500"},"geo_score":0.395,"crime type":"Theft of Vehicle","id":"a62uyy7ymy5b","address":"900 HEMPHILL AVENUE, NW","geo_precision":"city"},"type":"Feature","geometry":{"type":"Point","coordinates":[-85.558572,34.132319]}}],"is_temporal":true,"author":{"url":"","metadata":"","contact_name":"","contact_address":"","source":"","contact_phone":""},"source":"","pagination":{"sort":null,"start":0,"total":28,"limit":1000000},"state":"complete","tags":"","published":"2014-08-10T14:45:57-04:00","id":34167}