{"type":"FeatureCollection","data_type":"Dataset","url_type":null,"permissions":[{"permissions":{"download":true,"view":true},"group_id":"everyone"}],"classification":null,"title":"11 locations  CSV","count":11,"stream_id":341734,"contributor":{"url":"http://geocommons.com/users/68918","name":"robbiekohn"},"data_attributes":null,"calculation_params":null,"icon_link":null,"link":"http://geocommons.com/overlays/341734.json","extent":[-119.221,34.2304,-73.3987,43.0676],"geometry_types":["point"],"unique_name":null,"name":"11 locations  CSV","feature_count":11,"description":"loc data","next_feature":null,"is_raster":false,"short_classification":"Y","stats":{},"features":[{"properties":{"city":"Albany","mall name":"Crossroads","mall address":"1 Crossgates Mall Road","size":"CCSCZ","store concept":"CC","zipcode":"12203","op/em name":"Tom/Pam Talley","geo_score":0.857,"store id":"SR0248","store phone":"(518) 869-3192","id":"ade8c7hnohq1","geo_precision":"zip","state":"NY"},"type":"Feature","geometry":{"type":"Point","coordinates":[-73.857496,42.700345]}},{"properties":{"city":"Buffalo","mall name":"Walden","mall address":"Duke Rd &amp; Walden Ave","size":"CCSCZ","store concept":"CC","zipcode":"14225","op/em name":"Kimbery Block","geo_score":0.857,"store id":"SR2754","store phone":"(716) 685-2762","id":"ade8c7pvecuy","geo_precision":"zip","state":"NY"},"type":"Feature","geometry":{"type":"Point","coordinates":[-78.784199,42.94478]}},{"properties":{"city":"Garden City","mall name":"Country Road","mall address":"630 Old Country Rd.","size":"CC16GWHT","store concept":"CC/GM","zipcode":"11530","op/em name":"Steve Binning","geo_score":0.857,"store id":"SR2819","store phone":"(516) 248-3347","id":"ade8c7tik58u","geo_precision":"zip","state":"NY"},"type":"Feature","geometry":{"type":"Point","coordinates":[-73.688464,40.719269]}},{"properties":{"city":"Huntington Station","mall name":"Walt Whitman","mall address":"160 Walt Whitman Rd.","size":"CC1000GWHT","store concept":"CC/GM","zipcode":"11746","op/em name":"Shelly Woods","geo_score":0.857,"store id":"SR1630","store phone":"(631) 425-1563","id":"ade8c7obbq1n","geo_precision":"zip","state":"NY"},"type":"Feature","geometry":{"type":"Point","coordinates":[-73.398731,40.82371]}},{"properties":{"city":"Syracuse","mall name":"Carousel","mall address":"9553 Carousel Center Drive","size":"CC16GBLKLED","store concept":"CC","zipcode":"13290","op/em name":"Shelly Woods","geo_score":0.857,"store id":"SR0191","store phone":"(315) 422-8484","id":"ade8c7n85ajl","geo_precision":"zip","state":"NY"},"type":"Feature","geometry":{"type":"Point","coordinates":[-76.171351,43.067576]}},{"properties":{"city":"Staten Island","mall name":"Staten Island","mall address":"2655 Richmond Ave","size":"CC1500GBLACK","store concept":"CC/GM/TO/BK","zipcode":"10314","op/em name":"Shelly Woods","geo_score":0.857,"store id":"SR2824","store phone":"(718) 477-4180","id":"ade8c7shqrit","geo_precision":"zip","state":"NY"},"type":"Feature","geometry":{"type":"Point","coordinates":[-74.122365,40.61316]}},{"properties":{"city":"Victor","mall name":"Victor","mall address":"7979 Victor Road","size":"GMPlusBLK","store concept":"CC/GM","zipcode":"14564","op/em name":"Craig Paulson","geo_score":0.857,"store id":"SR1055","store phone":"(585) 421-3030","id":"ade8c7gjym6d","geo_precision":"zip","state":"NY"},"type":"Feature","geometry":{"type":"Point","coordinates":[-77.366378,43.01173]}},{"properties":{"city":"West Nyack","mall name":"Palisades","mall address":"1591 Palisades Center Drive","size":"CCSSTHWHITE","store concept":"CC","zipcode":"10994","op/em name":"Craig Paulson","geo_score":0.857,"store id":"SR0321","store phone":"(845) 353-6756","id":"ade8c7scc9bd","geo_precision":"zip","state":"NY"},"type":"Feature","geometry":{"type":"Point","coordinates":[-73.970482,41.100622]}},{"properties":{"city":"White Plains","mall name":"White Plains","mall address":"125 Westchester Ave.","size":"GM800T","store concept":"GM","zipcode":"10601","op/em name":"Jordan Trombetta","geo_score":0.857,"store id":"SR0980","store phone":"(914) 428-1877","id":"ade8c7iaekl5","geo_precision":"zip","state":"NY"},"type":"Feature","geometry":{"type":"Point","coordinates":[-73.769626,41.031397]}},{"properties":{"city":"New York","mall name":"Prince","mall address":"103 Prince Street","size":"CCGIL1000","store concept":"CC/GM","zipcode":"10012","op/em name":"Jordan Trombetta","geo_score":0.857,"store id":"SR0337","store phone":"(212) 226-3126","id":"ade8c7r12r69","geo_precision":"zip","state":"NY"},"type":"Feature","geometry":{"type":"Point","coordinates":[-73.991582,40.729124]}},{"properties":{"city":"Ventura","mall name":"Pacific View Mall","mall address":"3301 East Main Street","size":"CCGIL1000","store concept":"CC/GM","zipcode":"93003","op/em name":"Paul Hulse","geo_score":0.857,"store id":"SR2724","store phone":"(805) 644-4017","id":"ade8c7r5tv73","geo_precision":"zip","state":"CA"},"type":"Feature","geometry":{"type":"Point","coordinates":[-119.221299,34.230353]}}],"is_temporal":false,"author":{"url":"","metadata":"","contact_name":"","contact_address":"","source":"","contact_phone":""},"source":"","pagination":{"sort":null,"start":0,"total":11,"limit":1000000},"state":"complete","tags":"","published":"2014-08-16T14:46:57-04:00","id":341734}