{"type":"FeatureCollection","data_type":"Dataset","url_type":null,"permissions":[{"permissions":{"download":true,"view":true},"group_id":"everyone"}],"classification":null,"title":"dpc3-18","count":75,"stream_id":34227,"contributor":{"url":"http://geocommons.com/users/11204","name":"joegravellese"},"data_attributes":null,"calculation_params":null,"icon_link":null,"link":"http://geocommons.com/overlays/34227.json","extent":[-73.2481,41.6334,-70.423,42.8535],"geometry_types":["point"],"unique_name":null,"name":"dpc3-18","feature_count":75,"description":"","next_feature":null,"is_raster":false,"short_classification":"Y","stats":{"Bostonpress":{"max":27.0,"mean":0.36,"variance":9.71999999999998,"stdev":3.11769145362398,"min":0.0,"median":0.0},"Governor":{"max":52.0,"mean":1.26666666666667,"variance":36.2252252252253,"stdev":6.01873950468246,"min":0.0,"median":0.0},"latitude":{"max":42.853539,"mean":42.3249621333333,"variance":0.0568977382929279,"stdev":0.238532468005779,"min":41.633416,"median":42.372596},"Schoolvisit":{"max":2.0,"mean":0.173333333333333,"variance":0.199279279279279,"stdev":0.446407077989674,"min":0.0,"median":0.0},"Localpress":{"max":2.0,"mean":0.0666666666666667,"variance":0.09009009009009,"stdev":0.300150112593832,"min":0.0,"median":0.0},"Fieldevent":{"max":16.0,"mean":0.68,"variance":3.57189189189189,"stdev":1.88994494414305,"min":0.0,"median":0.0},"Jobs":{"max":12.0,"mean":0.626666666666667,"variance":2.48036036036036,"stdev":1.5749159851752,"min":0.0,"median":0.0},"DPCfund":{"max":80.0,"mean":1.34666666666667,"variance":85.6890090090093,"stdev":9.2568357989655,"min":0.0,"median":0.0},"Seniors":{"max":1.0,"mean":0.04,"variance":0.0389189189189189,"stdev":0.197278784766429,"min":0.0,"median":0.0},"longitude":{"max":-70.423,"mean":-71.3527154133334,"variance":0.30036204092976,"stdev":0.548052954494143,"min":-73.24807,"median":-71.1833},"Statehouse":{"max":80.0,"mean":1.06666666666667,"variance":85.3333333333335,"stdev":9.23760430703402,"min":0.0,"median":0.0},"Laborjobsite":{"max":2.0,"mean":0.0933333333333333,"variance":0.112792792792793,"stdev":0.335846382729951,"min":0.0,"median":0.0},"Advocacy":{"max":6.0,"mean":0.146666666666667,"variance":0.532252252252251,"stdev":0.729556202257408,"min":0.0,"median":0.0},"Teachers":{"max":2.0,"mean":0.08,"variance":0.101621621621622,"stdev":0.318781463735929,"min":0.0,"median":0.0}},"features":[{"properties":{"Bostonpress":0.0,"Governor":1.0,"City":"Abington","latitude":42.134,"Schoolvisit":0.0,"Mapped":null,"Localpress":0.0,"Fieldevent":0.0,"Jobs":0.0,"DPCfund":0.0,"State":"Massachusetts","Seniors":0.0,"longitude":-70.97,"Statehouse":0.0,"id":"a70zj5savxpe","Laborjobsite":0.0,"Advocacy":0.0,"Teachers":0.0},"type":"Feature","geometry":{"type":"Point","coordinates":[-70.97,42.134]}},{"properties":{"Bostonpress":0.0,"Governor":0.0,"City":"Agawam","latitude":42.069,"Schoolvisit":0.0,"Mapped":null,"Localpress":0.0,"Fieldevent":0.0,"Jobs":1.0,"DPCfund":0.0,"State":"Massachusetts","Seniors":0.0,"longitude":-72.6966,"Statehouse":0.0,"id":"a70zj5pol8a2","Laborjobsite":0.0,"Advocacy":1.0,"Teachers":0.0},"type":"Feature","geometry":{"type":"Point","coordinates":[-72.6966,42.069]}},{"properties":{"Bostonpress":0.0,"Governor":1.0,"City":"Amesbury","latitude":42.853539,"Schoolvisit":0.0,"Mapped":null,"Localpress":0.0,"Fieldevent":0.0,"Jobs":0.0,"DPCfund":0.0,"State":"Massachusetts","Seniors":0.0,"longitude":-70.948211,"Statehouse":0.0,"id":"a70zj5u9y43d","Laborjobsite":0.0,"Advocacy":0.0,"Teachers":0.0},"type":"Feature","geometry":{"type":"Point","coordinates":[-70.948211,42.853539]}},{"properties":{"Bostonpress":0.0,"Governor":0.0,"City":"Andover","latitude":42.647991,"Schoolvisit":0.0,"Mapped":null,"Localpress":0.0,"Fieldevent":1.0,"Jobs":0.0,"DPCfund":0.0,"State":"Massachusetts","Seniors":0.0,"longitude":-71.165685,"Statehouse":0.0,"id":"a70zj5pfphb7","Laborjobsite":0.0,"Advocacy":0.0,"Teachers":0.0},"type":"Feature","geometry":{"type":"Point","coordinates":[-71.165685,42.647991]}},{"properties":{"Bostonpress":0.0,"Governor":0.0,"City":"Arlington","latitude":42.417695,"Schoolvisit":1.0,"Mapped":null,"Localpress":0.0,"Fieldevent":1.0,"Jobs":0.0,"DPCfund":0.0,"State":"Massachusetts","Seniors":0.0,"longitude":-71.167083,"Statehouse":0.0,"id":"a70zj5ny455f","Laborjobsite":0.0,"Advocacy":0.0,"Teachers":0.0},"type":"Feature","geometry":{"type":"Point","coordinates":[-71.167083,42.417695]}},{"properties":{"Bostonpress":0.0,"Governor":0.0,"City":"Attleboro","latitude":41.938976,"Schoolvisit":0.0,"Mapped":null,"Localpress":0.0,"Fieldevent":0.0,"Jobs":0.0,"DPCfund":1.0,"State":"Massachusetts","Seniors":0.0,"longitude":-71.302297,"Statehouse":0.0,"id":"a70zj5jecjrh","Laborjobsite":0.0,"Advocacy":0.0,"Teachers":0.0},"type":"Feature","geometry":{"type":"Point","coordinates":[-71.302297,41.938976]}},{"properties":{"Bostonpress":0.0,"Governor":0.0,"City":"Bedford","latitude":42.516205,"Schoolvisit":0.0,"Mapped":null,"Localpress":0.0,"Fieldevent":0.0,"Jobs":1.0,"DPCfund":0.0,"State":"Massachusetts","Seniors":0.0,"longitude":-71.270891,"Statehouse":0.0,"id":"a70zj5ft0zi3","Laborjobsite":0.0,"Advocacy":0.0,"Teachers":0.0},"type":"Feature","geometry":{"type":"Point","coordinates":[-71.270891,42.516205]}},{"properties":{"Bostonpress":0.0,"Governor":0.0,"City":"Belmont","latitude":42.446396,"Schoolvisit":0.0,"Mapped":null,"Localpress":0.0,"Fieldevent":1.0,"Jobs":0.0,"DPCfund":0.0,"State":"Massachusetts","Seniors":0.0,"longitude":-71.459405,"Statehouse":0.0,"id":"a70zj5k8bbze","Laborjobsite":0.0,"Advocacy":0.0,"Teachers":1.0},"type":"Feature","geometry":{"type":"Point","coordinates":[-71.459405,42.446396]}},{"properties":{"Bostonpress":27.0,"Governor":52.0,"City":"Boston","latitude":42.358431,"Schoolvisit":2.0,"Mapped":null,"Localpress":0.0,"Fieldevent":16.0,"Jobs":12.0,"DPCfund":80.0,"State":"Massachusetts","Seniors":0.0,"longitude":-71.059773,"Statehouse":80.0,"id":"a70zj5l4cj3t","Laborjobsite":2.0,"Advocacy":6.0,"Teachers":1.0},"type":"Feature","geometry":{"type":"Point","coordinates":[-71.059773,42.358431]}},{"properties":{"Bostonpress":0.0,"Governor":2.0,"City":"Brockton","latitude":42.083434,"Schoolvisit":2.0,"Mapped":null,"Localpress":1.0,"Fieldevent":1.0,"Jobs":0.0,"DPCfund":0.0,"State":"Massachusetts","Seniors":0.0,"longitude":-71.018379,"Statehouse":0.0,"id":"a70zj5mr3bh1","Laborjobsite":1.0,"Advocacy":0.0,"Teachers":0.0},"type":"Feature","geometry":{"type":"Point","coordinates":[-71.018379,42.083434]}},{"properties":{"Bostonpress":0.0,"Governor":1.0,"City":"Brookline","latitude":42.3333,"Schoolvisit":0.0,"Mapped":null,"Localpress":0.0,"Fieldevent":1.0,"Jobs":0.0,"DPCfund":0.0,"State":"Massachusetts","Seniors":0.0,"longitude":-71.15,"Statehouse":0.0,"id":"a70zj5lv4az1","Laborjobsite":0.0,"Advocacy":0.0,"Teachers":0.0},"type":"Feature","geometry":{"type":"Point","coordinates":[-71.15,42.3333]}},{"properties":{"Bostonpress":0.0,"Governor":0.0,"City":"Burlington","latitude":42.504844,"Schoolvisit":0.0,"Mapped":null,"Localpress":0.0,"Fieldevent":0.0,"Jobs":1.0,"DPCfund":0.0,"State":"Massachusetts","Seniors":0.0,"longitude":-71.201539,"Statehouse":0.0,"id":"a70zj5efx8bq","Laborjobsite":0.0,"Advocacy":0.0,"Teachers":0.0},"type":"Feature","geometry":{"type":"Point","coordinates":[-71.201539,42.504844]}},{"properties":{"Bostonpress":0.0,"Governor":2.0,"City":"Cambridge","latitude":42.358431,"Schoolvisit":1.0,"Mapped":null,"Localpress":0.0,"Fieldevent":1.0,"Jobs":2.0,"DPCfund":1.0,"State":"Massachusetts","Seniors":0.0,"longitude":-71.103663,"Statehouse":0.0,"id":"a70zj5q7vtee","Laborjobsite":0.0,"Advocacy":1.0,"Teachers":0.0},"type":"Feature","geometry":{"type":"Point","coordinates":[-71.103663,42.358431]}},{"properties":{"Bostonpress":0.0,"Governor":0.0,"City":"Canton","latitude":42.179146,"Schoolvisit":0.0,"Mapped":null,"Localpress":0.0,"Fieldevent":1.0,"Jobs":0.0,"DPCfund":0.0,"State":"Massachusetts","Seniors":0.0,"longitude":-71.121185,"Statehouse":0.0,"id":"a70zj5lfcfc6","Laborjobsite":0.0,"Advocacy":0.0,"Teachers":0.0},"type":"Feature","geometry":{"type":"Point","coordinates":[-71.121185,42.179146]}},{"properties":{"Bostonpress":0.0,"Governor":0.0,"City":"Chelmsford","latitude":42.446396,"Schoolvisit":0.0,"Mapped":null,"Localpress":0.0,"Fieldevent":1.0,"Jobs":0.0,"DPCfund":0.0,"State":"Massachusetts","Seniors":0.0,"longitude":-71.459405,"Statehouse":0.0,"id":"a70zj5f7t2ks","Laborjobsite":0.0,"Advocacy":0.0,"Teachers":0.0},"type":"Feature","geometry":{"type":"Point","coordinates":[-71.459405,42.446396]}},{"properties":{"Bostonpress":0.0,"Governor":0.0,"City":"Chelsea","latitude":42.378197,"Schoolvisit":0.0,"Mapped":null,"Localpress":0.0,"Fieldevent":2.0,"Jobs":0.0,"DPCfund":0.0,"State":"Massachusetts","Seniors":0.0,"longitude":-71.038894,"Statehouse":0.0,"id":"a70zj5mp2ixv","Laborjobsite":0.0,"Advocacy":0.0,"Teachers":0.0},"type":"Feature","geometry":{"type":"Point","coordinates":[-71.038894,42.378197]}},{"properties":{"Bostonpress":0.0,"Governor":1.0,"City":"Clinton","latitude":42.413972,"Schoolvisit":0.0,"Mapped":null,"Localpress":0.0,"Fieldevent":0.0,"Jobs":0.0,"DPCfund":0.0,"State":"Massachusetts","Seniors":0.0,"longitude":-71.687523,"Statehouse":0.0,"id":"a70zj5fhbzwv","Laborjobsite":0.0,"Advocacy":0.0,"Teachers":0.0},"type":"Feature","geometry":{"type":"Point","coordinates":[-71.687523,42.413972]}},{"properties":{"Bostonpress":0.0,"Governor":0.0,"City":"Concord","latitude":42.4129,"Schoolvisit":0.0,"Mapped":null,"Localpress":0.0,"Fieldevent":0.0,"Jobs":0.0,"DPCfund":1.0,"State":"Massachusetts","Seniors":0.0,"longitude":-71.3567,"Statehouse":0.0,"id":"a70zj5lux7cs","Laborjobsite":0.0,"Advocacy":0.0,"Teachers":0.0},"type":"Feature","geometry":{"type":"Point","coordinates":[-71.3567,42.4129]}},{"properties":{"Bostonpress":0.0,"Governor":0.0,"City":"Danvers","latitude":42.548428,"Schoolvisit":0.0,"Mapped":null,"Localpress":0.0,"Fieldevent":1.0,"Jobs":1.0,"DPCfund":0.0,"State":"Massachusetts","Seniors":0.0,"longitude":-70.920328,"Statehouse":0.0,"id":"a70zj5kix4or","Laborjobsite":0.0,"Advocacy":0.0,"Teachers":0.0},"type":"Feature","geometry":{"type":"Point","coordinates":[-70.920328,42.548428]}},{"properties":{"Bostonpress":0.0,"Governor":1.0,"City":"Dedham","latitude":42.254,"Schoolvisit":0.0,"Mapped":null,"Localpress":0.0,"Fieldevent":0.0,"Jobs":0.0,"DPCfund":0.0,"State":"Massachusetts","Seniors":0.0,"longitude":-71.19,"Statehouse":0.0,"id":"a70zj5osv9ld","Laborjobsite":0.0,"Advocacy":0.0,"Teachers":0.0},"type":"Feature","geometry":{"type":"Point","coordinates":[-71.19,42.254]}},{"properties":{"Bostonpress":0.0,"Governor":0.0,"City":"Duxbury","latitude":42.055,"Schoolvisit":0.0,"Mapped":null,"Localpress":0.0,"Fieldevent":1.0,"Jobs":0.0,"DPCfund":0.0,"State":"Massachusetts","Seniors":0.0,"longitude":-70.677,"Statehouse":0.0,"id":"a70zj5sbn3rq","Laborjobsite":0.0,"Advocacy":0.0,"Teachers":0.0},"type":"Feature","geometry":{"type":"Point","coordinates":[-70.677,42.055]}},{"properties":{"Bostonpress":0.0,"Governor":1.0,"City":"East Sandwich","latitude":41.731,"Schoolvisit":0.0,"Mapped":null,"Localpress":0.0,"Fieldevent":0.0,"Jobs":0.0,"DPCfund":0.0,"State":"Massachusetts","Seniors":0.0,"longitude":-70.423,"Statehouse":0.0,"id":"a70zj5pl0x5p","Laborjobsite":0.0,"Advocacy":0.0,"Teachers":0.0},"type":"Feature","geometry":{"type":"Point","coordinates":[-70.423,41.731]}},{"properties":{"Bostonpress":0.0,"Governor":0.0,"City":"Easthampton","latitude":42.338,"Schoolvisit":0.0,"Mapped":null,"Localpress":0.0,"Fieldevent":1.0,"Jobs":0.0,"DPCfund":0.0,"State":"Massachusetts","Seniors":0.0,"longitude":-72.683,"Statehouse":0.0,"id":"a70zj5jne5dw","Laborjobsite":0.0,"Advocacy":0.0,"Teachers":0.0},"type":"Feature","geometry":{"type":"Point","coordinates":[-72.683,42.338]}},{"properties":{"Bostonpress":0.0,"Governor":1.0,"City":"FALLRIVER","latitude":41.731,"Schoolvisit":1.0,"Mapped":null,"Localpress":0.0,"Fieldevent":1.0,"Jobs":2.0,"DPCfund":1.0,"State":"Massachusetts","Seniors":0.0,"longitude":-71.117,"Statehouse":0.0,"id":"a70zj5syd7cu","Laborjobsite":0.0,"Advocacy":0.0,"Teachers":0.0},"type":"Feature","geometry":{"type":"Point","coordinates":[-71.117,41.731]}},{"properties":{"Bostonpress":0.0,"Governor":1.0,"City":"Framingham","latitude":42.297318,"Schoolvisit":1.0,"Mapped":null,"Localpress":2.0,"Fieldevent":1.0,"Jobs":0.0,"DPCfund":0.0,"State":"Massachusetts","Seniors":0.0,"longitude":-71.437006,"Statehouse":0.0,"id":"a70zj5e15q0e","Laborjobsite":0.0,"Advocacy":0.0,"Teachers":0.0},"type":"Feature","geometry":{"type":"Point","coordinates":[-71.437006,42.297318]}},{"properties":{"Bostonpress":0.0,"Governor":0.0,"City":"Grafton","latitude":42.203944,"Schoolvisit":0.0,"Mapped":null,"Localpress":0.0,"Fieldevent":1.0,"Jobs":0.0,"DPCfund":0.0,"State":"Massachusetts","Seniors":0.0,"longitude":-71.682862,"Statehouse":0.0,"id":"a70zj5s7uwj6","Laborjobsite":0.0,"Advocacy":0.0,"Teachers":0.0},"type":"Feature","geometry":{"type":"Point","coordinates":[-71.682862,42.203944]}},{"properties":{"Bostonpress":0.0,"Governor":0.0,"City":"Greenfield","latitude":42.602,"Schoolvisit":0.0,"Mapped":null,"Localpress":0.0,"Fieldevent":0.0,"Jobs":0.0,"DPCfund":0.0,"State":"Massachusetts","Seniors":0.0,"longitude":-72.61,"Statehouse":0.0,"id":"a70zj5g6ja56","Laborjobsite":1.0,"Advocacy":0.0,"Teachers":0.0},"type":"Feature","geometry":{"type":"Point","coordinates":[-72.61,42.602]}},{"properties":{"Bostonpress":0.0,"Governor":0.0,"City":"Hingham","latitude":42.2487,"Schoolvisit":0.0,"Mapped":null,"Localpress":0.0,"Fieldevent":0.0,"Jobs":0.0,"DPCfund":0.0,"State":"Massachusetts","Seniors":1.0,"longitude":-70.8967,"Statehouse":0.0,"id":"a70zj5jnu893","Laborjobsite":0.0,"Advocacy":0.0,"Teachers":0.0},"type":"Feature","geometry":{"type":"Point","coordinates":[-70.8967,42.2487]}},{"properties":{"Bostonpress":0.0,"Governor":0.0,"City":"Holliston","latitude":42.164,"Schoolvisit":0.0,"Mapped":null,"Localpress":0.0,"Fieldevent":1.0,"Jobs":0.0,"DPCfund":0.0,"State":"Massachusetts","Seniors":0.0,"longitude":-71.457,"Statehouse":0.0,"id":"a70zj5nvuqrf","Laborjobsite":0.0,"Advocacy":0.0,"Teachers":0.0},"type":"Feature","geometry":{"type":"Point","coordinates":[-71.457,42.164]}},{"properties":{"Bostonpress":0.0,"Governor":0.0,"City":"Holyoke","latitude":42.198291,"Schoolvisit":0.0,"Mapped":null,"Localpress":0.0,"Fieldevent":1.0,"Jobs":0.0,"DPCfund":0.0,"State":"Massachusetts","Seniors":0.0,"longitude":-72.64207,"Statehouse":0.0,"id":"a70zj5nuaaeu","Laborjobsite":0.0,"Advocacy":0.0,"Teachers":0.0},"type":"Feature","geometry":{"type":"Point","coordinates":[-72.64207,42.198291]}},{"properties":{"Bostonpress":0.0,"Governor":0.0,"City":"Hopkinton","latitude":42.234,"Schoolvisit":0.0,"Mapped":null,"Localpress":0.0,"Fieldevent":0.0,"Jobs":2.0,"DPCfund":0.0,"State":"Massachusetts","Seniors":0.0,"longitude":-71.53,"Statehouse":0.0,"id":"a70zj5rpfbhw","Laborjobsite":0.0,"Advocacy":0.0,"Teachers":0.0},"type":"Feature","geometry":{"type":"Point","coordinates":[-71.53,42.234]}},{"properties":{"Bostonpress":0.0,"Governor":1.0,"City":"Lawrence","latitude":42.70734,"Schoolvisit":0.0,"Mapped":null,"Localpress":0.0,"Fieldevent":0.0,"Jobs":0.0,"DPCfund":0.0,"State":"Massachusetts","Seniors":0.0,"longitude":-71.161052,"Statehouse":0.0,"id":"a70zj5ktvv7a","Laborjobsite":0.0,"Advocacy":0.0,"Teachers":0.0},"type":"Feature","geometry":{"type":"Point","coordinates":[-71.161052,42.70734]}},{"properties":{"Bostonpress":0.0,"Governor":0.0,"City":"Leominster","latitude":42.471316,"Schoolvisit":0.0,"Mapped":null,"Localpress":1.0,"Fieldevent":0.0,"Jobs":0.0,"DPCfund":0.0,"State":"Massachusetts","Seniors":0.0,"longitude":-71.837509,"Statehouse":0.0,"id":"a70zj5hdl8lo","Laborjobsite":1.0,"Advocacy":0.0,"Teachers":0.0},"type":"Feature","geometry":{"type":"Point","coordinates":[-71.837509,42.471316]}},{"properties":{"Bostonpress":0.0,"Governor":0.0,"City":"Lexington","latitude":42.446396,"Schoolvisit":0.0,"Mapped":null,"Localpress":0.0,"Fieldevent":1.0,"Jobs":0.0,"DPCfund":1.0,"State":"Massachusetts","Seniors":0.0,"longitude":-71.459405,"Statehouse":0.0,"id":"a70zj5g8ly8u","Laborjobsite":1.0,"Advocacy":0.0,"Teachers":0.0},"type":"Feature","geometry":{"type":"Point","coordinates":[-71.459405,42.446396]}},{"properties":{"Bostonpress":0.0,"Governor":0.0,"City":"Lowell","latitude":42.446396,"Schoolvisit":0.0,"Mapped":null,"Localpress":0.0,"Fieldevent":0.0,"Jobs":1.0,"DPCfund":0.0,"State":"Massachusetts","Seniors":0.0,"longitude":-71.459405,"Statehouse":0.0,"id":"a70zj5or4zaj","Laborjobsite":0.0,"Advocacy":0.0,"Teachers":0.0},"type":"Feature","geometry":{"type":"Point","coordinates":[-71.459405,42.446396]}},{"properties":{"Bostonpress":0.0,"Governor":0.0,"City":"Ludlow","latitude":42.164,"Schoolvisit":0.0,"Mapped":null,"Localpress":0.0,"Fieldevent":1.0,"Jobs":0.0,"DPCfund":0.0,"State":"Massachusetts","Seniors":0.0,"longitude":-72.457,"Statehouse":0.0,"id":"a70zj5gibbum","Laborjobsite":0.0,"Advocacy":0.0,"Teachers":0.0},"type":"Feature","geometry":{"type":"Point","coordinates":[-72.457,42.164]}},{"properties":{"Bostonpress":0.0,"Governor":1.0,"City":"Lynn","latitude":42.461246,"Schoolvisit":0.0,"Mapped":null,"Localpress":0.0,"Fieldevent":0.0,"Jobs":1.0,"DPCfund":0.0,"State":"Massachusetts","Seniors":0.0,"longitude":-70.946743,"Statehouse":0.0,"id":"a70zj5nhtgy4","Laborjobsite":0.0,"Advocacy":0.0,"Teachers":0.0},"type":"Feature","geometry":{"type":"Point","coordinates":[-70.946743,42.461246]}},{"properties":{"Bostonpress":0.0,"Governor":1.0,"City":"Malden","latitude":42.436545,"Schoolvisit":0.0,"Mapped":null,"Localpress":0.0,"Fieldevent":1.0,"Jobs":0.0,"DPCfund":0.0,"State":"Massachusetts","Seniors":0.0,"longitude":-71.085396,"Statehouse":0.0,"id":"a70zj5imepma","Laborjobsite":0.0,"Advocacy":0.0,"Teachers":0.0},"type":"Feature","geometry":{"type":"Point","coordinates":[-71.085396,42.436545]}},{"properties":{"Bostonpress":0.0,"Governor":0.0,"City":"Marlborough","latitude":42.716759,"Schoolvisit":0.0,"Mapped":null,"Localpress":0.0,"Fieldevent":0.0,"Jobs":2.0,"DPCfund":0.0,"State":"Massachusetts","Seniors":0.0,"longitude":-70.97311,"Statehouse":0.0,"id":"a70zj5rwbbx2","Laborjobsite":0.0,"Advocacy":0.0,"Teachers":0.0},"type":"Feature","geometry":{"type":"Point","coordinates":[-70.97311,42.716759]}},{"properties":{"Bostonpress":0.0,"Governor":0.0,"City":"Maynard","latitude":42.446396,"Schoolvisit":0.0,"Mapped":null,"Localpress":0.0,"Fieldevent":0.0,"Jobs":1.0,"DPCfund":0.0,"State":"Massachusetts","Seniors":0.0,"longitude":-71.459405,"Statehouse":0.0,"id":"a70zj5r2xk7v","Laborjobsite":0.0,"Advocacy":0.0,"Teachers":0.0},"type":"Feature","geometry":{"type":"Point","coordinates":[-71.459405,42.446396]}},{"properties":{"Bostonpress":0.0,"Governor":0.0,"City":"Medford","latitude":42.412596,"Schoolvisit":0.0,"Mapped":null,"Localpress":0.0,"Fieldevent":0.0,"Jobs":0.0,"DPCfund":1.0,"State":"Massachusetts","Seniors":0.0,"longitude":-71.125331,"Statehouse":0.0,"id":"a70zj5s0p28k","Laborjobsite":0.0,"Advocacy":0.0,"Teachers":2.0},"type":"Feature","geometry":{"type":"Point","coordinates":[-71.125331,42.412596]}},{"properties":{"Bostonpress":0.0,"Governor":0.0,"City":"Medway","latitude":42.1094,"Schoolvisit":0.0,"Mapped":null,"Localpress":0.0,"Fieldevent":1.0,"Jobs":0.0,"DPCfund":0.0,"State":"Massachusetts","Seniors":0.0,"longitude":-71.4034,"Statehouse":0.0,"id":"a70zj5ibcje3","Laborjobsite":0.0,"Advocacy":0.0,"Teachers":0.0},"type":"Feature","geometry":{"type":"Point","coordinates":[-71.4034,42.1094]}},{"properties":{"Bostonpress":0.0,"Governor":0.0,"City":"Melrose","latitude":42.458995,"Schoolvisit":0.0,"Mapped":null,"Localpress":0.0,"Fieldevent":0.0,"Jobs":1.0,"DPCfund":0.0,"State":"Massachusetts","Seniors":0.0,"longitude":-71.053095,"Statehouse":0.0,"id":"a70zj5e7bilf","Laborjobsite":0.0,"Advocacy":0.0,"Teachers":0.0},"type":"Feature","geometry":{"type":"Point","coordinates":[-71.053095,42.458995]}},{"properties":{"Bostonpress":0.0,"Governor":1.0,"City":"Milton","latitude":42.436545,"Schoolvisit":0.0,"Mapped":null,"Localpress":0.0,"Fieldevent":0.0,"Jobs":0.0,"DPCfund":8.0,"State":"Massachusetts","Seniors":0.0,"longitude":-71.085396,"Statehouse":0.0,"id":"a70zj5kta67p","Laborjobsite":0.0,"Advocacy":0.0,"Teachers":0.0},"type":"Feature","geometry":{"type":"Point","coordinates":[-71.085396,42.436545]}},{"properties":{"Bostonpress":0.0,"Governor":0.0,"City":"Natick","latitude":42.446396,"Schoolvisit":0.0,"Mapped":null,"Localpress":0.0,"Fieldevent":0.0,"Jobs":0.0,"DPCfund":0.0,"State":"Massachusetts","Seniors":1.0,"longitude":-71.459405,"Statehouse":0.0,"id":"a70zj5ii8olt","Laborjobsite":0.0,"Advocacy":0.0,"Teachers":0.0},"type":"Feature","geometry":{"type":"Point","coordinates":[-71.459405,42.446396]}},{"properties":{"Bostonpress":0.0,"Governor":0.0,"City":"Needham","latitude":42.2935,"Schoolvisit":1.0,"Mapped":null,"Localpress":0.0,"Fieldevent":0.0,"Jobs":0.0,"DPCfund":0.0,"State":"Massachusetts","Seniors":0.0,"longitude":-71.25,"Statehouse":0.0,"id":"a70zj5icxrtn","Laborjobsite":0.0,"Advocacy":0.0,"Teachers":1.0},"type":"Feature","geometry":{"type":"Point","coordinates":[-71.25,42.2935]}},{"properties":{"Bostonpress":0.0,"Governor":0.0,"City":"Newburyport","latitude":42.80965,"Schoolvisit":0.0,"Mapped":null,"Localpress":0.0,"Fieldevent":0.0,"Jobs":0.0,"DPCfund":1.0,"State":"Massachusetts","Seniors":0.0,"longitude":-70.873196,"Statehouse":0.0,"id":"a70zj5jy3zac","Laborjobsite":0.0,"Advocacy":0.0,"Teachers":0.0},"type":"Feature","geometry":{"type":"Point","coordinates":[-70.873196,42.80965]}},{"properties":{"Bostonpress":0.0,"Governor":0.0,"City":"North Andover","latitude":42.706,"Schoolvisit":0.0,"Mapped":null,"Localpress":0.0,"Fieldevent":0.0,"Jobs":1.0,"DPCfund":0.0,"State":"Massachusetts","Seniors":0.0,"longitude":-71.163,"Statehouse":0.0,"id":"a70zj5nbc44q","Laborjobsite":0.0,"Advocacy":0.0,"Teachers":0.0},"type":"Feature","geometry":{"type":"Point","coordinates":[-71.163,42.706]}},{"properties":{"Bostonpress":0.0,"Governor":0.0,"City":"North Chelmsford","latitude":42.446396,"Schoolvisit":1.0,"Mapped":null,"Localpress":0.0,"Fieldevent":0.0,"Jobs":0.0,"DPCfund":0.0,"State":"Massachusetts","Seniors":0.0,"longitude":-71.459405,"Statehouse":0.0,"id":"a70zj5gw511b","Laborjobsite":0.0,"Advocacy":0.0,"Teachers":0.0},"type":"Feature","geometry":{"type":"Point","coordinates":[-71.459405,42.446396]}},{"properties":{"Bostonpress":0.0,"Governor":0.0,"City":"Northampton","latitude":42.415154,"Schoolvisit":0.0,"Mapped":null,"Localpress":0.0,"Fieldevent":1.0,"Jobs":0.0,"DPCfund":0.0,"State":"Massachusetts","Seniors":0.0,"longitude":-72.76927,"Statehouse":0.0,"id":"a70zj5pc2wto","Laborjobsite":0.0,"Advocacy":0.0,"Teachers":0.0},"type":"Feature","geometry":{"type":"Point","coordinates":[-72.76927,42.415154]}},{"properties":{"Bostonpress":0.0,"Governor":1.0,"City":"Norwood","latitude":42.199,"Schoolvisit":0.0,"Mapped":null,"Localpress":0.0,"Fieldevent":0.0,"Jobs":0.0,"DPCfund":0.0,"State":"Massachusetts","Seniors":0.0,"longitude":-71.21,"Statehouse":0.0,"id":"a70zj5ng0c24","Laborjobsite":0.0,"Advocacy":0.0,"Teachers":0.0},"type":"Feature","geometry":{"type":"Point","coordinates":[-71.21,42.199]}},{"properties":{"Bostonpress":0.0,"Governor":1.0,"City":"Pittsfield","latitude":42.479475,"Schoolvisit":0.0,"Mapped":null,"Localpress":0.0,"Fieldevent":0.0,"Jobs":0.0,"DPCfund":0.0,"State":"Massachusetts","Seniors":0.0,"longitude":-73.24807,"Statehouse":0.0,"id":"a70zj5f8i9gu","Laborjobsite":0.0,"Advocacy":0.0,"Teachers":0.0},"type":"Feature","geometry":{"type":"Point","coordinates":[-73.24807,42.479475]}},{"properties":{"Bostonpress":0.0,"Governor":0.0,"City":"Plymouth","latitude":41.965,"Schoolvisit":0.0,"Mapped":null,"Localpress":0.0,"Fieldevent":0.0,"Jobs":0.0,"DPCfund":0.0,"State":"Massachusetts","Seniors":0.0,"longitude":-70.69,"Statehouse":0.0,"id":"a70zj5fkgmsh","Laborjobsite":1.0,"Advocacy":0.0,"Teachers":0.0},"type":"Feature","geometry":{"type":"Point","coordinates":[-70.69,41.965]}},{"properties":{"Bostonpress":0.0,"Governor":1.0,"City":"Quincy","latitude":42.241799,"Schoolvisit":0.0,"Mapped":null,"Localpress":0.0,"Fieldevent":0.0,"Jobs":1.0,"DPCfund":0.0,"State":"Massachusetts","Seniors":0.0,"longitude":-71.006042,"Statehouse":0.0,"id":"a70zj5ljz3zh","Laborjobsite":0.0,"Advocacy":0.0,"Teachers":0.0},"type":"Feature","geometry":{"type":"Point","coordinates":[-71.006042,42.241799]}},{"properties":{"Bostonpress":0.0,"Governor":1.0,"City":"Randolph","latitude":42.189,"Schoolvisit":0.0,"Mapped":null,"Localpress":0.0,"Fieldevent":0.0,"Jobs":0.0,"DPCfund":0.0,"State":"Massachusetts","Seniors":0.0,"longitude":-71.057,"Statehouse":0.0,"id":"a70zj5gxcrof","Laborjobsite":0.0,"Advocacy":0.0,"Teachers":0.0},"type":"Feature","geometry":{"type":"Point","coordinates":[-71.057,42.189]}},{"properties":{"Bostonpress":0.0,"Governor":0.0,"City":"Revere","latitude":42.437,"Schoolvisit":0.0,"Mapped":null,"Localpress":0.0,"Fieldevent":0.0,"Jobs":3.0,"DPCfund":0.0,"State":"Massachusetts","Seniors":0.0,"longitude":-71.003,"Statehouse":0.0,"id":"a70zj5jj2a88","Laborjobsite":0.0,"Advocacy":0.0,"Teachers":0.0},"type":"Feature","geometry":{"type":"Point","coordinates":[-71.003,42.437]}},{"properties":{"Bostonpress":0.0,"Governor":1.0,"City":"Salem","latitude":42.537,"Schoolvisit":0.0,"Mapped":null,"Localpress":0.0,"Fieldevent":0.0,"Jobs":1.0,"DPCfund":0.0,"State":"Massachusetts","Seniors":0.0,"longitude":-70.876,"Statehouse":0.0,"id":"a70zj5ti9lwn","Laborjobsite":0.0,"Advocacy":0.0,"Teachers":0.0},"type":"Feature","geometry":{"type":"Point","coordinates":[-70.876,42.537]}},{"properties":{"Bostonpress":0.0,"Governor":0.0,"City":"Saugus","latitude":42.472112,"Schoolvisit":0.0,"Mapped":null,"Localpress":0.0,"Fieldevent":1.0,"Jobs":0.0,"DPCfund":0.0,"State":"Massachusetts","Seniors":0.0,"longitude":-70.997794,"Statehouse":0.0,"id":"a70zj5hwue3j","Laborjobsite":0.0,"Advocacy":0.0,"Teachers":0.0},"type":"Feature","geometry":{"type":"Point","coordinates":[-70.997794,42.472112]}},{"properties":{"Bostonpress":0.0,"Governor":0.0,"City":"Scituate","latitude":42.2089,"Schoolvisit":0.0,"Mapped":null,"Localpress":0.0,"Fieldevent":0.0,"Jobs":0.0,"DPCfund":1.0,"State":"Massachusetts","Seniors":0.0,"longitude":-70.75,"Statehouse":0.0,"id":"a70zj5lk9di6","Laborjobsite":0.0,"Advocacy":0.0,"Teachers":0.0},"type":"Feature","geometry":{"type":"Point","coordinates":[-70.75,42.2089]}},{"properties":{"Bostonpress":0.0,"Governor":0.0,"City":"Sharon","latitude":42.1243,"Schoolvisit":0.0,"Mapped":null,"Localpress":0.0,"Fieldevent":1.0,"Jobs":0.0,"DPCfund":0.0,"State":"Massachusetts","Seniors":0.0,"longitude":-71.1833,"Statehouse":0.0,"id":"a70zj5e0p5hn","Laborjobsite":0.0,"Advocacy":0.0,"Teachers":0.0},"type":"Feature","geometry":{"type":"Point","coordinates":[-71.1833,42.1243]}},{"properties":{"Bostonpress":0.0,"Governor":4.0,"City":"Somerville","latitude":42.398,"Schoolvisit":0.0,"Mapped":null,"Localpress":0.0,"Fieldevent":0.0,"Jobs":3.0,"DPCfund":0.0,"State":"Massachusetts","Seniors":0.0,"longitude":-71.103,"Statehouse":0.0,"id":"a70zj5epdv9v","Laborjobsite":0.0,"Advocacy":0.0,"Teachers":0.0},"type":"Feature","geometry":{"type":"Point","coordinates":[-71.103,42.398]}},{"properties":{"Bostonpress":0.0,"Governor":2.0,"City":"Springfield","latitude":42.101483,"Schoolvisit":0.0,"Mapped":null,"Localpress":0.0,"Fieldevent":3.0,"Jobs":1.0,"DPCfund":0.0,"State":"Massachusetts","Seniors":0.0,"longitude":-72.589811,"Statehouse":0.0,"id":"a70zj5tpsg5w","Laborjobsite":0.0,"Advocacy":0.0,"Teachers":0.0},"type":"Feature","geometry":{"type":"Point","coordinates":[-72.589811,42.101483]}},{"properties":{"Bostonpress":0.0,"Governor":0.0,"City":"Sturbridge","latitude":42.10273,"Schoolvisit":0.0,"Mapped":null,"Localpress":0.0,"Fieldevent":0.0,"Jobs":1.0,"DPCfund":0.0,"State":"Massachusetts","Seniors":0.0,"longitude":-72.080996,"Statehouse":0.0,"id":"a70zj5hh9nbe","Laborjobsite":0.0,"Advocacy":0.0,"Teachers":0.0},"type":"Feature","geometry":{"type":"Point","coordinates":[-72.080996,42.10273]}},{"properties":{"Bostonpress":0.0,"Governor":0.0,"City":"Swampscott","latitude":42.513295,"Schoolvisit":0.0,"Mapped":null,"Localpress":0.0,"Fieldevent":1.0,"Jobs":0.0,"DPCfund":0.0,"State":"Massachusetts","Seniors":0.0,"longitude":-70.905893,"Statehouse":0.0,"id":"a70zj5s1pxkv","Laborjobsite":0.0,"Advocacy":0.0,"Teachers":0.0},"type":"Feature","geometry":{"type":"Point","coordinates":[-70.905893,42.513295]}},{"properties":{"Bostonpress":0.0,"Governor":3.0,"City":"Taunton","latitude":41.731,"Schoolvisit":1.0,"Mapped":null,"Localpress":0.0,"Fieldevent":1.0,"Jobs":1.0,"DPCfund":1.0,"State":"Massachusetts","Seniors":0.0,"longitude":-71.117,"Statehouse":0.0,"id":"a70zj5k26j8l","Laborjobsite":0.0,"Advocacy":1.0,"Teachers":1.0},"type":"Feature","geometry":{"type":"Point","coordinates":[-71.117,41.731]}},{"properties":{"Bostonpress":0.0,"Governor":0.0,"City":"Walpole","latitude":42.148624,"Schoolvisit":0.0,"Mapped":null,"Localpress":0.0,"Fieldevent":1.0,"Jobs":0.0,"DPCfund":0.0,"State":"Massachusetts","Seniors":0.0,"longitude":-71.255533,"Statehouse":0.0,"id":"a70zj5rr55x4","Laborjobsite":0.0,"Advocacy":0.0,"Teachers":0.0},"type":"Feature","geometry":{"type":"Point","coordinates":[-71.255533,42.148624]}},{"properties":{"Bostonpress":0.0,"Governor":1.0,"City":"Waltham","latitude":42.388938,"Schoolvisit":0.0,"Mapped":null,"Localpress":0.0,"Fieldevent":1.0,"Jobs":2.0,"DPCfund":1.0,"State":"Massachusetts","Seniors":0.0,"longitude":-71.2398,"Statehouse":0.0,"id":"a70zj5gyj81n","Laborjobsite":0.0,"Advocacy":1.0,"Teachers":0.0},"type":"Feature","geometry":{"type":"Point","coordinates":[-71.2398,42.388938]}},{"properties":{"Bostonpress":0.0,"Governor":0.0,"City":"Watertown","latitude":42.372596,"Schoolvisit":0.0,"Mapped":null,"Localpress":0.0,"Fieldevent":1.0,"Jobs":0.0,"DPCfund":0.0,"State":"Massachusetts","Seniors":0.0,"longitude":-71.177998,"Statehouse":0.0,"id":"a70zj5qj2znx","Laborjobsite":0.0,"Advocacy":1.0,"Teachers":0.0},"type":"Feature","geometry":{"type":"Point","coordinates":[-71.177998,42.372596]}},{"properties":{"Bostonpress":0.0,"Governor":0.0,"City":"Wellesley","latitude":42.300596,"Schoolvisit":0.0,"Mapped":null,"Localpress":0.0,"Fieldevent":0.0,"Jobs":0.0,"DPCfund":1.0,"State":"Massachusetts","Seniors":0.0,"longitude":-71.27875,"Statehouse":0.0,"id":"a70zj5l4rdam","Laborjobsite":0.0,"Advocacy":0.0,"Teachers":0.0},"type":"Feature","geometry":{"type":"Point","coordinates":[-71.27875,42.300596]}},{"properties":{"Bostonpress":0.0,"Governor":0.0,"City":"Westford","latitude":42.612,"Schoolvisit":0.0,"Mapped":null,"Localpress":0.0,"Fieldevent":0.0,"Jobs":1.0,"DPCfund":0.0,"State":"Massachusetts","Seniors":0.0,"longitude":-71.457,"Statehouse":0.0,"id":"a70zj5pniglc","Laborjobsite":0.0,"Advocacy":0.0,"Teachers":0.0},"type":"Feature","geometry":{"type":"Point","coordinates":[-71.457,42.612]}},{"properties":{"Bostonpress":0.0,"Governor":0.0,"City":"Westwood","latitude":42.220548,"Schoolvisit":0.0,"Mapped":null,"Localpress":0.0,"Fieldevent":0.0,"Jobs":0.0,"DPCfund":1.0,"State":"Massachusetts","Seniors":0.0,"longitude":-71.199238,"Statehouse":0.0,"id":"a70zj5fkezsc","Laborjobsite":0.0,"Advocacy":0.0,"Teachers":0.0},"type":"Feature","geometry":{"type":"Point","coordinates":[-71.199238,42.220548]}},{"properties":{"Bostonpress":0.0,"Governor":1.0,"City":"Woburn","latitude":42.488595,"Schoolvisit":0.0,"Mapped":null,"Localpress":0.0,"Fieldevent":0.0,"Jobs":0.0,"DPCfund":0.0,"State":"Massachusetts","Seniors":0.0,"longitude":-71.157271,"Statehouse":0.0,"id":"a70zj5ol1l5o","Laborjobsite":0.0,"Advocacy":0.0,"Teachers":0.0},"type":"Feature","geometry":{"type":"Point","coordinates":[-71.157271,42.488595]}},{"properties":{"Bostonpress":0.0,"Governor":4.0,"City":"Worcester","latitude":42.262593,"Schoolvisit":1.0,"Mapped":null,"Localpress":0.0,"Fieldevent":1.0,"Jobs":0.0,"DPCfund":0.0,"State":"Massachusetts","Seniors":0.0,"longitude":-71.802293,"Statehouse":0.0,"id":"a70zj5u4wfpt","Laborjobsite":0.0,"Advocacy":0.0,"Teachers":0.0},"type":"Feature","geometry":{"type":"Point","coordinates":[-71.802293,42.262593]}},{"properties":{"Bostonpress":0.0,"Governor":3.0,"City":"newbedford","latitude":41.633416,"Schoolvisit":1.0,"Mapped":null,"Localpress":1.0,"Fieldevent":0.0,"Jobs":4.0,"DPCfund":0.0,"State":"Massachusetts","Seniors":0.0,"longitude":-70.951045,"Statehouse":0.0,"id":"a70zj5it2ubq","Laborjobsite":0.0,"Advocacy":0.0,"Teachers":0.0},"type":"Feature","geometry":{"type":"Point","coordinates":[-70.951045,41.633416]}},{"properties":{"Bostonpress":0.0,"Governor":4.0,"City":"newton","latitude":42.3146,"Schoolvisit":0.0,"Mapped":null,"Localpress":0.0,"Fieldevent":1.0,"Jobs":0.0,"DPCfund":1.0,"State":"Massachusetts","Seniors":1.0,"longitude":-71.1931,"Statehouse":0.0,"id":"a70zj5uiyn60","Laborjobsite":0.0,"Advocacy":0.0,"Teachers":0.0},"type":"Feature","geometry":{"type":"Point","coordinates":[-71.1931,42.3146]}}],"is_temporal":false,"author":{"url":"","metadata":"","contact_name":"","contact_address":"","source":"","contact_phone":""},"source":"","pagination":{"sort":null,"start":0,"total":75,"limit":1000000},"state":"complete","tags":"","published":"2014-08-10T14:50:52-04:00","id":34227}