{"type":"FeatureCollection","data_type":"Dataset","url_type":null,"permissions":[{"permissions":{"download":true,"view":true},"group_id":"everyone"}],"classification":null,"title":"Fall Regattas 2013, Potential Stampfli 24 stops","count":28,"stream_id":343549,"contributor":{"url":"http://geocommons.com/users/1842","name":"geomatt1"},"data_attributes":null,"calculation_params":null,"icon_link":null,"link":"http://geocommons.com/overlays/343549.json","extent":[-122.269,33.7483,-71.0567,46.788],"geometry_types":["point"],"unique_name":"RegattaSchedule","name":"Fall Regattas 2013, Potential Stampfli 24 stops","feature_count":28,"description":"Potential places to bring the Stampli Express.  A 24 seat hull created by Melch of Stampli.","next_feature":null,"is_raster":false,"short_classification":"Y","stats":{"latitude":{"max":46.787965,"variance":7.43887734054185,"mean":40.7914077142857,"stdev":2.72743053816992,"min":33.748315,"median":41.65381},"date":{"max":"2013/11/16 00:00:00 -0500","variance":2209865605714.29,"mean":"2013/10/12 06:06:25 -0400","stdev":1486561.6723548,"min":"2013/09/15 00:00:00 -0400","median":"2013/10/12 00:00:00 -0400"},"rowing population 1-10":{"max":10,"variance":5.72883597883598,"mean":5.60714285714286,"stdev":2.39349868995911,"min":2,"median":5},"longitude":{"max":-71.056699,"variance":101.694625961961,"mean":-79.4439216428571,"stdev":10.0843753382131,"min":-122.268521,"median":-77.031959}},"features":[{"properties":{"city":"Cleveland","name":"Cleveland,  OH","latitude":41.50438,"date":{"end_time":"2013/09/16 00:00:00 -0400","original":"09/15/13","granularity":"day","time":"2013/09/15 00:00:00 -0400"},"rowing population 1-10":5,"note":"Many Juniors Entries 60+ 8's in 2012","longitude":-81.690434,"id":"adidsoqg77ci","regatta":"Head of the Cuyoga","state":"OH"},"type":"Feature","geometry":{"type":"Point","coordinates":[-81.690434,41.50438]}},{"properties":{"city":"Albany","name":"Albany,  NY","latitude":42.651445,"date":{"end_time":"2013/09/22 00:00:00 -0400","original":"09/21/13","granularity":"day","time":"2013/09/21 00:00:00 -0400"},"rowing population 1-10":3,"note":null,"longitude":-73.755254,"id":"adidsoqfukng","regatta":"Head of the Hudson","state":"NY"},"type":"Feature","geometry":{"type":"Point","coordinates":[-73.755254,42.651445]}},{"properties":{"city":"Welland","name":"Welland,  Ontario","latitude":42.993485,"date":{"end_time":"2013/09/22 00:00:00 -0400","original":"09/21/13","granularity":"day","time":"2013/09/21 00:00:00 -0400"},"rowing population 1-10":4,"note":"307 Entries mostly singles","longitude":-79.239244,"id":"adidsolk64c0","regatta":"Head of the Welland","state":"Ontario"},"type":"Feature","geometry":{"type":"Point","coordinates":[-79.239244,42.993485]}},{"properties":{"city":"Toledo","name":"Toledo,  OH","latitude":41.65381,"date":{"end_time":"2013/09/22 00:00:00 -0400","original":"09/21/13","granularity":"day","time":"2013/09/21 00:00:00 -0400"},"rowing population 1-10":3,"note":null,"longitude":-83.536259,"id":"adidsof4b7ar","regatta":"Frogtown Races","state":"OH"},"type":"Feature","geometry":{"type":"Point","coordinates":[-83.536259,41.65381]}},{"properties":{"city":"Methuen","name":"Methuen,  MA","latitude":42.73011,"date":{"end_time":"2013/09/22 00:00:00 -0400","original":"09/21/13","granularity":"day","time":"2013/09/21 00:00:00 -0400"},"rowing population 1-10":3,"note":null,"longitude":-71.183679,"id":"adidsomuxuvw","regatta":"Head of the Merrimack","state":"MA"},"type":"Feature","geometry":{"type":"Point","coordinates":[-71.183679,42.73011]}},{"properties":{"city":"Duluth","name":"Duluth, MN","latitude":46.787965,"date":{"end_time":"2013/09/23 00:00:00 -0400","original":"09/22/13","granularity":"day","time":"2013/09/22 00:00:00 -0400"},"rowing population 1-10":2,"note":null,"longitude":-92.099849,"id":"adidsog6e0nk","regatta":"Death Row","state":"MN"},"type":"Feature","geometry":{"type":"Point","coordinates":[-92.099849,46.787965]}},{"properties":{"city":"Washington","name":"Washington,  DC","latitude":38.89037,"date":{"end_time":"2013/09/29 00:00:00 -0400","original":"09/28/13","granularity":"day","time":"2013/09/28 00:00:00 -0400"},"rowing population 1-10":8,"note":"Eights","longitude":-77.031959,"id":"adidsopk1c60","regatta":"Head of the Anacostia","state":"DC"},"type":"Feature","geometry":{"type":"Point","coordinates":[-77.031959,38.89037]}},{"properties":{"city":"Washington","name":"Washington,  DC","latitude":38.89037,"date":{"end_time":"2013/09/30 00:00:00 -0400","original":"09/29/13","granularity":"day","time":"2013/09/29 00:00:00 -0400"},"rowing population 1-10":5,"note":"Scullers","longitude":-77.031959,"id":"adidsoqcxtbr","regatta":"Head of the Potomac","state":"DC"},"type":"Feature","geometry":{"type":"Point","coordinates":[-77.031959,38.89037]}},{"properties":{"city":"Pittsburgh","name":"Pittsburgh,  PA","latitude":40.438335,"date":{"end_time":"2013/10/06 00:00:00 -0400","original":"10/05/13","granularity":"day","time":"2013/10/05 00:00:00 -0400"},"rowing population 1-10":7,"note":"Team Boats Galore","longitude":-79.997459,"id":"adidsogut7wv","regatta":"Head of the Ohio","state":"PA"},"type":"Feature","geometry":{"type":"Point","coordinates":[-79.997459,40.438335]}},{"properties":{"city":"Hartford","name":"Hartford,  CT","latitude":41.763325,"date":{"end_time":"2013/10/07 00:00:00 -0400","original":"10/06/13","granularity":"day","time":"2013/10/06 00:00:00 -0400"},"rowing population 1-10":5,"note":"2600 Competitors","longitude":-72.674069,"id":"adidsos2fe8l","regatta":"Head of the Riverfront","state":"CT"},"type":"Feature","geometry":{"type":"Point","coordinates":[-72.674069,41.763325]}},{"properties":{"city":"Lowell","name":"Lowell,  MA","latitude":42.64589,"date":{"end_time":"2013/10/07 00:00:00 -0400","original":"10/06/13","granularity":"day","time":"2013/10/06 00:00:00 -0400"},"rowing population 1-10":7,"note":"57 Junior Boys Eights 42 Junior Girls 8's","longitude":-71.312844,"id":"adidsoqf9568","regatta":"Textile River Regatta","state":"MA"},"type":"Feature","geometry":{"type":"Point","coordinates":[-71.312844,42.64589]}},{"properties":{"city":"Wilmington","name":"Wilmington,  DE","latitude":39.740235,"date":{"end_time":"2013/10/07 00:00:00 -0400","original":"10/06/13","granularity":"day","time":"2013/10/06 00:00:00 -0400"},"rowing population 1-10":5,"note":null,"longitude":-75.550844,"id":"adidsoeuy66g","regatta":"Head of the Christina","state":"DE"},"type":"Feature","geometry":{"type":"Point","coordinates":[-75.550844,39.740235]}},{"properties":{"city":"Niskayuna","name":"Niskayuna,  NY","latitude":42.779259,"date":{"end_time":"2013/10/07 00:00:00 -0400","original":"10/06/13","granularity":"day","time":"2013/10/06 00:00:00 -0400"},"rowing population 1-10":3,"note":null,"longitude":-73.846191,"id":"adidsolb0te7","regatta":"Head of the Mohawk","state":"NY"},"type":"Feature","geometry":{"type":"Point","coordinates":[-73.846191,42.779259]}},{"properties":{"city":"Columbus","name":"Columbus , OH","latitude":39.96196,"date":{"end_time":"2013/10/13 00:00:00 -0400","original":"10/12/13","granularity":"day","time":"2013/10/12 00:00:00 -0400"},"rowing population 1-10":3,"note":null,"longitude":-83.002984,"id":"adidsonlg88p","regatta":"Columbus Fall Classic","state":"OH"},"type":"Feature","geometry":{"type":"Point","coordinates":[-83.002984,39.96196]}},{"properties":{"city":"Buffalo","name":"Buffalo,  NY","latitude":42.88544,"date":{"end_time":"2013/10/13 00:00:00 -0400","original":"10/12/13","granularity":"day","time":"2013/10/12 00:00:00 -0400"},"rowing population 1-10":6,"note":null,"longitude":-78.878464,"id":"adidsojj4zjn","regatta":"Head of Niagara","state":"NY"},"type":"Feature","geometry":{"type":"Point","coordinates":[-78.878464,42.88544]}},{"properties":{"city":"Shelton","name":"Shelton,  CT","latitude":41.322609,"date":{"end_time":"2013/10/13 00:00:00 -0400","original":"10/12/13","granularity":"day","time":"2013/10/12 00:00:00 -0400"},"rowing population 1-10":7,"note":"Big Regatta","longitude":-73.109109,"id":"adidsodbonie","regatta":"Head of the Housatonic","state":"CT"},"type":"Feature","geometry":{"type":"Point","coordinates":[-73.109109,41.322609]}},{"properties":{"city":"Worcester","name":"Worcester,  MA","latitude":42.263415,"date":{"end_time":"2013/10/14 00:00:00 -0400","original":"10/13/13","granularity":"day","time":"2013/10/13 00:00:00 -0400"},"rowing population 1-10":6,"note":"Parents Galore","longitude":-71.802189,"id":"adidsohokudk","regatta":"NE Jr High School Regatta","state":"MA"},"type":"Feature","geometry":{"type":"Point","coordinates":[-71.802189,42.263415]}},{"properties":{"city":"St Charles","name":"St Charles, IL","latitude":41.913765,"date":{"end_time":"2013/10/14 00:00:00 -0400","original":"10/13/13","granularity":"day","time":"2013/10/13 00:00:00 -0400"},"rowing population 1-10":2,"note":null,"longitude":-88.312844,"id":"adidsos6x2fo","regatta":"Scarecrow Regatta","state":"IL"},"type":"Feature","geometry":{"type":"Point","coordinates":[-88.312844,41.913765]}},{"properties":{"city":"Boston","name":"Boston,  MA","latitude":42.358635,"date":{"end_time":"2013/10/20 00:00:00 -0400","original":"10/19/13","granularity":"day","time":"2013/10/19 00:00:00 -0400"},"rowing population 1-10":10,"note":"Classic","longitude":-71.056699,"id":"adidsoeu5sev","regatta":"Head of the Charles","state":"MA"},"type":"Feature","geometry":{"type":"Point","coordinates":[-71.056699,42.358635]}},{"properties":{"city":"Boston","name":"Boston,  MA","latitude":42.358635,"date":{"end_time":"2013/10/21 00:00:00 -0400","original":"10/20/13","granularity":"day","time":"2013/10/20 00:00:00 -0400"},"rowing population 1-10":10,"note":"Classic","longitude":-71.056699,"id":"adidsosmgyj8","regatta":"Head of the Charles","state":"MA"},"type":"Feature","geometry":{"type":"Point","coordinates":[-71.056699,42.358635]}},{"properties":{"city":"Philadelphia","name":"Philadelphia,  PA","latitude":39.95228,"date":{"end_time":"2013/10/27 00:00:00 -0400","original":"10/26/13","granularity":"day","time":"2013/10/26 00:00:00 -0400"},"rowing population 1-10":9,"note":"Epic","longitude":-75.162454,"id":"adidsomrqqp0","regatta":"Head of the Schuylkill","state":"PA"},"type":"Feature","geometry":{"type":"Point","coordinates":[-75.162454,39.95228]}},{"properties":{"city":"Philadelphia","name":"Philadelphia,  PA","latitude":39.95228,"date":{"end_time":"2013/10/28 00:00:00 -0400","original":"10/27/13","granularity":"day","time":"2013/10/27 00:00:00 -0400"},"rowing population 1-10":9,"note":"Epic (More universities at Pton Chase?)","longitude":-75.162454,"id":"adidsoe4z9wa","regatta":"Head of the Schuylkill","state":"PA"},"type":"Feature","geometry":{"type":"Point","coordinates":[-75.162454,39.95228]}},{"properties":{"city":"Princeton","name":"Princeton,  NJ","latitude":40.349855,"date":{"end_time":"2013/10/28 00:00:00 -0400","original":"10/27/13","granularity":"day","time":"2013/10/27 00:00:00 -0400"},"rowing population 1-10":6,"note":"Lots of Universities","longitude":-74.659119,"id":"adidsoerx4y0","regatta":"Princeton 3-Mile Chase","state":"NJ"},"type":"Feature","geometry":{"type":"Point","coordinates":[-74.659119,40.349855]}},{"properties":{"city":"Atlanta","name":"Atlanta,  GA","latitude":33.748315,"date":{"end_time":"2013/11/03 00:00:00 -0400","original":"11/02/13","granularity":"day","time":"2013/11/02 00:00:00 -0400"},"rowing population 1-10":8,"note":null,"longitude":-84.391109,"id":"adidsoh8u2hd","regatta":"Head of the Hooch","state":"GA"},"type":"Feature","geometry":{"type":"Point","coordinates":[-84.391109,33.748315]}},{"properties":{"city":"Atlanta","name":"Atlanta,  GA","latitude":33.748315,"date":{"end_time":"2013/11/04 00:00:00 -0500","original":"11/03/13","granularity":"day","time":"2013/11/03 00:00:00 -0400"},"rowing population 1-10":8,"note":null,"longitude":-84.391109,"id":"adidsoello4p","regatta":"Head of the Hooch","state":"GA"},"type":"Feature","geometry":{"type":"Point","coordinates":[-84.391109,33.748315]}},{"properties":{"city":"Charlottesville","name":"Charlottesville,  VA","latitude":38.03213,"date":{"end_time":"2013/11/10 00:00:00 -0500","original":"11/09/13","granularity":"day","time":"2013/11/09 00:00:00 -0500"},"rowing population 1-10":4,"note":null,"longitude":-78.477529,"id":"adidsodj4c7v","regatta":"Rivanna Romp??","state":"VA"},"type":"Feature","geometry":{"type":"Point","coordinates":[-78.477529,38.03213]}},{"properties":{"city":"Foster City","name":"Foster City,  CA","latitude":37.560928,"date":{"end_time":"2013/11/11 00:00:00 -0500","original":"11/10/13","granularity":"day","time":"2013/11/10 00:00:00 -0500"},"rowing population 1-10":4,"note":null,"longitude":-122.268521,"id":"adidsorq4fak","regatta":"Head of the Lagoon","state":"CA"},"type":"Feature","geometry":{"type":"Point","coordinates":[-122.268521,37.560928]}},{"properties":{"city":"Ann Arbor","name":"Ann Arbor,  MI","latitude":42.281875,"date":{"end_time":"2013/11/17 00:00:00 -0500","original":"11/16/13","granularity":"day","time":"2013/11/16 00:00:00 -0500"},"rowing population 1-10":5,"note":null,"longitude":-83.748479,"id":"adidsoli3g6n","regatta":"Wolverbuck Regatta","state":"MI"},"type":"Feature","geometry":{"type":"Point","coordinates":[-83.748479,42.281875]}}],"is_temporal":true,"author":{"url":"","metadata":"","contact_name":"","contact_address":"","source":"","contact_phone":""},"source":"","pagination":{"sort":null,"start":0,"total":28,"limit":1000000},"state":"complete","tags":"","published":"2014-08-16T17:08:00-04:00","id":343549}