{"type":"FeatureCollection","data_type":"Dataset","url_type":null,"permissions":[{"permissions":{"download":true,"view":true},"group_id":"everyone"}],"classification":null,"title":"Connor_Drew_FinalProjectData","count":11,"stream_id":343548,"contributor":{"url":"http://geocommons.com/users/61219","name":"ceging12"},"data_attributes":null,"calculation_params":null,"icon_link":null,"link":"http://geocommons.com/overlays/343548.json","extent":[-84.604,37.9872,-84.3847,38.1214],"geometry_types":["point"],"unique_name":null,"name":"Connor_Drew_FinalProjectData","feature_count":11,"description":"","next_feature":null,"is_raster":false,"short_classification":"Y","stats":{},"features":[{"properties":{"city":"Lexington","name":"Kearney Hill Golf Links","zipcode":"40511","column_7":null,"column_8":null,"geo_score":1.0,"id":"adids2fqpjji","address":"3403 Kearney Road","phone number":"(859) 253-1981","geo_precision":"range","state":"KY"},"type":"Feature","geometry":{"type":"Point","coordinates":[-84.533629,38.1197]}},{"properties":{"city":"Lexington","name":"University Club of Kentucky","zipcode":"40511","column_7":null,"column_8":null,"geo_score":1.0,"id":"adids2hzns66","address":"4850 Leestown Road","phone number":"(859) 381-8585","geo_precision":"range","state":"KY"},"type":"Feature","geometry":{"type":"Point","coordinates":[-84.604036,38.121375]}},{"properties":{"city":"Lexington","name":"Gay Brewer, Junior Golf Course","zipcode":"40504","column_7":null,"column_8":null,"geo_score":0.912,"id":"adids2qzt3cs","address":"469 Parkway Drive","phone number":"(859) 288-2990","geo_precision":"range","state":"KY"},"type":"Feature","geometry":{"type":"Point","coordinates":[-84.523618,38.035524]}},{"properties":{"city":"Lexington","name":"Tates Creek Golf Course","zipcode":"40517","column_7":null,"column_8":null,"geo_score":1.0,"id":"adids2oeslb4","address":"1400 Gainesway Drive","phone number":"(859) 272-3428","geo_precision":"range","state":"KY"},"type":"Feature","geometry":{"type":"Point","coordinates":[-84.475662,37.987168]}},{"properties":{"city":"Lexington","name":"Spring Valley Golf Club","zipcode":"40511","column_7":null,"column_8":null,"geo_score":1.0,"id":"adids2bec0qi","address":"2300 Sandersville Road","phone number":"(859) 254-9646","geo_precision":"range","state":"KY"},"type":"Feature","geometry":{"type":"Point","coordinates":[-84.523879,38.086687]}},{"properties":{"city":"Lexington","name":"Lakeside Golf Course","zipcode":"40509","column_7":null,"column_8":null,"geo_score":1.0,"id":"adids2gxfhlu","address":"3725 Richmond Road","phone number":"(859)263-5315","geo_precision":"range","state":"KY"},"type":"Feature","geometry":{"type":"Point","coordinates":[-84.433916,37.990919]}},{"properties":{"city":"Lexington","name":"Greenbrier Golf and Country Club","zipcode":"40509","column_7":null,"column_8":null,"geo_score":1.0,"id":"adids2o1818k","address":"2179 Bahama Road","phone number":"(859) 299-5002","geo_precision":"range","state":"KY"},"type":"Feature","geometry":{"type":"Point","coordinates":[-84.384724,38.026791]}},{"properties":{"city":"Lexington","name":"Lexington Country Club","zipcode":"40511","column_7":null,"column_8":null,"geo_score":1.0,"id":"adids2g56hfy","address":"2550 Paris Pike","phone number":"(859) 299-6243","geo_precision":"range","state":"KY"},"type":"Feature","geometry":{"type":"Point","coordinates":[-84.444808,38.082042]}},{"properties":{"city":"Lexington","name":"Griffin Gate Marriot Resort and Spa","zipcode":"40511","column_7":null,"column_8":null,"geo_score":1.0,"id":"adids2bnw9va","address":"1800 Newtown Pike","phone number":"(859) 231-5100","geo_precision":"range","state":"KY"},"type":"Feature","geometry":{"type":"Point","coordinates":[-84.486352,38.095506]}},{"properties":{"city":"Lexington","name":"Idle Hour Country Club","zipcode":"40502","column_7":null,"column_8":null,"geo_score":1.0,"id":"adids2ndiqwe","address":"1815 Richmond Road","phone number":"(859) 266-1121","geo_precision":"range","state":"KY"},"type":"Feature","geometry":{"type":"Point","coordinates":[-84.47285,38.025346]}},{"properties":{"city":"Lexington","name":"Andover Golf and County Club","zipcode":"40509","column_7":null,"column_8":null,"geo_score":1.0,"id":"adids2ny2dj6","address":"3450 Todds Road","phone number":"(859) 263-3710","geo_precision":"range","state":"KY"},"type":"Feature","geometry":{"type":"Point","coordinates":[-84.418854,38.005568]}}],"is_temporal":false,"author":{"url":"","metadata":null,"contact_name":null,"contact_address":null,"source":null,"contact_phone":null},"source":"","pagination":{"sort":null,"start":0,"total":11,"limit":1000000},"state":"complete","tags":"","published":"2014-08-16T17:07:59-04:00","id":343548}