{"type":"FeatureCollection","data_type":"Dataset","url_type":null,"permissions":[{"permissions":{"download":true,"view":true},"group_id":"everyone"}],"classification":null,"title":"Parks, Arlington County, VA, 2010","count":127,"stream_id":34427,"contributor":{"url":"http://geocommons.com/users/139","name":"Burkey"},"data_attributes":null,"calculation_params":null,"icon_link":null,"link":"http://geocommons.com/overlays/34427.json","extent":[-77.1719,38.8344,-77.0495,38.9228],"geometry_types":["point"],"unique_name":null,"name":"Parks, Arlington County, VA, 2010","feature_count":127,"description":"This dataset displays the locations of parks that are within Arlington County. \n\nArlington has over 1,100 acres of parks and open space. Each park location has it's own unique setting with a variety of features and amenities. Come out and enjoy one of Arlington's beautiful parks today!","next_feature":null,"is_raster":false,"short_classification":"Y","stats":{"geo_score":{"max":1.0,"mean":0.904606299212598,"variance":0.011457319960005,"stdev":0.107038871257151,"min":0.5,"median":0.916}},"features":[{"properties":{"city":"Arlington","name":"18th Street North and North Lincoln Street Park","zip":"22207","geo_score":0.81,"type":"Park","street address":"18th St N and N Lincoln St","id":"a65lwq60ibl5","geo_precision":"street","state":"VA"},"type":"Feature","geometry":{"type":"Point","coordinates":[-77.103394,38.891496]}},{"properties":{"city":"Arlington","name":"21st Street North and North Potomac Street Park","zip":"22205","geo_score":1.0,"type":"Park","street address":"2001 North Potomac Street","id":"a65lwq0n1kqm","geo_precision":"range","state":"VA"},"type":"Feature","geometry":{"type":"Point","coordinates":[-77.149729,38.887785]}},{"properties":{"city":"Arlington","name":"Alcova Heights Park","zip":"22204","geo_score":1.0,"type":"Park","street address":"901 South George Mason Drive","id":"a65lwpy6a0zk","geo_precision":"range","state":"VA"},"type":"Feature","geometry":{"type":"Point","coordinates":[-77.102542,38.860694]}},{"properties":{"city":"Arlington","name":"Allie S. Freed Park","zip":"22206","geo_score":0.973,"type":"Park","street address":"2465 South Culpeper Street","id":"a65lwq0mb4u3","geo_precision":"range","state":"VA"},"type":"Feature","geometry":{"type":"Point","coordinates":[-77.102395,38.844617]}},{"properties":{"city":"Arlington","name":"Andrew Ellicott Park at the West Cornerstone","zip":"22213","geo_score":0.878,"type":"Park","street address":"2824 North Arizona St","id":"a65lwq5naior","geo_precision":"range","state":"VA"},"type":"Feature","geometry":{"type":"Point","coordinates":[-77.171875,38.893315]}},{"properties":{"city":"Arlington","name":"Annie's Park","zip":"22201","geo_score":0.805,"type":"Park","street address":"1825 North Moore Street","id":"a65lwq3bsa89","geo_precision":"range","state":"VA"},"type":"Feature","geometry":{"type":"Point","coordinates":[-77.071558,38.89636]}},{"properties":{"city":"Arlington","name":"Arlington Forest Park","zip":"22203","geo_score":0.902,"type":"Park","street address":"4801 Arlington Boulevard","id":"a65lwpvflazi","geo_precision":"street","state":"VA"},"type":"Feature","geometry":{"type":"Point","coordinates":[-77.115798,38.867121]}},{"properties":{"city":"Arlington","name":"Arlington Hall West Park","zip":"22204","geo_score":0.824,"type":"Park","street address":"290 South Taylor Street","id":"a65lwpwc4jee","geo_precision":"street","state":"VA"},"type":"Feature","geometry":{"type":"Point","coordinates":[-77.107311,38.865564]}},{"properties":{"city":"Arlington","name":"Arlington Heights Park","zip":"22204","geo_score":0.812,"type":"Park","street address":"9th Street South and South Irving Street","id":"a65lwpy94lov","geo_precision":"street","state":"VA"},"type":"Feature","geometry":{"type":"Point","coordinates":[-77.093638,38.872389]}},{"properties":{"city":"Arlington","name":"Arlington View Park","zip":"22204","geo_score":1.0,"type":"Park","street address":"1105 South Queen Street","id":"a65lwpugol2s","geo_precision":"range","state":"VA"},"type":"Feature","geometry":{"type":"Point","coordinates":[-77.073593,38.864677]}},{"properties":{"city":"Arlington","name":"Bailey's Branch Park","zip":"22204","geo_score":1.0,"type":"Park","street address":"990 South Columbus Street","id":"a65lwpxt726y","geo_precision":"range","state":"VA"},"type":"Feature","geometry":{"type":"Point","coordinates":[-77.110931,38.854478]}},{"properties":{"city":"Arlington","name":"Barcroft Park and Fitness Center","zip":"22204","geo_score":0.819,"type":"Park","street address":"4200 South Four Mile Run Drive","id":"a65lwq5g8mxu","geo_precision":"street","state":"VA"},"type":"Feature","geometry":{"type":"Point","coordinates":[-77.10137,38.850761]}},{"properties":{"city":"Arlington","name":"Barton Park","zip":"22201","geo_score":0.916,"type":"Park","street address":"2401 10th Street North","id":"a65lwq6btllm","geo_precision":"range","state":"VA"},"type":"Feature","geometry":{"type":"Point","coordinates":[-77.087076,38.884595]}},{"properties":{"city":"Arlington","name":"Beaver Pond Park","zip":"22203","geo_score":0.779,"type":"Park","street address":"4747 North Fairfax Drive","id":"a65lwpvki7a5","geo_precision":"street","state":"VA"},"type":"Feature","geometry":{"type":"Point","coordinates":[-77.119557,38.881795]}},{"properties":{"city":"Arlington","name":"Belvedere Park","zip":"22201","geo_score":0.541,"type":"Park","street address":"1613 16th Road North","id":"a65lwpzn6gib","geo_precision":"street","state":"VA"},"type":"Feature","geometry":{"type":"Point","coordinates":[-77.080962,38.891712]}},{"properties":{"city":"Arlington","name":"Benjamin Banneker Park","zip":"22205","geo_score":0.807,"type":"Park","street address":"1701 North Van Buren Street","id":"a65lwq8xflgb","geo_precision":"street","state":"VA"},"type":"Feature","geometry":{"type":"Point","coordinates":[-77.159101,38.883311]}},{"properties":{"city":"Arlington","name":"Big Walnut Park","zip":"22207","geo_score":0.805,"type":"Park","street address":"1915 North Harrison Street","id":"a65lwq0tegjh","geo_precision":"street","state":"VA"},"type":"Feature","geometry":{"type":"Point","coordinates":[-77.137723,38.896302]}},{"properties":{"city":"Arlington","name":"Bluemont Junction Park","zip":"22205","geo_score":0.806,"type":"Park","street address":"744 North Emerson Street","id":"a65lwpzs0cxr","geo_precision":"street","state":"VA"},"type":"Feature","geometry":{"type":"Point","coordinates":[-77.12511,38.881121]}},{"properties":{"city":"Arlington","name":"Bluemont Park","zip":"22203","geo_score":1.0,"type":"Park","street address":"601 North Manchester Street","id":"a65lwq7pqktk","geo_precision":"range","state":"VA"},"type":"Feature","geometry":{"type":"Point","coordinates":[-77.134058,38.871999]}},{"properties":{"city":"Arlington","name":"Bon Air Park","zip":"22205","geo_score":1.0,"type":"Park","street address":"850 North Lexington Street","id":"a65lwq0lts0p","geo_precision":"range","state":"VA"},"type":"Feature","geometry":{"type":"Point","coordinates":[-77.132418,38.875322]}},{"properties":{"city":"Arlington","name":"Broyhill Forest Park","zip":"22207","geo_score":0.771,"type":"Park","street address":"35th Street North and North Utah Street","id":"a65lwpyw5l8b","geo_precision":"street","state":"VA"},"type":"Feature","geometry":{"type":"Point","coordinates":[-77.114483,38.890433]}},{"properties":{"city":"Arlington","name":"Butler Holmes Park","zip":"22204","geo_score":1.0,"type":"Park","street address":"101 South Barton Street","id":"a65lwq14kft8","geo_precision":"range","state":"VA"},"type":"Feature","geometry":{"type":"Point","coordinates":[-77.086226,38.873082]}},{"properties":{"city":"Arlington","name":"Carlin Hall Community Center and Park","zip":"22204","geo_score":0.902,"type":"Park","street address":"5711 4th St S","id":"a65lwpwv3a7t","geo_precision":"range","state":"VA"},"type":"Feature","geometry":{"type":"Point","coordinates":[-77.125661,38.863029]}},{"properties":{"city":"Arlington","name":"Carver Park and Community Center","zip":"22204","geo_score":0.916,"type":"Park","street address":"1528 13th Road South","id":"a65lwq68yz0o","geo_precision":"range","state":"VA"},"type":"Feature","geometry":{"type":"Point","coordinates":[-77.07031,38.862514]}},{"properties":{"city":"Arlington","name":"Charles A. Stewart Park","zip":"22213","geo_score":0.807,"type":"Park","street address":"2400 North Underwood Street","id":"a65lwq76l8l9","geo_precision":"street","state":"VA"},"type":"Feature","geometry":{"type":"Point","coordinates":[-77.160939,38.89188]}},{"properties":{"city":"Arlington","name":"Cheerios Park","zip":"22202","geo_score":0.878,"type":"Park","street address":"23rd St S &amp; S Ball St","id":"a65lwq2hszlf","geo_precision":"street","state":"VA"},"type":"Feature","geometry":{"type":"Point","coordinates":[-77.049543,38.853293]}},{"properties":{"city":"Arlington","name":"Cherry Valley Park","zip":"22207","geo_score":1.0,"type":"Park","street address":"1731 North Quincy Street","id":"a65lwpvd4bsi","geo_precision":"range","state":"VA"},"type":"Feature","geometry":{"type":"Point","coordinates":[-77.107844,38.891888]}},{"properties":{"city":"Arlington","name":"Cherrydale Park","zip":"22207","geo_score":1.0,"type":"Park","street address":"2100 North Quincy Street","id":"a65lwq444irl","geo_precision":"range","state":"VA"},"type":"Feature","geometry":{"type":"Point","coordinates":[-77.108131,38.896148]}},{"properties":{"city":"Arlington","name":"Chestnut Hills Park","zip":"22207","geo_score":0.82,"type":"Park","street address":"North Harrison Street and 27th Street North","id":"a65lwq7bkio9","geo_precision":"street","state":"VA"},"type":"Feature","geometry":{"type":"Point","coordinates":[-77.142037,38.899009]}},{"properties":{"city":"Arlington","name":"Clarendon Central Park","zip":"22201","geo_score":0.973,"type":"Park","street address":"3140 Wilson Boulevard","id":"a65lwpxgnj42","geo_precision":"range","state":"VA"},"type":"Feature","geometry":{"type":"Point","coordinates":[-77.09573,38.886885]}},{"properties":{"city":"Arlington","name":"Clarenford Station Park","zip":"22201","geo_score":0.816,"type":"Park","street address":"13th St &amp; N Vermont St","id":"a65lwq46o5dt","geo_precision":"street","state":"VA"},"type":"Feature","geometry":{"type":"Point","coordinates":[-77.080618,38.888954]}},{"properties":{"city":"Arlington","name":"Cleveland Park","zip":"22204","geo_score":0.829,"type":"Park","street address":"11th Street South and South Cleveland Street","id":"a65lwq0c94k0","geo_precision":"street","state":"VA"},"type":"Feature","geometry":{"type":"Point","coordinates":[-77.086754,38.872056]}},{"properties":{"city":"Arlington","name":"Constitution Garden Park","zip":"22203","geo_score":0.973,"type":"Park","street address":"4821 Wilson Blvd","id":"a65lwq3sff5m","geo_precision":"range","state":"VA"},"type":"Feature","geometry":{"type":"Point","coordinates":[-77.119792,38.878523]}},{"properties":{"city":"Arlington","name":"Crandal Mackey Park","zip":"22201","geo_score":0.805,"type":"Park","street address":"1933 North Lynn Street","id":"a65lwpuyqzhm","geo_precision":"range","state":"VA"},"type":"Feature","geometry":{"type":"Point","coordinates":[-77.070825,38.897483]}},{"properties":{"city":"Arlington","name":"Dark Star Park","zip":"22201","geo_score":0.778,"type":"Park","street address":"1655 Fort Myer Drive","id":"a65lwq5tiesh","geo_precision":"range","state":"VA"},"type":"Feature","geometry":{"type":"Point","coordinates":[-77.071963,38.893418]}},{"properties":{"city":"Arlington","name":"Dawson Terrace Community Center and Park","zip":"22201","geo_score":1.0,"type":"Park","street address":"2133 North Taft Street","id":"a65lwpyg66l7","geo_precision":"range","state":"VA"},"type":"Feature","geometry":{"type":"Point","coordinates":[-77.083112,38.89902]}},{"properties":{"city":"Arlington","name":"Doctor's Run Park","zip":"22204","geo_score":1.0,"type":"Park","street address":"1301 South George Mason Drive","id":"a65lwpz64x99","geo_precision":"range","state":"VA"},"type":"Feature","geometry":{"type":"Point","coordinates":[-77.100374,38.856182]}},{"properties":{"city":"Arlington","name":"Donaldson Run Park","zip":"22207","geo_score":0.833,"type":"Park","street address":"30th Street North and Military Road","id":"a65lwpwfovt5","geo_precision":"street","state":"VA"},"type":"Feature","geometry":{"type":"Point","coordinates":[-77.108509,38.897066]}},{"properties":{"city":"Arlington","name":"Douglas Park","zip":"22204","geo_score":1.0,"type":"Park","street address":"1718 South Quincy Street","id":"a65lwq28kcuh","geo_precision":"range","state":"VA"},"type":"Feature","geometry":{"type":"Point","coordinates":[-77.09605,38.852962]}},{"properties":{"city":"Arlington","name":"Drew Park and Community Center","zip":"22204","geo_score":0.916,"type":"Park","street address":"3514 22nd Street South","id":"a65lwpu2wc8q","geo_precision":"range","state":"VA"},"type":"Feature","geometry":{"type":"Point","coordinates":[-77.087504,38.849138]}},{"properties":{"city":"Arlington","name":"Eads Park","zip":"22202","geo_score":1.0,"type":"Park","street address":"2730 South Eads Street","id":"a65lwpzhbond","geo_precision":"range","state":"VA"},"type":"Feature","geometry":{"type":"Point","coordinates":[-77.053867,38.848644]}},{"properties":{"city":"Arlington","name":"East Falls Church Park","zip":"22205","geo_score":1.0,"type":"Park","street address":"North Roosevelt Street","id":"a65lwq3c3jyx","geo_precision":"street","state":"VA"},"type":"Feature","geometry":{"type":"Point","coordinates":[-77.153984,38.879162]}},{"properties":{"city":"Arlington","name":"Edison Park","zip":"22203","geo_score":0.812,"type":"Park","street address":"2nd Street North and North Edison Street","id":"a65lwq0xqu15","geo_precision":"street","state":"VA"},"type":"Feature","geometry":{"type":"Point","coordinates":[-77.121342,38.868736]}},{"properties":{"city":"Arlington","name":"Fairlington Community Center and Park","zip":"22206","geo_score":0.973,"type":"Park","street address":"3308 S Stafford St","id":"a65lwpyhx4pg","geo_precision":"range","state":"VA"},"type":"Feature","geometry":{"type":"Point","coordinates":[-77.086721,38.834378]}},{"properties":{"city":"Arlington","name":"Fields Park","zip":"22203","geo_score":1.0,"type":"Park","street address":"775 North George Mason Drive","id":"a65lwpxrzrkc","geo_precision":"range","state":"VA"},"type":"Feature","geometry":{"type":"Point","coordinates":[-77.120501,38.87769]}},{"properties":{"city":"Arlington","name":"Fillmore Park","zip":"22201","geo_score":1.0,"type":"Park","street address":"33 North Fillmore Street","id":"a65lwq4fhq9h","geo_precision":"range","state":"VA"},"type":"Feature","geometry":{"type":"Point","coordinates":[-77.089734,38.874257]}},{"properties":{"city":"Arlington","name":"Fort Barnard Heights Park","zip":"22206","geo_score":0.89,"type":"Park","street address":"2448 24th Road South","id":"a65lwq3mm22m","geo_precision":"range","state":"VA"},"type":"Feature","geometry":{"type":"Point","coordinates":[-77.080015,38.848832]}},{"properties":{"city":"Arlington","name":"Fort Barnard Park","zip":"22204","geo_score":1.0,"type":"Park","street address":"2101 South Pollard Street","id":"a65lwq5euhyy","geo_precision":"range","state":"VA"},"type":"Feature","geometry":{"type":"Point","coordinates":[-77.093064,38.849692]}},{"properties":{"city":"Arlington","name":"Fort Bennett Park and Palisades Trail","zip":"22201","geo_score":0.732,"type":"Park","street address":"2220 North Scott Drive","id":"a65lwq94hi86","geo_precision":"street","state":"VA"},"type":"Feature","geometry":{"type":"Point","coordinates":[-77.080278,38.890038]}},{"properties":{"city":"Arlington","name":"Fort C. F. Smith Park","zip":"22207","geo_score":0.916,"type":"Park","street address":"2411 24th Street North","id":"a65lwpxx27eb","geo_precision":"range","state":"VA"},"type":"Feature","geometry":{"type":"Point","coordinates":[-77.089561,38.900822]}},{"properties":{"city":"Arlington","name":"Fort Ethan Allen Park","zip":"22207","geo_score":1.0,"type":"Park","street address":"3829 North Stafford Street","id":"a65lwq4mhdw6","geo_precision":"range","state":"VA"},"type":"Feature","geometry":{"type":"Point","coordinates":[-77.123643,38.92279]}},{"properties":{"city":"Arlington","name":"Fort Myer Heights Park","zip":"22201","geo_score":0.778,"type":"Park","street address":"1400 Fort Myer Drive","id":"a65lwq7c1g5e","geo_precision":"range","state":"VA"},"type":"Feature","geometry":{"type":"Point","coordinates":[-77.074769,38.890488]}},{"properties":{"city":"Arlington","name":"Fort Reynolds Park","zip":"22206","geo_score":0.89,"type":"Park","street address":"4585 31st St S","id":"a65lwq70mxe3","geo_precision":"range","state":"VA"},"type":"Feature","geometry":{"type":"Point","coordinates":[-77.094096,38.837769]}},{"properties":{"city":"Arlington","name":"Fort Scott Park","zip":"22202","geo_score":1.0,"type":"Park","street address":"2800 South Fort Scott Drive","id":"a65lwq4xwsyz","geo_precision":"range","state":"VA"},"type":"Feature","geometry":{"type":"Point","coordinates":[-77.058612,38.847517]}},{"properties":{"city":"Arlington","name":"Four Mile Run Park","zip":"22206","geo_score":0.973,"type":"Park","street address":"3100 South Glebe Road","id":"a65lwq4j14ku","geo_precision":"range","state":"VA"},"type":"Feature","geometry":{"type":"Point","coordinates":[-77.064984,38.845338]}},{"properties":{"city":"Arlington","name":"Foxcroft Heights Park","zip":"22211","geo_score":0.5,"type":"Park","street address":"Southgate Road and South Oak Street","id":"a65lwq0wob58","geo_precision":"street","state":"VA"},"type":"Feature","geometry":{"type":"Point","coordinates":[-77.07218,38.86866]}},{"properties":{"city":"Arlington","name":"Fraser Park","zip":"22202","geo_score":0.81,"type":"Park","street address":"28th Street South and Army-Navy Drive","id":"a65lwptbrazz","geo_precision":"street","state":"VA"},"type":"Feature","geometry":{"type":"Point","coordinates":[-77.051919,38.862922]}},{"properties":{"city":"Arlington","name":"Gateway Park","zip":"22201","geo_score":0.763,"type":"Park","street address":"1300 Lee Highway","id":"a65lwq8iatwa","geo_precision":"street","state":"VA"},"type":"Feature","geometry":{"type":"Point","coordinates":[-77.082059,38.896353]}},{"properties":{"city":"Arlington","name":"Glebe Road Park","zip":"22207","geo_score":1.0,"type":"Park","street address":"4211 North Old Glebe Road","id":"a65lwpwyptod","geo_precision":"range","state":"VA"},"type":"Feature","geometry":{"type":"Point","coordinates":[-77.126314,38.921911]}},{"properties":{"city":"Arlington","name":"Glencarlyn Park","zip":"22204","geo_score":1.0,"type":"Park","street address":"301 South Harrison Street","id":"a65lwpz8zcud","geo_precision":"range","state":"VA"},"type":"Feature","geometry":{"type":"Point","coordinates":[-77.120616,38.863929]}},{"properties":{"city":"Arlington","name":"Greenbrier Park","zip":"22207","geo_score":0.916,"type":"Park","street address":"5201 28th Street North","id":"a65lwq78v72j","geo_precision":"range","state":"VA"},"type":"Feature","geometry":{"type":"Point","coordinates":[-77.139158,38.902186]}},{"properties":{"city":"Arlington","name":"Gulf Branch Nature Center and Park","zip":"22207","geo_score":1.0,"type":"Park","street address":"3608 North Military Road","id":"a65lwpv5t0i4","geo_precision":"range","state":"VA"},"type":"Feature","geometry":{"type":"Point","coordinates":[-77.119681,38.918703]}},{"properties":{"city":"Arlington","name":"Gum Ball Park","zip":"22203","geo_score":0.805,"type":"Park","street address":"3715 7th Street North","id":"a65lwq1rj17j","geo_precision":"range","state":"VA"},"type":"Feature","geometry":{"type":"Point","coordinates":[-77.102766,38.879883]}},{"properties":{"city":"Arlington","name":"Gunston Park","zip":"22206","geo_score":0.89,"type":"Park","street address":"1401 28th St S","id":"a65lwpvcduuz","geo_precision":"range","state":"VA"},"type":"Feature","geometry":{"type":"Point","coordinates":[-77.071292,38.846796]}},{"properties":{"city":"Arlington","name":"Hayes Park","zip":"22201","geo_score":1.0,"type":"Park","street address":"1516 North Lincoln Street","id":"a65lwq4f6bnn","geo_precision":"range","state":"VA"},"type":"Feature","geometry":{"type":"Point","coordinates":[-77.10331,38.889483]}},{"properties":{"city":"Arlington","name":"Henry Clay Park","zip":"22201","geo_score":0.902,"type":"Park","street address":"3011 7th Street North","id":"a65lwq4j24or","geo_precision":"range","state":"VA"},"type":"Feature","geometry":{"type":"Point","coordinates":[-77.093537,38.880966]}},{"properties":{"city":"Arlington","name":"Herndon and 13th Street Park","zip":"22201","geo_score":0.614,"type":"Park","street address":"1299 N. Herndon St","id":"a65lwpwlbfjo","geo_precision":"street","state":"VA"},"type":"Feature","geometry":{"type":"Point","coordinates":[-77.095424,38.887154]}},{"properties":{"city":"Arlington","name":"Herselle Milliken Park","zip":"22201","geo_score":1.0,"type":"Park","street address":"820 North Lincoln Street","id":"a65lwq4z1b9w","geo_precision":"range","state":"VA"},"type":"Feature","geometry":{"type":"Point","coordinates":[-77.100859,38.882023]}},{"properties":{"city":"Arlington","name":"High View Park","zip":"22207","geo_score":1.0,"type":"Park","street address":"1945 North Dinwiddie Street","id":"a65lwq5jjq1f","geo_precision":"range","state":"VA"},"type":"Feature","geometry":{"type":"Point","coordinates":[-77.127012,38.893043]}},{"properties":{"city":"Arlington","name":"Hillside Park","zip":"22201","geo_score":0.805,"type":"Park","street address":"1601 North Pierce Street","id":"a65lwq6hygz8","geo_precision":"range","state":"VA"},"type":"Feature","geometry":{"type":"Point","coordinates":[-77.076417,38.892095]}},{"properties":{"city":"Arlington","name":"Holmberg Park","zip":"22207","geo_score":1.0,"type":"Park","street address":"3756 North Upland Street","id":"a65lwptoihqu","geo_precision":"range","state":"VA"},"type":"Feature","geometry":{"type":"Point","coordinates":[-77.127467,38.91946]}},{"properties":{"city":"Arlington","name":"Isaac Crossman Park at Four Mile Run","zip":"22205","geo_score":0.805,"type":"Park","street address":"1900 North Westmoreland Street","id":"a65lwq2p8pj2","geo_precision":"range","state":"VA"},"type":"Feature","geometry":{"type":"Point","coordinates":[-77.160026,38.88438]}},{"properties":{"city":"Arlington","name":"James W. Haley Park","zip":"22202","geo_score":1.0,"type":"Park","street address":"2400 South Meade Street","id":"a65lwq6vu7iv","geo_precision":"range","state":"VA"},"type":"Feature","geometry":{"type":"Point","coordinates":[-77.068387,38.850851]}},{"properties":{"city":"Arlington","name":"Jamestown Park","zip":"22207","geo_score":0.82,"type":"Park","street address":"36th Street North and North Delaware Street","id":"a65lwq0hjjbs","geo_precision":"street","state":"VA"},"type":"Feature","geometry":{"type":"Point","coordinates":[-77.13967,38.91457]}},{"properties":{"city":"Arlington","name":"Jennie Dean Park","zip":"22206","geo_score":0.89,"type":"Park","street address":"3630 27th Street South","id":"a65lwpurmous","geo_precision":"range","state":"VA"},"type":"Feature","geometry":{"type":"Point","coordinates":[-77.08759,38.843823]}},{"properties":{"city":"Arlington","name":"Lacey Woods Park","zip":"22205","geo_score":1.0,"type":"Park","street address":"1200 North George Mason Drive","id":"a65lwq0xlcbc","geo_precision":"range","state":"VA"},"type":"Feature","geometry":{"type":"Point","coordinates":[-77.12551,38.884192]}},{"properties":{"city":"Arlington","name":"Langston-Brown Community Center and Park","zip":"22207","geo_score":0.958,"type":"Park","street address":"4854 Lee Highway","id":"a65lwq3hsfpe","geo_precision":"range","state":"VA"},"type":"Feature","geometry":{"type":"Point","coordinates":[-77.126658,38.896517]}},{"properties":{"city":"Arlington","name":"Lee Park and Community Center","zip":"22207","geo_score":0.958,"type":"Park","street address":"5722 Lee Highway","id":"a65lwq8s7kbx","geo_precision":"range","state":"VA"},"type":"Feature","geometry":{"type":"Point","coordinates":[-77.143083,38.895009]}},{"properties":{"city":"Arlington","name":"Lee Heights Park","zip":"22207","geo_score":1.0,"type":"Park","street address":"2400 North Taylor Street","id":"a65lwptwpahw","geo_precision":"range","state":"VA"},"type":"Feature","geometry":{"type":"Point","coordinates":[-77.115152,38.902856]}},{"properties":{"city":"Arlington","name":"Long Branch Nature Center and Park","zip":"22204","geo_score":1.0,"type":"Park","street address":"625 South Carlin Springs Road","id":"a65lwq7eyglu","geo_precision":"range","state":"VA"},"type":"Feature","geometry":{"type":"Point","coordinates":[-77.127771,38.86017]}},{"properties":{"city":"Arlington","name":"Lubber Run Park and Community Center","zip":"22203","geo_score":0.833,"type":"Park","street address":"North Columbus Street and 2nd Street North","id":"a65lwq2fgelr","geo_precision":"street","state":"VA"},"type":"Feature","geometry":{"type":"Point","coordinates":[-77.118686,38.866918]}},{"properties":{"city":"Arlington","name":"Lucky Run Park","zip":"22206","geo_score":0.973,"type":"Park","street address":"2620 South Walter Reed Drive","id":"a65lwpwg3kwb","geo_precision":"range","state":"VA"},"type":"Feature","geometry":{"type":"Point","coordinates":[-77.104233,38.842613]}},{"properties":{"city":"Arlington","name":"Lyon Village Park","zip":"22201","geo_score":1.0,"type":"Park","street address":"1800 North Highland Street","id":"a65lwq4gbq5f","geo_precision":"range","state":"VA"},"type":"Feature","geometry":{"type":"Point","coordinates":[-77.094363,38.893017]}},{"properties":{"city":"Arlington","name":"Madison Manor Park","zip":"22205","geo_score":0.916,"type":"Park","street address":"6225 12th Road North","id":"a65lwpztk9pq","geo_precision":"range","state":"VA"},"type":"Feature","geometry":{"type":"Point","coordinates":[-77.149963,38.881701]}},{"properties":{"city":"Arlington","name":"Marcey Road Park","zip":"22207","geo_score":0.967,"type":"Park","street address":"2722 Marcey Road","id":"a65lwq18ew4h","geo_precision":"range","state":"VA"},"type":"Feature","geometry":{"type":"Point","coordinates":[-77.110096,38.910135]}},{"properties":{"city":"Arlington","name":"Maury Park","zip":"22201","geo_score":0.973,"type":"Park","street address":"3550 Wilson Boulevard","id":"a65lwq6qt6nr","geo_precision":"range","state":"VA"},"type":"Feature","geometry":{"type":"Point","coordinates":[-77.101998,38.88225]}},{"properties":{"city":"Arlington","name":"Maywood Park","zip":"22201","geo_score":0.916,"type":"Park","street address":"3210 22nd Street North","id":"a65lwpttj36m","geo_precision":"range","state":"VA"},"type":"Feature","geometry":{"type":"Point","coordinates":[-77.099509,38.897476]}},{"properties":{"city":"Arlington","name":"McCoy Park","zip":"22201","geo_score":0.916,"type":"Park","street address":"2121 21st Street North","id":"a65lwq10r3aq","geo_precision":"range","state":"VA"},"type":"Feature","geometry":{"type":"Point","coordinates":[-77.086013,38.897145]}},{"properties":{"city":"Arlington","name":"Metro Park","zip":"22201","geo_score":0.805,"type":"Park","street address":"1740 North Lynn Street","id":"a65lwq4ogs63","geo_precision":"range","state":"VA"},"type":"Feature","geometry":{"type":"Point","coordinates":[-77.070811,38.895319]}},{"properties":{"city":"Arlington","name":"Minor Hill Park","zip":"22213","geo_score":1.0,"type":"Park","street address":"3400 North Powhatan Street","id":"a65lwq8dhc8x","geo_precision":"range","state":"VA"},"type":"Feature","geometry":{"type":"Point","coordinates":[-77.156174,38.900909]}},{"properties":{"city":"Arlington","name":"Monroe Park","zip":"22204","geo_score":0.798,"type":"Park","street address":"14th Street South and South Monroe Street","id":"a65lwpu7br97","geo_precision":"street","state":"VA"},"type":"Feature","geometry":{"type":"Point","coordinates":[-77.095776,38.864936]}},{"properties":{"city":"Arlington","name":"Mosaic Park","zip":"22203","geo_score":1.0,"type":"Park","street address":"544 N Pollard Street","id":"a65lwpz1804c","geo_precision":"range","state":"VA"},"type":"Feature","geometry":{"type":"Point","coordinates":[-77.106664,38.878293]}},{"properties":{"city":"Arlington","name":"Nauck Park","zip":"22204","geo_score":0.916,"type":"Park","street address":"2600 19th Street South","id":"a65lwpxehyfv","geo_precision":"range","state":"VA"},"type":"Feature","geometry":{"type":"Point","coordinates":[-77.082056,38.854648]}},{"properties":{"city":"Arlington","name":"Nelly Custis Park","zip":"22202","geo_score":0.916,"type":"Park","street address":"701 24th Street South","id":"a65lwq92j5h3","geo_precision":"range","state":"VA"},"type":"Feature","geometry":{"type":"Point","coordinates":[-77.057535,38.852326]}},{"properties":{"city":"Arlington","name":"Nina Park","zip":"22202","geo_score":0.916,"type":"Park","street address":"800 24th Street South","id":"a65lwptez2a2","geo_precision":"range","state":"VA"},"type":"Feature","geometry":{"type":"Point","coordinates":[-77.059435,38.852292]}},{"properties":{"city":"Arlington","name":"Oakcrest Park","zip":"22202","geo_score":1.0,"type":"Park","street address":"1020 South Oakcrest Road","id":"a65lwq7pf713","geo_precision":"range","state":"VA"},"type":"Feature","geometry":{"type":"Point","coordinates":[-77.063322,38.849233]}},{"properties":{"city":"Arlington","name":"Oakgrove Park","zip":"22207","geo_score":1.0,"type":"Park","street address":"1606 North Quincy Street","id":"a65lwq010nm6","geo_precision":"range","state":"VA"},"type":"Feature","geometry":{"type":"Point","coordinates":[-77.108236,38.890325]}},{"properties":{"city":"Arlington","name":"Oakland Park","zip":"22203","geo_score":0.824,"type":"Park","street address":"9th Street North and North Oakland Street","id":"a65lwpuhn2dz","geo_precision":"street","state":"VA"},"type":"Feature","geometry":{"type":"Point","coordinates":[-77.102809,38.874948]}},{"properties":{"city":"Arlington","name":"Parkhurst Park","zip":"22205","geo_score":0.819,"type":"Park","street address":"5820 20th Road North","id":"a65lwpu6bon4","geo_precision":"street","state":"VA"},"type":"Feature","geometry":{"type":"Point","coordinates":[-77.142018,38.889452]}},{"properties":{"city":"Arlington","name":"Penrose Park","zip":"22204","geo_score":0.902,"type":"Park","street address":"2200 6th Street South","id":"a65lwpvdq1gr","geo_precision":"range","state":"VA"},"type":"Feature","geometry":{"type":"Point","coordinates":[-77.082651,38.868781]}},{"properties":{"city":"Arlington","name":"Powhatan Springs Park","zip":"22205","geo_score":0.973,"type":"Park","street address":"6020 Wilson Blvd.","id":"a65lwq21dqcv","geo_precision":"range","state":"VA"},"type":"Feature","geometry":{"type":"Point","coordinates":[-77.139415,38.873797]}},{"properties":{"city":"Arlington","name":"Prospect Hill Park","zip":"22202","geo_score":0.807,"type":"Park","street address":"1025 South Arlington Ridge Road","id":"a65lwq2yxyuq","geo_precision":"street","state":"VA"},"type":"Feature","geometry":{"type":"Point","coordinates":[-77.06594,38.864878]}},{"properties":{"city":"Arlington","name":"Quincy Park","zip":"22201","geo_score":1.0,"type":"Park","street address":"1021 North Quincy Street","id":"a65lwq2mz0f4","geo_precision":"range","state":"VA"},"type":"Feature","geometry":{"type":"Point","coordinates":[-77.107865,38.88342]}},{"properties":{"city":"Arlington","name":"Rhodeside Green Park","zip":"22209","geo_score":0.508,"type":"Park","street address":"1601 N. Rhodes St","id":"a65lwpymit8j","geo_precision":"street","state":"VA"},"type":"Feature","geometry":{"type":"Point","coordinates":[-77.078927,38.890119]}},{"properties":{"city":"Arlington","name":"Rock Spring Park","zip":"22207","geo_score":0.979,"type":"Park","street address":"5000 Little Falls Road","id":"a65lwpwqs4uw","geo_precision":"range","state":"VA"},"type":"Feature","geometry":{"type":"Point","coordinates":[-77.138465,38.907047]}},{"properties":{"city":"Arlington","name":"Rocky Run Park","zip":"22201","geo_score":1.0,"type":"Park","street address":"1109 North Barton Street","id":"a65lwq9fn4mx","geo_precision":"range","state":"VA"},"type":"Feature","geometry":{"type":"Point","coordinates":[-77.088135,38.886245]}},{"properties":{"city":"Arlington","name":"Rosslyn Highlands Park","zip":"22201","geo_score":0.876,"type":"Park","street address":"1529 Wilson Boulevard","id":"a65lwpyrggio","geo_precision":"range","state":"VA"},"type":"Feature","geometry":{"type":"Point","coordinates":[-77.074641,38.894683]}},{"properties":{"city":"Arlington","name":"Sharp Park","zip":"22213","geo_score":1.0,"type":"Park","street address":"3400 North Powhatan Street","id":"a65lwq7i5cr1","geo_precision":"range","state":"VA"},"type":"Feature","geometry":{"type":"Point","coordinates":[-77.156174,38.900909]}},{"properties":{"city":"Arlington","name":"Shirlington Park","zip":"22206","geo_score":0.973,"type":"Park","street address":"2601 South Arlington Mill Drive","id":"a65lwq19liux","geo_precision":"range","state":"VA"},"type":"Feature","geometry":{"type":"Point","coordinates":[-77.094044,38.844547]}},{"properties":{"city":"Arlington","name":"Slater Park","zip":"22207","geo_score":1.0,"type":"Park","street address":"1837 North Culpeper Street","id":"a65lwpvhs2f4","geo_precision":"range","state":"VA"},"type":"Feature","geometry":{"type":"Point","coordinates":[-77.123184,38.892543]}},{"properties":{"city":"Arlington","name":"Stratford Park","zip":"22207","geo_score":0.979,"type":"Park","street address":"4321 Old Dominion Drive","id":"a65lwq5f4mvg","geo_precision":"range","state":"VA"},"type":"Feature","geometry":{"type":"Point","coordinates":[-77.11399,38.899356]}},{"properties":{"city":"Arlington","name":"Thomas Jefferson Community Center and Park","zip":"22204","geo_score":0.805,"type":"Park","street address":"3501 South 2nd Street","id":"a65lwq3aa739","geo_precision":"range","state":"VA"},"type":"Feature","geometry":{"type":"Point","coordinates":[-77.096064,38.86888]}},{"properties":{"city":"Arlington","name":"Thrifton Hills Park","zip":"22201","geo_score":0.916,"type":"Park","street address":"2814 23rd Street North","id":"a65lwq11vlwc","geo_precision":"range","state":"VA"},"type":"Feature","geometry":{"type":"Point","coordinates":[-77.097605,38.897498]}},{"properties":{"city":"Arlington","name":"Towers Park","zip":"22204","geo_score":0.807,"type":"Park","street address":"801 South Scott Street","id":"a65lwq2fhf09","geo_precision":"street","state":"VA"},"type":"Feature","geometry":{"type":"Point","coordinates":[-77.077439,38.866351]}},{"properties":{"city":"Arlington","name":"Troy Park","zip":"22206","geo_score":0.973,"type":"Park","street address":"2629 South Troy Street","id":"a65lwpyqk5l3","geo_precision":"range","state":"VA"},"type":"Feature","geometry":{"type":"Point","coordinates":[-77.074388,38.847442]}},{"properties":{"city":"Arlington","name":"Tuckahoe Park","zip":"22213","geo_score":0.805,"type":"Park","street address":"2400 North Sycamore Street","id":"a65lwq7n5v7m","geo_precision":"range","state":"VA"},"type":"Feature","geometry":{"type":"Point","coordinates":[-77.156595,38.89127]}},{"properties":{"city":"Arlington","name":"Tyrol Hill Park","zip":"22204","geo_score":0.902,"type":"Park","street address":"5101 7th Road South","id":"a65lwpwqkl8q","geo_precision":"range","state":"VA"},"type":"Feature","geometry":{"type":"Point","coordinates":[-77.117512,38.859785]}},{"properties":{"city":"Arlington","name":"Upper Pimmit Run Park","zip":"22207","geo_score":1.0,"type":"Park","street address":"3815 North Dumbarton Street","id":"a65lwq9qs6ok","geo_precision":"range","state":"VA"},"type":"Feature","geometry":{"type":"Point","coordinates":[-77.143303,38.914035]}},{"properties":{"city":"Arlington","name":"Utah Park","zip":"22206","geo_score":0.798,"type":"Park","street address":"3191 South Utah Street","id":"a65lwq879qaf","geo_precision":"street","state":"VA"},"type":"Feature","geometry":{"type":"Point","coordinates":[-77.087841,38.837472]}},{"properties":{"city":"Arlington","name":"Virginia Highlands Park","zip":"22202","geo_score":1.0,"type":"Park","street address":"1600 South Hayes Street","id":"a65lwpual37o","geo_precision":"range","state":"VA"},"type":"Feature","geometry":{"type":"Point","coordinates":[-77.059351,38.858881]}},{"properties":{"city":"Arlington","name":"Walter Reed Community Center and Park","zip":"22206","geo_score":0.721,"type":"Park","street address":"2909 16th St S","id":"a65lwptjs87n","geo_precision":"range","state":"VA"},"type":"Feature","geometry":{"type":"Point","coordinates":[-77.085791,38.857169]}},{"properties":{"city":"Arlington","name":"Westover Park","zip":"22205","geo_score":1.0,"type":"Park","street address":"1001 North Kennebec Street","id":"a65lwpv9sb7b","geo_precision":"range","state":"VA"},"type":"Feature","geometry":{"type":"Point","coordinates":[-77.135352,38.879675]}},{"properties":{"city":"Arlington","name":"Windy Run Park","zip":"22207","geo_score":1.0,"type":"Park","street address":"2420 North Kenmore Street","id":"a65lwq760als","geo_precision":"range","state":"VA"},"type":"Feature","geometry":{"type":"Point","coordinates":[-77.099547,38.900736]}},{"properties":{"city":"Arlington","name":"Woodlawn Park","zip":"22207","geo_score":0.806,"type":"Park","street address":"1400 North Buchanan Street","id":"a65lwpufcd9z","geo_precision":"street","state":"VA"},"type":"Feature","geometry":{"type":"Point","coordinates":[-77.122405,38.88881]}},{"properties":{"city":"Arlington","name":"Woodmont Center and Park","zip":"22207","geo_score":1.0,"type":"Park","street address":"2422 North Fillmore Street","id":"a65lwq02fj4x","geo_precision":"range","state":"VA"},"type":"Feature","geometry":{"type":"Point","coordinates":[-77.097148,38.901154]}},{"properties":{"city":"Arlington","name":"Woodstock Park","zip":"22207","geo_score":1.0,"type":"Park","street address":"2049 North Woodstock Street","id":"a65lwq6a8z61","geo_precision":"range","state":"VA"},"type":"Feature","geometry":{"type":"Point","coordinates":[-77.118689,38.896879]}},{"properties":{"city":"Arlington","name":"Zachary Taylor Park","zip":"22207","geo_score":0.973,"type":"Park","street address":"2900 Military Road","id":"a65lwq2h5rjy","geo_precision":"range","state":"VA"},"type":"Feature","geometry":{"type":"Point","coordinates":[-77.113301,38.910982]}}],"is_temporal":false,"author":{"url":"http://www.arlingtonva.us/departments/parksrecreation/scripts/parks/ParksList.aspx","metadata":"","contact_name":"","contact_address":"","source":"Arlington County, VA: Parks, Recreation & Cultural Resources ","contact_phone":""},"source":"http://www.arlingtonva.us/departments/parksrecreation/scripts/parks/ParksList.aspx","pagination":{"sort":null,"start":0,"total":127,"limit":1000000},"state":"complete","tags":"arlington,arlingtonrec,community,parks,recreation,virginia","published":"2009-11-04T17:00:00Z","id":34427}