{"type":"FeatureCollection","data_type":"Dataset","url_type":null,"permissions":[{"permissions":{"download":true,"view":true},"group_id":"everyone"}],"classification":null,"title":"ProfessionalSportsCitiesRevenue","count":129,"stream_id":344948,"contributor":{"url":"http://geocommons.com/users/61501","name":"SLHS17"},"data_attributes":null,"calculation_params":null,"icon_link":null,"link":"http://geocommons.com/overlays/344948.json","extent":[-122.69,25.7806,-71.0237,47.5919],"geometry_types":["point"],"unique_name":null,"name":"ProfessionalSportsCitiesRevenue","feature_count":129,"description":"","next_feature":null,"is_raster":false,"short_classification":"Y","stats":{"2012 revenue":{"max":500000000.0,"variance":9.20349685077519e+15,"mean":166689922.48062,"stdev":95934857.3292064,"min":10000000.0,"median":160000000.0}},"features":[{"properties":{"city":"Glendale","zip":"85305","geo_score":0.585,"2012 revenue":246000000.0,"team":"Arizona Cardinals (NFL)","id":"adl84jtlb2n8","address":"1 Cardinals Drive","geo_precision":"street","state":"AZ"},"type":"Feature","geometry":{"type":"Point","coordinates":[-114.480824,32.664702]}},{"properties":{"city":"Phoenix","zip":"85004","geo_score":1.0,"2012 revenue":186000000.0,"team":"Arizona Diamondbacks (MLB)","id":"adl84jtpvrdi","address":"401 E Jefferson St","geo_precision":"range","state":"AZ"},"type":"Feature","geometry":{"type":"Point","coordinates":[-112.068701,33.446348]}},{"properties":{"city":"Glendale","zip":"85305","geo_score":0.565,"2012 revenue":83000000.0,"team":"Phoenix Coyotes (NHL)","id":"adl84jvghhs9","address":"6751 North Sunset Boulevard","geo_precision":"street","state":"AZ"},"type":"Feature","geometry":{"type":"Point","coordinates":[-114.225219,33.56822]}},{"properties":{"city":"Phoenix","zip":"85004","geo_score":1.0,"2012 revenue":121000000.0,"team":"Phoenix Suns (NBA)","id":"adl84jnxdfkv","address":"201 E Jefferson St","geo_precision":"range","state":"AZ"},"type":"Feature","geometry":{"type":"Point","coordinates":[-112.071257,33.446795]}},{"properties":{"city":"Anaheim","zip":"92806","geo_score":0.805,"2012 revenue":91000000.0,"team":"Anaheim Ducks (NHL)","id":"adl84jo9s6s8","address":"2695 E Katella Ave","geo_precision":"range","state":"CA"},"type":"Feature","geometry":{"type":"Point","coordinates":[-117.825274,33.810425]}},{"properties":{"city":"Carson","zip":"90746","geo_score":1.0,"2012 revenue":10000000.0,"team":"CD Chivas USA (MLS)","id":"adl84jkdv6ur","address":"18400 Avalon Blvd","geo_precision":"range","state":"CA"},"type":"Feature","geometry":{"type":"Point","coordinates":[-118.26591,33.864491]}},{"properties":{"city":"Oakland","zip":"94607","geo_score":0.988,"2012 revenue":127000000.0,"team":"Golden State Warriors (NBA)","id":"adl84jmqnruq","address":"1011 Broadway","geo_precision":"range","state":"CA"},"type":"Feature","geometry":{"type":"Point","coordinates":[-122.27264,37.802256]}},{"properties":{"city":"Anaheim","zip":"92806","geo_score":0.902,"2012 revenue":226000000.0,"team":"Los Angeles Angels (MLB)","id":"adl84jk1lfhl","address":"2000 E Gene Autry Way","geo_precision":"street","state":"CA"},"type":"Feature","geometry":{"type":"Point","coordinates":[-117.884192,33.799825]}},{"properties":{"city":"Playa Vista","zip":"90094","geo_score":0.611,"2012 revenue":108000000.0,"team":"Los Angeles Clippers (NBA)","id":"adl84jnmf7h1","address":"6951 S Centinela Ave","geo_precision":"street","state":"CA"},"type":"Feature","geometry":{"type":"Point","coordinates":[-118.409134,33.981288]}},{"properties":{"city":"Los Angeles","zip":"90012","geo_score":0.707,"2012 revenue":246000000.0,"team":"Los Angeles Dodgers (MLB)","id":"adl84jimzfzv","address":"1000 Elysian Park Ave","geo_precision":"street","state":"CA"},"type":"Feature","geometry":{"type":"Point","coordinates":[-118.243207,34.072811]}},{"properties":{"city":"Carson","zip":"90746","geo_score":1.0,"2012 revenue":46000000.0,"team":"Los Angeles Galaxy (MLS)","id":"adl84jkrmyzx","address":"18400 Avalon Blvd","geo_precision":"range","state":"CA"},"type":"Feature","geometry":{"type":"Point","coordinates":[-118.26591,33.864491]}},{"properties":{"city":"Los Angeles","zip":"90015","geo_score":0.992,"2012 revenue":120000000.0,"team":"Los Angeles Kings (NHL)","id":"adl84jleauom","address":"1111 S Figueroa St","geo_precision":"range","state":"CA"},"type":"Feature","geometry":{"type":"Point","coordinates":[-118.266753,34.04215]}},{"properties":{"city":"El Segundo","zip":"90245","geo_score":0.606,"2012 revenue":197000000.0,"team":"Los Angeles Lakers (NBA)","id":"adl84jqdy3g0","address":"555 N. Nash Street","geo_precision":"street","state":"CA"},"type":"Feature","geometry":{"type":"Point","coordinates":[-118.387423,33.919779]}},{"properties":{"city":"Oakland","zip":"94621","geo_score":0.988,"2012 revenue":173000000.0,"team":"Oakland Athletis (MLB)","id":"adl84ji4ssfh","address":"7000 Coliseum Way","geo_precision":"range","state":"CA"},"type":"Feature","geometry":{"type":"Point","coordinates":[-122.198473,37.751713]}},{"properties":{"city":"Alameda","zip":"94502","geo_score":1.0,"2012 revenue":226000000.0,"team":"Oakland Raiders (NFL)","id":"adl84jhwt6t8","address":"1220 Harbor Bay Pkwy","geo_precision":"range","state":"CA"},"type":"Feature","geometry":{"type":"Point","coordinates":[-122.23162,37.726229]}},{"properties":{"city":"Sacramento","zip":"95834","geo_score":1.0,"2012 revenue":96000000.0,"team":"Sacramento Kings (NBA)","id":"adl84jvz59h8","address":"1 Sports Pkwy","geo_precision":"range","state":"CA"},"type":"Feature","geometry":{"type":"Point","coordinates":[-121.52219,38.648787]}},{"properties":{"city":"San Diego","zip":"92123","geo_score":1.0,"2012 revenue":246000000.0,"team":"San Diego Chargers (NFL)","id":"adl84jnl8fvk","address":"4020 Murphy Canyon Rd","geo_precision":"range","state":"CA"},"type":"Feature","geometry":{"type":"Point","coordinates":[-117.116775,32.819856]}},{"properties":{"city":"San Diego","zip":"92101","geo_score":0.805,"2012 revenue":163000000.0,"team":"San Diego Padres (MLB)","id":"adl84jwuel0d","address":"100 Park Blvd","geo_precision":"street","state":"CA"},"type":"Feature","geometry":{"type":"Point","coordinates":[-117.152424,32.72219]}},{"properties":{"city":"San Francisco","zip":"94124","geo_score":0.824,"2012 revenue":245000000.0,"team":"San Francisco  49ers (NFL)","id":"adl84jryznwh","address":"490 Jamestown Ave","geo_precision":"street","state":"CA"},"type":"Feature","geometry":{"type":"Point","coordinates":[-122.386451,37.711161]}},{"properties":{"city":"San Francisco","zip":"94107","geo_score":1.0,"2012 revenue":262000000.0,"team":"San Francisco Giants (MLB)","id":"adl84jwursdw","address":"24 Willie Mays Plaza","geo_precision":"range","state":"CA"},"type":"Feature","geometry":{"type":"Point","coordinates":[-122.391,37.777777]}},{"properties":{"city":"Santa Clara","zip":"95050","geo_score":0.937,"2012 revenue":17000000.0,"team":"San Jose Earthquakes (MLS)","id":"adl84jhrf0ak","address":"451 El Camino Real","geo_precision":"range","state":"CA"},"type":"Feature","geometry":{"type":"Point","coordinates":[-121.932742,37.347354]}},{"properties":{"city":"San Jose","zip":"95112","geo_score":0.935,"2012 revenue":101000000.0,"team":"San Jose Sharks (NHL)","id":"adl84jjxcwcn","address":"1500 S 10th St","geo_precision":"range","state":"CA"},"type":"Feature","geometry":{"type":"Point","coordinates":[-121.863852,37.317606]}},{"properties":{"city":"Denver","zip":"80204","geo_score":0.585,"2012 revenue":91000000.0,"team":"Colorado Avalanche (NHL)","id":"adl84jq4pbev","address":"1000 Chopper Cir","geo_precision":"zip","state":"CO"},"type":"Feature","geometry":{"type":"Point","coordinates":[-105.021502,39.720136]}},{"properties":{"city":"Commerce City","zip":"80022","geo_score":0.698,"2012 revenue":14000000.0,"team":"Colorado Rapids (MLS)","id":"adl84jigbs53","address":"6000 Victory Way","geo_precision":"street","state":"CO"},"type":"Feature","geometry":{"type":"Point","coordinates":[-104.83212,39.88718]}},{"properties":{"city":"Denver","zip":"80205","geo_score":1.0,"2012 revenue":199000000.0,"team":"Colorado Rockies (MLB)","id":"adl84juvmbyf","address":"2001 Blake St","geo_precision":"range","state":"CO"},"type":"Feature","geometry":{"type":"Point","coordinates":[-104.993136,39.755233]}},{"properties":{"city":"Denver","zip":"80204","geo_score":0.512,"2012 revenue":276000000.0,"team":"Denver Broncos (NFL)","id":"adl84jvnw9lg","address":"1701 Mile High Stadium Cir #300","geo_precision":"range","state":"CO"},"type":"Feature","geometry":{"type":"Point","coordinates":[-104.981817,39.903031]}},{"properties":{"city":"Denver","zip":"80204","geo_score":0.585,"2012 revenue":110000000.0,"team":"Denver Nuggets (NBA)","id":"adl84jpsuit2","address":"1000 Chopper Cir","geo_precision":"zip","state":"CO"},"type":"Feature","geometry":{"type":"Point","coordinates":[-105.021502,39.720136]}},{"properties":{"city":"Washington","zip":"20003","geo_score":0.805,"2012 revenue":12000000.0,"team":"D.C. United (MLS)","id":"adl84jpxam86","address":"2400 East Capitol St SE","geo_precision":"street","state":"DC"},"type":"Feature","geometry":{"type":"Point","coordinates":[-76.978991,38.8898]}},{"properties":{"city":"Arlington","zip":"22203","geo_score":0.61,"2012 revenue":106000000.0,"team":"Washington Capitals (NHL)","id":"adl84js34jgw","address":"627 N Glebe Rd #850","geo_precision":"range","state":"DC"},"type":"Feature","geometry":{"type":"Point","coordinates":[-77.114398,38.880188]}},{"properties":{"city":"Washington","zip":"20003","geo_score":1.0,"2012 revenue":200000000.0,"team":"Washington Nationals (MLB)","id":"adl84jt07685","address":"1500 South Capitol St SE","geo_precision":"range","state":"DC"},"type":"Feature","geometry":{"type":"Point","coordinates":[-77.009031,38.87121]}},{"properties":{"city":"Washington","zip":"20004","geo_score":0.513,"2012 revenue":102000000.0,"team":"Washington Wizards (NBA)","id":"adl84jp292wa","address":"601 F St NW #4","geo_precision":"street","state":"DC"},"type":"Feature","geometry":{"type":"Point","coordinates":[-77.021915,38.897276]}},{"properties":{"city":"Sunrise","zip":"33323","geo_score":0.378,"2012 revenue":87000000.0,"team":"Florida Panthers (NHL)","id":"adl84jp26bdm","address":"One Panther Parkway","geo_precision":"street","state":"FL"},"type":"Feature","geometry":{"type":"Point","coordinates":[-80.318691,26.122193]}},{"properties":{"city":"Jacksonville","zip":"32202","geo_score":0.264,"2012 revenue":238000000.0,"team":"Jacksonville Jaguars (NFL)","id":"adl84jrk50f2","address":"1 EverBank Field Drive","geo_precision":"street","state":"FL"},"type":"Feature","geometry":{"type":"Point","coordinates":[-81.737833,30.259383]}},{"properties":{"city":"Miami Gardens","zip":"33056","geo_score":0.917,"2012 revenue":265000000.0,"team":"Miami Dolphins (NFL)","id":"adl84jogat4r","address":"2269 NW 199th St","geo_precision":"range","state":"FL"},"type":"Feature","geometry":{"type":"Point","coordinates":[-80.236846,25.954493]}},{"properties":{"city":"Miami","zip":"33130","geo_score":0.805,"2012 revenue":150000000.0,"team":"Miami Heat (NBA)","id":"adl84jy0d5uh","address":"601 Biscayne Blvd","geo_precision":"range","state":"FL"},"type":"Feature","geometry":{"type":"Point","coordinates":[-80.189248,25.780552]}},{"properties":{"city":"Miami","zip":"33125","geo_score":0.585,"2012 revenue":195000000.0,"team":"Miami Marlins (MLB)","id":"adl84jjta6vk","address":"501 Marlins Way","geo_precision":"zip","state":"FL"},"type":"Feature","geometry":{"type":"Point","coordinates":[-80.237278,25.783713]}},{"properties":{"city":"Orlando","zip":"32801","geo_score":0.707,"2012 revenue":126000000.0,"team":"Orlando Magic (NBA)","id":"adl84jkq443n","address":"400 W Church St #200","geo_precision":"range","state":"FL"},"type":"Feature","geometry":{"type":"Point","coordinates":[-81.374363,28.540416]}},{"properties":{"city":"Tampa","zip":"33607","geo_score":0.585,"2012 revenue":258000000.0,"team":"Tampa Bay Buccaneeers (NFL)","id":"adl84jp8i910","address":"1 Buccaneer Pl","geo_precision":"zip","state":"FL"},"type":"Feature","geometry":{"type":"Point","coordinates":[-82.556868,27.966697]}},{"properties":{"city":"Tampa","zip":"33602","geo_score":1.0,"2012 revenue":88000000.0,"team":"Tampa Bay Lightning (NHL)","id":"adl84jpadu6m","address":"401 CHANNELSIDE DRIVE","geo_precision":"range","state":"FL"},"type":"Feature","geometry":{"type":"Point","coordinates":[-82.452154,27.94361]}},{"properties":{"city":"St Petersburg","zip":"33705","geo_score":0.585,"2012 revenue":161000000.0,"team":"Tampa Bay Rays (MLB)","id":"adl84jjafbng","address":"1 Tropicana Dr","geo_precision":"zip","state":"FL"},"type":"Feature","geometry":{"type":"Point","coordinates":[-82.64182,27.743555]}},{"properties":{"city":"Atlanta","zip":"30315","geo_score":1.0,"2012 revenue":225000000.0,"team":"Atlanta Braves (MLB)","id":"adl84jiqxsv3","address":"755 Hank Aaron Dr SE","geo_precision":"range","state":"GA"},"type":"Feature","geometry":{"type":"Point","coordinates":[-84.387982,33.734287]}},{"properties":{"city":"Atlanta","zip":"30313","geo_score":1.0,"2012 revenue":239000000.0,"team":"Atlanta Falcons (NFL)","id":"adl84jo4rcis","address":"1 Georgia Dome Dr NW","geo_precision":"range","state":"GA"},"type":"Feature","geometry":{"type":"Point","coordinates":[-84.400371,33.756338]}},{"properties":{"city":"Atlanta","zip":"30303","geo_score":0.512,"2012 revenue":99000000.0,"team":"Atlanta Hawks (NBA)","id":"adl84jvz2ywh","address":"101 Marietta St NW #1900","geo_precision":"street","state":"GA"},"type":"Feature","geometry":{"type":"Point","coordinates":[-84.392671,33.756986]}},{"properties":{"city":"Chicago","zip":"60605","geo_score":0.446,"2012 revenue":286000000.0,"team":"Chicago Bears (NFL)","id":"adl84ju7pa0k","address":"1410 Museum Campus Dr","geo_precision":"street","state":"IL"},"type":"Feature","geometry":{"type":"Point","coordinates":[-87.582051,41.792462]}},{"properties":{"city":"Chicago","zip":"60612","geo_score":1.0,"2012 revenue":125000000.0,"team":"Chicago Blackhawks (NHL)","id":"adl84jowmqch","address":"1901 W Madison St","geo_precision":"range","state":"IL"},"type":"Feature","geometry":{"type":"Point","coordinates":[-87.675409,41.881333]}},{"properties":{"city":"Chicago","zip":"60612","geo_score":1.0,"2012 revenue":162000000.0,"team":"Chicago Bulls (NBA)","id":"adl84jn1vi30","address":"1901 W Madison St","geo_precision":"range","state":"IL"},"type":"Feature","geometry":{"type":"Point","coordinates":[-87.675409,41.881333]}},{"properties":{"city":"Chicago","zip":"60613","geo_score":1.0,"2012 revenue":266000000.0,"team":"Chicago Cubs (MLB)","id":"adl84jji3e4c","address":"3617 N Sheffield Ave","geo_precision":"range","state":"IL"},"type":"Feature","geometry":{"type":"Point","coordinates":[-87.654261,41.947397]}},{"properties":{"city":"Chicago","zip":"60455","geo_score":0.912,"2012 revenue":14000000.0,"team":"Chicago Fire (MLS)","id":"adl84jwucq1i","address":"7000 S Harlem Ave","geo_precision":"range","state":"IL"},"type":"Feature","geometry":{"type":"Point","coordinates":[-87.801249,41.765774]}},{"properties":{"city":"Chicago","zip":"60616","geo_score":0.935,"2012 revenue":214000000.0,"team":"Chicago White Sox (MLB)","id":"adl84jjf6544","address":"333 W 35th St","geo_precision":"range","state":"IL"},"type":"Feature","geometry":{"type":"Point","coordinates":[-87.636094,41.830808]}},{"properties":{"city":"Indianapolis","zip":"46204","geo_score":0.597,"2012 revenue":98000000.0,"team":"Indiana Pacers (NBA)","id":"adl84jpbe8vz","address":"125 S. Pennsylvania Street","geo_precision":"street","state":"IN"},"type":"Feature","geometry":{"type":"Point","coordinates":[-86.156289,39.766762]}},{"properties":{"city":"Indianapolis","zip":"46254","geo_score":0.935,"2012 revenue":268000000.0,"team":"Indianapolis Colts (NFL)","id":"adl84jkrj63v","address":"7001 W 56th St","geo_precision":"range","state":"IN"},"type":"Feature","geometry":{"type":"Point","coordinates":[-86.28691,39.85251]}},{"properties":{"city":"Kansas City","zip":"66111","geo_score":0.585,"2012 revenue":18000000.0,"team":"Sporting Kansas City (MLS)","id":"adl84jxzo7wu","address":"1 Sporting Way","geo_precision":"zip","state":"KS"},"type":"Feature","geometry":{"type":"Point","coordinates":[-94.747461,39.087504]}},{"properties":{"city":"New Orleans","zip":"70113","geo_score":0.684,"2012 revenue":100000000.0,"team":"New Orleans Hornets (NBA)","id":"adl84joossrr","address":"1450 Poydras St","geo_precision":"street","state":"LA"},"type":"Feature","geometry":{"type":"Point","coordinates":[-90.075837,29.950903]}},{"properties":{"city":"New Orleans","zip":"70112","geo_score":0.878,"2012 revenue":259000000.0,"team":"New Orleans Saints (NFL)","id":"adl84jrqgs16","address":"1500 Poydras St","geo_precision":"street","state":"LA"},"type":"Feature","geometry":{"type":"Point","coordinates":[-90.080106,29.952606]}},{"properties":{"city":"Baltimore","zip":"21201","geo_score":1.0,"2012 revenue":179000000.0,"team":"Baltimore Orioles (MLB)","id":"adl84joqossc","address":"333 W Camden St","geo_precision":"range","state":"MD"},"type":"Feature","geometry":{"type":"Point","coordinates":[-76.620318,39.285188]}},{"properties":{"city":"Baltimore","zip":"21230","geo_score":1.0,"2012 revenue":279000000.0,"team":"Baltimore Ravens (NFL)","id":"adl84jmimcay","address":"1101 Russell St","geo_precision":"range","state":"MD"},"type":"Feature","geometry":{"type":"Point","coordinates":[-76.624696,39.277716]}},{"properties":{"city":"Landover","zip":"20785","geo_score":0.585,"2012 revenue":373000000.0,"team":"Washington Redskins (NFL)","id":"adl84jreimw8","address":"1600 Fedex Way","geo_precision":"zip","state":"MD"},"type":"Feature","geometry":{"type":"Point","coordinates":[-76.879973,38.923723]}},{"properties":{"city":"Boston","zip":"2114","geo_score":0.585,"2012 revenue":129000000.0,"team":"Boston Bruins (NHL)","id":"adl84jmf7rz9","address":"100 Legends Way","geo_precision":"zip","state":"MA"},"type":"Feature","geometry":{"type":"Point","coordinates":[-71.023661,42.362097]}},{"properties":{"city":"Boston","zip":"2114","geo_score":0.707,"2012 revenue":143000000.0,"team":"Boston Celtics (NBA)","id":"adl84jkl5wkg","address":"226 Causeway St #4","geo_precision":"range","state":"MA"},"type":"Feature","geometry":{"type":"Point","coordinates":[-71.06348,42.364136]}},{"properties":{"city":"Boston","zip":"2215","geo_score":1.0,"2012 revenue":310000000.0,"team":"Boston Red Sox (MLB)","id":"adl84jnbrib7","address":"4 Yawkey Way","geo_precision":"range","state":"MA"},"type":"Feature","geometry":{"type":"Point","coordinates":[-71.098231,42.345495]}},{"properties":{"city":"Foxboro","zip":"2035","geo_score":0.92,"2012 revenue":380000000.0,"team":"New England Patriots (NFL)","id":"adl84jv5m4xr","address":"1 Patriot Pl","geo_precision":"range","state":"MA"},"type":"Feature","geometry":{"type":"Point","coordinates":[-71.25308,42.095189]}},{"properties":{"city":"Foxboro","zip":"2035","geo_score":0.821,"2012 revenue":10000000.0,"team":"New England Revolution (MLS)","id":"adl84jl4r8wa","address":"One Patriot Place","geo_precision":"street","state":"MA"},"type":"Feature","geometry":{"type":"Point","coordinates":[-71.251939,42.09442]}},{"properties":{"city":"Detroit","zip":"48226","geo_score":0.902,"2012 revenue":231000000.0,"team":"Detroit Lions (NFL)","id":"adl84jrgvhmo","address":"2000 Brush Street","geo_precision":"range","state":"MI"},"type":"Feature","geometry":{"type":"Point","coordinates":[-83.047204,42.339627]}},{"properties":{"city":"Auburn Hills","zip":"48326","geo_score":0.585,"2012 revenue":125000000.0,"team":"Detroit Pistons (NBA)","id":"adl84jjyyc9h","address":"6 Championship Dr","geo_precision":"zip","state":"MI"},"type":"Feature","geometry":{"type":"Point","coordinates":[-83.316605,42.698643]}},{"properties":{"city":"Detroit","zip":"48226","geo_score":0.63,"2012 revenue":128000000.0,"team":"Detroit Red Wings (NHL)","id":"adl84juttb5b","address":"600 Civic Center Dr","geo_precision":"street","state":"MI"},"type":"Feature","geometry":{"type":"Point","coordinates":[-83.046487,42.336084]}},{"properties":{"city":"Detroit","zip":"48201","geo_score":1.0,"2012 revenue":217000000.0,"team":"Detroit Tigers (MLB)","id":"adl84jkxz4e9","address":"2100 Woodward Ave","geo_precision":"range","state":"MI"},"type":"Feature","geometry":{"type":"Point","coordinates":[-83.051783,42.338318]}},{"properties":{"city":"Minneapolis","zip":"55403","geo_score":0.837,"2012 revenue":96000000.0,"team":"Minnesota Timberworlves (NBA)","id":"adl84jq1gvsx","address":"600 North 1st Avenue","geo_precision":"range","state":"MN"},"type":"Feature","geometry":{"type":"Point","coordinates":[-93.275955,44.978828]}},{"properties":{"city":"Minneapolis","zip":"55403","geo_score":0.585,"2012 revenue":213000000.0,"team":"Minnesota Twins (MLB)","id":"adl84k987rj2","address":"1 Twins Way","geo_precision":"zip","state":"MN"},"type":"Feature","geometry":{"type":"Point","coordinates":[-93.287275,44.972615]}},{"properties":{"city":"Minneapolis","zip":"55415","geo_score":0.767,"2012 revenue":227000000.0,"team":"Minnesota Vikings (NFL)","id":"adl84kckkkm7","address":"425 Chicago Ave","geo_precision":"street","state":"MN"},"type":"Feature","geometry":{"type":"Point","coordinates":[-93.258834,44.975204]}},{"properties":{"city":"Saint Paul","zip":"55102","geo_score":0.961,"2012 revenue":99000000.0,"team":"Minnesota Wild (NHL)","id":"adl84ka7lf86","address":"317 Washington St","geo_precision":"range","state":"MN"},"type":"Feature","geometry":{"type":"Point","coordinates":[-93.09794,44.943714]}},{"properties":{"city":"Kansas City","zip":"64129","geo_score":1.0,"2012 revenue":259000000.0,"team":"Kansas City Chiefs (NFL)","id":"adl84k75doh8","address":"1 Arrowhead Dr","geo_precision":"range","state":"MO"},"type":"Feature","geometry":{"type":"Point","coordinates":[-94.484037,39.0471]}},{"properties":{"city":"Kansas City","zip":"64129","geo_score":1.0,"2012 revenue":161000000.0,"team":"Kansas City Royals (MLB)","id":"adl84k091k4f","address":"1 Royal Way","geo_precision":"range","state":"MO"},"type":"Feature","geometry":{"type":"Point","coordinates":[-94.484354,39.052751]}},{"properties":{"city":"St. Louis","zip":"63103","geo_score":0.965,"2012 revenue":89000000.0,"team":"St. Louis Blues (NHL)","id":"adl84k0uk23u","address":"1401 Clark Avenue","geo_precision":"range","state":"MO"},"type":"Feature","geometry":{"type":"Point","coordinates":[-90.203035,38.626135]}},{"properties":{"city":"St. Louis","zip":"63102","geo_score":0.771,"2012 revenue":233000000.0,"team":"St. Louis Cardinals (MLB)","id":"adl84kcc6ltn","address":"700 Clark Ave","geo_precision":"street","state":"MO"},"type":"Feature","geometry":{"type":"Point","coordinates":[-90.195111,38.624451]}},{"properties":{"city":"Earth city","zip":"63045","geo_score":0.449,"2012 revenue":231000000.0,"team":"St. Louis Rams (NFL)","id":"adl84k2limsc","address":"1 Rams Way","geo_precision":"street","state":"MO"},"type":"Feature","geometry":{"type":"Point","coordinates":[-90.54932,38.591225]}},{"properties":{"city":"Newark","zip":"7102","geo_score":1.0,"2012 revenue":122000000.0,"team":"New Jersey Devils (NHL)","id":"adl84kbgszsn","address":"165 Mulberry St","geo_precision":"range","state":"NJ"},"type":"Feature","geometry":{"type":"Point","coordinates":[-74.17003,40.733664]}},{"properties":{"city":"East Rutherford","zip":"7073","geo_score":0.585,"2012 revenue":326000000.0,"team":"New York Giants (NFL)","id":"adl84k5feqlr","address":"1925 Gaints Dr","geo_precision":"zip","state":"NJ"},"type":"Feature","geometry":{"type":"Point","coordinates":[-74.110698,40.846489]}},{"properties":{"city":"Florham Park","zip":"7932","geo_score":0.585,"2012 revenue":299000000.0,"team":"New York Jets (NFL)","id":"adl84k1h1hb6","address":"1 Jets Dr","geo_precision":"zip","state":"NJ"},"type":"Feature","geometry":{"type":"Point","coordinates":[-74.397996,40.7735]}},{"properties":{"city":"Harrison","zip":"7029","geo_score":1.0,"2012 revenue":40000000.0,"team":"New York Red Bulls (MLS)","id":"adl84k7eu9b9","address":"600 Cape May St","geo_precision":"range","state":"NJ"},"type":"Feature","geometry":{"type":"Point","coordinates":[-74.148855,40.737515]}},{"properties":{"city":"Brooklyn","zip":"11217","geo_score":1.0,"2012 revenue":84000000.0,"team":"Brooklyn Nets (NBA)","id":"adl84k6xyn85","address":"620 Atlantic Avenue","geo_precision":"range","state":"NY"},"type":"Feature","geometry":{"type":"Point","coordinates":[-73.977457,40.684052]}},{"properties":{"city":"Orchard Park","zip":"14127","geo_score":1.0,"2012 revenue":240000000.0,"team":"Buffalo Bills (NFL)","id":"adl84kad3c61","address":"1 Bills Drive","geo_precision":"range","state":"NY"},"type":"Feature","geometry":{"type":"Point","coordinates":[-78.790309,42.771311]}},{"properties":{"city":"Buffalo","zip":"14203","geo_score":1.0,"2012 revenue":95000000.0,"team":"Buffalo Sabres (NHL)","id":"adl84k4xcnps","address":"1 Seymour H Knox III Plaza","geo_precision":"range","state":"NY"},"type":"Feature","geometry":{"type":"Point","coordinates":[-78.876497,42.875896]}},{"properties":{"city":"Syosset","zip":"11791","geo_score":0.902,"2012 revenue":66000000.0,"team":"New York Islanders (NHL)","id":"adl84k8vo271","address":"175 Underhill Blvd","geo_precision":"street","state":"NY"},"type":"Feature","geometry":{"type":"Point","coordinates":[-73.503515,40.823443]}},{"properties":{"city":"New York","zip":"10121","geo_score":0.585,"2012 revenue":243000000.0,"team":"New York Knicks (NBA)","id":"adl84k89qx8k","address":"2 Pennsylvania Plaza","geo_precision":"zip","state":"NY"},"type":"Feature","geometry":{"type":"Point","coordinates":[-73.991889,40.74964]}},{"properties":{"city":"Flushing","zip":"11368","geo_score":0.507,"2012 revenue":232000000.0,"team":"New York Mets (MLB)","id":"adl84kd1720i","address":"126-01 Roosevelt Ave","geo_precision":"street","state":"NY"},"type":"Feature","geometry":{"type":"Point","coordinates":[-73.868457,40.749264]}},{"properties":{"city":"New York","zip":"10121","geo_score":0.585,"2012 revenue":199000000.0,"team":"New York Rangers (NHL)","id":"adl84kbj6hhn","address":"2 Pennsylvania Plaza","geo_precision":"zip","state":"NY"},"type":"Feature","geometry":{"type":"Point","coordinates":[-73.991889,40.74964]}},{"properties":{"city":"Bronx","zip":"10451","geo_score":1.0,"2012 revenue":439000000.0,"team":"New York Yankees (MLB)","id":"adl84k9jtn1c","address":"1 East 161st Street","geo_precision":"range","state":"NY"},"type":"Feature","geometry":{"type":"Point","coordinates":[-73.927133,40.82821]}},{"properties":{"city":"Raleigh","zip":"27607","geo_score":0.902,"2012 revenue":85000000.0,"team":"Carolina Hurricanes (NHL)","id":"adl84k5nzgxv","address":"1400 Edwards Mill Road","geo_precision":"street","state":"NC"},"type":"Feature","geometry":{"type":"Point","coordinates":[-78.723233,35.807424]}},{"properties":{"city":"Charlotte","zip":"28202","geo_score":1.0,"2012 revenue":269000000.0,"team":"Carolina Panthers (NFL)","id":"adl84jytfula","address":"800 S Mint St","geo_precision":"range","state":"NC"},"type":"Feature","geometry":{"type":"Point","coordinates":[-80.85336,35.224058]}},{"properties":{"city":"Charlotte","zip":"28202","geo_score":1.0,"2012 revenue":93000000.0,"team":"Charlotte Bobcats (NBA)","id":"adl84k6gfwwk","address":"333 E Trade St","geo_precision":"range","state":"NC"},"type":"Feature","geometry":{"type":"Point","coordinates":[-80.840184,35.224873]}},{"properties":{"city":"Cincinnati","zip":"45202","geo_score":0.772,"2012 revenue":235000000.0,"team":"Cincinnati Bengals (NFL)","id":"adl84kb2wny8","address":"1 Paul Brown Stadium","geo_precision":"range","state":"OH"},"type":"Feature","geometry":{"type":"Point","coordinates":[-84.511705,39.095866]}},{"properties":{"city":"Cincinnati","zip":"45202","geo_score":0.395,"2012 revenue":202000000.0,"team":"Cincinnati Reds (MLB)","id":"adl84k6g6smq","address":"100 Joe Nuxhall Way","geo_precision":"street","state":"OH"},"type":"Feature","geometry":{"type":"Point","coordinates":[-84.632944,39.145517]}},{"properties":{"city":"Cleveland","zip":"44114","geo_score":0.386,"2012 revenue":258000000.0,"team":"Cleveland Browns (NFL)","id":"adl84k4txeod","address":"100 Alfred Lerner Way","geo_precision":"street","state":"OH"},"type":"Feature","geometry":{"type":"Point","coordinates":[-81.46663,41.478528]}},{"properties":{"city":"Cleveland","zip":"44115","geo_score":0.61,"2012 revenue":128000000.0,"team":"Cleveland Cavaliers (NBA)","id":"adl84k19u25n","address":"1 Center Court","geo_precision":"street","state":"OH"},"type":"Feature","geometry":{"type":"Point","coordinates":[-81.691217,41.497422]}},{"properties":{"city":"Cleveland","zip":"44115","geo_score":1.0,"2012 revenue":168000000.0,"team":"Cleveland Indians (MLB)","id":"adl84kd16fs3","address":"2401 Ontario Street","geo_precision":"range","state":"OH"},"type":"Feature","geometry":{"type":"Point","coordinates":[-81.687979,41.495736]}},{"properties":{"city":"Columbus","zip":"43215","geo_score":0.902,"2012 revenue":85000000.0,"team":"Columbus Blue Jackets (NHL)","id":"adl84k4w560p","address":"200 West Nationwide Boulevard","geo_precision":"street","state":"OH"},"type":"Feature","geometry":{"type":"Point","coordinates":[-83.004584,39.968686]}},{"properties":{"city":"Columbus","zip":"43211","geo_score":0.574,"2012 revenue":11000000.0,"team":"Columbus Crew (MLS)","id":"adl84k3lb56y","address":"1 Black and Gold Boulevard","geo_precision":"street","state":"OH"},"type":"Feature","geometry":{"type":"Point","coordinates":[-82.972614,40.010774]}},{"properties":{"city":"Oklahoma City","zip":"73102","geo_score":1.0,"2012 revenue":127000000.0,"team":"Oklahoma City Thunder (NBA)","id":"adl84kc4z45i","address":"211 N Robinson Ave","geo_precision":"range","state":"OK"},"type":"Feature","geometry":{"type":"Point","coordinates":[-97.516477,35.469091]}},{"properties":{"city":"Portland","zip":"97227","geo_score":0.948,"2012 revenue":127000000.0,"team":"Portland Trail Blazers (NBA)","id":"adl84k4cxseu","address":"1 North Center Court Street","geo_precision":"range","state":"OR"},"type":"Feature","geometry":{"type":"Point","coordinates":[-122.667773,45.533052]}},{"properties":{"city":"Portland","zip":"97205","geo_score":1.0,"2012 revenue":15000000.0,"team":"Portland Timbers (MLS)","id":"adl84kbhm9m6","address":"1844 Southwest Morrison Street","geo_precision":"range","state":"OR"},"type":"Feature","geometry":{"type":"Point","coordinates":[-122.690356,45.522106]}},{"properties":{"city":"Philadelphia","zip":"19148","geo_score":1.0,"2012 revenue":107000000.0,"team":"Philadelphia 76ers (NBA)","id":"adl84k7xkoe4","address":"3601 South Broad Street","geo_precision":"range","state":"PA"},"type":"Feature","geometry":{"type":"Point","coordinates":[-75.173723,39.904253]}},{"properties":{"city":"Philadelphia","zip":"19145","geo_score":0.585,"2012 revenue":296000000.0,"team":"Philadelphia Eagles (NFL)","id":"adl84k322t0q","address":"1 NovaCare Way","geo_precision":"zip","state":"PA"},"type":"Feature","geometry":{"type":"Point","coordinates":[-75.1877,39.917002]}},{"properties":{"city":"Philadelphia","zip":"19148","geo_score":1.0,"2012 revenue":121000000.0,"team":"Philadelphia Flyers (NHL)","id":"adl84k0mutkf","address":"3601 South Broad Street","geo_precision":"range","state":"PA"},"type":"Feature","geometry":{"type":"Point","coordinates":[-75.173723,39.904253]}},{"properties":{"city":"Philadelphia","zip":"19148","geo_score":1.0,"2012 revenue":279000000.0,"team":"Philadelphia Phillies (MLB)","id":"adl84k2nu75c","address":"1001 Pattison Avenue","geo_precision":"range","state":"PA"},"type":"Feature","geometry":{"type":"Point","coordinates":[-75.168512,39.904748]}},{"properties":{"city":"Chester","zip":"19013","geo_score":0.585,"2012 revenue":19000000.0,"team":"Philadelphia Union (MLS)","id":"adl84k0ofvev","address":"2501 Seaport Drive #500","geo_precision":"zip","state":"PA"},"type":"Feature","geometry":{"type":"Point","coordinates":[-75.336022,39.862335]}},{"properties":{"city":"Pittsburgh","zip":"15219","geo_score":0.916,"2012 revenue":120000000.0,"team":"Pittsburgh Penguins (NHL)","id":"adl84k52zrq1","address":"1001 Fifth Ave","geo_precision":"range","state":"PA"},"type":"Feature","geometry":{"type":"Point","coordinates":[-79.989318,40.438734]}},{"properties":{"city":"Pittsburgh","zip":"15212","geo_score":1.0,"2012 revenue":160000000.0,"team":"Pittsburgh Pirates (MLB)","id":"adl84jyglibs","address":"115 Federal St","geo_precision":"range","state":"PA"},"type":"Feature","geometry":{"type":"Point","coordinates":[-80.004225,40.447859]}},{"properties":{"city":"Pittsburgh","zip":"15212","geo_score":0.464,"2012 revenue":266000000.0,"team":"Pittsburgh Steelers (NFL)","id":"adl84kb1m3ww","address":"100 Art Rooney Ave","geo_precision":"street","state":"PA"},"type":"Feature","geometry":{"type":"Point","coordinates":[-80.024795,40.363613]}},{"properties":{"city":"Memphis","zip":"38103","geo_score":1.0,"2012 revenue":96000000.0,"team":"Memphis Grizzlies (NBA)","id":"adl84k4vvpp6","address":"191 Beale Street","geo_precision":"range","state":"TN"},"type":"Feature","geometry":{"type":"Point","coordinates":[-90.051061,35.139385]}},{"properties":{"city":"Nahsville","zip":"37203","geo_score":0.989,"2012 revenue":88000000.0,"team":"Nashville Predators (NHL)","id":"adl84k87jlh7","address":"501 Broadway","geo_precision":"range","state":"TN"},"type":"Feature","geometry":{"type":"Point","coordinates":[-86.779572,36.15999]}},{"properties":{"city":"Nahsville","zip":"37213","geo_score":0.989,"2012 revenue":262000000.0,"team":"Tennessee Titans (NFL)","id":"adl84kcljccl","address":"1 Titans Way","geo_precision":"range","state":"TN"},"type":"Feature","geometry":{"type":"Point","coordinates":[-86.774074,36.167021]}},{"properties":{"city":"Arlington","zip":"76011","geo_score":0.585,"2012 revenue":500000000.0,"team":"Dallas Cowboys (NFL)","id":"adl84jzgjn3l","address":"1 Legends Way","geo_precision":"zip","state":"TX"},"type":"Feature","geometry":{"type":"Point","coordinates":[-97.079633,32.771455]}},{"properties":{"city":"Dallas","zip":"75226","geo_score":1.0,"2012 revenue":137000000.0,"team":"Dallas Mavericks (NBA)","id":"adl84k31p1se","address":"2909 Taylor Street","geo_precision":"range","state":"TX"},"type":"Feature","geometry":{"type":"Point","coordinates":[-96.779992,32.781904]}},{"properties":{"city":"Frisco","zip":"75034","geo_score":0.39,"2012 revenue":100000000.0,"team":"Dallas Stars (NHL)","id":"adl84kdman6y","address":"2601 Avenue of the Stars","geo_precision":"street","state":"TX"},"type":"Feature","geometry":{"type":"Point","coordinates":[-96.455979,32.927011]}},{"properties":{"city":"Frisco","zip":"75034","geo_score":0.585,"2012 revenue":13000000.0,"team":"FC Dallas (MLS)","id":"adl84kcwtibw","address":"9200 World Cup Way","geo_precision":"zip","state":"TX"},"type":"Feature","geometry":{"type":"Point","coordinates":[-96.988896,33.139843]}},{"properties":{"city":"Houston","zip":"77002","geo_score":0.707,"2012 revenue":196000000.0,"team":"Houston Astros (MLB)","id":"adl84k4eb3yu","address":"501 Crawford Street #400","geo_precision":"range","state":"TX"},"type":"Feature","geometry":{"type":"Point","coordinates":[-95.356742,29.757628]}},{"properties":{"city":"Houston","zip":"77003","geo_score":0.585,"2012 revenue":17000000.0,"team":"Houston Dynamo (MLS)","id":"adl84kb37z9s","address":"2200 Texas Avenue","geo_precision":"zip","state":"TX"},"type":"Feature","geometry":{"type":"Point","coordinates":[-95.434241,29.83399]}},{"properties":{"city":"Houston","zip":"77002","geo_score":0.807,"2012 revenue":135000000.0,"team":"Houston Rockets (NBA)","id":"adl84kcz569i","address":"1510 Polk Street","geo_precision":"street","state":"TX"},"type":"Feature","geometry":{"type":"Point","coordinates":[-95.364098,29.753145]}},{"properties":{"city":"Houston","zip":"77054","geo_score":0.439,"2012 revenue":304000000.0,"team":"Houston Texans (NFL)","id":"adl84jzu7khj","address":"2 Reliant Parkway","geo_precision":"street","state":"TX"},"type":"Feature","geometry":{"type":"Point","coordinates":[-95.338349,29.791065]}},{"properties":{"city":"San Antonio","zip":"78219","geo_score":0.429,"2012 revenue":135000000.0,"team":"San Antonio Spurs (NBA)","id":"adl84k0olc2z","address":"1 AT&amp;T Center Pkwy","geo_precision":"street","state":"TX"},"type":"Feature","geometry":{"type":"Point","coordinates":[-98.477451,29.381233]}},{"properties":{"city":"Arlington","zip":"76011","geo_score":1.0,"2012 revenue":239000000.0,"team":"Texas Rangers (MLB)","id":"adl84kaqbb84","address":"1000 Ballpark Way","geo_precision":"range","state":"TX"},"type":"Feature","geometry":{"type":"Point","coordinates":[-97.080891,32.752428]}},{"properties":{"city":"Sandy","zip":"84070","geo_score":1.0,"2012 revenue":18000000.0,"team":"Real Salt Lake (MLS)","id":"adl84k9v6hds","address":"9256 S State St","geo_precision":"range","state":"UT"},"type":"Feature","geometry":{"type":"Point","coordinates":[-111.890888,40.583062]}},{"properties":{"city":"Salt Lake City","zip":"84101","geo_score":0.916,"2012 revenue":111000000.0,"team":"Utah Jazz (NBA)","id":"adl84keptrof","address":"301 West South Temple","geo_precision":"range","state":"UT"},"type":"Feature","geometry":{"type":"Point","coordinates":[-111.902533,40.769341]}},{"properties":{"city":"Seattle","zip":"98134","geo_score":0.923,"2012 revenue":215000000.0,"team":"Seattle Mariners (MLB)","id":"adl84k24f2fu","address":"1250 1st Avenue South","geo_precision":"range","state":"WA"},"type":"Feature","geometry":{"type":"Point","coordinates":[-122.334121,47.591897]}},{"properties":{"city":"Seattle","zip":"98134","geo_score":0.585,"2012 revenue":260000000.0,"team":"Seattle Seahawks (NFL)","id":"adl84k07v3gx","address":"800 Occidental Avenue South","geo_precision":"zip","state":"WA"},"type":"Feature","geometry":{"type":"Point","coordinates":[-121.803388,47.432251]}},{"properties":{"city":"Seattle","zip":"98134","geo_score":0.585,"2012 revenue":58000000.0,"team":"Seattle Sounders FC (MLS)","id":"adl84jyblmpf","address":"801 Occidental Avenue South","geo_precision":"zip","state":"WA"},"type":"Feature","geometry":{"type":"Point","coordinates":[-121.803388,47.432251]}},{"properties":{"city":"Green Bay","zip":"54304","geo_score":1.0,"2012 revenue":276000000.0,"team":"Green Bay Packers (NFL)","id":"adl84kdb27ys","address":"1265 Lombardi Avenue","geo_precision":"range","state":"WI"},"type":"Feature","geometry":{"type":"Point","coordinates":[-88.060362,44.502347]}},{"properties":{"city":"Milwaukee","zip":"53214","geo_score":0.585,"2012 revenue":201000000.0,"team":"Milwaukee Brewers (MLB)","id":"adl84k08zlwe","address":"1 Brewers Way","geo_precision":"zip","state":"WI"},"type":"Feature","geometry":{"type":"Point","coordinates":[-88.017587,43.021514]}},{"properties":{"city":"Milwaukee","zip":"53203","geo_score":0.732,"2012 revenue":87000000.0,"team":"Milwaukee Bucks (NBA)","id":"adl84k63488d","address":"1001 North 4th Street","geo_precision":"range","state":"WI"},"type":"Feature","geometry":{"type":"Point","coordinates":[-87.915978,43.044307]}}],"is_temporal":false,"author":{"url":"","metadata":null,"contact_name":null,"contact_address":null,"source":null,"contact_phone":null},"source":"","pagination":{"sort":null,"start":0,"total":129,"limit":1000000},"state":"complete","tags":"","published":"2014-08-16T18:51:22-04:00","id":344948}