{"type":"FeatureCollection","data_type":"Dataset Analysis","url_type":null,"permissions":[{"permissions":{"download":true,"view":true},"group_id":"everyone"}],"classification":null,"title":"Merge of 'Suitable Coconut Leyte' into 'real_estate'","count":52,"stream_id":344996,"contributor":{"url":"http://geocommons.com/users/69779","name":"agentsmith1119"},"data_attributes":null,"calculation_params":{"input":{"source2":344983,"merge":"none","source1":209932},"calculation":"union"},"icon_link":null,"link":"http://geocommons.com/overlays/344996.json","extent":[-118.816,10.1817,125.155,34.718],"geometry_types":["point","area"],"unique_name":null,"name":"Merge of 'Suitable Coconut Leyte' into 'real_estate'","feature_count":52,"description":"Dataset derived by merging the features of 'Suitable Coconut Leyte' into 'real_estate'","next_feature":null,"is_raster":false,"short_classification":"Y","stats":{"geo_score":{"max":1.0,"variance":0.0308646737254902,"mean":0.838921568627451,"stdev":0.175683447500014,"min":0.354,"median":0.916},"rep (1 for yes, 0 for no)":{"max":1,"variance":0.250196078431373,"mean":0.431372549019608,"stdev":0.500196039999691,"min":0,"median":0}},"features":[{"properties":{"city":"LOS ANGELES","name":null,"zip":"90042","geo_score":0.919,"id":"a67fsc3x7afh","geo_precision":"range","address":"6238 ALDAMA ST","rep (1 for yes, 0 for no)":1,"state":"California"},"type":"Feature","geometry":{"type":"Point","coordinates":[-118.188996,34.119132]}},{"properties":{"city":"Palmdale","name":null,"zip":"93552","geo_score":0.45,"id":"a67fsc2dn2cb","geo_precision":"street","address":"6313 Sandwood Way","rep (1 for yes, 0 for no)":1,"state":"California"},"type":"Feature","geometry":{"type":"Point","coordinates":[-118.184397,34.661783]}},{"properties":{"city":"LOS ANGELES","name":null,"zip":"90011","geo_score":0.916,"id":"a67fsc27u2mt","geo_precision":"range","address":"633-635 EAST 49TH STREET","rep (1 for yes, 0 for no)":1,"state":"California"},"type":"Feature","geometry":{"type":"Point","coordinates":[-118.264746,33.998642]}},{"properties":{"city":"Los Angeles","name":null,"zip":"91335","geo_score":0.886,"id":"a67fsc408e8i","geo_precision":"street","address":"6369 Darby Avenue ( Reseda Area )","rep (1 for yes, 0 for no)":1,"state":"California"},"type":"Feature","geometry":{"type":"Point","coordinates":[-118.533481,34.190227]}},{"properties":{"city":"LOS ANGELES","name":null,"zip":"90002","geo_score":0.829,"id":"a67fsc1h4fud","geo_precision":"range","address":"644 EAST 93RD STREET","rep (1 for yes, 0 for no)":1,"state":"California"},"type":"Feature","geometry":{"type":"Point","coordinates":[-118.264332,33.952005]}},{"properties":{"city":"Reseda","name":null,"zip":"913356","geo_score":0.805,"id":"a67fsbocjr7p","geo_precision":"range","address":"6458 Balcom","rep (1 for yes, 0 for no)":1,"state":"California"},"type":"Feature","geometry":{"type":"Point","coordinates":[-118.520615,34.187812]}},{"properties":{"city":"AGOURA HILLS","name":null,"zip":"91301","geo_score":0.938,"id":"a67fsbtfszd0","geo_precision":"range","address":"6475 CHESEBRO RD","rep (1 for yes, 0 for no)":1,"state":"California"},"type":"Feature","geometry":{"type":"Point","coordinates":[-118.737942,34.165425]}},{"properties":{"city":"Los Angeles","name":null,"zip":"90002","geo_score":0.829,"id":"a67fsbpxmstt","geo_precision":"range","address":"648 E 95th Street","rep (1 for yes, 0 for no)":1,"state":"California"},"type":"Feature","geometry":{"type":"Point","coordinates":[-118.264265,33.950213]}},{"properties":{"city":"Palmdale","name":null,"zip":"93552","geo_score":0.545,"id":"a67fsbpedfjh","geo_precision":"street","address":"6481 Tuscan Court","rep (1 for yes, 0 for no)":1,"state":"California"},"type":"Feature","geometry":{"type":"Point","coordinates":[-118.062947,34.556174]}},{"properties":{"city":"Reseda","name":null,"zip":"91335","geo_score":1.0,"id":"a67fsbpqm8ol","geo_precision":"range","address":"6501 Baird Ave","rep (1 for yes, 0 for no)":1,"state":"California"},"type":"Feature","geometry":{"type":"Point","coordinates":[-118.537581,34.188471]}},{"properties":{"city":"LOS ANGELES","name":null,"zip":"90606","geo_score":0.881,"id":"a67fsbtdng2i","geo_precision":"street","address":"6503 Danby Ave (Area of Whittier)","rep (1 for yes, 0 for no)":1,"state":"California"},"type":"Feature","geometry":{"type":"Point","coordinates":[-118.070223,33.992154]}},{"properties":{"city":"Bell","name":null,"zip":"90201","geo_score":0.431,"id":"a67fsbwcd16u","geo_precision":"street","address":"6528-6528 1/2 King Avenue","rep (1 for yes, 0 for no)":1,"state":"California"},"type":"Feature","geometry":{"type":"Point","coordinates":[-118.184259,33.981119]}},{"properties":{"city":"Paramount","name":null,"zip":"90723","geo_score":0.488,"id":"a67fsbtgjmfb","geo_precision":"street","address":"6544 San Vicente Street","rep (1 for yes, 0 for no)":1,"state":"California"},"type":"Feature","geometry":{"type":"Point","coordinates":[-118.065235,33.878206]}},{"properties":{"city":"Paramount","name":null,"zip":"90723","geo_score":0.707,"id":"a67fsbp13x4a","geo_precision":"street","address":"6551 Motz Street Apt #4","rep (1 for yes, 0 for no)":1,"state":"California"},"type":"Feature","geometry":{"type":"Point","coordinates":[-118.183829,33.887485]}},{"properties":{"city":"POMONA","name":null,"zip":"91767","geo_score":0.967,"id":"a67fsbsmxaiy","geo_precision":"range","address":"656 EAST ELAINE STREET","rep (1 for yes, 0 for no)":1,"state":"California"},"type":"Feature","geometry":{"type":"Point","coordinates":[-117.739905,34.078059]}},{"properties":{"city":"Glendora","name":null,"zip":"91746","geo_score":0.61,"id":"a67fsc0eetip","geo_precision":"street","address":"658 Marion Pl # 1,2,3","rep (1 for yes, 0 for no)":1,"state":"California"},"type":"Feature","geometry":{"type":"Point","coordinates":[-117.858584,34.127717]}},{"properties":{"city":"POMONA","name":null,"zip":"91766","geo_score":0.815,"id":"a67fsbxozf63","geo_precision":"range","address":"66 WILLOWCREST LANE UNIT 155","rep (1 for yes, 0 for no)":1,"state":"California"},"type":"Feature","geometry":{"type":"Point","coordinates":[-117.767397,34.024579]}},{"properties":{"city":"LOS ANGELES","name":null,"zip":"91606","geo_score":0.502,"id":"a67fsc36txyy","geo_precision":"street","address":"6610 CLYBOURN AVENUE #11","rep (1 for yes, 0 for no)":1,"state":"California"},"type":"Feature","geometry":{"type":"Point","coordinates":[-118.358856,34.179429]}},{"properties":{"city":"Malibu","name":null,"zip":"90265","geo_score":0.724,"id":"a67fsc4hm504","geo_precision":"street","address":"6793 Seawatch Lane #36","rep (1 for yes, 0 for no)":1,"state":"California"},"type":"Feature","geometry":{"type":"Point","coordinates":[-118.815758,34.013014]}},{"properties":{"city":"Malibu","name":null,"zip":"90265","geo_score":0.919,"id":"a67fsc0wag3v","geo_precision":"range","address":"6793 Seawatch Ln","rep (1 for yes, 0 for no)":1,"state":"California"},"type":"Feature","geometry":{"type":"Point","coordinates":[-118.815558,34.012712]}},{"properties":{"city":"LOS ANGELES","name":null,"zip":"91405","geo_score":0.836,"id":"a67fsbwwn7vm","geo_precision":"range","address":"6925 HAZELTINE AVE UNIT C","rep (1 for yes, 0 for no)":1,"state":"California"},"type":"Feature","geometry":{"type":"Point","coordinates":[-118.439988,34.196203]}},{"properties":{"city":"Alhambra","name":null,"zip":"91803","geo_score":1.0,"id":"a67fsbuy347o","geo_precision":"range","address":"700 Winchester Avenue","rep (1 for yes, 0 for no)":1,"state":"California"},"type":"Feature","geometry":{"type":"Point","coordinates":[-118.160408,34.085455]}},{"properties":{"city":"North Hollywood","name":null,"zip":"91605","geo_score":1.0,"id":"a67fsbqk42t8","geo_precision":"range","address":"7006 Morse Avenue","rep (1 for yes, 0 for no)":0,"state":"California"},"type":"Feature","geometry":{"type":"Point","coordinates":[-118.415973,34.197636]}},{"properties":{"city":"WEST HILLS","name":null,"zip":"91307","geo_score":1.0,"id":"a67fsbvqikfk","geo_precision":"range","address":"7019 MAYNARD AVENUE","rep (1 for yes, 0 for no)":0,"state":"California"},"type":"Feature","geometry":{"type":"Point","coordinates":[-118.622344,34.198194]}},{"properties":{"city":"LOS ANGELES","name":null,"zip":"91406","geo_score":0.737,"id":"a67fsbpgrca2","geo_precision":"street","address":"7045 WOODLEY AVE #125","rep (1 for yes, 0 for no)":0,"state":"California"},"type":"Feature","geometry":{"type":"Point","coordinates":[-118.475559,34.171527]}},{"properties":{"city":"Los Angeles","name":null,"zip":"90022","geo_score":0.927,"id":"a67fsbs1mm1z","geo_precision":"range","address":"705 S Gerhart Ave","rep (1 for yes, 0 for no)":0,"state":"California"},"type":"Feature","geometry":{"type":"Point","coordinates":[-118.146616,34.020428]}},{"properties":{"city":"Van Nuys","name":null,"zip":"91405","geo_score":0.902,"id":"a67fsc3x86dt","geo_precision":"range","address":"7056 Matilija Avenue","rep (1 for yes, 0 for no)":0,"state":"California"},"type":"Feature","geometry":{"type":"Point","coordinates":[-118.43344,34.198312]}},{"properties":{"city":"Compton","name":null,"zip":"90221","geo_score":0.965,"id":"a67fsc0uo0ws","geo_precision":"range","address":"709 SOUTH BRADFIELD AVE","rep (1 for yes, 0 for no)":0,"state":"California"},"type":"Feature","geometry":{"type":"Point","coordinates":[-118.203224,33.890492]}},{"properties":{"city":"Compton","name":null,"zip":"90221","geo_score":0.965,"id":"a67fsbsz7kat","geo_precision":"range","address":"709 South Bradfield Avenue","rep (1 for yes, 0 for no)":0,"state":"California"},"type":"Feature","geometry":{"type":"Point","coordinates":[-118.203224,33.890492]}},{"properties":{"city":"INGLEWOOD","name":null,"zip":"90301","geo_score":1.0,"id":"a67fsboo6wv6","geo_precision":"range","address":"710 LARCH STREET","rep (1 for yes, 0 for no)":0,"state":"California"},"type":"Feature","geometry":{"type":"Point","coordinates":[-118.350046,33.955161]}},{"properties":{"city":"INGLEWOOD","name":null,"zip":"90301","geo_score":1.0,"id":"a67fsbqoayum","geo_precision":"range","address":"710 LARCH STREET","rep (1 for yes, 0 for no)":0,"state":"California"},"type":"Feature","geometry":{"type":"Point","coordinates":[-118.350046,33.955161]}},{"properties":{"city":"LOS ANGELES","name":null,"zip":"90045","geo_score":0.354,"id":"a67fsbxe3a5z","geo_precision":"street","address":"7111 LA TIJERA BLVD APT B202","rep (1 for yes, 0 for no)":0,"state":"California"},"type":"Feature","geometry":{"type":"Point","coordinates":[-118.426909,33.973535]}},{"properties":{"city":"Los Angeles","name":null,"zip":"90046","geo_score":0.945,"id":"a67fsbq3ide4","geo_precision":"range","address":"7135 Hollywood Blvd 707","rep (1 for yes, 0 for no)":0,"state":"California"},"type":"Feature","geometry":{"type":"Point","coordinates":[-118.345652,34.101603]}},{"properties":{"city":"Lancaster","name":null,"zip":"93534","geo_score":0.93,"id":"a67fsc0zard4","geo_precision":"range","address":"714 Trixis Ave","rep (1 for yes, 0 for no)":0,"state":"California"},"type":"Feature","geometry":{"type":"Point","coordinates":[-118.144428,34.718024]}},{"properties":{"city":"Los Angeles","name":null,"zip":"90063","geo_score":0.87,"id":"a67fsbtl51zj","geo_precision":"range","address":"721 Record Dr","rep (1 for yes, 0 for no)":0,"state":"California"},"type":"Feature","geometry":{"type":"Point","coordinates":[-118.181686,34.044292]}},{"properties":{"city":"San Pedro","name":null,"zip":"90731","geo_score":0.812,"id":"a67fsbw0c4z2","geo_precision":"street","address":"721North Gaffey Place","rep (1 for yes, 0 for no)":0,"state":"California"},"type":"Feature","geometry":{"type":"Point","coordinates":[-118.29228,33.748275]}},{"properties":{"city":"Los Angeles","name":null,"zip":"90011","geo_score":0.916,"id":"a67fsbzupefa","geo_precision":"range","address":"722 EAST 31ST ST","rep (1 for yes, 0 for no)":0,"state":"California"},"type":"Feature","geometry":{"type":"Point","coordinates":[-118.263285,34.017749]}},{"properties":{"city":"Winnetka","name":null,"zip":"91306","geo_score":1.0,"id":"a67fsbyfcdcz","geo_precision":"range","address":"7260 Oakdale Avenue","rep (1 for yes, 0 for no)":0,"state":"California"},"type":"Feature","geometry":{"type":"Point","coordinates":[-118.567062,34.202496]}},{"properties":{"city":"Los Angeles","name":null,"zip":"90005","geo_score":0.805,"id":"a67fsbx58w0u","geo_precision":"street","address":"727 South Ardmore Avenue #202","rep (1 for yes, 0 for no)":0,"state":"California"},"type":"Feature","geometry":{"type":"Point","coordinates":[-118.301597,34.063559]}},{"properties":{"city":"Los Angeles","name":null,"zip":"90059","geo_score":1.0,"id":"a67fsc2avzyr","geo_precision":"range","address":"728 E 122nd St","rep (1 for yes, 0 for no)":0,"state":"California"},"type":"Feature","geometry":{"type":"Point","coordinates":[-118.263044,33.921378]}},{"properties":{"city":"Los Angeles","name":null,"zip":"91406","geo_score":0.514,"id":"a67fsbrodqs1","geo_precision":"street","address":"7304 Balboa Boulevard (Van Nuys area) #D","rep (1 for yes, 0 for no)":0,"state":"California"},"type":"Feature","geometry":{"type":"Point","coordinates":[-118.501115,34.192996]}},{"properties":{"city":"LOS ANGELES","name":null,"zip":"91303","geo_score":0.912,"id":"a67fsbzqc7u2","geo_precision":"range","address":"7317 LOMA VERDE AVENUE","rep (1 for yes, 0 for no)":0,"state":"California"},"type":"Feature","geometry":{"type":"Point","coordinates":[-118.589575,34.20316]}},{"properties":{"city":"VAN NYUS","name":null,"zip":"91405","geo_score":0.707,"id":"a67fsc1qrlpt","geo_precision":"street","address":"7319 HAZELTINE AVENUE #4","rep (1 for yes, 0 for no)":0,"state":"California"},"type":"Feature","geometry":{"type":"Point","coordinates":[-118.439984,34.190677]}},{"properties":{"city":"NORTH HOLLYWOOD","name":null,"zip":"91605","geo_score":1.0,"id":"a67fsbth8gph","geo_precision":"range","address":"7417 LEMP AVENUE","rep (1 for yes, 0 for no)":0,"state":"California"},"type":"Feature","geometry":{"type":"Point","coordinates":[-118.384489,34.205123]}},{"properties":{"city":"Los Angeles","name":null,"zip":"91605","geo_score":0.916,"id":"a67fsbrdgsq5","geo_precision":"range","address":"7419 Beck Avenue","rep (1 for yes, 0 for no)":0,"state":"California"},"type":"Feature","geometry":{"type":"Point","coordinates":[-118.383415,34.205159]}},{"properties":{"city":"SAN DIMAS","name":null,"zip":"91773","geo_score":1.0,"id":"a67fsbvbazaj","geo_precision":"range","address":"744 N NORTHCAPE AVE","rep (1 for yes, 0 for no)":0,"state":"California"},"type":"Feature","geometry":{"type":"Point","coordinates":[-117.80118,34.1149]}},{"properties":{"city":"Los Angeles","name":null,"zip":"90022","geo_score":0.927,"id":"a67fsbuh5npm","geo_precision":"range","address":"749 Brady Avenue","rep (1 for yes, 0 for no)":0,"state":"California"},"type":"Feature","geometry":{"type":"Point","coordinates":[-118.137663,34.017475]}},{"properties":{"city":"Whittier","name":null,"zip":"90606","geo_score":0.967,"id":"a67fsbrzlnwq","geo_precision":"range","address":"7610 Boer Avenue","rep (1 for yes, 0 for no)":0,"state":"California"},"type":"Feature","geometry":{"type":"Point","coordinates":[-118.069715,33.976281]}},{"properties":{"city":"Los Angeles","name":null,"zip":"91335","geo_score":0.801,"id":"a67fsbqs56pv","geo_precision":"range","address":"7641 Reseda Blvd Unit 122","rep (1 for yes, 0 for no)":0,"state":"California"},"type":"Feature","geometry":{"type":"Point","coordinates":[-118.53606,34.209127]}},{"properties":{"city":"NORTH HOLLYWOOD","name":null,"zip":"91605","geo_score":1.0,"id":"a67fsbyx9u0n","geo_precision":"range","address":"7651 BECK AVENUE","rep (1 for yes, 0 for no)":0,"state":"California"},"type":"Feature","geometry":{"type":"Point","coordinates":[-118.383417,34.20938]}},{"properties":{"city":"LOS ANGELES","name":null,"zip":"91605","geo_score":0.916,"id":"a67fsby6pcbo","geo_precision":"range","address":"7700 TUJUNGA AVENUE","rep (1 for yes, 0 for no)":0,"state":"California"},"type":"Feature","geometry":{"type":"Point","coordinates":[-118.379053,34.210263]}},{"properties":{"name":"Suitable Coconut Leyte","city":null,"zip":null,"geo_score":null,"id":"adlnb0i1e3ig","geo_precision":null,"address":null,"rep (1 for yes, 0 for no)":null,"state":null},"type":"Feature","geometry":{"type":"Polygon","coordinates":[[[124.772182532709,10.1845678748036],[124.78080811714,10.1902974864449],[124.792306751674,10.198880576066],[124.795182717244,10.2102476614845],[124.800934619014,10.2187433674864],[124.815312363964,10.2272235755434],[124.826814739143,10.2328758225135],[124.835443911466,10.241357691226],[124.844075106552,10.2526679469628],[124.852702188223,10.2554922836432],[124.867079867958,10.2583131459983],[124.87570912911,10.26396549544],[124.89008746921,10.266785387801],[124.901594926367,10.2752638437634],[124.901618452194,10.3063795890659],[124.898744499953,10.3177219375582],[124.898745502082,10.3290644567185],[124.89874657736,10.3404059096195],[124.89874768344,10.3489091154195],[124.892998591985,10.3630842911721],[124.892997540358,10.3772664502445],[124.892981483216,10.391497454386],[124.892965451211,10.4057231308719],[124.898705859959,10.4142484323021],[124.910195125051,10.4227643305816],[124.915929560406,10.4341286307741],[124.921671606126,10.4454670167476],[124.924540442276,10.4568030365174],[124.927407080904,10.4709725957542],[124.930277408134,10.4794693898273],[124.936019645097,10.493625727811],[124.941763571092,10.5049456050424],[124.941754867378,10.5162801870992],[124.950376618747,10.5247555361491],[124.96188249407,10.5247231306627],[124.973389815723,10.5246902345606],[124.979144049067,10.5246736326276],[124.996409052261,10.524623232498],[125.005042852222,10.5245976552648],[125.025188121329,10.5273713528766],[125.03670368285,10.5273363588427],[125.053979786074,10.5272830332171],[125.06260704322,10.5357597944836],[125.068354351297,10.5442447165449],[125.077008768305,10.5555232153365],[125.085668592554,10.56396945798],[125.094330148321,10.5724165860411],[125.105874945906,10.5808562225864],[125.120304619938,10.5892884799913],[125.131855414375,10.5977303483671],[125.143408838935,10.6061732745261],[125.152081143426,10.6146256976865],[125.154987219469,10.623095738898],[125.1550021531,10.6287482049902],[125.134836172258,10.6486044621011],[125.126190873757,10.6571142867242],[125.120430515187,10.6656147742898],[125.114674365515,10.676941778128],[125.117570184358,10.6882455074811],[125.111818552204,10.6995684913575],[125.097421204677,10.6995933666549],[125.08593708498,10.7080833721095],[125.077304246155,10.7194099843763],[125.065815169764,10.7165859713894],[125.054287714741,10.7137797364277],[125.042786892613,10.7194464772475],[125.034158060361,10.7279408768643],[125.025529309594,10.7364345382219],[125.022661184883,10.7477472365552],[125.011151616819,10.7534159565962],[125.002507500883,10.7449455406321],[124.990988170138,10.7393053948828],[124.979467454098,10.7364950168365],[124.967949691365,10.7308548540202],[124.956445303135,10.7280340946101],[124.944932329893,10.7223907656605],[124.930542291214,10.7167493325313],[124.919031969319,10.7139320572629],[124.907521736169,10.7111143331557],[124.910394257392,10.7026301647862],[124.916137875057,10.6941497801134],[124.921844743532,10.6828799962991],[124.927548527499,10.6716152176257],[124.927522076601,10.6603343926402],[124.927498565775,10.6490521748366],[124.924605684114,10.6405956411335],[124.913088609123,10.6321516617411],[124.898709991904,10.6293508075196],[124.887207371047,10.6265460817406],[124.875719890657,10.6265413154023],[124.86711957073,10.6321596038782],[124.858529129248,10.6434087406892],[124.849922042545,10.6490313670213],[124.835563358589,10.6546502173065],[124.824073602918,10.6659346614745],[124.82120215059,10.6800733007096],[124.826959778382,10.6913792669696],[124.829840634235,10.7026860831054],[124.832722003699,10.713992639925],[124.835603435052,10.7252988467285],[124.835608510869,10.7366060116875],[124.83561345629,10.7479130115056],[124.835616671792,10.7592220191529],[124.832738705619,10.7705369396445],[124.826984739891,10.7790231802868],[124.821230769691,10.7931630132178],[124.818353824521,10.8044720830886],[124.81835327212,10.8157781179355],[124.826980987139,10.8242528970357],[124.841359711831,10.8298980039617],[124.852861605063,10.8355433068369],[124.861488647405,10.8355388059335],[124.875874594619,10.8411791717051],[124.887388628381,10.8468205537193],[124.901782536306,10.8524599489248],[124.91330103283,10.8581013994583],[124.92193909973,10.8580947345309],[124.933457703315,10.8580853843376],[124.947862727431,10.863724581413],[124.956503870344,10.8637172320235],[124.970910329701,10.8693564039265],[124.982434940431,10.8721720717989],[124.993960666845,10.8749875538428],[125.00548786642,10.8778029308723],[125.017027417269,10.9032285729217],[125.017040911517,10.9145344009359],[125.022819536611,10.9258359627365],[125.028595432464,10.9343114805707],[125.031496813327,10.9484432748641],[125.031512002133,10.9597506804407],[125.037290000092,10.9682278516205],[125.040193208845,10.9823614751168],[125.040209666793,10.9936702717345],[125.04023024606,11.0078066522111],[125.040247040598,11.0191161342763],[125.040264403165,11.0304262417152],[125.040281787157,11.0417366878638],[125.037419292065,11.0558759081012],[125.031668924554,11.0671888116853],[125.028802476216,11.0785009690186],[125.028829898944,11.0926454694638],[125.020205387755,11.1039686718296],[125.020229632122,11.115288462319],[125.02314360744,11.1294383984769],[125.017397522999,11.1407596102311],[125.014526605555,11.1492470811334],[125.008780863827,11.1633942120535],[125.008799131608,11.1747119525168],[125.011701678514,11.1860294782254],[125.017488675442,11.1973461714108],[125.020392294877,11.2086650077739],[125.020412202394,11.2199863157527],[125.026201400752,11.23130551842],[125.026221801578,11.2426283374936],[125.020452213037,11.2426310276975],[125.017547734129,11.2313097567142],[125.006009758183,11.2313150725441],[125.006028942012,11.2426374580761],[124.994504424042,11.2511344000573],[124.982966203103,11.2511383880496],[124.974323660015,11.2596298727066],[124.968568668821,11.27095010684],[124.962813305105,11.2822703770705],[124.959942452208,11.293590115777],[124.957074469617,11.3077400018302],[124.957084641041,11.3162298944037],[124.957101791951,11.3303802003555],[124.960000903534,11.3417005497135],[124.965786383722,11.3530209895403],[124.965800422407,11.3643424616519],[124.977355548541,11.3728327243137],[124.974480344145,11.3813246917217],[124.971608454977,11.3926473308118],[124.974513194979,11.4068007246561],[124.968756106469,11.4181290712995],[124.965865759939,11.4152983599297],[124.957200495206,11.4096404960927],[124.948563033754,11.4209892838079],[124.937025338145,11.4238379522307],[124.925474717934,11.4181822498525],[124.916814214096,11.4153575500447],[124.899497507674,11.4125419262128],[124.893740291585,11.4238866610661],[124.887982051859,11.4352323436415],[124.879317724146,11.4295712600457],[124.876419326797,11.4182348522291],[124.864876494337,11.4182460373005],[124.853338614857,11.4239263736693],[124.841802531781,11.432445838609],[124.83025808986,11.4324592355393],[124.818709406959,11.4267990279497],[124.810045405852,11.4182990875857],[124.804266603793,11.4069603581403],[124.798487425866,11.3927904132676],[124.792710867413,11.3814576007185],[124.786936460269,11.372959402325],[124.778276647401,11.3616296888956],[124.772504883336,11.3559659300426],[124.75807918748,11.3503061324542],[124.746539600736,11.3474785202035],[124.732115464573,11.3389849695907],[124.723461486457,11.3304891548189],[124.711924744233,11.3191598000852],[124.700388784209,11.3134962468724],[124.688852892704,11.3106654116302],[124.677316344855,11.3106672871745],[124.665781105305,11.3078356113007],[124.648476478219,11.3078368825328],[124.636938728553,11.3078367313933],[124.616750522995,11.3078363902818],[124.602323383169,11.3135037818626],[124.590794918527,11.3050014245828],[124.579257488838,11.3050009420232],[124.576362020204,11.3135044796292],[124.567688669803,11.3276783180024],[124.559031838813,11.3361578801826],[124.550373687434,11.3474648218143],[124.547482176011,11.3587796800204],[124.54459066377,11.3700946367714],[124.544582712601,11.3814140359878],[124.541690661742,11.3927292066266],[124.535912036364,11.4068698826476],[124.530134990798,11.4181804739703],[124.530126317384,11.4295005350086],[124.521466425248,11.4379761271755],[124.509924250647,11.4436162890707],[124.495500258818,11.4464207145463],[124.4839634895,11.4463997059517],[124.472424556434,11.4492080830086],[124.463781743769,11.4407024609336],[124.463793795926,11.4293837621434],[124.463805674664,11.4180652049382],[124.475348536642,11.4095974274859],[124.478243268442,11.3982841496111],[124.478254545127,11.3869659668518],[124.475379890756,11.3784724771734],[124.475394117363,11.3643253226685],[124.475388484077,11.3699841243346],[124.475377013592,11.3813019634271],[124.466715891913,11.3926046063249],[124.458054197832,11.4039068548961],[124.452264930019,11.4180570857901],[124.446434704525,11.429456634699],[124.44351212263,11.4408184963574],[124.437678188726,11.4522242935421],[124.428933329148,11.4608449247547],[124.417293933792,11.4722950618451],[124.405708727836,11.4808182557402],[124.39411854197,11.4893468451813],[124.382531812273,11.4978655024027],[124.370941367092,11.5063881310117],[124.365133371997,11.5149086977264],[124.356423638166,11.5262708672928],[124.350613650705,11.5347929049707],[124.33901544726,11.5433193400579],[124.333209580351,11.5490055352766],[124.318728998746,11.5518578475446],[124.30713322392,11.5575468678155],[124.298478658296,11.5490284402318],[124.292738647239,11.5348272778701],[124.289883946174,11.5234659627593],[124.289931644663,11.5092669570063],[124.28997861282,11.4950704213707],[124.290016008239,11.483714329848],[124.295838543938,11.4723584815402],[124.30164983193,11.4638432676033],[124.310369223714,11.4496530118876],[124.313301948739,11.4354679032533],[124.316225342818,11.4241213290084],[124.324938592123,11.4099385250589],[124.336516974048,11.4042641852285],[124.336540588,11.3957560788271],[124.333681839412,11.3844130106521],[124.342375358095,11.3759048653608],[124.353955459174,11.3702248152109],[124.34530772165,11.36172274752],[124.33374506749,11.3617289314231],[124.32798176699,11.3560586358908],[124.333812315578,11.339044000068],[124.342507580847,11.3305343533517],[124.354091573104,11.3220234237413],[124.354118348714,11.3106904217911],[124.365699113188,11.3021814452858],[124.380148258668,11.3021685863576],[124.383062600832,11.2908357011765],[124.383087185511,11.2795064799413],[124.38310219415,11.268188162763],[124.388890524183,11.2568704660153],[124.39757830307,11.2455386265434],[124.394704658148,11.2370489701033],[124.386062807334,11.2229035952212],[124.383199982392,11.2087529083432],[124.383215671282,11.2002616098031],[124.391907551475,11.1861033871629],[124.391931714198,11.1719549801844],[124.391955395701,11.1578069241428],[124.400642124754,11.1408295373426],[124.397772216305,11.1295147104905],[124.39779320079,11.1153706499899],[124.394923794662,11.1040561044047],[124.383390916818,11.0955707044327],[124.380522106063,11.0842556882933],[124.377653583492,11.0729407044061],[124.371894194064,11.0644540054658],[124.371912585069,11.0531394171904],[124.380577057986,11.0474852512592],[124.389245518571,11.036176462437],[124.406557087668,11.0305276768625],[124.409454886052,11.0192174194471],[124.409469064691,11.0079062938619],[124.403712755573,10.9994202843637],[124.397960018347,10.9881071196264],[124.397971993637,10.9796228919545],[124.392223941995,10.9654812160934],[124.397994399726,10.9626567097963],[124.409515038321,10.9711466743281],[124.42103673933,10.9796355014072],[124.429678844824,10.9852946418711],[124.43831765009,10.9937807307733],[124.444073859797,11.0022652479837],[124.455595533726,11.0079254436723],[124.467100524901,11.0192455067991],[124.47860971984,11.0277380829123],[124.490127243177,11.0362258570727],[124.495881498259,11.0475373521887],[124.498763253327,11.0475382885456],[124.518926621634,11.0588531406595],[124.53332891794,11.0673379231295],[124.544850862868,11.072994903454],[124.556370432379,11.0786540433245],[124.570771065658,11.0843140110881],[124.582291415402,11.0899726057272],[124.593813652759,11.0928030721476],[124.602453685983,11.0984602919111],[124.61685751306,11.1012903774535],[124.628380631141,11.1041195050569],[124.637025275261,11.0984648198738],[124.63990882605,11.0899820210348],[124.648554984675,11.07584451011],[124.660078301208,11.073018033161],[124.674479734841,11.0730191577026],[124.691762604786,11.0815004486213],[124.717689695611,11.1125996460912],[124.729214626193,11.1239073925712],[124.734978243423,11.1352173079053],[124.740742503039,11.146527308325],[124.743625684986,11.1578387290537],[124.752273137617,11.1719760238022],[124.758038469886,11.1804581126977],[124.766686800765,11.1917670646943],[124.775336000309,11.2030759126336],[124.786866879742,11.2115552447776],[124.798399359036,11.2200378491675],[124.80993269832,11.234159916184],[124.821467771893,11.2398287340284],[124.833004984037,11.2483199612361],[124.84165804729,11.2539799883102],[124.853193223861,11.256810555322],[124.864733488639,11.265299125263],[124.87627036484,11.26812919088],[124.887803365436,11.265300393375],[124.899333695767,11.2596417064154],[124.910861092454,11.2511531194849],[124.916618971929,11.2426616494372],[124.92236979697,11.2285099104999],[124.922356368099,11.2171902159144],[124.922342881062,11.2058712023698],[124.922328241586,11.1917265521626],[124.919430619281,11.1804067713675],[124.910765919942,11.1690838472664],[124.907871898702,11.1605926801901],[124.899209849521,11.1492719363876],[124.896313481098,11.1379526241249],[124.89053262559,11.1238049983226],[124.884759582198,11.1153173520329],[124.876100276111,11.1011727435333],[124.870326569877,11.0898584467526],[124.864556866258,11.0813735177385],[124.855905326395,11.0700613836226],[124.847260452077,11.0644057965369],[124.841493950668,11.0559229876661],[124.829965652549,11.0417865220057],[124.824199654952,11.0304786802333],[124.815554583949,11.0163456801811],[124.80979283785,11.0078667975771],[124.798279880357,10.9965776335218],[124.786770955462,10.9881245473813],[124.778137788827,10.9824895483725],[124.769501460357,10.9711992847822],[124.760864167458,10.9599068705444],[124.749348244673,10.9542710388728],[124.734951524479,10.9457999723882],[124.726313978334,10.9373205596497],[124.714798892097,10.9288411791359],[124.709041301864,10.9175351697882],[124.709040895578,10.909055703723],[124.717672311352,10.863832642693],[124.717671518949,10.8525273424836],[124.72630608259,10.8412231953012],[124.73493949361,10.8327473944884],[124.743568879727,10.8242684516088],[124.752197071532,10.8129627264729],[124.757948184897,10.8016559033348],[124.760821882709,10.7875201572289],[124.766573822883,10.7790387143519],[124.775201488752,10.7649000492048],[124.783829158412,10.7535905936622],[124.786704398098,10.7479361958608],[124.795329497981,10.7309725550796],[124.795325783508,10.7196652962099],[124.798198791412,10.708356235423],[124.798194299808,10.6942212011757],[124.801067258682,10.6829112156507],[124.803939124505,10.6687731306504],[124.803935449279,10.6574633446169],[124.798177928434,10.6461629914678],[124.786670989279,10.6405174678678],[124.77803661872,10.6292444621142],[124.77802726879,10.6151719738964],[124.778020466262,10.6039108935554],[124.778015007309,10.5926378389247],[124.778009302902,10.5813669855399],[124.772258769966,10.5672415728279],[124.766509602566,10.5559323675795],[124.766506145045,10.5446501212021],[124.760756424026,10.5219039290803],[124.743500948313,10.5047434380697],[124.734872509707,10.4962566805002],[124.726244582051,10.490598775868],[124.714744803016,10.4821484385203],[124.717617783803,10.4708282106043],[124.72623878006,10.4622955160803],[124.7291118523,10.4509725684733],[124.729110034219,10.4424794908741],[124.729106842867,10.428322092483],[124.726228867656,10.416995172611],[124.726225780446,10.4028355522087],[124.729098540804,10.391507289983],[124.734846362712,10.3773460108],[124.737719145786,10.3660144043651],[124.752094156104,10.3575151424234],[124.763593153046,10.3461791953748],[124.775092744694,10.3376732742025],[124.783716868404,10.3291705480172],[124.786589955826,10.3178287013485],[124.7865877021,10.3064861355925],[124.786584909359,10.2923064642736],[124.783706489291,10.2809784638495],[124.777951144363,10.2668368634598],[124.772197558201,10.2555115095175],[124.769320303071,10.2441474001817],[124.763567354207,10.2327650232961],[124.760688763156,10.218559312695],[124.760686263334,10.2072064821684],[124.760683612995,10.1958524640409],[124.760680448158,10.1816584007063],[124.766431568574,10.1816937663167],[124.777932417515,10.1846032244104],[124.772182532709,10.1845678748036]]]}}],"is_temporal":false,"author":{"url":"","metadata":"","contact_name":"","contact_address":"","source":"","contact_phone":""},"source":"","pagination":{"sort":null,"start":0,"total":52,"limit":1000000},"state":"complete","tags":"","published":"2014-08-16T18:55:43-04:00","id":344996}