{"type":"FeatureCollection","data_type":"Dataset","url_type":null,"permissions":[{"permissions":{"download":true,"view":true},"group_id":"everyone"}],"classification":null,"title":"Map of Community  Assests","count":14,"stream_id":345809,"contributor":{"url":"http://geocommons.com/users/69873","name":"haas1sb"},"data_attributes":null,"calculation_params":null,"icon_link":null,"link":"http://geocommons.com/overlays/345809.json","extent":[-83.239,42.309,-82.9475,42.3749],"geometry_types":["point"],"unique_name":null,"name":"Map of Community  Assests","feature_count":14,"description":"","next_feature":null,"is_raster":false,"short_classification":"Y","stats":{},"features":[{"properties":{"name":"DRMM","city":"Detroit","geo_score":0.829,"id":"admwzrphwoxq","address":"150 W Stimson","geo_precision":"range","state":"MI"},"type":"Feature","geometry":{"type":"Point","coordinates":[-83.059594,42.345661]}},{"properties":{"name":"NSO","city":"Detroit","geo_score":0.815,"id":"admwzrirtgxa","address":"220 Bagley Ave","geo_precision":"range","state":"MI"},"type":"Feature","geometry":{"type":"Point","coordinates":[-83.05327,42.334298]}},{"properties":{"name":"WSU","city":"Detroit","geo_score":0.628,"id":"admwzrikim5j","address":"42 W Warren","geo_precision":"street","state":"MI"},"type":"Feature","geometry":{"type":"Point","coordinates":[-83.23901,42.343066]}},{"properties":{"name":"U of M","city":"Detroit","geo_score":0.902,"id":"admwzrsl5qi6","address":"3663 Woodward Ave","geo_precision":"range","state":"MI"},"type":"Feature","geometry":{"type":"Point","coordinates":[-83.058404,42.347865]}},{"properties":{"name":"MSU","city":"Detroit","geo_score":0.902,"id":"admwzrmoqywk","address":"3408 Woodward Ave","geo_precision":"range","state":"MI"},"type":"Feature","geometry":{"type":"Point","coordinates":[-83.057169,42.34644]}},{"properties":{"name":"Detroit Health Care for the Homeless","city":"Detroit","geo_score":0.805,"id":"admwzrknb44d","address":"60 E Warren","geo_precision":"range","state":"MI"},"type":"Feature","geometry":{"type":"Point","coordinates":[-83.062663,42.357268]}},{"properties":{"name":"Cass Community Church","city":"Detroit","geo_score":0.805,"id":"admwzrrym355","address":"3901 Cass Ave","geo_precision":"street","state":"MI"},"type":"Feature","geometry":{"type":"Point","coordinates":[-83.061675,42.34726]}},{"properties":{"name":"Detroit Community Health Connection","city":"Detroit","geo_score":0.902,"id":"admwzrikf2he","address":"13901 E Jefferson Ave","geo_precision":"range","state":"MI"},"type":"Feature","geometry":{"type":"Point","coordinates":[-82.947548,42.371566]}},{"properties":{"name":"Community Health and Social Services","city":"Detroit","geo_score":0.902,"id":"admwzrkzbtg3","address":"5635 W Fort St","geo_precision":"range","state":"MI"},"type":"Feature","geometry":{"type":"Point","coordinates":[-83.09771,42.309026]}},{"properties":{"name":"Convenant Community Care","city":"Detroit","geo_score":0.902,"id":"admwzrigd57r","address":"559 W Grand Blvd","geo_precision":"range","state":"MI"},"type":"Feature","geometry":{"type":"Point","coordinates":[-83.090074,42.323777]}},{"properties":{"name":"COTS","city":"Detroit","geo_score":0.902,"id":"admwzrq4efuz","address":"26 Peterboro St","geo_precision":"range","state":"MI"},"type":"Feature","geometry":{"type":"Point","coordinates":[-83.058259,42.344843]}},{"properties":{"name":"Metropolitan United Methodist Church","city":"Detroit","geo_score":0.902,"id":"admwzrfzepdk","address":"8000 Woodward Ave","geo_precision":"range","state":"MI"},"type":"Feature","geometry":{"type":"Point","coordinates":[-83.076413,42.374902]}},{"properties":{"name":"Detroit Wayne County CMH","city":"Detroit","geo_score":0.902,"id":"admwzrjnj5q9","address":"10 Peterboro St","geo_precision":"range","state":"MI"},"type":"Feature","geometry":{"type":"Point","coordinates":[-83.058666,42.344602]}},{"properties":{"name":"Detroit Community Health Connection","city":"Detroit","geo_score":0.902,"id":"admwzrk71vpd","address":"7900 Kercheval St","geo_precision":"range","state":"MI"},"type":"Feature","geometry":{"type":"Point","coordinates":[-82.999918,42.358388]}}],"is_temporal":false,"author":{"url":"","metadata":null,"contact_name":null,"contact_address":null,"source":null,"contact_phone":null},"source":"","pagination":{"sort":null,"start":0,"total":14,"limit":1000000},"state":"complete","tags":"","published":"2014-08-16T19:51:03-04:00","id":345809}