{"type":"FeatureCollection","data_type":"Dataset","url_type":null,"permissions":[{"permissions":{"download":true,"view":true},"group_id":"everyone"}],"classification":null,"title":"Manure estimates","count":76,"stream_id":345885,"contributor":{"url":"http://geocommons.com/users/68616","name":"Mikelus"},"data_attributes":null,"calculation_params":null,"icon_link":null,"link":"http://geocommons.com/overlays/345885.json","extent":[-4.795,50.338,1.28,55.163],"geometry_types":["point"],"unique_name":null,"name":"Manure estimates","feature_count":76,"description":"","next_feature":null,"is_raster":false,"short_classification":"Y","stats":{"latitude":{"max":55.163,"variance":1.564381405398,"mean":52.6693378378378,"stdev":1.25075233575556,"min":50.338,"median":52.65},"manure":{"max":3931356.27,"variance":719774643528.602,"mean":543300.066351352,"stdev":848395.334457116,"min":0.0,"median":167595.37},"longitude":{"max":1.28,"variance":1.3607497325361,"mean":-1.44569189189189,"stdev":1.16651177985312,"min":-4.795,"median":-1.4583}},"features":[{"properties":{"city":"Hartlepool","latitude":54.6864,"category":"Total","postcode":"TS24","county":"Hartlepool and Stockton-on-Tees","manure":38589.61,"country":"United Kingdom","longitude":-1.2108,"id":"adn8jqzbkdca"},"type":"Feature","geometry":{"type":"Point","coordinates":[-1.2108,54.6864]}},{"properties":{"city":"Middlesborough","latitude":54.58,"category":"Total","postcode":"TS1","county":"South Teesside","manure":90853.63,"country":"United Kingdom","longitude":-1.23,"id":"adn8jqupxlcq"},"type":"Feature","geometry":{"type":"Point","coordinates":[-1.23,54.58]}},{"properties":{"city":"Darlington","latitude":54.527,"category":"Total","postcode":"DL1","county":"Darlington","manure":53730.36,"country":"United Kingdom","longitude":-1.5526,"id":"adn8jqwbr93z"},"type":"Feature","geometry":{"type":"Point","coordinates":[-1.5526,54.527]}},{"properties":{"city":"Durham","latitude":54.7771,"category":"Total","postcode":"DH1","county":"Durham CC","manure":198895.79,"country":"United Kingdom","longitude":-1.5607,"id":"adn8jr1onc2i"},"type":"Feature","geometry":{"type":"Point","coordinates":[-1.5607,54.7771]}},{"properties":{"city":"Morpeth","latitude":55.163,"category":"Total","postcode":"NE61","county":"Northumberland","manure":201813.02,"country":"United Kingdom","longitude":-1.678,"id":"adn8jr30ozv7"},"type":"Feature","geometry":{"type":"Point","coordinates":[-1.678,55.163]}},{"properties":{"city":"Newcastle","latitude":54.9875,"category":"Total","postcode":"NE1","county":"Tyneside","manure":4803.97,"country":"United Kingdom","longitude":-1.4583,"id":"adn8jqwi7g61"},"type":"Feature","geometry":{"type":"Point","coordinates":[-1.4583,54.9875]}},{"properties":{"city":"Sunderland","latitude":54.8717,"category":"Total","postcode":"SR1","county":"Sunderland","manure":2381.83,"country":"United Kingdom","longitude":-1.4581,"id":"adn8jqvmoako"},"type":"Feature","geometry":{"type":"Point","coordinates":[-1.4581,54.8717]}},{"properties":{"city":"Workington","latitude":54.6365,"category":"Total","postcode":"CA14","county":"West Cumbria","manure":1090004.28,"country":"United Kingdom","longitude":-3.5549,"id":"adn8jqzk7iza"},"type":"Feature","geometry":{"type":"Point","coordinates":[-3.5549,54.6365]}},{"properties":{"city":"Penrith","latitude":54.6648,"category":"Total","postcode":"CA11","county":"East Cumbria","manure":2132049.81,"country":"United Kingdom","longitude":-2.7548,"id":"adn8jqysylth"},"type":"Feature","geometry":{"type":"Point","coordinates":[-2.7548,54.6648]}},{"properties":{"city":"Warrington","latitude":53.3873,"category":"Total","postcode":"WA1","county":"Halton and Warrington","manure":35164.11,"country":"United Kingdom","longitude":-2.6029,"id":"adn8jr3mpy4x"},"type":"Feature","geometry":{"type":"Point","coordinates":[-2.6029,53.3873]}},{"properties":{"city":"Chester","latitude":53.1926,"category":"Total","postcode":"CH1","county":"Cheshire CC","manure":2646646.71,"country":"United Kingdom","longitude":-2.8912,"id":"adn8jqzf8yq5"},"type":"Feature","geometry":{"type":"Point","coordinates":[-2.8912,53.1926]}},{"properties":{"city":"Stockport","latitude":53.4083,"category":"Total","postcode":"SK1","county":"Greater Manchester South","manure":28385.77,"country":"United Kingdom","longitude":-2.1494,"id":"adn8jqxomaee"},"type":"Feature","geometry":{"type":"Point","coordinates":[-2.1494,53.4083]}},{"properties":{"city":"Oldham","latitude":53.5415,"category":"Total","postcode":"OL1","county":"Greater Manchester North","manure":113824.98,"country":"United Kingdom","longitude":-2.1183,"id":"adn8jr2up6xa"},"type":"Feature","geometry":{"type":"Point","coordinates":[-2.1183,53.5415]}},{"properties":{"city":"Blackburn","latitude":53.745,"category":"Total","postcode":"BB1","county":"Blackburn with Darwen","manure":28302.32,"country":"United Kingdom","longitude":-2.4769,"id":"adn8jqqz5lfu"},"type":"Feature","geometry":{"type":"Point","coordinates":[-2.4769,53.745]}},{"properties":{"city":"Blackpool","latitude":53.8245,"category":"Total","postcode":"FY1","county":"Blackpool &amp; Lancashire CC","manure":1980006.05,"country":"United Kingdom","longitude":-3.0222,"id":"adn8jquatj66"},"type":"Feature","geometry":{"type":"Point","coordinates":[-3.0222,53.8245]}},{"properties":{"city":"Wigan","latitude":53.5449,"category":"Total","postcode":"WN1","county":"East Merseyside","manure":3099.2,"country":"United Kingdom","longitude":-2.63,"id":"adn8jqudh1fe"},"type":"Feature","geometry":{"type":"Point","coordinates":[-2.63,53.5449]}},{"properties":{"city":"Liverpool","latitude":53.4167,"category":"Total","postcode":"L3","county":"Liverpool &amp; Sefton","manure":3278.54,"country":"United Kingdom","longitude":-3.0,"id":"adn8jqq007vj"},"type":"Feature","geometry":{"type":"Point","coordinates":[-3.0,53.4167]}},{"properties":{"city":"Birkenhead","latitude":53.393,"category":"Total","postcode":"CH41","county":"Wirral","manure":46038.22,"country":"United Kingdom","longitude":-3.014,"id":"adn8jr33j6qg"},"type":"Feature","geometry":{"type":"Point","coordinates":[-3.014,53.393]}},{"properties":{"city":"Hull","latitude":53.75,"category":"Total","postcode":"HU1","county":"East Riding of Yorkshire &amp; Kingston upon Hull","manure":987490.18,"country":"United Kingdom","longitude":-0.36,"id":"adn8jqpqwncm"},"type":"Feature","geometry":{"type":"Point","coordinates":[-0.36,53.75]}},{"properties":{"city":"Scunthorpe","latitude":53.5788,"category":"Total","postcode":"DN15","county":"North and North East Lincolnshire","manure":152091.38,"country":"United Kingdom","longitude":-0.6551,"id":"adn8jqyjhoxt"},"type":"Feature","geometry":{"type":"Point","coordinates":[-0.6551,53.5788]}},{"properties":{"city":"York","latitude":53.95,"category":"Total","postcode":"YO10","county":"York","manure":51559.63,"country":"United Kingdom","longitude":-1.0833,"id":"adn8jr3278m7"},"type":"Feature","geometry":{"type":"Point","coordinates":[-1.0833,53.95]}},{"properties":{"city":"Northallerton","latitude":54.3378,"category":"Total","postcode":"DL6","county":"North Yorkshire CC","manure":3178015.89,"country":"United Kingdom","longitude":-1.4285,"id":"adn8jqofy7v2"},"type":"Feature","geometry":{"type":"Point","coordinates":[-1.4285,54.3378]}},{"properties":{"city":"Doncaster","latitude":53.5167,"category":"Total","postcode":"DN1","county":"Barnsley, Doncaster and Rotherham","manure":240707.82,"country":"United Kingdom","longitude":-1.1333,"id":"adn8jqvggf6l"},"type":"Feature","geometry":{"type":"Point","coordinates":[-1.1333,53.5167]}},{"properties":{"city":"Sheffield","latitude":53.3833,"category":"Total","postcode":"S1","county":"Sheffield","manure":45148.23,"country":"United Kingdom","longitude":-1.4667,"id":"adn8jqyl0fvt"},"type":"Feature","geometry":{"type":"Point","coordinates":[-1.4667,53.3833]}},{"properties":{"city":"Bradford","latitude":53.8,"category":"Total","postcode":"BD1","county":"Bradford","manure":103765.02,"country":"United Kingdom","longitude":-1.75,"id":"adn8jqqw1t1w"},"type":"Feature","geometry":{"type":"Point","coordinates":[-1.75,53.8]}},{"properties":{"city":"Leeds","latitude":53.81,"category":"Total","postcode":"LS1","county":"Leeds","manure":63496.96,"country":"United Kingdom","longitude":-1.55,"id":"adn8jqy3la5o"},"type":"Feature","geometry":{"type":"Point","coordinates":[-1.55,53.81]}},{"properties":{"city":"Wakefield","latitude":53.683,"category":"Total","postcode":"WF1","county":"Calderdale, Kirklees and Wakefield","manure":248095.5,"country":"United Kingdom","longitude":-1.499,"id":"adn8jqz7xppu"},"type":"Feature","geometry":{"type":"Point","coordinates":[-1.499,53.683]}},{"properties":{"city":"Derby","latitude":52.9219,"category":"Total","postcode":"DE1","county":"Derby &amp; South and West Derbyshire","manure":1121349.04,"country":"United Kingdom","longitude":-1.4758,"id":"adn8jr0qzwrx"},"type":"Feature","geometry":{"type":"Point","coordinates":[-1.4758,52.9219]}},{"properties":{"city":"Chesterfield","latitude":53.5667,"category":"Total","postcode":"S40","county":"East Derbyshire","manure":153901.34,"country":"United Kingdom","longitude":-1.4167,"id":"adn8jqw8611j"},"type":"Feature","geometry":{"type":"Point","coordinates":[-1.4167,53.5667]}},{"properties":{"city":"Nottingham","latitude":52.97,"category":"Total","postcode":"NG1","county":"Nottingham South Nottinghamshire","manure":112525.61,"country":"United Kingdom","longitude":-1.18,"id":"adn8jr3accmw"},"type":"Feature","geometry":{"type":"Point","coordinates":[-1.18,52.97]}},{"properties":{"city":"Mansfield","latitude":53.1435,"category":"Total","postcode":"NG18","county":"North Nottinghamshire","manure":251012.56,"country":"United Kingdom","longitude":-1.1963,"id":"adn8jqvv39yw"},"type":"Feature","geometry":{"type":"Point","coordinates":[-1.1963,53.1435]}},{"properties":{"city":"Leicester","latitude":52.6342,"category":"Total","postcode":"LE1","county":"Leicester &amp; Leicestershire CC and Rutland","manure":727062.09,"country":"United Kingdom","longitude":-1.1385,"id":"adn8jqs40a7l"},"type":"Feature","geometry":{"type":"Point","coordinates":[-1.1385,52.6342]}},{"properties":{"city":"Northampton","latitude":52.2371,"category":"Total","postcode":"NN1","county":"Northamptonshire","manure":168919.59,"country":"United Kingdom","longitude":-0.8985,"id":"adn8jqqtwac5"},"type":"Feature","geometry":{"type":"Point","coordinates":[-0.8985,52.2371]}},{"properties":{"city":"Lincoln","latitude":53.25,"category":"Total","postcode":"LN2","county":"Lincolnshire","manure":493346.2,"country":"United Kingdom","longitude":-0.55,"id":"adn8jquaziqo"},"type":"Feature","geometry":{"type":"Point","coordinates":[-0.55,53.25]}},{"properties":{"city":"Hereford","latitude":52.05,"category":"Total","postcode":"HR1","county":"Herefordshire","manure":435504.78,"country":"United Kingdom","longitude":-2.7167,"id":"adn8jqx49kog"},"type":"Feature","geometry":{"type":"Point","coordinates":[-2.7167,52.05]}},{"properties":{"city":"Worcester","latitude":52.2,"category":"Total","postcode":"WR1","county":"Worcestershire","manure":308982.02,"country":"United Kingdom","longitude":-2.24,"id":"adn8jqshccs6"},"type":"Feature","geometry":{"type":"Point","coordinates":[-2.24,52.2]}},{"properties":{"city":"Warwick","latitude":52.28,"category":"Total","postcode":"CV34","county":"Warwickshire","manure":293998.0,"country":"United Kingdom","longitude":-1.59,"id":"adn8jqwrshln"},"type":"Feature","geometry":{"type":"Point","coordinates":[-1.59,52.28]}},{"properties":{"city":"Telford","latitude":52.6766,"category":"Total","postcode":"TF3","county":"Telford and Wrekin","manure":114487.24,"country":"United Kingdom","longitude":-2.4469,"id":"adn8jqufhqgf"},"type":"Feature","geometry":{"type":"Point","coordinates":[-2.4469,52.6766]}},{"properties":{"city":"Shrewsbury","latitude":52.7099,"category":"Total","postcode":"SY1","county":"Shropshire CC","manure":1814019.01,"country":"United Kingdom","longitude":-2.7545,"id":"adn8jqxavhuv"},"type":"Feature","geometry":{"type":"Point","coordinates":[-2.7545,52.7099]}},{"properties":{"city":"Stoke-on-trent","latitude":53.0,"category":"Total","postcode":"ST4","county":"Stoke-on-Trent","manure":0.0,"country":"United Kingdom","longitude":-2.1833,"id":"adn8jqw0re8t"},"type":"Feature","geometry":{"type":"Point","coordinates":[-2.1833,53.0]}},{"properties":{"city":"Stafford","latitude":52.8066,"category":"Total","postcode":"ST16","county":"Staffordshire CC","manure":2141459.05,"country":"United Kingdom","longitude":-2.1171,"id":"adn8jqy6xcdc"},"type":"Feature","geometry":{"type":"Point","coordinates":[-2.1171,52.8066]}},{"properties":{"city":"Birmingham","latitude":52.48,"category":"Total","postcode":"B1","county":"Birmingham &amp; Solihull","manure":42623.62,"country":"United Kingdom","longitude":-1.91,"id":"adn8jr05zmv9"},"type":"Feature","geometry":{"type":"Point","coordinates":[-1.91,52.48]}},{"properties":{"city":"Coventry","latitude":52.4081,"category":"Total","postcode":"CV1","county":"Coventry","manure":0.0,"country":"United Kingdom","longitude":-1.5106,"id":"adn8jr21uyzq"},"type":"Feature","geometry":{"type":"Point","coordinates":[-1.5106,52.4081]}},{"properties":{"city":"Walsall","latitude":52.5861,"category":"Total","postcode":"WS1","county":"Dudley and Sandwell &amp; Walsall and Wolverhampton","manure":3914.95,"country":"United Kingdom","longitude":-1.9763,"id":"adn8jqvt1sfz"},"type":"Feature","geometry":{"type":"Point","coordinates":[-1.9763,52.5861]}},{"properties":{"city":"Peterborough","latitude":52.5833,"category":"Total","postcode":"PE1","county":"Peterborough","manure":0.0,"country":"United Kingdom","longitude":-0.25,"id":"adn8jqpm3ugi"},"type":"Feature","geometry":{"type":"Point","coordinates":[-0.25,52.5833]}},{"properties":{"city":"Cambridge","latitude":52.21,"category":"Total","postcode":"CB5","county":"Cambridgeshire CC","manure":78440.69,"country":"United Kingdom","longitude":0.13,"id":"adn8jqt3bb4f"},"type":"Feature","geometry":{"type":"Point","coordinates":[0.13,52.21]}},{"properties":{"city":"Norwich","latitude":52.65,"category":"Total","postcode":"NR2","county":"Norfolk","manure":1326572.7,"country":"United Kingdom","longitude":1.28,"id":"adn8jqsx89uy"},"type":"Feature","geometry":{"type":"Point","coordinates":[1.28,52.65]}},{"properties":{"city":"Ipswich","latitude":52.07,"category":"Total","postcode":"IP1","county":"Suffolk","manure":929049.3,"country":"United Kingdom","longitude":1.14,"id":"adn8jr4k2ah3"},"type":"Feature","geometry":{"type":"Point","coordinates":[1.14,52.07]}},{"properties":{"city":"Luton","latitude":51.8747,"category":"Total","postcode":"LU1","county":"Luton &amp; Bedfordshire CC","manure":81045.48,"country":"United Kingdom","longitude":-0.3683,"id":"adn8jr3ly5ze"},"type":"Feature","geometry":{"type":"Point","coordinates":[-0.3683,51.8747]}},{"properties":{"city":"Hertford","latitude":51.795,"category":"Total","postcode":"SG13","county":"Hertfordshire","manure":60042.93,"country":"United Kingdom","longitude":-0.078,"id":"adn8jr0vwmga"},"type":"Feature","geometry":{"type":"Point","coordinates":[-0.078,51.795]}},{"properties":{"city":"Southend-on-sea","latitude":51.5491,"category":"Total","postcode":"SS1","county":"Southend-on-Sea &amp; Essex CC","manure":179864.39,"country":"United Kingdom","longitude":0.7221,"id":"adn8jr2i8mq1"},"type":"Feature","geometry":{"type":"Point","coordinates":[0.7221,51.5491]}},{"properties":{"city":"Purfleet","latitude":51.475,"category":"Total","postcode":"RM19","county":"Thurrock","manure":0.0,"country":"United Kingdom","longitude":0.24,"id":"adn8jr0dsi8u"},"type":"Feature","geometry":{"type":"Point","coordinates":[0.24,51.475]}},{"properties":{"city":"Fulham","latitude":51.4767,"category":"Total","postcode":"SW6","county":"Inner London (West) &amp; Outer London (West and North West)","manure":11632.0,"country":"United Kingdom","longitude":-0.2138,"id":"adn8jqwli9el"},"type":"Feature","geometry":{"type":"Point","coordinates":[-0.2138,51.4767]}},{"properties":{"city":"Romford","latitude":51.5768,"category":"Total","postcode":"RM1","county":"Inner London (East) &amp; Outer London (East and North East)","manure":568.25,"country":"United Kingdom","longitude":0.1801,"id":"adn8jqwszc29"},"type":"Feature","geometry":{"type":"Point","coordinates":[0.1801,51.5768]}},{"properties":{"city":"Croydon","latitude":51.3727,"category":"Total","postcode":"CR0","county":"Outer London (South)","manure":0.0,"country":"United Kingdom","longitude":-0.1099,"id":"adn8jr108v8s"},"type":"Feature","geometry":{"type":"Point","coordinates":[-0.1099,51.3727]}},{"properties":{"city":"Newbury","latitude":51.4009,"category":"Total","postcode":"RG14","county":"Berkshire","manure":153546.94,"country":"United Kingdom","longitude":-1.3235,"id":"adn8jqtsyybq"},"type":"Feature","geometry":{"type":"Point","coordinates":[-1.3235,51.4009]}},{"properties":{"city":"Milton Keynes","latitude":52.036,"category":"Total","postcode":"MK6","county":"Milton Keynes","manure":14693.29,"country":"United Kingdom","longitude":-0.77,"id":"adn8jr0szhe6"},"type":"Feature","geometry":{"type":"Point","coordinates":[-0.77,52.036]}},{"properties":{"city":"Aylesbury","latitude":51.8333,"category":"Total","postcode":"HP20","county":"Buckinghamshire CC","manure":232653.96,"country":"United Kingdom","longitude":-0.8333,"id":"adn8jqyjr9yy"},"type":"Feature","geometry":{"type":"Point","coordinates":[-0.8333,51.8333]}},{"properties":{"city":"Oxford","latitude":51.7511,"category":"Total","postcode":"OX1","county":"Oxfordshire","manure":386516.21,"country":"United Kingdom","longitude":-1.2558,"id":"adn8jr12egib"},"type":"Feature","geometry":{"type":"Point","coordinates":[-1.2558,51.7511]}},{"properties":{"city":"Brighton","latitude":50.83,"category":"Total","postcode":"BN2","county":"Brighton and Hove &amp; East Sussex CC","manure":209480.97,"country":"United Kingdom","longitude":-0.1556,"id":"adn8jr0c998e"},"type":"Feature","geometry":{"type":"Point","coordinates":[-0.1556,50.83]}},{"properties":{"city":"Woking","latitude":51.3162,"category":"Total","postcode":"GU22","county":"Surrey","manure":167595.37,"country":"United Kingdom","longitude":-0.561,"id":"adn8jr4e6egs"},"type":"Feature","geometry":{"type":"Point","coordinates":[-0.561,51.3162]}},{"properties":{"city":"Worthing","latitude":50.8155,"category":"Total","postcode":"BN11","county":"West Sussex","manure":378279.12,"country":"United Kingdom","longitude":-0.3973,"id":"adn8jr3c81ng"},"type":"Feature","geometry":{"type":"Point","coordinates":[-0.3973,50.8155]}},{"properties":{"city":"Portsmouth","latitude":50.81,"category":"Total","postcode":"PO5","county":"Portsmouth &amp; Southampton &amp; Hampshire CC","manure":539377.38,"country":"United Kingdom","longitude":-1.09,"id":"adn8jqu62tmv"},"type":"Feature","geometry":{"type":"Point","coordinates":[-1.09,50.81]}},{"properties":{"city":"Cowes","latitude":50.7595,"category":"Total","postcode":"PO31","county":"Isle of Wight","manure":86842.37,"country":"United Kingdom","longitude":-1.3002,"id":"adn8jqyngtlf"},"type":"Feature","geometry":{"type":"Point","coordinates":[-1.3002,50.7595]}},{"properties":{"city":"Chatham","latitude":51.361,"category":"Total","postcode":"ME4","county":"Medway","manure":0.0,"country":"United Kingdom","longitude":0.5362,"id":"adn8jqt5318z"},"type":"Feature","geometry":{"type":"Point","coordinates":[0.5362,51.361]}},{"properties":{"city":"Tunbridge Wells","latitude":51.1333,"category":"Total","postcode":"TN1","county":"Kent CC","manure":311904.04,"country":"United Kingdom","longitude":0.2667,"id":"adn8jqwkloic"},"type":"Feature","geometry":{"type":"Point","coordinates":[0.2667,51.1333]}},{"properties":{"city":"Bristol","latitude":51.46,"category":"Total","postcode":"BS1","county":"Bristol &amp; North and North East Somerset, South Gloucestershire","manure":625465.86,"country":"United Kingdom","longitude":-2.6,"id":"adn8jqwcwjww"},"type":"Feature","geometry":{"type":"Point","coordinates":[-2.6,51.46]}},{"properties":{"city":"Gloucester","latitude":51.8569,"category":"Total","postcode":"GL1","county":"Gloucestershire","manure":759726.81,"country":"United Kingdom","longitude":-2.24,"id":"adn8jquii0bh"},"type":"Feature","geometry":{"type":"Point","coordinates":[-2.24,51.8569]}},{"properties":{"city":"Swindon","latitude":51.5642,"category":"Total","postcode":"SN1","county":"Swindon","manure":47726.75,"country":"United Kingdom","longitude":-1.7708,"id":"adn8jqzqj2vw"},"type":"Feature","geometry":{"type":"Point","coordinates":[-1.7708,51.5642]}},{"properties":{"city":"Salisbury","latitude":51.074,"category":"Total","postcode":"SP1","county":"Wiltshire CC","manure":1189399.84,"country":"United Kingdom","longitude":-1.7936,"id":"adn8jr1jg3h7"},"type":"Feature","geometry":{"type":"Point","coordinates":[-1.7936,51.074]}},{"properties":{"city":"Bournemouth","latitude":50.73,"category":"Total","postcode":"BH2","county":"Bournemouth and Poole &amp; Dorset CC","manure":1787442.83,"country":"United Kingdom","longitude":-1.88,"id":"adn8jqr7ehav"},"type":"Feature","geometry":{"type":"Point","coordinates":[-1.88,50.73]}},{"properties":{"city":"Taunton","latitude":51.0167,"category":"Total","postcode":"TA1","county":"Somerset","manure":2565483.92,"country":"United Kingdom","longitude":-3.1,"id":"adn8jqsktq6t"},"type":"Feature","geometry":{"type":"Point","coordinates":[-3.1,51.0167]}},{"properties":{"city":"St austell","latitude":50.338,"category":"Total","postcode":"PL25","county":"Cornwall and Isles of Scilly","manure":2198153.33,"country":"United Kingdom","longitude":-4.795,"id":"adn8jr48j5tr"},"type":"Feature","geometry":{"type":"Point","coordinates":[-4.795,50.338]}},{"properties":{"city":"Okehampton","latitude":50.733,"category":"Total","postcode":"EX20","county":"Plymouth &amp; Torbay &amp; Devon CC","manure":3931356.27,"country":"United Kingdom","longitude":-4.0,"id":"adn8jqtzjn5e"},"type":"Feature","geometry":{"type":"Point","coordinates":[-4.0,50.733]}},{"properties":{"city":null,"latitude":null,"category":null,"postcode":null,"county":"reference High","manure":null,"country":null,"longitude":null,"id":"adn8jr1yo2l5"},"type":"Feature","geometry":null},{"properties":{"city":null,"latitude":null,"category":null,"postcode":null,"county":"reference low","manure":null,"country":null,"longitude":null,"id":"adn8jqw83i4m"},"type":"Feature","geometry":null}],"is_temporal":false,"author":{"url":"","metadata":null,"contact_name":null,"contact_address":null,"source":null,"contact_phone":null},"source":"","pagination":{"sort":null,"start":0,"total":76,"limit":1000000},"state":"complete","tags":"","published":"2014-08-16T19:56:04-04:00","id":345885}