{"type":"FeatureCollection","data_type":"Dataset","url_type":null,"permissions":[{"permissions":{"download":true,"view":true},"group_id":"everyone"}],"classification":null,"title":"HS Grad Rates-Christy","count":91,"stream_id":346869,"contributor":{"url":"http://geocommons.com/users/68688","name":"mallaltl"},"data_attributes":null,"calculation_params":null,"icon_link":null,"link":"http://geocommons.com/overlays/346869.json","extent":[0.0,0.0,0.0,0.0],"geometry_types":[],"unique_name":null,"name":"HS Grad Rates-Christy","feature_count":91,"description":"","next_feature":null,"is_raster":false,"short_classification":"Y","stats":{"percentage":{"max":0.926,"variance":0.00654638764044944,"mean":0.787460674157303,"stdev":0.0809097499714925,"min":0.596,"median":0.8}},"features":[{"properties":{"geo_score":0.0,"year":"12/31/2003","percentage":null,"id":"adojorzowzwh","geo_precision":"unmatched","state":"Alabama"},"type":"Feature","geometry":null},{"properties":{"geo_score":0.0,"year":"12/31/2004","percentage":null,"id":"adojoryaqttf","geo_precision":"unmatched","state":"Alabama"},"type":"Feature","geometry":null},{"properties":{"geo_score":0.0,"year":"12/31/2005","percentage":0.816,"id":"adojortkfkpj","geo_precision":"unmatched","state":"Alabama"},"type":"Feature","geometry":null},{"properties":{"geo_score":0.0,"year":"12/31/2006","percentage":0.831,"id":"adojos07n27k","geo_precision":"unmatched","state":"Alabama"},"type":"Feature","geometry":null},{"properties":{"geo_score":0.0,"year":"12/31/2007","percentage":0.855,"id":"adojorxpl96m","geo_precision":"unmatched","state":"Alabama"},"type":"Feature","geometry":null},{"properties":{"geo_score":0.0,"year":"12/31/2008","percentage":0.867,"id":"adojorrqjf4a","geo_precision":"unmatched","state":"Alabama"},"type":"Feature","geometry":null},{"properties":{"geo_score":0.0,"year":"12/31/2009","percentage":0.88,"id":"adojorwvgi3s","geo_precision":"unmatched","state":"Alabama"},"type":"Feature","geometry":null},{"properties":{"geo_score":0.0,"year":"12/31/2003","percentage":0.612,"id":"adojormmrcb4","geo_precision":"unmatched","state":"Alaska"},"type":"Feature","geometry":null},{"properties":{"geo_score":0.0,"year":"12/31/2004","percentage":0.614,"id":"adojorlfbfdx","geo_precision":"unmatched","state":"Alaska"},"type":"Feature","geometry":null},{"properties":{"geo_score":0.0,"year":"12/31/2005","percentage":0.596,"id":"adojorzmfh7i","geo_precision":"unmatched","state":"Alaska"},"type":"Feature","geometry":null},{"properties":{"geo_score":0.0,"year":"12/31/2006","percentage":0.63,"id":"adojoruhrder","geo_precision":"unmatched","state":"Alaska"},"type":"Feature","geometry":null},{"properties":{"geo_score":0.0,"year":"12/31/2007","percentage":0.62,"id":"adojormvawu2","geo_precision":"unmatched","state":"Alaska"},"type":"Feature","geometry":null},{"properties":{"geo_score":0.0,"year":"12/31/2008","percentage":0.67,"id":"adojorrlycx1","geo_precision":"unmatched","state":"Alaska"},"type":"Feature","geometry":null},{"properties":{"geo_score":0.0,"year":"12/31/2009","percentage":0.68,"id":"adojorwb36gf","geo_precision":"unmatched","state":"Alaska"},"type":"Feature","geometry":null},{"properties":{"geo_score":0.0,"year":"12/31/2003","percentage":0.768,"id":"adojorwhu09i","geo_precision":"unmatched","state":"Arizona"},"type":"Feature","geometry":null},{"properties":{"geo_score":0.0,"year":"12/31/2004","percentage":0.75,"id":"adojorswb0y1","geo_precision":"unmatched","state":"Arizona"},"type":"Feature","geometry":null},{"properties":{"geo_score":0.0,"year":"12/31/2005","percentage":0.7,"id":"adojorokm64h","geo_precision":"unmatched","state":"Arizona"},"type":"Feature","geometry":null},{"properties":{"geo_score":0.0,"year":"12/31/2006","percentage":0.73,"id":"adojos0hylix","geo_precision":"unmatched","state":"Arizona"},"type":"Feature","geometry":null},{"properties":{"geo_score":0.0,"year":"12/31/2007","percentage":0.749,"id":"adojos1l3zio","geo_precision":"unmatched","state":"Arizona"},"type":"Feature","geometry":null},{"properties":{"geo_score":0.0,"year":"12/31/2008","percentage":0.761,"id":"adojoruedbru","geo_precision":"unmatched","state":"Arizona"},"type":"Feature","geometry":null},{"properties":{"geo_score":0.0,"year":"12/31/2009","percentage":0.78,"id":"adojoroc68h1","geo_precision":"unmatched","state":"Arizona"},"type":"Feature","geometry":null},{"properties":{"geo_score":0.0,"year":"12/31/2003","percentage":0.813,"id":"adojoro6gpw9","geo_precision":"unmatched","state":"Arkansas"},"type":"Feature","geometry":null},{"properties":{"geo_score":0.0,"year":"12/31/2004","percentage":0.813,"id":"adojos129qtt","geo_precision":"unmatched","state":"Arkansas"},"type":"Feature","geometry":null},{"properties":{"geo_score":0.0,"year":"12/31/2005","percentage":0.83,"id":"adojort02a59","geo_precision":"unmatched","state":"Arkansas"},"type":"Feature","geometry":null},{"properties":{"geo_score":0.0,"year":"12/31/2006","percentage":0.86,"id":"adojorwr4xhz","geo_precision":"unmatched","state":"Arkansas"},"type":"Feature","geometry":null},{"properties":{"geo_score":0.0,"year":"12/31/2007","percentage":0.834,"id":"adojormtlx4d","geo_precision":"unmatched","state":"Arkansas"},"type":"Feature","geometry":null},{"properties":{"geo_score":0.0,"year":"12/31/2008","percentage":0.831,"id":"adojortds8p2","geo_precision":"unmatched","state":"Arkansas"},"type":"Feature","geometry":null},{"properties":{"geo_score":0.0,"year":"12/31/2009","percentage":0.85,"id":"adojorv11mk3","geo_precision":"unmatched","state":"Arkansas"},"type":"Feature","geometry":null},{"properties":{"geo_score":0.0,"year":"12/31/2003","percentage":0.853,"id":"adojorw1rwvy","geo_precision":"unmatched","state":"California"},"type":"Feature","geometry":null},{"properties":{"geo_score":0.0,"year":"12/31/2004","percentage":0.85,"id":"adojos1ry0jf","geo_precision":"unmatched","state":"California"},"type":"Feature","geometry":null},{"properties":{"geo_score":0.0,"year":"12/31/2005","percentage":0.832,"id":"adojormyu547","geo_precision":"unmatched","state":"California"},"type":"Feature","geometry":null},{"properties":{"geo_score":0.0,"year":"12/31/2006","percentage":0.806,"id":"adojorluobgd","geo_precision":"unmatched","state":"California"},"type":"Feature","geometry":null},{"properties":{"geo_score":0.0,"year":"12/31/2007","percentage":0.796,"id":"adojorveicey","geo_precision":"unmatched","state":"California"},"type":"Feature","geometry":null},{"properties":{"geo_score":0.0,"year":"12/31/2008","percentage":0.786,"id":"adojorlurpcl","geo_precision":"unmatched","state":"California"},"type":"Feature","geometry":null},{"properties":{"geo_score":0.0,"year":"12/31/2009","percentage":0.81,"id":"adojos1iw7td","geo_precision":"unmatched","state":"California"},"type":"Feature","geometry":null},{"properties":{"geo_score":0.0,"year":"12/31/2003","percentage":0.823,"id":"adojos1u8635","geo_precision":"unmatched","state":"Colorado"},"type":"Feature","geometry":null},{"properties":{"geo_score":0.0,"year":"12/31/2004","percentage":0.801,"id":"adojorlnvnmd","geo_precision":"unmatched","state":"Colorado"},"type":"Feature","geometry":null},{"properties":{"geo_score":0.0,"year":"12/31/2005","percentage":0.741,"id":"adojormuqcta","geo_precision":"unmatched","state":"Colorado"},"type":"Feature","geometry":null},{"properties":{"geo_score":0.0,"year":"12/31/2006","percentage":0.75,"id":"adojorncui78","geo_precision":"unmatched","state":"Colorado"},"type":"Feature","geometry":null},{"properties":{"geo_score":0.0,"year":"12/31/2007","percentage":0.719,"id":"adojornjsysi","geo_precision":"unmatched","state":"Colorado"},"type":"Feature","geometry":null},{"properties":{"geo_score":0.0,"year":"12/31/2008","percentage":0.746,"id":"adojorm7ygnl","geo_precision":"unmatched","state":"Colorado"},"type":"Feature","geometry":null},{"properties":{"geo_score":0.0,"year":"12/31/2009","percentage":0.72,"id":"adojorpwplzl","geo_precision":"unmatched","state":"Colorado"},"type":"Feature","geometry":null},{"properties":{"geo_score":0.0,"year":"12/31/2003","percentage":0.898,"id":"adojorq7vizc","geo_precision":"unmatched","state":"Connecticut"},"type":"Feature","geometry":null},{"properties":{"geo_score":0.0,"year":"12/31/2004","percentage":0.912,"id":"adojos098ycp","geo_precision":"unmatched","state":"Connecticut"},"type":"Feature","geometry":null},{"properties":{"geo_score":0.0,"year":"12/31/2005","percentage":0.922,"id":"adojorwo3dbs","geo_precision":"unmatched","state":"Connecticut"},"type":"Feature","geometry":null},{"properties":{"geo_score":0.0,"year":"12/31/2006","percentage":0.924,"id":"adojorsiwup2","geo_precision":"unmatched","state":"Connecticut"},"type":"Feature","geometry":null},{"properties":{"geo_score":0.0,"year":"12/31/2007","percentage":0.926,"id":"adojoro7qiwi","geo_precision":"unmatched","state":"Connecticut"},"type":"Feature","geometry":null},{"properties":{"geo_score":0.0,"year":"12/31/2008","percentage":0.921,"id":"adojorpfo0uy","geo_precision":"unmatched","state":"Connecticut"},"type":"Feature","geometry":null},{"properties":{"geo_score":0.0,"year":"12/31/2009","percentage":0.91,"id":"adojorsxquhy","geo_precision":"unmatched","state":"Connecticut"},"type":"Feature","geometry":null},{"properties":{"geo_score":0.0,"year":"12/31/2003","percentage":0.719,"id":"adojos1cs0ad","geo_precision":"unmatched","state":"Delaware"},"type":"Feature","geometry":null},{"properties":{"geo_score":0.0,"year":"12/31/2004","percentage":0.837,"id":"adojorwr3m7i","geo_precision":"unmatched","state":"Delaware"},"type":"Feature","geometry":null},{"properties":{"geo_score":0.0,"year":"12/31/2005","percentage":0.84,"id":"adojos0ayf20","geo_precision":"unmatched","state":"Delaware"},"type":"Feature","geometry":null},{"properties":{"geo_score":0.0,"year":"12/31/2006","percentage":0.81,"id":"adojorr3yor4","geo_precision":"unmatched","state":"Delaware"},"type":"Feature","geometry":null},{"properties":{"geo_score":0.0,"year":"12/31/2007","percentage":0.819,"id":"adojorqmvs98","geo_precision":"unmatched","state":"Delaware"},"type":"Feature","geometry":null},{"properties":{"geo_score":0.0,"year":"12/31/2008","percentage":0.853,"id":"adojorxtxbpx","geo_precision":"unmatched","state":"Delaware"},"type":"Feature","geometry":null},{"properties":{"geo_score":0.0,"year":"12/31/2009","percentage":0.87,"id":"adojortmp64w","geo_precision":"unmatched","state":"Delaware"},"type":"Feature","geometry":null},{"properties":{"geo_score":0.0,"year":"12/31/2003","percentage":0.816,"id":"adojorwvaa5d","geo_precision":"unmatched","state":"DC"},"type":"Feature","geometry":null},{"properties":{"geo_score":0.0,"year":"12/31/2004","percentage":0.699,"id":"adojoroq2f36","geo_precision":"unmatched","state":"DC"},"type":"Feature","geometry":null},{"properties":{"geo_score":0.0,"year":"12/31/2005","percentage":0.662,"id":"adojornxt61q","geo_precision":"unmatched","state":"DC"},"type":"Feature","geometry":null},{"properties":{"geo_score":0.0,"year":"12/31/2006","percentage":0.755,"id":"adojorp3qla2","geo_precision":"unmatched","state":"DC"},"type":"Feature","geometry":null},{"properties":{"geo_score":0.0,"year":"12/31/2007","percentage":0.755,"id":"adojorwvc7ef","geo_precision":"unmatched","state":"DC"},"type":"Feature","geometry":null},{"properties":{"geo_score":0.0,"year":"12/31/2008","percentage":0.747,"id":"adojorti95bx","geo_precision":"unmatched","state":"DC"},"type":"Feature","geometry":null},{"properties":{"geo_score":0.0,"year":"12/31/2009","percentage":0.76,"id":"adojorxmbzsp","geo_precision":"unmatched","state":"DC"},"type":"Feature","geometry":null},{"properties":{"geo_score":0.0,"year":"12/31/2003","percentage":0.687,"id":"adojorzof3bx","geo_precision":"unmatched","state":"Florida"},"type":"Feature","geometry":null},{"properties":{"geo_score":0.0,"year":"12/31/2004","percentage":0.69,"id":"adojorxhpe87","geo_precision":"unmatched","state":"Florida"},"type":"Feature","geometry":null},{"properties":{"geo_score":0.0,"year":"12/31/2005","percentage":0.683,"id":"adojoryubt1e","geo_precision":"unmatched","state":"Florida"},"type":"Feature","geometry":null},{"properties":{"geo_score":0.0,"year":"12/31/2006","percentage":0.698,"id":"adojorrfsrpg","geo_precision":"unmatched","state":"Florida"},"type":"Feature","geometry":null},{"properties":{"geo_score":0.0,"year":"12/31/2007","percentage":0.728,"id":"adojorozx4dm","geo_precision":"unmatched","state":"Florida"},"type":"Feature","geometry":null},{"properties":{"geo_score":0.0,"year":"12/31/2008","percentage":0.762,"id":"adojorwuoh57","geo_precision":"unmatched","state":"Florida"},"type":"Feature","geometry":null},{"properties":{"geo_score":0.0,"year":"12/31/2009","percentage":0.78,"id":"adojoryh5jml","geo_precision":"unmatched","state":"Florida"},"type":"Feature","geometry":null},{"properties":{"geo_score":0.0,"year":"12/31/2003","percentage":0.654,"id":"adojorokdv0j","geo_precision":"unmatched","state":"Georgia"},"type":"Feature","geometry":null},{"properties":{"geo_score":0.0,"year":"12/31/2004","percentage":0.694,"id":"adojos0yo5tu","geo_precision":"unmatched","state":"Georgia"},"type":"Feature","geometry":null},{"properties":{"geo_score":0.0,"year":"12/31/2005","percentage":0.723,"id":"adojorn2ho4c","geo_precision":"unmatched","state":"Georgia"},"type":"Feature","geometry":null},{"properties":{"geo_score":0.0,"year":"12/31/2006","percentage":0.723,"id":"adojorvis78i","geo_precision":"unmatched","state":"Georgia"},"type":"Feature","geometry":null},{"properties":{"geo_score":0.0,"year":"12/31/2007","percentage":0.754,"id":"adojorwm35zu","geo_precision":"unmatched","state":"Georgia"},"type":"Feature","geometry":null},{"properties":{"geo_score":0.0,"year":"12/31/2008","percentage":0.789,"id":"adojos0ht67x","geo_precision":"unmatched","state":"Georgia"},"type":"Feature","geometry":null},{"properties":{"geo_score":0.0,"year":"12/31/2009","percentage":0.81,"id":"adojos0beq5t","geo_precision":"unmatched","state":"Georgia"},"type":"Feature","geometry":null},{"properties":{"geo_score":0.0,"year":"12/31/2003","percentage":0.8,"id":"adojoryyvh2h","geo_precision":"unmatched","state":"Hawaii"},"type":"Feature","geometry":null},{"properties":{"geo_score":0.0,"year":"12/31/2004","percentage":0.796,"id":"adojormdvi8a","geo_precision":"unmatched","state":"Hawaii"},"type":"Feature","geometry":null},{"properties":{"geo_score":0.0,"year":"12/31/2005","percentage":0.792,"id":"adojorq8s20l","geo_precision":"unmatched","state":"Hawaii"},"type":"Feature","geometry":null},{"properties":{"geo_score":0.0,"year":"12/31/2006","percentage":0.792,"id":"adojoruakaz3","geo_precision":"unmatched","state":"Hawaii"},"type":"Feature","geometry":null},{"properties":{"geo_score":0.0,"year":"12/31/2007","percentage":0.8,"id":"adojos1cedmo","geo_precision":"unmatched","state":"Hawaii"},"type":"Feature","geometry":null},{"properties":{"geo_score":0.0,"year":"12/31/2008","percentage":0.803,"id":"adojorxgnk8x","geo_precision":"unmatched","state":"Hawaii"},"type":"Feature","geometry":null},{"properties":{"geo_score":0.0,"year":"12/31/2009","percentage":0.8,"id":"adojorlgjsxa","geo_precision":"unmatched","state":"Hawaii"},"type":"Feature","geometry":null},{"properties":{"geo_score":0.0,"year":"12/31/2003","percentage":0.839,"id":"adojos15xhvl","geo_precision":"unmatched","state":"Idaho"},"type":"Feature","geometry":null},{"properties":{"geo_score":0.0,"year":"12/31/2004","percentage":0.866,"id":"adojorrmthoq","geo_precision":"unmatched","state":"Idaho"},"type":"Feature","geometry":null},{"properties":{"geo_score":0.0,"year":"12/31/2005","percentage":0.88,"id":"adojorre671k","geo_precision":"unmatched","state":"Idaho"},"type":"Feature","geometry":null},{"properties":{"geo_score":0.0,"year":"12/31/2006","percentage":0.883,"id":"adojoro66v2z","geo_precision":"unmatched","state":"Idaho"},"type":"Feature","geometry":null},{"properties":{"geo_score":0.0,"year":"12/31/2007","percentage":0.897,"id":"adojorr6wi48","geo_precision":"unmatched","state":"Idaho"},"type":"Feature","geometry":null},{"properties":{"geo_score":0.0,"year":"12/31/2008","percentage":0.913,"id":"adojoryvroui","geo_precision":"unmatched","state":"Idaho"},"type":"Feature","geometry":null},{"properties":{"geo_score":0.0,"year":"12/31/2009","percentage":0.92,"id":"adojorwvtz8v","geo_precision":"unmatched","state":"Idaho"},"type":"Feature","geometry":null}],"is_temporal":false,"author":{"url":"","metadata":"","contact_name":"","contact_address":"","source":"","contact_phone":""},"source":"","pagination":{"sort":null,"start":0,"total":91,"limit":1000000},"state":"complete","tags":"","published":"2014-08-16T21:13:15-04:00","id":346869}