{"type":"FeatureCollection","data_type":"Dataset","url_type":null,"permissions":[{"permissions":{"download":true,"view":true},"group_id":"everyone"}],"classification":null,"title":"Advertising Ranks","count":211,"stream_id":34704,"contributor":{"url":"http://geocommons.com/users/695","name":"Bill"},"data_attributes":null,"calculation_params":null,"icon_link":null,"link":"http://geocommons.com/overlays/34704.json","extent":[-157.858,21.3069,-68.0126,64.6441],"geometry_types":["point"],"unique_name":null,"name":"Advertising Ranks","feature_count":211,"description":"","next_feature":null,"is_raster":false,"short_classification":"Y","stats":{"geo_score":{"max":0.857,"mean":0.759563981042654,"variance":0.068019247077409,"stdev":0.260804998183334,"min":0.0,"median":0.857},"projection":{"max":183.2044347,"mean":12.290552644,"variance":430.685062362322,"stdev":20.7529530997958,"min":0.236615706,"median":5.300958249},"change":{"max":429.9793642,"mean":25.4130970703839,"variance":1528.21887857192,"stdev":39.092440171623,"min":-2.772740468,"median":15.34922412},"rank":{"max":210,"mean":105.5,"variance":3692.5,"stdev":60.7659444096774,"min":1,"median":106},"us avg.":{"max":1256.577284,"mean":74.2675652930663,"variance":13051.7498942289,"stdev":114.244255410191,"min":-8.103092794,"median":44.85677214},"forecast":{"max":267.8328376,"mean":16.4961706159052,"variance":1016.88043494159,"stdev":31.8885627606763,"min":0.310452789,"median":6.366049661}},"features":[{"properties":{"city":"Alaska","dma":"Alaska - No DMA","geo_score":0.0,"projection":0.847970175,"change":74.61927947,"rank":null,"us avg.":218.0683525,"id":"a6bylgno2oan","geo_precision":"unmatched","forecast":1.48071941,"state":"AK"},"type":"Feature","geometry":null},{"properties":{"city":"New York","dma":"New York NY","geo_score":0.857,"projection":183.2044347,"change":46.19342492,"rank":1,"us avg.":134.9962656,"id":"a6bylgtgxzhx","geo_precision":"city","forecast":267.8328376,"state":"NY"},"type":"Feature","geometry":{"type":"Point","coordinates":[-74.005973,40.714269]}},{"properties":{"city":"Houston","dma":"Houston TX","geo_score":0.816,"projection":42.18753251,"change":15.34922412,"rank":10,"us avg.":44.85677214,"id":"a6bylgxgdxoi","geo_precision":"city","forecast":48.66299143,"state":"TX"},"type":"Feature","geometry":{"type":"Point","coordinates":[-96.919704,29.845783]}},{"properties":{"city":"Ft. Smith","dma":"Ft. Smith-Fayetteville-Springdale-Rogers AR","geo_score":0.0,"projection":8.105246929,"change":57.50746419,"rank":100,"us avg.":168.060561,"id":"a6bylgsq5rj4","geo_precision":"unmatched","forecast":12.7663689,"state":"AR"},"type":"Feature","geometry":null},{"properties":{"city":"Johnstown-Altoona","dma":"Johnstown-Altoona PA","geo_score":0.795,"projection":5.336478928,"change":30.35575113,"rank":101,"us avg.":88.7120418,"id":"a6bylgxhnir1","geo_precision":"city","forecast":6.956407191,"state":"PA"},"type":"Feature","geometry":{"type":"Point","coordinates":[-78.92197,40.326741]}},{"properties":{"city":"Evansville","dma":"Evansville IN","geo_score":0.857,"projection":6.04482057,"change":5.314121186,"rank":102,"us avg.":15.53005685,"id":"a6bylgrmhcic","geo_precision":"city","forecast":6.366049661,"state":"IN"},"type":"Feature","geometry":{"type":"Point","coordinates":[-87.555848,37.974764]}},{"properties":{"city":"Greenville","dma":"Greenville-New Bern-Washington NC","geo_score":0.831,"projection":4.660995205,"change":10.10894552,"rank":103,"us avg.":29.54251382,"id":"a6bylgnz7m3w","geo_precision":"city","forecast":5.132172671,"state":"NC"},"type":"Feature","geometry":{"type":"Point","coordinates":[-81.703445,36.408734]}},{"properties":{"city":"Myrtle Beach","dma":"Myrtle Beach-Florence SC","geo_score":0.857,"projection":4.647969814,"change":8.446760465,"rank":104,"us avg.":24.68492261,"id":"a6bylgzqphs4","geo_precision":"city","forecast":5.04057269,"state":"SC"},"type":"Feature","geometry":{"type":"Point","coordinates":[-78.852005,33.711741]}},{"properties":{"city":"Tallahassee","dma":"Tallahassee FL-Thomasville GA","geo_score":0.0,"projection":7.18818083,"change":2.594254217,"rank":105,"us avg.":7.581482253,"id":"a6bylgtwmp5b","geo_precision":"unmatched","forecast":7.374660514,"state":"GA"},"type":"Feature","geometry":null},{"properties":{"city":"Lincoln","dma":"Lincoln &amp; Hastings-Kearney NE","geo_score":0.857,"projection":6.032858917,"change":29.05006447,"rank":106,"us avg.":84.89628611,"id":"a6bylgrptq4a","geo_precision":"city","forecast":7.785408322,"state":"NE"},"type":"Feature","geometry":{"type":"Point","coordinates":[-96.66696,40.800001]}},{"properties":{"city":"Ft. Wayne","dma":"Ft. Wayne IN","geo_score":0.755,"projection":6.801101604,"change":17.69793693,"rank":107,"us avg.":51.72068099,"id":"a6bylgo0qved","geo_precision":"city","forecast":8.004756277,"state":"IN"},"type":"Feature","geometry":{"type":"Point","coordinates":[-85.149971,40.553379]}},{"properties":{"city":"Reno","dma":"Reno NV","geo_score":0.857,"projection":4.544,"change":48.10815076,"rank":108,"us avg.":140.5918853,"id":"a6bylgthfmjp","geo_precision":"city","forecast":6.730034371,"state":"NV"},"type":"Feature","geometry":{"type":"Point","coordinates":[-119.813803,39.529633]}},{"properties":{"city":"Youngstown","dma":"Youngstown OH","geo_score":0.857,"projection":4.275712808,"change":9.820248637,"rank":109,"us avg.":28.6988223,"id":"a6bylgo0boie","geo_precision":"city","forecast":4.695598437,"state":"OH"},"type":"Feature","geometry":{"type":"Point","coordinates":[-80.649519,41.09978]}},{"properties":{"city":"Detroit","dma":"Detroit MI","geo_score":0.857,"projection":44.73024053,"change":39.81208109,"rank":11,"us avg.":116.3473434,"id":"a6bylgl1yrnv","geo_precision":"city","forecast":62.53828016,"state":"MI"},"type":"Feature","geometry":{"type":"Point","coordinates":[-83.045754,42.331427]}},{"properties":{"city":"Tyler","dma":"Tyler-Longview (Lufkin &amp; Nacogdoches) TX","geo_score":0.738,"projection":5.096146751,"change":22.79010668,"rank":110,"us avg.":66.60210406,"id":"a6bylgkqp81h","geo_precision":"city","forecast":6.257564032,"state":"TX"},"type":"Feature","geometry":{"type":"Point","coordinates":[-94.459924,32.153495]}},{"properties":{"city":"Springfield","dma":"Springfield-Holyoke MA","geo_score":0.857,"projection":4.353105251,"change":6.753453455,"rank":111,"us avg.":19.73638018,"id":"a6bylgq6lc8k","geo_precision":"city","forecast":4.647090188,"state":"MA"},"type":"Feature","geometry":{"type":"Point","coordinates":[-72.589811,42.101483]}},{"properties":{"city":"Boise","dma":"Boise ID","geo_score":0.857,"projection":5.08471873,"change":6.269260093,"rank":112,"us avg.":18.32136721,"id":"a6bylgmjlnvh","geo_precision":"city","forecast":5.403492973,"state":"ID"},"type":"Feature","geometry":{"type":"Point","coordinates":[-116.203451,43.6135]}},{"properties":{"city":"Sioux Falls","dma":"Sioux Falls (Mitchell) SD","geo_score":0.857,"projection":7.985932641,"change":18.84600174,"rank":113,"us avg.":55.07580052,"id":"a6bylgvyxt7k","geo_precision":"city","forecast":9.490961646,"state":"SD"},"type":"Feature","geometry":{"type":"Point","coordinates":[-96.730328,43.546642]}},{"properties":{"city":"Lansing","dma":"Lansing MI","geo_score":0.857,"projection":5.069907422,"change":-0.248549209,"rank":114,"us avg.":-0.726363439,"id":"a6bylh03ysbo","geo_precision":"city","forecast":5.057306207,"state":"MI"},"type":"Feature","geometry":{"type":"Point","coordinates":[-84.555535,42.732535]}},{"properties":{"city":"Augusta","dma":"Augusta GA","geo_score":0.857,"projection":5.021521183,"change":14.18203252,"rank":115,"us avg.":41.44575622,"id":"a6bylgol142n","geo_precision":"city","forecast":5.73367495,"state":"GA"},"type":"Feature","geometry":{"type":"Point","coordinates":[-81.974838,33.47097]}},{"properties":{"city":"Peoria-Bloomington","dma":"Peoria-Bloomington IL","geo_score":0.0,"projection":5.069464682,"change":44.41217009,"rank":116,"us avg.":129.7907033,"id":"a6bylgxflypk","geo_precision":"unmatched","forecast":7.32092396,"state":"IL"},"type":"Feature","geometry":null},{"properties":{"city":"Traverse City","dma":"Traverse City-Cadillac MI","geo_score":0.821,"projection":3.803123319,"change":7.395794596,"rank":117,"us avg.":21.61356629,"id":"a6bylgqef3aw","geo_precision":"city","forecast":4.084394508,"state":"MI"},"type":"Feature","geometry":{"type":"Point","coordinates":[-88.234001,47.194369]}},{"properties":{"city":"Montgomery","dma":"Montgomery (Selma) AL","geo_score":0.857,"projection":4.551912892,"change":4.861664688,"rank":118,"us avg.":14.20779209,"id":"a6bylgwat40f","geo_precision":"city","forecast":4.773211634,"state":"AL"},"type":"Feature","geometry":{"type":"Point","coordinates":[-86.299969,32.366805]}},{"properties":{"city":"Eugene","dma":"Eugene OR","geo_score":0.857,"projection":4.213269326,"change":10.39100969,"rank":119,"us avg.":30.36682182,"id":"a6bylgp9fejn","geo_precision":"city","forecast":4.65107055,"state":"OR"},"type":"Feature","geometry":{"type":"Point","coordinates":[-123.086754,44.052069]}},{"properties":{"city":"Phoenix","dma":"Phoenix (Prescott) AZ","geo_score":0.857,"projection":32.56319182,"change":32.54051617,"rank":12,"us avg.":95.09682753,"id":"a6bylgl58dq7","geo_precision":"city","forecast":43.15942252,"state":"AZ"},"type":"Feature","geometry":{"type":"Point","coordinates":[-112.074037,33.448377]}},{"properties":{"city":"Fargo","dma":"Fargo-Valley City ND","geo_score":0.857,"projection":6.171590748,"change":20.02550998,"rank":120,"us avg.":58.52281073,"id":"a6bylgu1gokg","geo_precision":"city","forecast":7.407483269,"state":"ND"},"type":"Feature","geometry":{"type":"Point","coordinates":[-96.990615,46.92536]}},{"properties":{"city":"Santa Barbara","dma":"Santa Barbara-Santa Maria-San Luis Obispo CA","geo_score":0.857,"projection":4.438444184,"change":6.230957081,"rank":121,"us avg.":18.20942999,"id":"a6bylgnoe9ay","geo_precision":"city","forecast":4.715001736,"state":"CA"},"type":"Feature","geometry":{"type":"Point","coordinates":[-119.69819,34.420831]}},{"properties":{"city":"Macon","dma":"Macon GA","geo_score":0.857,"projection":3.997098502,"change":12.62082835,"rank":122,"us avg.":36.88327287,"id":"a6bylgw6smrp","geo_precision":"city","forecast":4.501565443,"state":"GA"},"type":"Feature","geometry":{"type":"Point","coordinates":[-83.632402,32.840695]}},{"properties":{"city":"Lafayette","dma":"Lafayette LA","geo_score":0.857,"projection":3.816095758,"change":8.810321311,"rank":123,"us avg.":25.74739755,"id":"a6bylgotowgw","geo_precision":"city","forecast":4.152306055,"state":"LA"},"type":"Feature","geometry":{"type":"Point","coordinates":[-92.066574,30.232955]}},{"properties":{"city":"Monterey","dma":"Monterey-Salinas CA","geo_score":0.857,"projection":4.112284964,"change":15.36424947,"rank":124,"us avg.":44.90068242,"id":"a6bylgrr8nvw","geo_precision":"city","forecast":4.744106685,"state":"CA"},"type":"Feature","geometry":{"type":"Point","coordinates":[-121.688623,36.521811]}},{"properties":{"city":"Bakersfield","dma":"Bakersfield CA","geo_score":0.857,"projection":3.575289871,"change":11.52600641,"rank":125,"us avg.":33.68375099,"id":"a6bylglxmwhe","geo_precision":"city","forecast":3.987378011,"state":"CA"},"type":"Feature","geometry":{"type":"Point","coordinates":[-119.018713,35.373292]}},{"properties":{"city":"Yakima","dma":"Yakima-Pasco-Richland-Kennewick WA","geo_score":0.857,"projection":4.105261937,"change":8.944582909,"rank":126,"us avg.":26.13976539,"id":"a6bylgkrkbig","geo_precision":"city","forecast":4.472460494,"state":"WA"},"type":"Feature","geometry":{"type":"Point","coordinates":[-120.505899,46.602071]}},{"properties":{"city":"La Crosse","dma":"La Crosse-Eau Claire WI","geo_score":0.857,"projection":9.434037512,"change":73.13708113,"rank":127,"us avg.":213.7367568,"id":"a6bylgoigorz","geo_precision":"city","forecast":16.33381718,"state":"WI"},"type":"Feature","geometry":{"type":"Point","coordinates":[-91.132072,43.85456]}},{"properties":{"city":"Columbus","dma":"Columbus GA","geo_score":0.857,"projection":4.174480068,"change":-1.730876984,"rank":128,"us avg.":-5.058337402,"id":"a6bylgq19m2y","geo_precision":"city","forecast":4.102224953,"state":"GA"},"type":"Feature","geometry":{"type":"Point","coordinates":[-84.987709,32.460976]}},{"properties":{"city":"Corpus","dma":"Corpus Christi TX","geo_score":0.0,"projection":3.580181373,"change":7.308900478,"rank":129,"us avg.":21.35962579,"id":"a6bylgtz0dts","geo_precision":"unmatched","forecast":3.841853266,"state":"TX"},"type":"Feature","geometry":null},{"properties":{"city":"Tampa","dma":"Tampa-St.Petersburg (Sarasota) FL","geo_score":0.857,"projection":32.40361134,"change":25.83082988,"rank":13,"us avg.":75.48835309,"id":"a6bylgm248j1","geo_precision":"city","forecast":40.77373306,"state":"FL"},"type":"Feature","geometry":{"type":"Point","coordinates":[-82.458428,27.947522]}},{"properties":{"city":"Chico-Redding","dma":"Chico-Redding CA","geo_score":0.0,"projection":2.498800103,"change":11.42841916,"rank":130,"us avg.":33.39856074,"id":"a6bylgzmk3vf","geo_precision":"unmatched","forecast":2.784373453,"state":"CA"},"type":"Feature","geometry":null},{"properties":{"city":"Amarillo","dma":"Amarillo TX","geo_score":0.857,"projection":3.225955027,"change":31.42219486,"rank":131,"us avg.":91.82863081,"id":"a6bylh0doi9u","geo_precision":"city","forecast":4.239620902,"state":"TX"},"type":"Feature","geometry":{"type":"Point","coordinates":[-101.831297,35.221997]}},{"properties":{"city":"Rockford","dma":"Rockford IL","geo_score":0.857,"projection":3.878255747,"change":20.58231185,"rank":132,"us avg.":60.15001575,"id":"a6bylglv76t3","geo_precision":"city","forecast":4.676490439,"state":"IL"},"type":"Feature","geometry":{"type":"Point","coordinates":[-89.093995,42.271131]}},{"properties":{"city":"Columbus","dma":"Columbus-Tupelo-West Point MS","geo_score":0.771,"projection":3.088634081,"change":0.828698374,"rank":133,"us avg.":2.421798904,"id":"a6bylguqjlvk","geo_precision":"city","forecast":3.114229542,"state":"MS"},"type":"Feature","geometry":{"type":"Point","coordinates":[-88.450638,33.641516]}},{"properties":{"city":"Wilmington","dma":"Wilmington NC","geo_score":0.857,"projection":3.063209702,"change":29.13958732,"rank":134,"us avg.":85.15790884,"id":"a6bylgmp4g6s","geo_precision":"city","forecast":3.955816368,"state":"NC"},"type":"Feature","geometry":{"type":"Point","coordinates":[-77.94471,34.225726]}},{"properties":{"city":"Wausau","dma":"Wausau-Rhinelander WI","geo_score":0.857,"projection":5.337943228,"change":10.11432234,"rank":135,"us avg.":29.5582271,"id":"a6bylgzmgi7r","geo_precision":"city","forecast":5.877840012,"state":"WI"},"type":"Feature","geometry":{"type":"Point","coordinates":[-89.794002,44.961874]}},{"properties":{"city":"Monroe","dma":"Monroe LA-El Dorado AR","geo_score":0.857,"projection":3.401049893,"change":2.97689354,"rank":136,"us avg.":8.699712388,"id":"a6bylgzkas40","geo_precision":"city","forecast":3.502295528,"state":"AR"},"type":"Feature","geometry":{"type":"Point","coordinates":[-91.224126,34.670187]}},{"properties":{"city":"Columbia","dma":"Columbia-Jefferson City MO","geo_score":0.857,"projection":4.5902922,"change":4.631301662,"rank":137,"us avg.":13.53457619,"id":"a6bylgxi9f3h","geo_precision":"city","forecast":4.802882479,"state":"MO"},"type":"Feature","geometry":{"type":"Point","coordinates":[-92.334072,38.951705]}},{"properties":{"city":"Topeka","dma":"Topeka KS","geo_score":0.857,"projection":4.184918859,"change":19.32611693,"rank":138,"us avg.":56.4788954,"id":"a6bylgr481kh","geo_precision":"city","forecast":4.993701171,"state":"KS"},"type":"Feature","geometry":{"type":"Point","coordinates":[-95.678037,39.048334]}},{"properties":{"city":"Duluth","dma":"Duluth MN-Superior WI","geo_score":0.857,"projection":3.709364911,"change":6.948349475,"rank":139,"us avg.":20.30594685,"id":"a6bylgzv5zid","geo_precision":"city","forecast":3.967104549,"state":"MN"},"type":"Feature","geometry":{"type":"Point","coordinates":[-92.106579,46.783273]}},{"properties":{"city":"Seattle","dma":"Seattle-Tacoma WA","geo_score":0.857,"projection":41.87595035,"change":21.58352706,"rank":14,"us avg.":63.07598009,"id":"a6bylgzoi2gr","geo_precision":"city","forecast":50.91425743,"state":"WA"},"type":"Feature","geometry":{"type":"Point","coordinates":[-122.332071,47.60621]}},{"properties":{"city":"Medford","dma":"Medford-Klamath Falls OR","geo_score":0.857,"projection":2.219309035,"change":13.65829958,"rank":140,"us avg.":39.91519228,"id":"a6bylgvy86ay","geo_precision":"city","forecast":2.522428912,"state":"OR"},"type":"Feature","geometry":{"type":"Point","coordinates":[-122.72255,42.482623]}},{"properties":{"city":"Beaumont","dma":"Beaumont-Port Arthur TX","geo_score":0.857,"projection":2.789737641,"change":9.197293282,"rank":141,"us avg.":26.87828947,"id":"a6bylgymeltr","geo_precision":"city","forecast":3.046317994,"state":"TX"},"type":"Feature","geometry":{"type":"Point","coordinates":[-94.101846,30.086046]}},{"properties":{"city":"Palm Springs","dma":"Palm Springs CA","geo_score":0.857,"projection":0.241722221,"change":28.43369864,"rank":142,"us avg.":83.09501058,"id":"a6bylgs6mjoa","geo_precision":"city","forecast":0.310452789,"state":"CA"},"type":"Feature","geometry":{"type":"Point","coordinates":[-116.545292,33.830296]}},{"properties":{"city":"Lubbock","dma":"Lubbock TX","geo_score":0.857,"projection":3.082541115,"change":15.30383619,"rank":143,"us avg.":44.72412985,"id":"a6bylgt0brsv","geo_precision":"city","forecast":3.554288158,"state":"TX"},"type":"Feature","geometry":{"type":"Point","coordinates":[-101.855167,33.577863]}},{"properties":{"city":"Salisbury","dma":"Salisbury MD","geo_score":0.857,"projection":2.454188725,"change":17.80233404,"rank":144,"us avg.":52.02577247,"id":"a6bylgsq6hxo","geo_precision":"city","forecast":2.891091599,"state":"MD"},"type":"Feature","geometry":{"type":"Point","coordinates":[-75.633621,38.382445]}},{"properties":{"city":"Wichita Falls","dma":"Wichita Falls TX &amp; Lawton OK","geo_score":0.857,"projection":4.689337308,"change":29.09003172,"rank":145,"us avg.":85.01308693,"id":"a6bylgncsmin","geo_precision":"city","forecast":6.053467018,"state":"TX"},"type":"Feature","geometry":{"type":"Point","coordinates":[-98.493387,33.913709]}},{"properties":{"city":"Erie","dma":"Erie PA","geo_score":0.857,"projection":2.919476054,"change":14.97853455,"rank":146,"us avg.":43.77346411,"id":"a6bylgn0b9mk","geo_precision":"city","forecast":3.356770783,"state":"PA"},"type":"Feature","geometry":{"type":"Point","coordinates":[-80.085059,42.129224]}},{"properties":{"city":"Albany","dma":"Albany GA","geo_score":0.857,"projection":2.620242279,"change":16.26092816,"rank":147,"us avg.":47.52114788,"id":"a6bylgzggt2d","geo_precision":"city","forecast":3.046317994,"state":"GA"},"type":"Feature","geometry":{"type":"Point","coordinates":[-84.176751,31.560674]}},{"properties":{"city":"Joplin","dma":"Joplin MO-Pittsburg KS","geo_score":0.857,"projection":2.701109102,"change":24.99214045,"rank":148,"us avg.":73.03735619,"id":"a6bylgnwwhzc","geo_precision":"city","forecast":3.376174082,"state":"MO"},"type":"Feature","geometry":{"type":"Point","coordinates":[-94.502663,37.113343]}},{"properties":{"city":"Sioux City","dma":"Sioux City IA","geo_score":0.857,"projection":3.341839297,"change":27.15520331,"rank":149,"us avg.":79.35871922,"id":"a6bylgo9h12h","geo_precision":"city","forecast":4.249322552,"state":"IA"},"type":"Feature","geometry":{"type":"Point","coordinates":[-96.400307,42.499994]}},{"properties":{"city":"Minneapolis","dma":"Minneapolis-St. Paul MN","geo_score":0.857,"projection":52.01090214,"change":62.4029686,"rank":15,"us avg.":182.3672468,"id":"a6bylgxw12ij","geo_precision":"city","forecast":84.46724907,"state":"MN"},"type":"Feature","geometry":{"type":"Point","coordinates":[-93.263836,44.979965]}},{"properties":{"city":"Anchorage","dma":"Anchorage AK","geo_score":0.857,"projection":4.544415576,"change":57.98611848,"rank":150,"us avg.":169.4593866,"id":"a6bylgmuxb4c","geo_precision":"city","forecast":7.179545776,"state":"AK"},"type":"Feature","geometry":{"type":"Point","coordinates":[-149.900278,61.218056]}},{"properties":{"city":"Panama","dma":"Panama City FL","geo_score":0.0,"projection":2.250976573,"change":-1.154181024,"rank":151,"us avg.":-3.372993632,"id":"a6bylgxjj752","geo_precision":"unmatched","forecast":2.224996229,"state":"FL"},"type":"Feature","geometry":null},{"properties":{"city":"Terre Haute","dma":"Terre Haute IN","geo_score":0.857,"projection":3.101642509,"change":6.617399976,"rank":152,"us avg.":19.33877573,"id":"a6bylgne81vg","geo_precision":"city","forecast":3.306890599,"state":"IN"},"type":"Feature","geometry":{"type":"Point","coordinates":[-87.413909,39.466703]}},{"properties":{"city":"Bangor","dma":"Bangor ME","geo_score":0.857,"projection":1.849903864,"change":17.99916829,"rank":153,"us avg.":52.60100344,"id":"a6bylgouqv3y","geo_precision":"city","forecast":2.182871174,"state":"ME"},"type":"Feature","geometry":{"type":"Point","coordinates":[-68.878893,45.061744]}},{"properties":{"city":"Rochester","dma":"Rochester MN-Mason City IA-Austin MN","geo_score":0.857,"projection":3.396705981,"change":14.53940553,"rank":154,"us avg.":42.49014776,"id":"a6bylgtbv45k","geo_precision":"city","forecast":3.890566839,"state":"MN"},"type":"Feature","geometry":{"type":"Point","coordinates":[-92.516916,44.075285]}},{"properties":{"city":"Bluefield","dma":"Bluefield-Beckley-Oak Hill WV","geo_score":0.857,"projection":1.894433459,"change":-0.137865773,"rank":155,"us avg.":-0.402900728,"id":"a6bylgwm3xfn","geo_precision":"city","forecast":1.891821684,"state":"WV"},"type":"Feature","geometry":{"type":"Point","coordinates":[-81.160066,37.332725]}},{"properties":{"city":"Odessa","dma":"Odessa-Midland TX","geo_score":0.857,"projection":2.15409347,"change":11.69474072,"rank":156,"us avg.":34.17686234,"id":"a6bylgsc53nv","geo_precision":"city","forecast":2.406009116,"state":"TX"},"type":"Feature","geometry":{"type":"Point","coordinates":[-102.367643,31.845682]}},{"properties":{"city":"Binghamton","dma":"Binghamton NY","geo_score":0.857,"projection":2.511770617,"change":31.71037643,"rank":157,"us avg.":92.67081638,"id":"a6bylgl3h7dk","geo_precision":"city","forecast":3.308262535,"state":"NY"},"type":"Feature","geometry":{"type":"Point","coordinates":[-75.917974,42.098687]}},{"properties":{"city":"Bismarck","dma":"Minot-Bismarck-Dickinson ND","geo_score":0.857,"projection":3.181159092,"change":8.107290226,"rank":158,"us avg.":23.69285037,"id":"a6bylgz2ud2k","geo_precision":"city","forecast":3.439064892,"state":"ND"},"type":"Feature","geometry":{"type":"Point","coordinates":[-100.769066,46.810594]}},{"properties":{"city":"Wheeling","dma":"Wheeling WV-Steubenville OH","geo_score":0.857,"projection":2.812399709,"change":5.212752548,"rank":159,"us avg.":15.23381582,"id":"a6bylgsnzzb6","geo_precision":"city","forecast":2.959003147,"state":"WV"},"type":"Feature","geometry":{"type":"Point","coordinates":[-80.647599,40.102703]}},{"properties":{"city":"Miami","dma":"Miami-Ft. Lauderdale FL","geo_score":0.857,"projection":28.43148729,"change":12.49051162,"rank":16,"us avg.":36.50243357,"id":"a6bylgxacie7","geo_precision":"city","forecast":31.98272551,"state":"FL"},"type":"Feature","geometry":{"type":"Point","coordinates":[-80.193659,25.774266]}},{"properties":{"city":"Gainesville","dma":"Gainesville FL","geo_score":0.818,"projection":2.646790449,"change":87.58832665,"rank":160,"us avg.":255.9692646,"id":"a6bylh0ail43","geo_precision":"city","forecast":4.965069914,"state":"FL"},"type":"Feature","geometry":{"type":"Point","coordinates":[-85.354651,30.731305]}},{"properties":{"city":"Sherman","dma":"Sherman TX-Ada OK","geo_score":0.857,"projection":1.657342125,"change":24.68465909,"rank":161,"us avg.":72.13876866,"id":"a6bylgnwe6jp","geo_precision":"city","forecast":2.066451378,"state":"TX"},"type":"Feature","geometry":{"type":"Point","coordinates":[-96.659726,33.647425]}},{"properties":{"city":"Idaho","dma":"Idaho Falls-Pocatello ID","geo_score":0.0,"projection":2.363119045,"change":0.583344391,"rank":162,"us avg.":1.704773234,"id":"a6bylgkvdnmx","geo_precision":"unmatched","forecast":2.376904167,"state":"ID"},"type":"Feature","geometry":null},{"properties":{"city":"Biloxi-Gulfport","dma":"Biloxi-Gulfport MS","geo_score":0.0,"projection":2.564784467,"change":11.58780345,"rank":163,"us avg.":33.86434747,"id":"a6bylh0dla92","geo_precision":"unmatched","forecast":2.86198665,"state":"MS"},"type":"Feature","geometry":null},{"properties":{"city":"Yuma","dma":"Yuma AZ-El Centro CA","geo_score":0.857,"projection":1.986375594,"change":21.61399753,"rank":164,"us avg.":63.16502739,"id":"a6bylgmkeyxk","geo_precision":"city","forecast":2.415710766,"state":"AZ"},"type":"Feature","geometry":{"type":"Point","coordinates":[-114.624397,32.725325]}},{"properties":{"city":"Abilene-Sweetwater","dma":"Abilene-Sweetwater TX","geo_score":0.0,"projection":2.567634649,"change":113.2336029,"rank":165,"us avg.":330.9153533,"id":"a6bylgwwdlq1","geo_precision":"unmatched","forecast":5.475059872,"state":"TX"},"type":"Feature","geometry":null},{"properties":{"city":"Missoula","dma":"Missoula MT","geo_score":0.857,"projection":1.776399649,"change":1.582255896,"rank":166,"us avg.":4.624005202,"id":"a6bylgtntspq","geo_precision":"city","forecast":1.804506837,"state":"MT"},"type":"Feature","geometry":{"type":"Point","coordinates":[-113.993998,46.872146]}},{"properties":{"city":"Hattiesburg-Laurel","dma":"Hattiesburg-Laurel MS","geo_score":0.807,"projection":1.785084244,"change":9.367002959,"rank":167,"us avg.":27.37425124,"id":"a6bylgre5oo2","geo_precision":"city","forecast":1.952293138,"state":"MS"},"type":"Feature","geometry":{"type":"Point","coordinates":[-89.28071,31.245138]}},{"properties":{"city":"Clarksburg-Weston","dma":"Clarksburg-Weston WV","geo_score":0.804,"projection":1.914635115,"change":29.71778766,"rank":168,"us avg.":86.84764906,"id":"a6bylgk0isoj","geo_precision":"city","forecast":2.483622314,"state":"WV"},"type":"Feature","geometry":{"type":"Point","coordinates":[-80.341883,39.287434]}},{"properties":{"city":"Utica","dma":"Utica NY","geo_score":0.857,"projection":2.313398669,"change":157.6115231,"rank":169,"us avg.":460.6059645,"id":"a6bylgxo3qx9","geo_precision":"city","forecast":5.959581546,"state":"NY"},"type":"Feature","geometry":{"type":"Point","coordinates":[-75.233208,43.077369]}},{"properties":{"city":"Cleveland","dma":"Cleveland-Akron (Canton) OH","geo_score":0.857,"projection":33.99056764,"change":21.83846198,"rank":17,"us avg.":63.82100522,"id":"a6bylgmw8tnk","geo_precision":"city","forecast":41.41358483,"state":"OH"},"type":"Feature","geometry":{"type":"Point","coordinates":[-81.695409,41.499495]}},{"properties":{"city":"Billings","dma":"Billings MT","geo_score":0.857,"projection":2.392725192,"change":26.13151162,"rank":170,"us avg.":76.3670693,"id":"a6bylgrkp0dq","geo_precision":"city","forecast":3.017980454,"state":"MT"},"type":"Feature","geometry":{"type":"Point","coordinates":[-108.50069,45.783286]}},{"properties":{"city":"Quincy","dma":"Quincy IL-Hannibal MO-Keokuk IA","geo_score":0.857,"projection":1.933826569,"change":23.41364293,"rank":171,"us avg.":68.42433452,"id":"a6bylgo0uwso","geo_precision":"city","forecast":2.386605817,"state":"IL"},"type":"Feature","geometry":{"type":"Point","coordinates":[-91.200676,39.952413]}},{"properties":{"city":"Dothan","dma":"Dothan AL","geo_score":0.857,"projection":1.833750591,"change":10.04457967,"rank":172,"us avg.":29.35441022,"id":"a6bylgv1dc3h","geo_precision":"city","forecast":2.01794313,"state":"AL"},"type":"Feature","geometry":{"type":"Point","coordinates":[-85.371845,31.148124]}},{"properties":{"city":"Jackson","dma":"Jackson TN","geo_score":0.857,"projection":2.043288026,"change":1.917010939,"rank":173,"us avg.":5.602297693,"id":"a6bylgxz27ig","geo_precision":"city","forecast":2.082458081,"state":"TN"},"type":"Feature","geometry":{"type":"Point","coordinates":[-88.813947,35.614517]}},{"properties":{"city":"Rapid","dma":"Rapid City SD","geo_score":0.0,"projection":1.543533945,"change":15.65042308,"rank":174,"us avg.":45.7369999,"id":"a6bylgkhby52","geo_precision":"unmatched","forecast":1.785103538,"state":"SD"},"type":"Feature","geometry":null},{"properties":{"city":"Elmira","dma":"Elmira (Corning) NY","geo_score":0.857,"projection":1.559353578,"change":16.9657839,"rank":175,"us avg.":49.58102745,"id":"a6bylgykjccu","geo_precision":"city","forecast":1.823910136,"state":"NY"},"type":"Feature","geometry":{"type":"Point","coordinates":[-76.807734,42.089797]}},{"properties":{"city":"Lake Charles","dma":"Lake Charles LA","geo_score":0.857,"projection":1.977762755,"change":11.30258698,"rank":176,"us avg.":33.03082713,"id":"a6bylgv1qpto","geo_precision":"city","forecast":2.20130111,"state":"LA"},"type":"Feature","geometry":{"type":"Point","coordinates":[-93.217376,30.226595]}},{"properties":{"city":"Watertown","dma":"Watertown NY","geo_score":0.857,"projection":1.453776758,"change":41.47631107,"rank":177,"us avg.":121.2109108,"id":"a6bylgs7ckjz","geo_precision":"city","forecast":2.056749728,"state":"NY"},"type":"Feature","geometry":{"type":"Point","coordinates":[-76.016589,44.072542]}},{"properties":{"city":"Harrisonburg","dma":"Harrisonburg VA","geo_score":0.857,"projection":1.965848793,"change":3.064359238,"rank":178,"us avg.":8.955323279,"id":"a6bylguqu4jj","geo_precision":"city","forecast":2.026089462,"state":"VA"},"type":"Feature","geometry":{"type":"Point","coordinates":[-78.877137,38.422777]}},{"properties":{"city":"Alexandria","dma":"Alexandria LA","geo_score":0.857,"projection":2.857092342,"change":0.85043132,"rank":179,"us avg.":2.485311546,"id":"a6bylgxqiemn","geo_precision":"city","forecast":2.88138995,"state":"LA"},"type":"Feature","geometry":{"type":"Point","coordinates":[-92.445137,31.311294]}},{"properties":{"city":"Denver","dma":"Denver CO","geo_score":0.857,"projection":42.38469562,"change":42.89212648,"rank":18,"us avg.":125.3485081,"id":"a6bylgu6i2wm","geo_precision":"city","forecast":60.56439287,"state":"CO"},"type":"Feature","geometry":{"type":"Point","coordinates":[-104.984703,39.739154]}},{"properties":{"city":"Marquette","dma":"Marquette MI","geo_score":0.857,"projection":1.475222689,"change":26.26681715,"rank":180,"us avg.":76.76248796,"id":"a6bylglrno1a","geo_precision":"city","forecast":1.862716735,"state":"MI"},"type":"Feature","geometry":{"type":"Point","coordinates":[-87.615282,46.593435]}},{"properties":{"city":"Jonesboro","dma":"Jonesboro AR","geo_score":0.857,"projection":1.195113884,"change":56.67280001,"rank":181,"us avg.":165.6213276,"id":"a6bylgrd0p1m","geo_precision":"city","forecast":1.872418385,"state":"AR"},"type":"Feature","geometry":{"type":"Point","coordinates":[-90.623071,35.835847]}},{"properties":{"city":"Bowling Green","dma":"Bowling Green KY","geo_score":0.738,"projection":1.399066648,"change":-1.607643434,"rank":182,"us avg.":-4.698198074,"id":"a6bylgwljrfg","geo_precision":"city","forecast":1.376574645,"state":"KY"},"type":"Feature","geometry":{"type":"Point","coordinates":[-83.355181,38.067306]}},{"properties":{"city":"Charlottesville","dma":"Charlottesville VA","geo_score":0.857,"projection":1.632078087,"change":0.561495342,"rank":183,"us avg.":1.640921287,"id":"a6bylgme6adf","geo_precision":"city","forecast":1.641242129,"state":"VA"},"type":"Feature","geometry":{"type":"Point","coordinates":[-78.476678,38.029306]}},{"properties":{"city":"Grand Junction","dma":"Grand Junction-Montrose CO","geo_score":0.857,"projection":1.313885001,"change":5.590359914,"rank":184,"us avg.":16.3373405,"id":"a6bylgzzcc22","geo_precision":"city","forecast":1.387335902,"state":"CO"},"type":"Feature","geometry":{"type":"Point","coordinates":[-108.550649,39.063871]}},{"properties":{"city":"Meridian","dma":"Meridian MS","geo_score":0.857,"projection":1.186745035,"change":3.005095537,"rank":185,"us avg.":8.782130269,"id":"a6bylgl97lx5","geo_precision":"city","forecast":1.222407857,"state":"MS"},"type":"Feature","geometry":{"type":"Point","coordinates":[-88.703656,32.36431]}},{"properties":{"city":"Lima","dma":"Lima OH","geo_score":0.857,"projection":1.146449607,"change":2.116346713,"rank":186,"us avg.":6.184839151,"id":"a6bylgre3pnm","geo_precision":"city","forecast":1.170712456,"state":"OH"},"type":"Feature","geometry":{"type":"Point","coordinates":[-84.105226,40.742551]}},{"properties":{"city":"Greenwood-Greenville","dma":"Greenwood-Greenville MS","geo_score":0.782,"projection":1.143350659,"change":42.55269203,"rank":187,"us avg.":124.3565405,"id":"a6bylgyuyyvi","geo_precision":"city","forecast":1.629877143,"state":"MS"},"type":"Feature","geometry":{"type":"Point","coordinates":[-88.510048,34.217885]}},{"properties":{"city":"Laredo","dma":"Laredo TX","geo_score":0.786,"projection":1.271577958,"change":7.57756489,"rank":188,"us avg.":22.14477416,"id":"a6bylgo2w5c8","geo_precision":"city","forecast":1.367932602,"state":"TX"},"type":"Feature","geometry":{"type":"Point","coordinates":[-102.907999,34.330354]}},{"properties":{"city":"Lafayette","dma":"Lafayette IN","geo_score":0.857,"projection":2.602279568,"change":211.4419853,"rank":189,"us avg.":617.920807,"id":"a6bylgt8po0t","geo_precision":"city","forecast":8.10459115,"state":"IN"},"type":"Feature","geometry":{"type":"Point","coordinates":[-86.830286,40.39905]}},{"properties":{"city":"Orlando","dma":"Orlando-Daytona Beach-Melbourne FL","geo_score":0.857,"projection":25.0720983,"change":16.91123568,"rank":19,"us avg.":49.42161502,"id":"a6bylgyz6u7l","geo_precision":"city","forecast":29.31209993,"state":"FL"},"type":"Feature","geometry":{"type":"Point","coordinates":[-81.379237,28.538336]}},{"properties":{"city":"Butte-Bozeman","dma":"Butte-Bozeman MT","geo_score":0.0,"projection":1.035887503,"change":75.13566688,"rank":190,"us avg.":219.5774498,"id":"a6bylgoqz5s5","geo_precision":"unmatched","forecast":1.814208487,"state":"MT"},"type":"Feature","geometry":null},{"properties":{"city":"Great Falls","dma":"Great Falls MT","geo_score":0.857,"projection":1.069883275,"change":7.001827826,"rank":191,"us avg.":20.46223267,"id":"a6bylgo8l1jo","geo_precision":"city","forecast":1.14479466,"state":"MT"},"type":"Feature","geometry":{"type":"Point","coordinates":[-111.300808,47.500235]}},{"properties":{"city":"Bend","dma":"Bend OR","geo_score":0.857,"projection":1.001025512,"change":0.912850699,"rank":192,"us avg.":2.667726752,"id":"a6bylgqig5xb","geo_precision":"city","forecast":1.010163381,"state":"OR"},"type":"Feature","geometry":{"type":"Point","coordinates":[-121.31531,44.058173]}},{"properties":{"city":"Parkersburg","dma":"Parkersburg WV","geo_score":0.857,"projection":1.101058943,"change":18.39783157,"rank":193,"us avg.":53.76606218,"id":"a6bylgrd4kzi","geo_precision":"city","forecast":1.303629913,"state":"WV"},"type":"Feature","geometry":{"type":"Point","coordinates":[-81.55477,39.286315]}},{"properties":{"city":"Twin Falls","dma":"Twin Falls ID","geo_score":0.857,"projection":1.005077744,"change":77.60850322,"rank":194,"us avg.":226.8040989,"id":"a6bylgwuns75","geo_precision":"city","forecast":1.785103538,"state":"ID"},"type":"Feature","geometry":{"type":"Point","coordinates":[-114.629497,42.443224]}},{"properties":{"city":"Eureka","dma":"Eureka CA","geo_score":0.857,"projection":0.656659639,"change":21.14879993,"rank":195,"us avg.":61.8055279,"id":"a6bylgzdlw1e","geo_precision":"city","forecast":0.795535272,"state":"CA"},"type":"Feature","geometry":{"type":"Point","coordinates":[-124.025773,40.646324]}},{"properties":{"city":"San Angelo","dma":"San Angelo TX","geo_score":0.857,"projection":0.906171319,"change":41.32181505,"rank":196,"us avg.":120.7594096,"id":"a6bylgpeip6n","geo_precision":"city","forecast":1.280617755,"state":"TX"},"type":"Feature","geometry":{"type":"Point","coordinates":[-100.437038,31.463772]}},{"properties":{"city":"Casper-Riverton","dma":"Casper-Riverton WY","geo_score":0.0,"projection":0.977657246,"change":1.218322593,"rank":197,"us avg.":3.560441787,"id":"a6bylgpmkm7l","geo_precision":"unmatched","forecast":0.989568266,"state":"WY"},"type":"Feature","geometry":null},{"properties":{"city":"Cheyenne","dma":"Cheyenne WY-Scottsbluff NE","geo_score":0.857,"projection":1.292231678,"change":1.032912593,"rank":198,"us avg.":3.018597193,"id":"a6bylgzx2ci3","geo_precision":"city","forecast":1.305579302,"state":"WY"},"type":"Feature","geometry":{"type":"Point","coordinates":[-104.820246,41.139981]}},{"properties":{"city":"Mankato","dma":"Mankato MN","geo_score":0.857,"projection":1.751195185,"change":2.464749008,"rank":199,"us avg.":7.203014547,"id":"a6bylgst4zy8","geo_precision":"city","forecast":1.794357751,"state":"MN"},"type":"Feature","geometry":{"type":"Point","coordinates":[-94.003112,44.061451]}},{"properties":{"city":"Los Angeles","dma":"Los Angeles CA","geo_score":0.857,"projection":122.640806,"change":18.03118911,"rank":2,"us avg.":52.6945815,"id":"a6bylgk1rkv3","geo_precision":"city","forecast":144.7544017,"state":"CA"},"type":"Feature","geometry":{"type":"Point","coordinates":[-118.243685,34.052234]}},{"properties":{"city":"Sacramento","dma":"Sacramento-Stockton-Modesto CA","geo_score":0.857,"projection":25.33970884,"change":-0.380714412,"rank":20,"us avg.":-1.112604748,"id":"a6bylgnqyoq2","geo_precision":"city","forecast":25.24323692,"state":"CA"},"type":"Feature","geometry":{"type":"Point","coordinates":[-121.4944,38.581572]}},{"properties":{"city":"Kirksville","dma":"OttumwaIa-Kirksville MO","geo_score":0.857,"projection":1.018665361,"change":60.00123362,"rank":200,"us avg.":175.3483853,"id":"a6bylgrspscz","geo_precision":"city","forecast":1.629877143,"state":"MO"},"type":"Feature","geometry":{"type":"Point","coordinates":[-92.609514,40.165717]}},{"properties":{"city":"St. Joseph","dma":"St. Joseph MO","geo_score":0.0,"projection":1.305622777,"change":33.68363957,"rank":201,"us avg.":98.43750623,"id":"a6bylgor795s","geo_precision":"unmatched","forecast":1.745404047,"state":"MO"},"type":"Feature","geometry":null},{"properties":{"city":"Fairbanks","dma":"Fairbanks AK","geo_score":0.857,"projection":1.044861239,"change":34.94917721,"rank":202,"us avg.":102.1359299,"id":"a6bylgo5619u","geo_precision":"city","forecast":1.410031645,"state":"AK"},"type":"Feature","geometry":{"type":"Point","coordinates":[-147.522052,64.644047]}},{"properties":{"city":"Zanesville","dma":"Zanesville OH","geo_score":0.814,"projection":0.607801415,"change":39.82601705,"rank":203,"us avg.":116.38807,"id":"a6bylgqbqjdo","geo_precision":"city","forecast":0.84986451,"state":"OH"},"type":"Feature","geometry":{"type":"Point","coordinates":[-83.640462,40.321114]}},{"properties":{"city":"Presque Isle","dma":"Presque Isle ME","geo_score":0.857,"projection":0.377876731,"change":30.93797331,"rank":204,"us avg.":90.41353546,"id":"a6bylgw3ld3s","geo_precision":"city","forecast":0.494784133,"state":"ME"},"type":"Feature","geometry":{"type":"Point","coordinates":[-68.012557,46.715072]}},{"properties":{"city":"Victoria","dma":"Victoria TX","geo_score":0.857,"projection":0.614068123,"change":31.13152942,"rank":205,"us avg.":90.97918634,"id":"a6bylgwxki3e","geo_precision":"city","forecast":0.805236922,"state":"TX"},"type":"Feature","geometry":{"type":"Point","coordinates":[-96.776656,31.597946]}},{"properties":{"city":"Helena","dma":"Helena MT","geo_score":0.857,"projection":0.920691706,"change":10.55938679,"rank":206,"us avg.":30.85888926,"id":"a6bylgpapkd9","geo_precision":"city","forecast":1.017911105,"state":"MT"},"type":"Feature","geometry":{"type":"Point","coordinates":[-112.197616,46.70934]}},{"properties":{"city":"Juneau","dma":"Juneau AK","geo_score":0.857,"projection":0.844236587,"change":41.64057243,"rank":207,"us avg.":121.6909503,"id":"a6bylgmw0b81","geo_precision":"city","forecast":1.195781534,"state":"AK"},"type":"Feature","geometry":{"type":"Point","coordinates":[-134.523946,58.373561]}},{"properties":{"city":"Alpena","dma":"Alpena MI","geo_score":0.81,"projection":0.374566499,"change":6.194130251,"rank":208,"us avg.":18.10180678,"id":"a6bylguuwi12","geo_precision":"city","forecast":0.397767636,"state":"MI"},"type":"Feature","geometry":{"type":"Point","coordinates":[-85.685035,43.072803]}},{"properties":{"city":"North","dma":"North Platte NE","geo_score":0.0,"projection":0.249169004,"change":75.21209597,"rank":209,"us avg.":219.8008072,"id":"a6bylgu11rex","geo_precision":"unmatched","forecast":0.436574235,"state":"NE"},"type":"Feature","geometry":null},{"properties":{"city":"St. Louis","dma":"St. Louis MO","geo_score":0.0,"projection":34.17163344,"change":27.18740632,"rank":21,"us avg.":79.4528297,"id":"a6bylgmn51ff","geo_precision":"unmatched","forecast":43.46201427,"state":"MO"},"type":"Feature","geometry":null},{"properties":{"city":"Glendive","dma":"Glendive MT","geo_score":0.857,"projection":0.236615706,"change":429.9793642,"rank":210,"us avg.":1256.577284,"id":"a6bylgswk0y0","geo_precision":"city","forecast":1.254014414,"state":"MT"},"type":"Feature","geometry":{"type":"Point","coordinates":[-104.774873,47.180623]}},{"properties":{"city":"Portland","dma":"Portland OR","geo_score":0.857,"projection":22.49903101,"change":3.325531303,"rank":22,"us avg.":9.718575918,"id":"a6bylgk9pj0y","geo_precision":"city","forecast":23.24724333,"state":"OR"},"type":"Feature","geometry":{"type":"Point","coordinates":[-122.676207,45.523452]}},{"properties":{"city":"Pittsburgh","dma":"Pittsburgh PA","geo_score":0.857,"projection":22.30052252,"change":29.27250649,"rank":23,"us avg.":85.54635357,"id":"a6bylgwhx7wt","geo_precision":"city","forecast":28.82844442,"state":"PA"},"type":"Feature","geometry":{"type":"Point","coordinates":[-79.995886,40.440625]}},{"properties":{"city":"Charlotte","dma":"Charlotte NC","geo_score":0.857,"projection":24.25189441,"change":29.83725902,"rank":24,"us avg.":87.19679371,"id":"a6bylgp7kd1p","geo_precision":"city","forecast":31.48799497,"state":"NC"},"type":"Feature","geometry":{"type":"Point","coordinates":[-80.843127,35.227087]}},{"properties":{"city":"Indianapolis","dma":"Indianapolis IN","geo_score":0.857,"projection":26.4433163,"change":26.60195275,"rank":25,"us avg.":77.7418926,"id":"a6bylgllmgna","geo_precision":"city","forecast":33.47775481,"state":"IN"},"type":"Feature","geometry":{"type":"Point","coordinates":[-86.158042,39.768377]}},{"properties":{"city":"Baltimore","dma":"Baltimore MD","geo_score":0.857,"projection":27.70639437,"change":60.51014888,"rank":26,"us avg.":176.8356458,"id":"a6bylgswbfpa","geo_precision":"city","forecast":44.47157485,"state":"MD"},"type":"Feature","geometry":{"type":"Point","coordinates":[-76.612189,39.290385]}},{"properties":{"city":"Raleigh","dma":"Raleigh-Durham (Fayetteville) NC","geo_score":0.857,"projection":22.7916009,"change":0.920831323,"rank":27,"us avg.":2.691049431,"id":"a6bylgs46bk0","geo_precision":"city","forecast":23.0014731,"state":"NC"},"type":"Feature","geometry":{"type":"Point","coordinates":[-78.638615,35.772096]}},{"properties":{"city":"San Diego","dma":"San Diego CA","geo_score":0.857,"projection":22.34196518,"change":11.19985075,"rank":28,"us avg.":32.73058944,"id":"a6bylgnslcsd","geo_precision":"city","forecast":24.84423193,"state":"CA"},"type":"Feature","geometry":{"type":"Point","coordinates":[-117.157255,32.715329]}},{"properties":{"city":"Nashville","dma":"Nashville TN","geo_score":0.857,"projection":18.81848484,"change":5.93066674,"rank":29,"us avg.":17.33185759,"id":"a6bylgsjhrex","geo_precision":"city","forecast":19.93454646,"state":"TN"},"type":"Feature","geometry":{"type":"Point","coordinates":[-86.784443,36.16589]}},{"properties":{"city":"Chicago","dma":"Chicago IL","geo_score":0.857,"projection":93.48035993,"change":70.23643765,"rank":3,"us avg.":205.2598786,"id":"a6bylgy9ohsl","geo_precision":"city","forecast":159.1376346,"state":"IL"},"type":"Feature","geometry":{"type":"Point","coordinates":[-87.650052,41.850033]}},{"properties":{"city":"Hartford","dma":"Hartford &amp; New Haven CT","geo_score":0.857,"projection":23.12924154,"change":26.20509223,"rank":30,"us avg.":76.58210225,"id":"a6bylgrv1qah","geo_precision":"city","forecast":29.19028061,"state":"CT"},"type":"Feature","geometry":{"type":"Point","coordinates":[-72.685093,41.763711]}},{"properties":{"city":"Kansas City","dma":"Kansas City MO","geo_score":0.857,"projection":22.26866992,"change":20.80727124,"rank":31,"us avg.":60.80744001,"id":"a6bylgtwgn50","geo_precision":"city","forecast":26.90217247,"state":"MO"},"type":"Feature","geometry":{"type":"Point","coordinates":[-94.598583,39.102404]}},{"properties":{"city":"Columbus","dma":"Columbus OH","geo_score":0.776,"projection":25.27524732,"change":35.94446586,"rank":32,"us avg.":105.0445744,"id":"a6bylgq1kr8t","geo_precision":"city","forecast":34.36029996,"state":"OH"},"type":"Feature","geometry":{"type":"Point","coordinates":[-82.695724,39.998397]}},{"properties":{"city":"Salt","dma":"Salt Lake City UT","geo_score":0.0,"projection":23.22625028,"change":37.08627809,"rank":33,"us avg.":108.3814213,"id":"a6bylgvt0oo8","geo_precision":"unmatched","forecast":31.84000204,"state":"UT"},"type":"Feature","geometry":null},{"properties":{"city":"Cincinnati","dma":"Cincinnati OH","geo_score":0.857,"projection":23.26181961,"change":45.74399802,"rank":34,"us avg.":133.6828546,"id":"a6bylgv4p2gs","geo_precision":"city","forecast":33.90270591,"state":"OH"},"type":"Feature","geometry":{"type":"Point","coordinates":[-84.456886,39.162004]}},{"properties":{"city":"Milwaukee","dma":"Milwaukee WI","geo_score":0.857,"projection":23.15945879,"change":38.63419283,"rank":35,"us avg.":112.9050674,"id":"a6bylgr7m02x","geo_precision":"city","forecast":32.10692875,"state":"WI"},"type":"Feature","geometry":{"type":"Point","coordinates":[-87.906474,43.038903]}},{"properties":{"city":"Greenville","dma":"Greenville-Spartanburg SC-Asheville NC-Anderson SC","geo_score":0.857,"projection":14.35354343,"change":-0.450716406,"rank":36,"us avg.":-1.317179484,"id":"a6bylgtm3lbx","geo_precision":"city","forecast":14.28884966,"state":"SC"},"type":"Feature","geometry":{"type":"Point","coordinates":[-82.402871,34.848567]}},{"properties":{"city":"San Antonio","dma":"San Antonio TX","geo_score":0.857,"projection":17.87702464,"change":16.61822995,"rank":37,"us avg.":48.56533126,"id":"a6bylgyiitof","geo_precision":"city","forecast":20.8478697,"state":"TX"},"type":"Feature","geometry":{"type":"Point","coordinates":[-98.493628,29.424122]}},{"properties":{"city":"West Palm","dma":"West Palm Beach-Fort Pierce FL","geo_score":0.802,"projection":13.38470362,"change":17.90231261,"rank":38,"us avg.":52.31795113,"id":"a6bylgxdpipj","geo_precision":"city","forecast":15.78087511,"state":"FL"},"type":"Feature","geometry":{"type":"Point","coordinates":[-80.070613,26.672643]}},{"properties":{"city":"Grand Rapids","dma":"Grand Rapids-Kalamazoo-Battle Creek MI","geo_score":0.857,"projection":17.08458299,"change":63.63564685,"rank":39,"us avg.":185.9696417,"id":"a6bylgjz8ml1","geo_precision":"city","forecast":27.95646789,"state":"MI"},"type":"Feature","geometry":{"type":"Point","coordinates":[-85.668086,42.96336]}},{"properties":{"city":"Philadelphia","dma":"Philadelphia PA","geo_score":0.857,"projection":80.49997342,"change":61.82603595,"rank":4,"us avg.":180.6812113,"id":"a6bylgp6mgej","geo_precision":"city","forecast":130.2699159,"state":"PA"},"type":"Feature","geometry":{"type":"Point","coordinates":[-75.163789,39.952335]}},{"properties":{"city":"Birmingham","dma":"Birmingham (Anniston &amp; Tuscaloosa) AL","geo_score":0.857,"projection":11.93373707,"change":2.514243057,"rank":40,"us avg.":7.3476566,"id":"a6bylgkl73zk","geo_precision":"city","forecast":12.23378022,"state":"AL"},"type":"Feature","geometry":{"type":"Point","coordinates":[-86.80249,33.520661]}},{"properties":{"city":"Harrisburg-Lancaster-Lebanon-York","dma":"Harrisburg-Lancaster-Lebanon-York PA","geo_score":0.762,"projection":18.5828753,"change":62.35393315,"rank":41,"us avg.":182.2239449,"id":"a6bylgoanwup","geo_precision":"city","forecast":30.17002893,"state":"PA"},"type":"Feature","geometry":{"type":"Point","coordinates":[-76.884418,40.2737]}},{"properties":{"city":"Las Vega","dma":"Las Vegas NV","geo_score":0.0,"projection":13.5946159,"change":-1.974098531,"rank":42,"us avg.":-5.769131215,"id":"a6bylgtk2w3u","geo_precision":"unmatched","forecast":13.32624478,"state":"NV"},"type":"Feature","geometry":null},{"properties":{"city":"Norfolk","dma":"Norfolk-Portsmouth-Newport News VA","geo_score":0.857,"projection":21.08834052,"change":38.78894436,"rank":43,"us avg.":113.3573153,"id":"a6bylgoo8tbm","geo_precision":"city","forecast":29.26828519,"state":"VA"},"type":"Feature","geometry":{"type":"Point","coordinates":[-76.285218,36.846815]}},{"properties":{"city":"Albuquerque","dma":"Albuquerque-Santa Fe NM","geo_score":0.857,"projection":13.75489184,"change":6.154632685,"rank":44,"us avg.":17.98637858,"id":"a6bylgxnfxu4","geo_precision":"city","forecast":14.60145491,"state":"NM"},"type":"Feature","geometry":{"type":"Point","coordinates":[-106.651137,35.084491]}},{"properties":{"city":"Oklahoma City","dma":"Oklahoma City OK","geo_score":0.857,"projection":15.3065044,"change":-1.50577946,"rank":45,"us avg.":-4.400509473,"id":"a6bylgwqr732","geo_precision":"city","forecast":15.0760222,"state":"OK"},"type":"Feature","geometry":{"type":"Point","coordinates":[-97.516428,35.46756]}},{"properties":{"city":"Greensboro","dma":"Greensboro-High Point-Winston Salem NC","geo_score":0.857,"projection":16.57932359,"change":27.60200029,"rank":46,"us avg.":80.66444452,"id":"a6bylgwcr6uj","geo_precision":"city","forecast":21.15554853,"state":"NC"},"type":"Feature","geometry":{"type":"Point","coordinates":[-79.791975,36.072636]}},{"properties":{"city":"Jacksonville","dma":"Jacksonville FL","geo_score":0.857,"projection":12.82959023,"change":10.38840842,"rank":47,"us avg.":30.35921983,"id":"a6bylgpvhd6e","geo_precision":"city","forecast":14.16238046,"state":"FL"},"type":"Feature","geometry":{"type":"Point","coordinates":[-81.655651,30.332184]}},{"properties":{"city":"Memphis","dma":"Memphis TN","geo_score":0.857,"projection":18.98306708,"change":12.68570153,"rank":48,"us avg.":37.07285908,"id":"a6bylgu881g5","geo_precision":"city","forecast":21.39120231,"state":"TN"},"type":"Feature","geometry":{"type":"Point","coordinates":[-90.04898,35.149534]}},{"properties":{"city":"Austin","dma":"Austin TX","geo_score":0.857,"projection":13.07095712,"change":0.038743318,"rank":49,"us avg.":0.113223977,"id":"a6bylgm18yrk","geo_precision":"city","forecast":13.07602124,"state":"TX"},"type":"Feature","geometry":{"type":"Point","coordinates":[-97.743061,30.267153]}},{"properties":{"city":"Dallas-Ft.Worth","dma":"Dallas-Ft.Worth TX","geo_score":0.0,"projection":64.17666402,"change":55.63456217,"rank":5,"us avg.":162.5871678,"id":"a6bylgtcgl0v","geo_precision":"unmatched","forecast":99.88107007,"state":"TX"},"type":"Feature","geometry":null},{"properties":{"city":"Louisville","dma":"Louisville KY","geo_score":0.857,"projection":14.49456572,"change":31.36774963,"rank":50,"us avg.":91.66951935,"id":"a6bylgrmmomu","geo_precision":"city","forecast":19.04118481,"state":"KY"},"type":"Feature","geometry":{"type":"Point","coordinates":[-85.759407,38.254238]}},{"properties":{"city":"Buffalo","dma":"Buffalo NY","geo_score":0.857,"projection":12.49134514,"change":28.5731779,"rank":51,"us avg.":83.5026266,"id":"a6bylgt8xu60","geo_precision":"city","forecast":16.06051941,"state":"NY"},"type":"Feature","geometry":{"type":"Point","coordinates":[-78.878369,42.886447]}},{"properties":{"city":"Providence","dma":"Providence RI-New Bedford MA","geo_score":0.857,"projection":13.21740734,"change":15.32623327,"rank":52,"us avg.":44.78958338,"id":"a6bylgsyo75p","geo_precision":"city","forecast":15.24313802,"state":"RI"},"type":"Feature","geometry":{"type":"Point","coordinates":[-71.412834,41.823989]}},{"properties":{"city":"New Orleans","dma":"New Orleans LA","geo_score":0.857,"projection":13.3880619,"change":46.78480491,"rank":53,"us avg.":136.7245221,"id":"a6bylgsho94s","geo_precision":"city","forecast":19.65164055,"state":"LA"},"type":"Feature","geometry":{"type":"Point","coordinates":[-89.930956,30.068812]}},{"properties":{"city":"Wilkes","dma":"Wilkes Barre-Scranton PA","geo_score":0.81,"projection":11.53229965,"change":3.463995521,"rank":54,"us avg.":10.12322555,"id":"a6bylgmx6gf1","geo_precision":"city","forecast":11.931778,"state":"PA"},"type":"Feature","geometry":{"type":"Point","coordinates":[-78.885587,40.783953]}},{"properties":{"city":"Fresno","dma":"Fresno-Visalia CA","geo_score":0.857,"projection":9.3800585,"change":-2.772740468,"rank":55,"us avg.":-8.103092794,"id":"a6bylgoqdgfr","geo_precision":"city","forecast":9.119973822,"state":"CA"},"type":"Feature","geometry":{"type":"Point","coordinates":[-119.772366,36.747727]}},{"properties":{"city":"Little Rock","dma":"Little Rock-Pine Bluff AR","geo_score":0.857,"projection":10.98885096,"change":1.100740258,"rank":56,"us avg.":3.21681764,"id":"a6bylgkz1kik","geo_precision":"city","forecast":11.10980966,"state":"AR"},"type":"Feature","geometry":{"type":"Point","coordinates":[-92.289595,34.746481]}},{"properties":{"city":"Albany-Schenectady-Troy","dma":"Albany-Schenectady-Troy NY","geo_score":0.0,"projection":19.59252284,"change":23.39599083,"rank":57,"us avg.":68.3727478,"id":"a6bylgvu8b6r","geo_precision":"unmatched","forecast":24.17638768,"state":"NY"},"type":"Feature","geometry":null},{"properties":{"city":"Richmond","dma":"Richmond-Petersburg VA","geo_score":0.857,"projection":17.14338528,"change":9.900135462,"rank":58,"us avg.":28.93228459,"id":"a6bylgkauxtn","geo_precision":"city","forecast":18.84060364,"state":"VA"},"type":"Feature","geometry":{"type":"Point","coordinates":[-77.460262,37.553758]}},{"properties":{"city":"Knoxville","dma":"Knoxville TN","geo_score":0.794,"projection":10.55739588,"change":5.806158219,"rank":59,"us avg.":16.96799227,"id":"a6bylgulbsp2","geo_precision":"city","forecast":11.17037499,"state":"TN"},"type":"Feature","geometry":{"type":"Point","coordinates":[-86.784443,36.16589]}},{"properties":{"city":"San Francsico","dma":"San Francisco-Oakland-San Jose CA","geo_score":0.833,"projection":63.99606104,"change":50.6979055,"rank":6,"us avg.":148.1602182,"id":"a6bylgr90dna","geo_precision":"city","forecast":96.44072359,"state":"CA"},"type":"Feature","geometry":{"type":"Point","coordinates":[-122.419416,37.77493]}},{"properties":{"city":"Mobile","dma":"Mobile AL-Pensacola (Ft. Walton Beach) FL","geo_score":0.786,"projection":10.75842258,"change":21.16459673,"rank":60,"us avg.":61.85169266,"id":"a6bylgv4fz26","geo_precision":"city","forecast":13.03539934,"state":"FL"},"type":"Feature","geometry":{"type":"Point","coordinates":[-81.977025,28.579441]}},{"properties":{"city":"Tulsa","dma":"Tulsa OK","geo_score":0.857,"projection":10.57825345,"change":7.115150618,"rank":61,"us avg.":20.79340868,"id":"a6bylgu8fcin","geo_precision":"city","forecast":11.33091211,"state":"OK"},"type":"Feature","geometry":{"type":"Point","coordinates":[-95.992775,36.153982]}},{"properties":{"city":"Ft. Myers","dma":"Ft. Myers-Naples FL","geo_score":0.0,"projection":7.47938136,"change":3.970130531,"rank":62,"us avg.":11.60236108,"id":"a6bylgliog2d","geo_precision":"unmatched","forecast":7.776322563,"state":"FL"},"type":"Feature","geometry":null},{"properties":{"city":"Lexington","dma":"Lexington KY","geo_score":0.857,"projection":9.167759007,"change":0.859712946,"rank":63,"us avg.":2.512436291,"id":"a6bylgnf99ch","geo_precision":"city","forecast":9.246575418,"state":"KY"},"type":"Feature","geometry":{"type":"Point","coordinates":[-84.477715,37.988689]}},{"properties":{"city":"Dayton","dma":"Dayton OH","geo_score":0.857,"projection":11.98569841,"change":6.581419652,"rank":64,"us avg.":19.23362636,"id":"a6bylguj20ug","geo_precision":"city","forecast":12.77452753,"state":"OH"},"type":"Feature","geometry":{"type":"Point","coordinates":[-84.191607,39.758948]}},{"properties":{"city":"Charleston-Huntington","dma":"Charleston-Huntington WV","geo_score":0.786,"projection":8.037555939,"change":12.01329055,"rank":65,"us avg.":35.10779649,"id":"a6bylgrgi8yx","geo_precision":"city","forecast":9.003130887,"state":"WV"},"type":"Feature","geometry":{"type":"Point","coordinates":[-81.632624,38.34982]}},{"properties":{"city":"Flint","dma":"Flint-Saginaw-Bay City MI","geo_score":0.857,"projection":8.844258153,"change":6.9915495,"rank":66,"us avg.":20.43219516,"id":"a6bylgzpp35g","geo_precision":"city","forecast":9.46260884,"state":"MI"},"type":"Feature","geometry":{"type":"Point","coordinates":[-83.687456,43.012527]}},{"properties":{"city":"Roanoke","dma":"Roanoke-Lynchburg VA","geo_score":0.857,"projection":9.815545809,"change":4.868852857,"rank":67,"us avg.":14.22879889,"id":"a6bylgzk6gpg","geo_precision":"city","forecast":10.29345029,"state":"VA"},"type":"Feature","geometry":{"type":"Point","coordinates":[-79.941427,37.27097]}},{"properties":{"city":"Tucson","dma":"Tucson (Sierra Vista) AZ","geo_score":0.857,"projection":7.707865094,"change":7.05132593,"rank":68,"us avg.":20.60688658,"id":"a6bylgy6l97r","geo_precision":"city","forecast":8.251371784,"state":"AZ"},"type":"Feature","geometry":{"type":"Point","coordinates":[-110.926479,32.221743]}},{"properties":{"city":"Wichita","dma":"Wichita-Hutchinson KS","geo_score":0.857,"projection":8.943942621,"change":6.637012226,"rank":69,"us avg.":19.39609082,"id":"a6bylgvhj6e5","geo_precision":"city","forecast":9.537553186,"state":"KS"},"type":"Feature","geometry":{"type":"Point","coordinates":[-97.337545,37.692236]}},{"properties":{"city":"Boston","dma":"Boston MA (Manchester NH)","geo_score":0.857,"projection":58.16305287,"change":53.89365457,"rank":7,"us avg.":157.4995168,"id":"a6bylgyh2e9y","geo_precision":"city","forecast":89.50924767,"state":"MA"},"type":"Feature","geometry":{"type":"Point","coordinates":[-71.059773,42.358431]}},{"properties":{"city":"Green Bay","dma":"Green Bay-Appleton WI","geo_score":0.857,"projection":11.18446527,"change":35.09605467,"rank":70,"us avg.":102.5651665,"id":"a6bylgx3yxno","geo_precision":"city","forecast":15.10977132,"state":"WI"},"type":"Feature","geometry":{"type":"Point","coordinates":[-88.019826,44.519159]}},{"properties":{"city":"Des Moines","dma":"Des Moines-Ames IA","geo_score":0.857,"projection":15.5279488,"change":95.82870487,"rank":71,"us avg.":280.0510531,"id":"a6bylgl2nyeo","geo_precision":"city","forecast":30.40818102,"state":"IA"},"type":"Feature","geometry":{"type":"Point","coordinates":[-93.609106,41.600545]}},{"properties":{"city":"Honolulu","dma":"Honolulu HI","geo_score":0.857,"projection":9.585434652,"change":27.38069707,"rank":72,"us avg.":80.01770513,"id":"a6bylgtymy8l","geo_precision":"city","forecast":12.20999348,"state":"HI"},"type":"Feature","geometry":{"type":"Point","coordinates":[-157.858333,21.306944]}},{"properties":{"city":"Toledo","dma":"Toledo OH","geo_score":0.857,"projection":10.34067123,"change":23.72637308,"rank":73,"us avg.":69.33826118,"id":"a6bylgos5cw6","geo_precision":"city","forecast":12.79413747,"state":"OH"},"type":"Feature","geometry":{"type":"Point","coordinates":[-83.555212,41.663938]}},{"properties":{"city":"Springfield","dma":"Springfield MO","geo_score":0.792,"projection":8.240333635,"change":8.409184378,"rank":74,"us avg.":24.57510976,"id":"a6bylgrlu4wl","geo_precision":"city","forecast":8.933278484,"state":"MO"},"type":"Feature","geometry":{"type":"Point","coordinates":[-91.237925,38.295605]}},{"properties":{"city":"Spokane","dma":"Spokane WA","geo_score":0.857,"projection":6.410082262,"change":2.463846067,"rank":75,"us avg.":7.200375782,"id":"a6bylgqvr9oq","geo_precision":"city","forecast":6.568016821,"state":"WA"},"type":"Feature","geometry":{"type":"Point","coordinates":[-117.426047,47.65878]}},{"properties":{"city":"Omaha","dma":"Omaha NE","geo_score":0.857,"projection":14.61423481,"change":87.02591381,"rank":76,"us avg.":254.325662,"id":"a6bylgweqh9h","geo_precision":"city","forecast":27.33240621,"state":"NE"},"type":"Feature","geometry":{"type":"Point","coordinates":[-95.937792,41.25861]}},{"properties":{"city":"Portland","dma":"Portland-Auburn ME","geo_score":0.857,"projection":9.089207753,"change":5.690616562,"rank":77,"us avg.":16.63033183,"id":"a6bylgs0uthy","geo_precision":"city","forecast":9.606439715,"state":"ME"},"type":"Feature","geometry":{"type":"Point","coordinates":[-70.255326,43.661471]}},{"properties":{"city":"Paducah","dma":"Paducah KY-Cape Girardeau MO-Harrisburg IL","geo_score":0.857,"projection":5.847488337,"change":10.99472543,"rank":78,"us avg.":32.13112856,"id":"a6bylguk8xdp","geo_precision":"city","forecast":6.490403624,"state":"KY"},"type":"Feature","geometry":{"type":"Point","coordinates":[-88.713292,37.031586]}},{"properties":{"city":"Columbia","dma":"Columbia SC","geo_score":0.857,"projection":8.528774867,"change":1.808015607,"rank":79,"us avg.":5.283768318,"id":"a6bylgq2s8qu","geo_precision":"city","forecast":8.682976448,"state":"SC"},"type":"Feature","geometry":{"type":"Point","coordinates":[-81.024864,33.987454]}},{"properties":{"city":"Atlanta","dma":"Atlanta GA","geo_score":0.857,"projection":60.27766397,"change":39.22274827,"rank":8,"us avg.":114.6250695,"id":"a6bylgx08eqw","geo_precision":"city","forecast":83.92022037,"state":"GA"},"type":"Feature","geometry":{"type":"Point","coordinates":[-84.387982,33.748995]}},{"properties":{"city":"Rochester","dma":"Rochester NY","geo_score":0.857,"projection":8.180523548,"change":8.581814507,"rank":80,"us avg.":25.07960629,"id":"a6bylgqzbf6m","geo_precision":"city","forecast":8.882560904,"state":"NY"},"type":"Feature","geometry":{"type":"Point","coordinates":[-77.615557,43.154785]}},{"properties":{"city":"Syracuse","dma":"Syracuse NY","geo_score":0.857,"projection":7.730972569,"change":1.390287173,"rank":81,"us avg.":4.062993309,"id":"a6bylgv3437p","geo_precision":"city","forecast":7.838455289,"state":"NY"},"type":"Feature","geometry":{"type":"Point","coordinates":[-76.147424,43.048122]}},{"properties":{"city":"Huntsville","dma":"Huntsville-Decatur (Florence) AL","geo_score":0.857,"projection":9.296146852,"change":21.59776558,"rank":82,"us avg.":63.11759094,"id":"a6bylgyke1m8","geo_precision":"city","forecast":11.30390686,"state":"AL"},"type":"Feature","geometry":{"type":"Point","coordinates":[-86.556439,34.718428]}},{"properties":{"city":"Champaign","dma":"Champaign &amp; Springfield-Decatur IL","geo_score":0.857,"projection":7.963866017,"change":18.69519675,"rank":83,"us avg.":54.63508606,"id":"a6bylgymk5oj","geo_precision":"city","forecast":9.452726438,"state":"IL"},"type":"Feature","geometry":{"type":"Point","coordinates":[-88.243383,40.116421]}},{"properties":{"city":"Shreveport","dma":"Shreveport LA","geo_score":0.857,"projection":6.314789527,"change":4.470968392,"rank":84,"us avg.":13.06601616,"id":"a6bylgnf0vgy","geo_precision":"city","forecast":6.59712177,"state":"LA"},"type":"Feature","geometry":{"type":"Point","coordinates":[-93.750179,32.525152]}},{"properties":{"city":"Madison","dma":"Madison WI","geo_score":0.857,"projection":10.05029497,"change":30.4732018,"rank":85,"us avg.":89.05528113,"id":"a6bylgvz0sea","geo_precision":"city","forecast":13.11294164,"state":"WI"},"type":"Feature","geometry":{"type":"Point","coordinates":[-89.40123,43.073052]}},{"properties":{"city":"Chattanooga","dma":"Chattanooga TN","geo_score":0.857,"projection":6.834219303,"change":5.757931926,"rank":86,"us avg.":16.82705512,"id":"a6bylgvjtl4k","geo_precision":"city","forecast":7.227728998,"state":"TN"},"type":"Feature","geometry":{"type":"Point","coordinates":[-85.30968,35.04563]}},{"properties":{"city":"Harlingen-Weslaco-Brownsville-Mcallen","dma":"Harlingen-Weslaco-Brownsville-Mcallen TX","geo_score":0.752,"projection":3.703765561,"change":4.252186117,"rank":87,"us avg.":12.42664399,"id":"a6bylgonzybm","geo_precision":"city","forecast":3.861256566,"state":"TX"},"type":"Feature","geometry":{"type":"Point","coordinates":[-97.536807,26.185202]}},{"properties":{"city":"Cedar Rapids","dma":"Cedar Rapids-Waterloo-Iowa City &amp; Dubuque IA","geo_score":0.857,"projection":9.507281483,"change":36.00148253,"rank":88,"us avg.":105.2112006,"id":"a6bylguo77m3","geo_precision":"city","forecast":12.93004377,"state":"IA"},"type":"Feature","geometry":{"type":"Point","coordinates":[-91.644068,42.008333]}},{"properties":{"city":"South Bend","dma":"South Bend-Elkhart IN","geo_score":0.857,"projection":8.99442242,"change":28.54299887,"rank":89,"us avg.":83.41443102,"id":"a6bylgzsnyv5","geo_precision":"city","forecast":11.56170031,"state":"IN"},"type":"Feature","geometry":{"type":"Point","coordinates":[-86.250007,41.683381]}},{"properties":{"city":"Washington","dma":"Washington DC (Hagerstown MD)","geo_score":0.857,"projection":96.44621123,"change":117.6343092,"rank":9,"us avg.":343.7760346,"id":"a6bylgr41wqg","geo_precision":"city","forecast":209.9000455,"state":"DC"},"type":"Feature","geometry":{"type":"Point","coordinates":[-77.036366,38.895112]}},{"properties":{"city":"Jackson","dma":"Jackson MS","geo_score":0.857,"projection":7.144873213,"change":10.66458759,"rank":90,"us avg.":31.16632943,"id":"a6bylgqphdb6","geo_precision":"city","forecast":7.906844475,"state":"MS"},"type":"Feature","geometry":{"type":"Point","coordinates":[-90.18481,32.298757]}},{"properties":{"city":"Colorado Springs","dma":"Colorado Springs-Pueblo CO","geo_score":0.857,"projection":6.116377067,"change":2.11412947,"rank":91,"us avg.":6.178359451,"id":"a6bylgs8hz8p","geo_precision":"city","forecast":6.245685197,"state":"CO"},"type":"Feature","geometry":{"type":"Point","coordinates":[-104.821363,38.833882]}},{"properties":{"city":"Tri-Cities","dma":"Tri-Cities TN-VA","geo_score":0.0,"projection":4.88082085,"change":0.975597741,"rank":92,"us avg.":2.851099524,"id":"a6bylgyaa9vz","geo_precision":"unmatched","forecast":4.928438028,"state":"TN-VA"},"type":"Feature","geometry":null},{"properties":{"city":"Burlington","dma":"Burlington VT-Plattsburgh NY","geo_score":0.857,"projection":7.6970091,"change":6.074955323,"rank":93,"us avg.":17.75352842,"id":"a6bylgnm3et2","geo_precision":"city","forecast":8.164598964,"state":"NY"},"type":"Feature","geometry":{"type":"Point","coordinates":[-75.125439,42.722851]}},{"properties":{"city":"Waco","dma":"Waco-Temple-Bryan TX","geo_score":0.857,"projection":5.300958249,"change":8.124047517,"rank":94,"us avg.":23.74182209,"id":"a6bylgltt65i","geo_precision":"city","forecast":5.731610616,"state":"TX"},"type":"Feature","geometry":{"type":"Point","coordinates":[-97.14667,31.549333]}},{"properties":{"city":"Baton Rouge","dma":"Baton Rouge LA","geo_score":0.857,"projection":7.654308818,"change":25.6317736,"rank":95,"us avg.":74.90662843,"id":"a6bylgksv6z3","geo_precision":"city","forecast":9.616243924,"state":"LA"},"type":"Feature","geometry":{"type":"Point","coordinates":[-91.154551,30.450746]}},{"properties":{"city":"Savannah","dma":"Savannah GA","geo_score":0.857,"projection":5.514068717,"change":12.00805222,"rank":96,"us avg.":35.09248793,"id":"a6bylgwoje48","geo_precision":"city","forecast":6.176200969,"state":"GA"},"type":"Feature","geometry":{"type":"Point","coordinates":[-81.099834,32.083541]}},{"properties":{"city":"Davenport","dma":"Davenport IA-Rock Island-Moline IL","geo_score":0.857,"projection":7.288643874,"change":6.540798178,"rank":97,"us avg.":19.11491364,"id":"a6bylgl09kb5","geo_precision":"city","forecast":7.76537936,"state":"IA"},"type":"Feature","geometry":{"type":"Point","coordinates":[-90.577637,41.523644]}},{"properties":{"city":"El Paso","dma":"El Paso TX (Las Cruces NM)","geo_score":0.857,"projection":6.826710339,"change":39.20576964,"rank":98,"us avg.":114.5754509,"id":"a6bylgtoq14t","geo_precision":"city","forecast":9.503174669,"state":"TX"},"type":"Feature","geometry":{"type":"Point","coordinates":[-106.486931,31.75872]}},{"properties":{"city":"Charleston","dma":"Charleston SC","geo_score":0.798,"projection":5.120891283,"change":12.55378973,"rank":99,"us avg.":36.68735832,"id":"a6bylgqk1nvc","geo_precision":"city","forecast":5.763757207,"state":"SC"},"type":"Feature","geometry":{"type":"Point","coordinates":[-79.970643,32.85712]}}],"is_temporal":false,"author":{"url":"","metadata":"","contact_name":"","contact_address":"","source":"","contact_phone":""},"source":"","pagination":{"sort":null,"start":0,"total":211,"limit":1000000},"state":"complete","tags":"","published":"2014-08-10T15:08:46-04:00","id":34704}