{"type":"FeatureCollection","data_type":"Dataset","url_type":null,"permissions":[{"permissions":{"download":true,"view":true},"group_id":"everyone"}],"classification":null,"title":"Community Canine Area Locations, Arlington County, VA, 2010","count":8,"stream_id":34795,"contributor":{"url":"http://geocommons.com/users/139","name":"Burkey"},"data_attributes":null,"calculation_params":null,"icon_link":null,"link":"http://geocommons.com/overlays/34795.json","extent":[-77.1591,38.8375,-77.0774,38.9228],"geometry_types":["point"],"unique_name":null,"name":"Community Canine Area Locations, Arlington County, VA, 2010","feature_count":8,"description":"This dataset displays the locations of community canine areas that are within Arlington County. \n\nThere are Community Canine Areas (CCAs) situated in the following locations and are open from sunrise until one half hour after sunset. The two CCAs noted with an asterisk (*) are only partially fenced in - all other CCAs are fully fenced in. We look forward to your visit and ask that you adhere to all rules and regulations.  Please note that pets are not allowed on designated athletic fields at any time.","next_feature":null,"is_raster":false,"short_classification":"Y","stats":{"geo_score":{"max":1.0,"mean":0.923125,"variance":0.00982183928571428,"stdev":0.0991051930310127,"min":0.798,"median":1.0}},"features":[{"properties":{"city":"Arlington","name":"Benjamin Banneker Park","zip":"22205","geo_score":0.807,"type":"Community Canine Area","street address":"1701 North Van Buren Street","id":"a66sqq7mobzm","geo_precision":"street","state":"VA"},"type":"Feature","geometry":{"type":"Point","coordinates":[-77.159101,38.883311]}},{"properties":{"city":"Arlington","name":"Fort Barnard","zip":"22204","geo_score":1.0,"type":"Community Canine Area","street address":"2101 South Pollard Street","id":"a66sqq4svtdy","geo_precision":"range","state":"VA"},"type":"Feature","geometry":{"type":"Point","coordinates":[-77.093064,38.849692]}},{"properties":{"city":"Arlington","name":"Fort Ethan Allen Park","zip":"22207","geo_score":1.0,"type":"Community Canine Area","street address":"3829 North Stafford Street","id":"a66sqq253x99","geo_precision":"range","state":"VA"},"type":"Feature","geometry":{"type":"Point","coordinates":[-77.123643,38.92279]}},{"properties":{"city":"Arlington","name":"Glencarlyn Park","zip":"22204","geo_score":1.0,"type":"Community Canine Area","street address":"301 South Harrison Street","id":"a66sqq7s23ig","geo_precision":"range","state":"VA"},"type":"Feature","geometry":{"type":"Point","coordinates":[-77.120616,38.863929]}},{"properties":{"city":"Arlington","name":"Herndon &amp; 13th Street Park","zip":"22201","geo_score":1.0,"type":"Community Canine Area","street address":"1299 N Herndon Street","id":"a66sqq6g6x7q","geo_precision":"range","state":"VA"},"type":"Feature","geometry":{"type":"Point","coordinates":[-77.096769,38.888311]}},{"properties":{"city":"Arlington","name":"Shirlington Park","zip":"22206","geo_score":0.973,"type":"Community Canine Area","street address":"2601 South Arlington Mill Drive","id":"a66sqq9xi0s2","geo_precision":"range","state":"VA"},"type":"Feature","geometry":{"type":"Point","coordinates":[-77.094044,38.844547]}},{"properties":{"city":"Arlington","name":"Towers Park","zip":"22204","geo_score":0.807,"type":"Community Canine Area","street address":"801 South Scott Street","id":"a66sqqcjm9j9","geo_precision":"street","state":"VA"},"type":"Feature","geometry":{"type":"Point","coordinates":[-77.077439,38.866351]}},{"properties":{"city":"Arlington","name":"Utah Park","zip":"22206","geo_score":0.798,"type":"Community Canine Area","street address":"3191 South Utah Street","id":"a66sqqbyz4d2","geo_precision":"street","state":"VA"},"type":"Feature","geometry":{"type":"Point","coordinates":[-77.087841,38.837472]}}],"is_temporal":false,"author":{"url":"http://www.arlingtonva.us/Departments/ParksRecreation/scripts/dogs/ParksRecreationScriptsDogsDeaLocations.aspx","metadata":"","contact_name":"","contact_address":"","source":"Arlington County, VA: Parks, Recreation & Cultural Resources ","contact_phone":""},"source":"http://www.arlingtonva.us/Departments/ParksRecreation/scripts/dogs/ParksRecreationScriptsDogsDeaLocations.aspx","pagination":{"sort":null,"start":0,"total":8,"limit":1000000},"state":"complete","tags":"arlington,arlingtonrec,community,dogs,parks,recreation,theatre,virginia","published":"2010-03-24T16:00:00Z","id":34795}