{"type":"FeatureCollection","data_type":"Dataset","url_type":null,"permissions":[{"permissions":{"download":true,"view":true},"group_id":"everyone"}],"classification":null,"title":"Playground Locations, Arlington County, VA, 2010","count":31,"stream_id":34854,"contributor":{"url":"http://geocommons.com/users/139","name":"Burkey"},"data_attributes":null,"calculation_params":null,"icon_link":null,"link":"http://geocommons.com/overlays/34854.json","extent":[-77.1591,38.8474,-77.0593,38.9228],"geometry_types":["point"],"unique_name":null,"name":"Playground Locations, Arlington County, VA, 2010","feature_count":31,"description":"This dataset displays the locations of playgrounds that are within Arlington County.\n\nRound up the kids and head outdoors for some fun! There is sure to be a playground in your immediate vicinity! Below is a list of parks that contain playgrounds in Arlington. Some parks have multiple playgrounds in them so be sure to click each park name to get more detail on the facilities present at each park.","next_feature":null,"is_raster":false,"short_classification":"Y","stats":{"geo_score":{"max":1.0,"mean":0.925225806451613,"variance":0.00812784731182795,"stdev":0.0901545745474291,"min":0.721,"median":1.0}},"features":[{"properties":{"city":"Arlington","name":"Alcova Heights Park","zip":"22204","geo_score":1.0,"type":"Playground","street address":"901 South George Mason Drive","id":"a63p6is2weef","geo_precision":"range","state":"VA"},"type":"Feature","geometry":{"type":"Point","coordinates":[-77.102542,38.860694]}},{"properties":{"city":"Arlington","name":"Arlington Hall West Park","zip":"22204","geo_score":0.824,"type":"Playground","street address":"290 South Taylor Street","id":"a63p6iqz9e4f","geo_precision":"street","state":"VA"},"type":"Feature","geometry":{"type":"Point","coordinates":[-77.107311,38.865564]}},{"properties":{"city":"Arlington","name":"Bailey's Branch Park","zip":"22204","geo_score":1.0,"type":"Playground","street address":"990 South Columbus Street","id":"a63p6iq1evkb","geo_precision":"range","state":"VA"},"type":"Feature","geometry":{"type":"Point","coordinates":[-77.110931,38.854478]}},{"properties":{"city":"Arlington","name":"Barcroft Park and Fitness Center","zip":"22204","geo_score":0.819,"type":"Playground","street address":"4200 South Four Mile Run Drive","id":"a63p6ikactql","geo_precision":"street","state":"VA"},"type":"Feature","geometry":{"type":"Point","coordinates":[-77.10137,38.850761]}},{"properties":{"city":"Arlington","name":"Benjamin Banneker Park","zip":"22205","geo_score":0.807,"type":"Playground","street address":"1701 North Van Buren Street","id":"a63p6it335ch","geo_precision":"street","state":"VA"},"type":"Feature","geometry":{"type":"Point","coordinates":[-77.159101,38.883311]}},{"properties":{"city":"Arlington","name":"Bon Air Park","zip":"22205","geo_score":1.0,"type":"Playground","street address":"850 North Lexington Street","id":"a63p6irssnxc","geo_precision":"range","state":"VA"},"type":"Feature","geometry":{"type":"Point","coordinates":[-77.132418,38.875322]}},{"properties":{"city":"Arlington","name":"Chestnut Hills Park","zip":"22207","geo_score":0.82,"type":"Playground","street address":"North Harrison Street and 27th Street North","id":"a63p6irm7w5v","geo_precision":"street","state":"VA"},"type":"Feature","geometry":{"type":"Point","coordinates":[-77.142037,38.899009]}},{"properties":{"city":"Arlington","name":"Dawson Terrace Community Center and Park","zip":"22201","geo_score":1.0,"type":"Playground","street address":"2133 North Taft Street","id":"a63p6ifrr1ca","geo_precision":"range","state":"VA"},"type":"Feature","geometry":{"type":"Point","coordinates":[-77.083112,38.89902]}},{"properties":{"city":"Arlington","name":"Douglas Park","zip":"22204","geo_score":1.0,"type":"Playground","street address":"1718 South Quincy Street","id":"a63p6igd4itw","geo_precision":"range","state":"VA"},"type":"Feature","geometry":{"type":"Point","coordinates":[-77.09605,38.852962]}},{"properties":{"city":"Arlington","name":"Drew Park and Community Center","zip":"22204","geo_score":0.916,"type":"Playground","street address":"3514 22nd Street South","id":"a63p6it0kg9j","geo_precision":"range","state":"VA"},"type":"Feature","geometry":{"type":"Point","coordinates":[-77.087504,38.849138]}},{"properties":{"city":"Arlington","name":"Edison Park","zip":"22203","geo_score":0.812,"type":"Playground","street address":"2nd Street North and North Edison Street","id":"a63p6imbfg92","geo_precision":"street","state":"VA"},"type":"Feature","geometry":{"type":"Point","coordinates":[-77.121342,38.868736]}},{"properties":{"city":"Arlington","name":"Fillmore Park","zip":"22201","geo_score":1.0,"type":"Playground","street address":"33 North Fillmore Street","id":"a63p6iui7hgl","geo_precision":"range","state":"VA"},"type":"Feature","geometry":{"type":"Point","coordinates":[-77.089734,38.874257]}},{"properties":{"city":"Arlington","name":"Fort Ethan Allen Park","zip":"22207","geo_score":1.0,"type":"Playground","street address":"3829 North Stafford Street","id":"a63p6il4y1yi","geo_precision":"range","state":"VA"},"type":"Feature","geometry":{"type":"Point","coordinates":[-77.123643,38.92279]}},{"properties":{"city":"Arlington","name":"Glencarlyn Park","zip":"22204","geo_score":1.0,"type":"Playground","street address":"301 South Harrison Street","id":"a63p6iteb8ql","geo_precision":"range","state":"VA"},"type":"Feature","geometry":{"type":"Point","coordinates":[-77.120616,38.863929]}},{"properties":{"city":"Arlington","name":"Hayes Park","zip":"22201","geo_score":1.0,"type":"Playground","street address":"1516 North Lincoln Street","id":"a63p6irau1uy","geo_precision":"range","state":"VA"},"type":"Feature","geometry":{"type":"Point","coordinates":[-77.10331,38.889483]}},{"properties":{"city":"Arlington","name":"Henry Clay Park","zip":"22201","geo_score":0.902,"type":"Playground","street address":"3011 7th Street North","id":"a63p6isk81fc","geo_precision":"range","state":"VA"},"type":"Feature","geometry":{"type":"Point","coordinates":[-77.093537,38.880966]}},{"properties":{"city":"Arlington","name":"Lacey Woods Park","zip":"22205","geo_score":1.0,"type":"Playground","street address":"1200 North George Mason Drive","id":"a63p6inyybon","geo_precision":"range","state":"VA"},"type":"Feature","geometry":{"type":"Point","coordinates":[-77.12551,38.884192]}},{"properties":{"city":"Arlington","name":"Lubber Run Park and Community Center","zip":"22203","geo_score":0.833,"type":"Playground","street address":"North Columbus Street and 2nd Street North","id":"a63p6ij6fy9p","geo_precision":"street","state":"VA"},"type":"Feature","geometry":{"type":"Point","coordinates":[-77.118686,38.866918]}},{"properties":{"city":"Arlington","name":"Lyon Village Park","zip":"22201","geo_score":1.0,"type":"Playground","street address":"1800 North Highland Street","id":"a63p6ioegs8b","geo_precision":"range","state":"VA"},"type":"Feature","geometry":{"type":"Point","coordinates":[-77.094363,38.893017]}},{"properties":{"city":"Arlington","name":"Maywood Park","zip":"22201","geo_score":0.916,"type":"Playground","street address":"3210 22nd Street North","id":"a63p6iu5cn9a","geo_precision":"range","state":"VA"},"type":"Feature","geometry":{"type":"Point","coordinates":[-77.099509,38.897476]}},{"properties":{"city":"Arlington","name":"Monroe Park","zip":"22204","geo_score":0.798,"type":"Playground","street address":"14th Street South and South Monroe Street","id":"a63p6iip9kzx","geo_precision":"street","state":"VA"},"type":"Feature","geometry":{"type":"Point","coordinates":[-77.095776,38.864936]}},{"properties":{"city":"Arlington","name":"Mosaic Park","zip":"22203","geo_score":1.0,"type":"Playground","street address":"544 N Pollard Street","id":"a63p6ihbq1na","geo_precision":"range","state":"VA"},"type":"Feature","geometry":{"type":"Point","coordinates":[-77.106664,38.878293]}},{"properties":{"city":"Arlington","name":"Nina Park","zip":"22202","geo_score":0.916,"type":"Playground","street address":"800 24th Street South","id":"a63p6ittq7yc","geo_precision":"range","state":"VA"},"type":"Feature","geometry":{"type":"Point","coordinates":[-77.059435,38.852292]}},{"properties":{"city":"Arlington","name":"Parkhurst Park","zip":"22205","geo_score":0.819,"type":"Playground","street address":"5820 20th Road North","id":"a63p6ili8639","geo_precision":"street","state":"VA"},"type":"Feature","geometry":{"type":"Point","coordinates":[-77.142018,38.889452]}},{"properties":{"city":"Arlington","name":"Rocky Run Park","zip":"22201","geo_score":1.0,"type":"Playground","street address":"1109 North Barton Street","id":"a63p6ittf3oa","geo_precision":"range","state":"VA"},"type":"Feature","geometry":{"type":"Point","coordinates":[-77.088135,38.886245]}},{"properties":{"city":"Arlington","name":"Slater Park","zip":"22207","geo_score":1.0,"type":"Playground","street address":"1837 North Culpeper Street","id":"a63p6iolxkd0","geo_precision":"range","state":"VA"},"type":"Feature","geometry":{"type":"Point","coordinates":[-77.123184,38.892543]}},{"properties":{"city":"Arlington","name":"Troy Park","zip":"22206","geo_score":0.973,"type":"Playground","street address":"2629 South Troy Street","id":"a63p6ik6pr41","geo_precision":"range","state":"VA"},"type":"Feature","geometry":{"type":"Point","coordinates":[-77.074388,38.847442]}},{"properties":{"city":"Arlington","name":"Virginia Highlands Park","zip":"22202","geo_score":1.0,"type":"Playground","street address":"1600 South Hayes Street","id":"a63p6isy5aht","geo_precision":"range","state":"VA"},"type":"Feature","geometry":{"type":"Point","coordinates":[-77.059351,38.858881]}},{"properties":{"city":"Arlington","name":"Walter Reed Community Center and Park","zip":"22206","geo_score":0.721,"type":"Playground","street address":"2909 16th St S","id":"a63p6ih3tqx3","geo_precision":"range","state":"VA"},"type":"Feature","geometry":{"type":"Point","coordinates":[-77.085791,38.857169]}},{"properties":{"city":"Arlington","name":"Woodlawn Park","zip":"22207","geo_score":0.806,"type":"Playground","street address":"1400 North Buchanan Street","id":"a63p6ijiivtv","geo_precision":"street","state":"VA"},"type":"Feature","geometry":{"type":"Point","coordinates":[-77.122405,38.88881]}},{"properties":{"city":"Arlington","name":"Woodstock Park","zip":"22207","geo_score":1.0,"type":"Playground","street address":"2049 North Woodstock Street","id":"a63p6ifrjhsq","geo_precision":"range","state":"VA"},"type":"Feature","geometry":{"type":"Point","coordinates":[-77.118689,38.896879]}}],"is_temporal":false,"author":{"url":"http://www.arlingtonva.us/Departments/ParksRecreation/scripts/playgrounds/ParksRecreationScriptsPlaygroundsPlaygrounds.aspx","metadata":"","contact_name":"","contact_address":"","source":"Arlington County, VA: Parks, Recreation & Cultural Resources ","contact_phone":""},"source":"http://www.arlingtonva.us/Departments/ParksRecreation/scripts/playgrounds/ParksRecreationScriptsPlaygroundsPlaygrounds.aspx","pagination":{"sort":null,"start":0,"total":31,"limit":1000000},"state":"complete","tags":"arlington,arlingtonrec,community,parks,recreation,virginia","published":"2010-03-25T16:21:24Z","id":34854}