{"type":"FeatureCollection","data_type":"Dataset","url_type":null,"permissions":[{"permissions":{"download":true,"view":true},"group_id":"everyone"}],"classification":null,"title":"dpc_organizer_map_2","count":274,"stream_id":34871,"contributor":{"url":"http://geocommons.com/users/11204","name":"joegravellese"},"data_attributes":null,"calculation_params":null,"icon_link":null,"link":"http://geocommons.com/overlays/34871.json","extent":[-73.4134,41.2876,-70.0154,42.8535],"geometry_types":["point"],"unique_name":null,"name":"dpc_organizer_map_2","feature_count":274,"description":"","next_feature":null,"is_raster":false,"short_classification":"Y","stats":{"supporters":{"max":194.0,"mean":10.1428571428571,"variance":318.483193277311,"stdev":17.8460974242917,"min":0.0,"median":5.0},"organizers":{"max":194.0,"mean":3.38686131386861,"variance":166.413892676666,"stdev":12.9001508780582,"min":0.0,"median":1.0},"accounts":{"max":74.0,"mean":2.92307692307692,"variance":31.8727375565611,"stdev":5.64559452640385,"min":0.0,"median":2.0}},"features":[{"properties":{"city":"Abington","supporters":8.0,"geo_score":0.857,"organizers":5.0,"accounts":4.0,"id":"a62254db1udn","geo_precision":"city","state":"Massachusetts"},"type":"Feature","geometry":{"type":"Point","coordinates":[-70.959888,42.11749]}},{"properties":{"city":"Acton","supporters":12.0,"geo_score":0.857,"organizers":7.0,"accounts":7.0,"id":"a62254inmbz2","geo_precision":"city","state":"Massachusetts"},"type":"Feature","geometry":{"type":"Point","coordinates":[-71.459405,42.446396]}},{"properties":{"city":"Acushnet","supporters":2.0,"geo_score":0.857,"organizers":0.0,"accounts":0.0,"id":"a62254gqgfwe","geo_precision":"city","state":"Massachusetts"},"type":"Feature","geometry":{"type":"Point","coordinates":[-70.908286,41.711894]}},{"properties":{"city":"Adams","supporters":1.0,"geo_score":0.857,"organizers":0.0,"accounts":0.0,"id":"a62254glnfvl","geo_precision":"city","state":"Massachusetts"},"type":"Feature","geometry":{"type":"Point","coordinates":[-73.172166,42.385595]}},{"properties":{"city":"Agawam","supporters":13.0,"geo_score":0.857,"organizers":4.0,"accounts":5.0,"id":"a622546l51ps","geo_precision":"city","state":"Massachusetts"},"type":"Feature","geometry":{"type":"Point","coordinates":[-72.788661,42.140549]}},{"properties":{"city":"Alford","supporters":2.0,"geo_score":0.857,"organizers":2.0,"accounts":2.0,"id":"a62254j6rbym","geo_precision":"city","state":"Massachusetts"},"type":"Feature","geometry":{"type":"Point","coordinates":[-73.413446,42.235644]}},{"properties":{"city":"Amesbury","supporters":9.0,"geo_score":0.857,"organizers":2.0,"accounts":2.0,"id":"a622549ux8wf","geo_precision":"city","state":"Massachusetts"},"type":"Feature","geometry":{"type":"Point","coordinates":[-70.948211,42.853539]}},{"properties":{"city":"Amherst","supporters":11.0,"geo_score":0.857,"organizers":2.0,"accounts":5.0,"id":"a622548ivp3n","geo_precision":"city","state":"Massachusetts"},"type":"Feature","geometry":{"type":"Point","coordinates":[-72.464571,42.367092]}},{"properties":{"city":"Andover","supporters":28.0,"geo_score":0.857,"organizers":7.0,"accounts":6.0,"id":"a622547wtfui","geo_precision":"city","state":"Massachusetts"},"type":"Feature","geometry":{"type":"Point","coordinates":[-71.165685,42.647991]}},{"properties":{"city":"Arlington","supporters":29.0,"geo_score":0.857,"organizers":7.0,"accounts":15.0,"id":"a62254k6tk0f","geo_precision":"city","state":"Massachusetts"},"type":"Feature","geometry":{"type":"Point","coordinates":[-71.167083,42.417695]}},{"properties":{"city":"Ashland","supporters":9.0,"geo_score":0.857,"organizers":3.0,"accounts":3.0,"id":"a622548aee4v","geo_precision":"city","state":"Massachusetts"},"type":"Feature","geometry":{"type":"Point","coordinates":[-71.459405,42.446396]}},{"properties":{"city":"Athol","supporters":1.0,"geo_score":0.857,"organizers":0.0,"accounts":0.0,"id":"a62254cnkzg4","geo_precision":"city","state":"Massachusetts"},"type":"Feature","geometry":{"type":"Point","coordinates":[-72.183903,42.547302]}},{"properties":{"city":"Attleboro","supporters":31.0,"geo_score":0.857,"organizers":4.0,"accounts":4.0,"id":"a62254khnb6z","geo_precision":"city","state":"Massachusetts"},"type":"Feature","geometry":{"type":"Point","coordinates":[-71.302297,41.938976]}},{"properties":{"city":"Auburn","supporters":4.0,"geo_score":0.857,"organizers":3.0,"accounts":1.0,"id":"a62254fqvdmv","geo_precision":"city","state":"Massachusetts"},"type":"Feature","geometry":{"type":"Point","coordinates":[-71.947184,42.184835]}},{"properties":{"city":"Ayer","supporters":7.0,"geo_score":0.857,"organizers":0.0,"accounts":0.0,"id":"a62254icsae0","geo_precision":"city","state":"Massachusetts"},"type":"Feature","geometry":{"type":"Point","coordinates":[-71.58979,42.561202]}},{"properties":{"city":"Barnstable","supporters":6.0,"geo_score":0.816,"organizers":2.0,"accounts":2.0,"id":"a62254knkyuy","geo_precision":"city","state":"Massachusetts"},"type":"Feature","geometry":{"type":"Point","coordinates":[-70.366135,41.683443]}},{"properties":{"city":"Bedford","supporters":7.0,"geo_score":0.786,"organizers":0.0,"accounts":0.0,"id":"a6225477b1xj","geo_precision":"city","state":"Massachusetts"},"type":"Feature","geometry":{"type":"Point","coordinates":[-71.270891,42.516205]}},{"properties":{"city":"Belchertown","supporters":6.0,"geo_score":0.857,"organizers":1.0,"accounts":2.0,"id":"a622547y6y24","geo_precision":"city","state":"Massachusetts"},"type":"Feature","geometry":{"type":"Point","coordinates":[-72.402056,42.280267]}},{"properties":{"city":"Bellingham","supporters":1.0,"geo_score":0.857,"organizers":1.0,"accounts":1.0,"id":"a62254i8sltp","geo_precision":"city","state":"Massachusetts"},"type":"Feature","geometry":{"type":"Point","coordinates":[-71.470464,42.076501]}},{"properties":{"city":"Belmont","supporters":37.0,"geo_score":0.857,"organizers":2.0,"accounts":2.0,"id":"a62254dz31l8","geo_precision":"city","state":"Massachusetts"},"type":"Feature","geometry":{"type":"Point","coordinates":[-71.459405,42.446396]}},{"properties":{"city":"Berlin","supporters":4.0,"geo_score":0.857,"organizers":0.0,"accounts":0.0,"id":"a62254e5oeol","geo_precision":"city","state":"Massachusetts"},"type":"Feature","geometry":{"type":"Point","coordinates":[-71.841656,42.3129]}},{"properties":{"city":"Beverly","supporters":17.0,"geo_score":0.857,"organizers":3.0,"accounts":4.0,"id":"a622549g97sk","geo_precision":"city","state":"Massachusetts"},"type":"Feature","geometry":{"type":"Point","coordinates":[-70.853843,42.565145]}},{"properties":{"city":"Billerica","supporters":14.0,"geo_score":0.857,"organizers":4.0,"accounts":5.0,"id":"a62254atansp","geo_precision":"city","state":"Massachusetts"},"type":"Feature","geometry":{"type":"Point","coordinates":[-71.459405,42.446396]}},{"properties":{"city":"Blackstone","supporters":5.0,"geo_score":0.857,"organizers":1.0,"accounts":1.0,"id":"a622548t4vvp","geo_precision":"city","state":"Massachusetts"},"type":"Feature","geometry":{"type":"Point","coordinates":[-71.799785,42.114078]}},{"properties":{"city":"Bolton","supporters":1.0,"geo_score":0.857,"organizers":0.0,"accounts":1.0,"id":"a6225453ing4","geo_precision":"city","state":"Massachusetts"},"type":"Feature","geometry":{"type":"Point","coordinates":[-71.605916,42.436043]}},{"properties":{"city":"Boston","supporters":0.0,"geo_score":0.857,"organizers":194.0,"accounts":0.0,"id":"a62254cfq0kr","geo_precision":"city","state":"Massachusetts"},"type":"Feature","geometry":{"type":"Point","coordinates":[-71.059773,42.358431]}},{"properties":{"city":"Boxborough","supporters":5.0,"geo_score":0.857,"organizers":2.0,"accounts":2.0,"id":"a6225481yeor","geo_precision":"city","state":"Massachusetts"},"type":"Feature","geometry":{"type":"Point","coordinates":[-71.459405,42.446396]}},{"properties":{"city":"Boxford","supporters":11.0,"geo_score":0.857,"organizers":2.0,"accounts":2.0,"id":"a62254emu926","geo_precision":"city","state":"Massachusetts"},"type":"Feature","geometry":{"type":"Point","coordinates":[-71.017403,42.683256]}},{"properties":{"city":"Boylston","supporters":2.0,"geo_score":0.857,"organizers":1.0,"accounts":1.0,"id":"a622549hnhy2","geo_precision":"city","state":"Massachusetts"},"type":"Feature","geometry":{"type":"Point","coordinates":[-71.943458,42.300037]}},{"properties":{"city":"Brewster","supporters":11.0,"geo_score":0.857,"organizers":2.0,"accounts":4.0,"id":"a62254kolcsb","geo_precision":"city","state":"Massachusetts"},"type":"Feature","geometry":{"type":"Point","coordinates":[-70.044462,41.852997]}},{"properties":{"city":"Bridgewater","supporters":5.0,"geo_score":0.857,"organizers":4.0,"accounts":4.0,"id":"a6225456gbso","geo_precision":"city","state":"Massachusetts"},"type":"Feature","geometry":{"type":"Point","coordinates":[-70.976558,41.973741]}},{"properties":{"city":"Brimfield","supporters":2.0,"geo_score":0.857,"organizers":0.0,"accounts":1.0,"id":"a62254885rzn","geo_precision":"city","state":"Massachusetts"},"type":"Feature","geometry":{"type":"Point","coordinates":[-72.20448,42.108585]}},{"properties":{"city":"Brockton","supporters":24.0,"geo_score":0.857,"organizers":6.0,"accounts":4.0,"id":"a62254jgbrmo","geo_precision":"city","state":"Massachusetts"},"type":"Feature","geometry":{"type":"Point","coordinates":[-71.018379,42.083434]}},{"properties":{"city":"Brookline","supporters":55.0,"geo_score":0.857,"organizers":14.0,"accounts":22.0,"id":"a622548o6owe","geo_precision":"city","state":"Massachusetts"},"type":"Feature","geometry":{"type":"Point","coordinates":[-71.088745,42.308198]}},{"properties":{"city":"Burlington","supporters":6.0,"geo_score":0.857,"organizers":1.0,"accounts":2.0,"id":"a622549ozclk","geo_precision":"city","state":"Massachusetts"},"type":"Feature","geometry":{"type":"Point","coordinates":[-71.201539,42.504844]}},{"properties":{"city":"Cambridge","supporters":194.0,"geo_score":0.813,"organizers":69.0,"accounts":74.0,"id":"a62254c3cg8z","geo_precision":"city","state":"Massachusetts"},"type":"Feature","geometry":{"type":"Point","coordinates":[-71.103663,42.358431]}},{"properties":{"city":"Canton","supporters":2.0,"geo_score":0.857,"organizers":0.0,"accounts":0.0,"id":"a622549wwdeg","geo_precision":"city","state":"Massachusetts"},"type":"Feature","geometry":{"type":"Point","coordinates":[-71.121185,42.179146]}},{"properties":{"city":"Carlisle","supporters":6.0,"geo_score":0.857,"organizers":3.0,"accounts":3.0,"id":"a62254akokf3","geo_precision":"city","state":"Massachusetts"},"type":"Feature","geometry":{"type":"Point","coordinates":[-71.459405,42.446396]}},{"properties":{"city":"Carver","supporters":1.0,"geo_score":0.857,"organizers":0.0,"accounts":0.0,"id":"a62254jnxndd","geo_precision":"city","state":"Massachusetts"},"type":"Feature","geometry":{"type":"Point","coordinates":[-70.759689,41.896238]}},{"properties":{"city":"Charlemont","supporters":1.0,"geo_score":0.857,"organizers":0.0,"accounts":0.0,"id":"a62254fj4xhj","geo_precision":"city","state":"Massachusetts"},"type":"Feature","geometry":{"type":"Point","coordinates":[-72.665507,42.594252]}},{"properties":{"city":"Charlestown","supporters":6.0,"geo_score":0.857,"organizers":3.0,"accounts":4.0,"id":"a62254k08by6","geo_precision":"city","state":"Massachusetts"},"type":"Feature","geometry":{"type":"Point","coordinates":[-71.065287,42.382588]}},{"properties":{"city":"Charlton","supporters":5.0,"geo_score":0.857,"organizers":0.0,"accounts":0.0,"id":"a622547r2rxx","geo_precision":"city","state":"Massachusetts"},"type":"Feature","geometry":{"type":"Point","coordinates":[-71.972627,42.13277]}},{"properties":{"city":"Chatham","supporters":3.0,"geo_score":0.857,"organizers":1.0,"accounts":1.0,"id":"a6225497mmus","geo_precision":"city","state":"Massachusetts"},"type":"Feature","geometry":{"type":"Point","coordinates":[-70.0468,41.859559]}},{"properties":{"city":"Chelmsford","supporters":14.0,"geo_score":0.857,"organizers":5.0,"accounts":6.0,"id":"a622546grdpd","geo_precision":"city","state":"Massachusetts"},"type":"Feature","geometry":{"type":"Point","coordinates":[-71.459405,42.446396]}},{"properties":{"city":"Chelsea","supporters":7.0,"geo_score":0.857,"organizers":3.0,"accounts":4.0,"id":"a62254dsf65z","geo_precision":"city","state":"Massachusetts"},"type":"Feature","geometry":{"type":"Point","coordinates":[-71.038894,42.378197]}},{"properties":{"city":"Chicopee","supporters":5.0,"geo_score":0.857,"organizers":0.0,"accounts":1.0,"id":"a62254bva4nf","geo_precision":"city","state":"Massachusetts"},"type":"Feature","geometry":{"type":"Point","coordinates":[-72.607867,42.148704]}},{"properties":{"city":"Chilmark","supporters":2.0,"geo_score":0.857,"organizers":0.0,"accounts":0.0,"id":"a62254cwo0ph","geo_precision":"city","state":"Massachusetts"},"type":"Feature","geometry":{"type":"Point","coordinates":[-70.673082,41.379034]}},{"properties":{"city":"Clinton","supporters":13.0,"geo_score":0.857,"organizers":1.0,"accounts":0.0,"id":"a62254h6zw2g","geo_precision":"city","state":"Massachusetts"},"type":"Feature","geometry":{"type":"Point","coordinates":[-71.687523,42.413972]}},{"properties":{"city":"Cochituate","supporters":3.0,"geo_score":0.857,"organizers":1.0,"accounts":2.0,"id":"a62254gbmfk2","geo_precision":"city","state":"Massachusetts"},"type":"Feature","geometry":{"type":"Point","coordinates":[-71.364226,42.320929]}},{"properties":{"city":"Cohasset","supporters":10.0,"geo_score":0.857,"organizers":0.0,"accounts":1.0,"id":"a62254a0z1li","geo_precision":"city","state":"Massachusetts"},"type":"Feature","geometry":{"type":"Point","coordinates":[-70.815826,42.233938]}},{"properties":{"city":"Colrain","supporters":2.0,"geo_score":0.857,"organizers":2.0,"accounts":2.0,"id":"a62254ba0dom","geo_precision":"city","state":"Massachusetts"},"type":"Feature","geometry":{"type":"Point","coordinates":[-72.822986,42.681539]}},{"properties":{"city":"Concord","supporters":18.0,"geo_score":0.857,"organizers":3.0,"accounts":5.0,"id":"a62254d8wzyz","geo_precision":"city","state":"Massachusetts"},"type":"Feature","geometry":{"type":"Point","coordinates":[-71.459405,42.446396]}},{"properties":{"city":"Danvers","supporters":1.0,"geo_score":0.805,"organizers":0.0,"accounts":0.0,"id":"a622549q9j2l","geo_precision":"city","state":"Massachusetts"},"type":"Feature","geometry":{"type":"Point","coordinates":[-70.920328,42.548428]}},{"properties":{"city":"Dartmouth","supporters":8.0,"geo_score":0.857,"organizers":3.0,"accounts":3.0,"id":"a62254fjxthj","geo_precision":"city","state":"Massachusetts"},"type":"Feature","geometry":{"type":"Point","coordinates":[-71.067062,41.756214]}},{"properties":{"city":"Dedham","supporters":4.0,"geo_score":0.857,"organizers":4.0,"accounts":4.0,"id":"a62254ihar96","geo_precision":"city","state":"Massachusetts"},"type":"Feature","geometry":{"type":"Point","coordinates":[-71.181141,42.244733]}},{"properties":{"city":"Dennis","supporters":2.0,"geo_score":0.857,"organizers":0.0,"accounts":0.0,"id":"a62254iic5w7","geo_precision":"city","state":"Massachusetts"},"type":"Feature","geometry":{"type":"Point","coordinates":[-70.089142,41.725716]}},{"properties":{"city":"Douglas","supporters":2.0,"geo_score":0.857,"organizers":1.0,"accounts":1.0,"id":"a62254juzwf1","geo_precision":"city","state":"Massachusetts"},"type":"Feature","geometry":{"type":"Point","coordinates":[-71.891139,42.113076]}},{"properties":{"city":"Dracut","supporters":17.0,"geo_score":0.857,"organizers":2.0,"accounts":2.0,"id":"a62254go490o","geo_precision":"city","state":"Massachusetts"},"type":"Feature","geometry":{"type":"Point","coordinates":[-71.459405,42.446396]}},{"properties":{"city":"Dudley","supporters":1.0,"geo_score":0.857,"organizers":1.0,"accounts":1.0,"id":"a62254clpf1g","geo_precision":"city","state":"Massachusetts"},"type":"Feature","geometry":{"type":"Point","coordinates":[-71.937037,42.059189]}},{"properties":{"city":"Dunstable","supporters":1.0,"geo_score":0.857,"organizers":0.0,"accounts":0.0,"id":"a6225475tq5a","geo_precision":"city","state":"Massachusetts"},"type":"Feature","geometry":{"type":"Point","coordinates":[-71.459405,42.446396]}},{"properties":{"city":"Duxbury","supporters":9.0,"geo_score":0.857,"organizers":4.0,"accounts":5.0,"id":"a62254heyiv4","geo_precision":"city","state":"Massachusetts"},"type":"Feature","geometry":{"type":"Point","coordinates":[-70.701357,41.970474]}},{"properties":{"city":"Eastham","supporters":2.0,"geo_score":0.857,"organizers":0.0,"accounts":1.0,"id":"a622546o35lv","geo_precision":"city","state":"Massachusetts"},"type":"Feature","geometry":{"type":"Point","coordinates":[-70.020648,41.850612]}},{"properties":{"city":"Easthampton","supporters":23.0,"geo_score":0.857,"organizers":5.0,"accounts":5.0,"id":"a62254c64n7p","geo_precision":"city","state":"Massachusetts"},"type":"Feature","geometry":{"type":"Point","coordinates":[-72.768839,42.368303]}},{"properties":{"city":"Easton","supporters":2.0,"geo_score":0.857,"organizers":2.0,"accounts":2.0,"id":"a62254796pay","geo_precision":"city","state":"Massachusetts"},"type":"Feature","geometry":{"type":"Point","coordinates":[-71.132397,42.023528]}},{"properties":{"city":"Edgartown","supporters":1.0,"geo_score":0.857,"organizers":0.0,"accounts":0.0,"id":"a622548ffbd7","geo_precision":"city","state":"Massachusetts"},"type":"Feature","geometry":{"type":"Point","coordinates":[-70.552054,41.401176]}},{"properties":{"city":"Egremont","supporters":2.0,"geo_score":0.0,"organizers":0.0,"accounts":2.0,"id":"a62254h2i01l","geo_precision":"unmatched","state":"Massachusetts"},"type":"Feature","geometry":null},{"properties":{"city":"Everett","supporters":4.0,"geo_score":0.857,"organizers":0.0,"accounts":1.0,"id":"a62254gtpd1g","geo_precision":"city","state":"Massachusetts"},"type":"Feature","geometry":{"type":"Point","coordinates":[-71.051183,42.407396]}},{"properties":{"city":"Fairhaven","supporters":6.0,"geo_score":0.857,"organizers":3.0,"accounts":2.0,"id":"a6225463jso6","geo_precision":"city","state":"Massachusetts"},"type":"Feature","geometry":{"type":"Point","coordinates":[-70.870045,41.631672]}},{"properties":{"city":"Fall River","supporters":37.0,"geo_score":0.857,"organizers":5.0,"accounts":6.0,"id":"a62254l05ox6","geo_precision":"city","state":"Massachusetts"},"type":"Feature","geometry":{"type":"Point","coordinates":[-71.165971,41.819766]}},{"properties":{"city":"Falmouth","supporters":37.0,"geo_score":0.857,"organizers":3.0,"accounts":4.0,"id":"a6225498i2sg","geo_precision":"city","state":"Massachusetts"},"type":"Feature","geometry":{"type":"Point","coordinates":[-70.493263,41.614199]}},{"properties":{"city":"Fitchburg","supporters":3.0,"geo_score":0.743,"organizers":0.0,"accounts":2.0,"id":"a622546booo3","geo_precision":"city","state":"Massachusetts"},"type":"Feature","geometry":{"type":"Point","coordinates":[-71.247831,42.065377]}},{"properties":{"city":"Foxborough","supporters":9.0,"geo_score":0.857,"organizers":1.0,"accounts":2.0,"id":"a62254c2jemv","geo_precision":"city","state":"Massachusetts"},"type":"Feature","geometry":{"type":"Point","coordinates":[-71.247831,42.065377]}},{"properties":{"city":"Framingham","supporters":38.0,"geo_score":0.804,"organizers":11.0,"accounts":11.0,"id":"a62254b6w5pp","geo_precision":"city","state":"Massachusetts"},"type":"Feature","geometry":{"type":"Point","coordinates":[-71.437006,42.297318]}},{"properties":{"city":"Franklin","supporters":5.0,"geo_score":0.81,"organizers":0.0,"accounts":0.0,"id":"a6225490snsu","geo_precision":"city","state":"Massachusetts"},"type":"Feature","geometry":{"type":"Point","coordinates":[-71.016162,42.441763]}},{"properties":{"city":"Gardner","supporters":1.0,"geo_score":0.857,"organizers":1.0,"accounts":1.0,"id":"a622548zdxwr","geo_precision":"city","state":"Massachusetts"},"type":"Feature","geometry":{"type":"Point","coordinates":[-72.025884,42.582529]}},{"properties":{"city":"Georgetown","supporters":5.0,"geo_score":0.857,"organizers":2.0,"accounts":2.0,"id":"a62254jqrim5","geo_precision":"city","state":"Massachusetts"},"type":"Feature","geometry":{"type":"Point","coordinates":[-70.981298,42.72377]}},{"properties":{"city":"Gloucester","supporters":10.0,"geo_score":0.857,"organizers":3.0,"accounts":3.0,"id":"a62254cjfrje","geo_precision":"city","state":"Massachusetts"},"type":"Feature","geometry":{"type":"Point","coordinates":[-70.694179,42.630011]}},{"properties":{"city":"Grafton","supporters":4.0,"geo_score":0.857,"organizers":3.0,"accounts":3.0,"id":"a622549tif6e","geo_precision":"city","state":"Massachusetts"},"type":"Feature","geometry":{"type":"Point","coordinates":[-71.682862,42.203944]}},{"properties":{"city":"Granby","supporters":4.0,"geo_score":0.857,"organizers":0.0,"accounts":0.0,"id":"a622548z4led","geo_precision":"city","state":"Massachusetts"},"type":"Feature","geometry":{"type":"Point","coordinates":[-72.504086,42.262285]}},{"properties":{"city":"Great Barrington","supporters":9.0,"geo_score":0.857,"organizers":1.0,"accounts":1.0,"id":"a62254fec5a3","geo_precision":"city","state":"Massachusetts"},"type":"Feature","geometry":{"type":"Point","coordinates":[-73.26665,42.299392]}},{"properties":{"city":"Greenfield","supporters":9.0,"geo_score":0.752,"organizers":2.0,"accounts":3.0,"id":"a62254fsm4nc","geo_precision":"city","state":"Massachusetts"},"type":"Feature","geometry":{"type":"Point","coordinates":[-72.87871,42.067316]}},{"properties":{"city":"Groton","supporters":11.0,"geo_score":0.857,"organizers":5.0,"accounts":5.0,"id":"a62254kyz57p","geo_precision":"city","state":"Massachusetts"},"type":"Feature","geometry":{"type":"Point","coordinates":[-71.459405,42.446396]}},{"properties":{"city":"Groveland","supporters":2.0,"geo_score":0.857,"organizers":0.0,"accounts":0.0,"id":"a62254c319q7","geo_precision":"city","state":"Massachusetts"},"type":"Feature","geometry":{"type":"Point","coordinates":[-71.021437,42.751074]}},{"properties":{"city":"Halifax","supporters":1.0,"geo_score":0.857,"organizers":0.0,"accounts":0.0,"id":"a62254kb19ks","geo_precision":"city","state":"Massachusetts"},"type":"Feature","geometry":{"type":"Point","coordinates":[-70.860578,41.988351]}},{"properties":{"city":"Hamilton","supporters":2.0,"geo_score":0.802,"organizers":1.0,"accounts":2.0,"id":"a62254bf4i7l","geo_precision":"city","state":"Massachusetts"},"type":"Feature","geometry":{"type":"Point","coordinates":[-70.711979,41.743437]}},{"properties":{"city":"Hampden","supporters":4.0,"geo_score":0.857,"organizers":2.0,"accounts":2.0,"id":"a62254apxanm","geo_precision":"city","state":"Massachusetts"},"type":"Feature","geometry":{"type":"Point","coordinates":[-72.417507,42.067614]}},{"properties":{"city":"Hanover","supporters":2.0,"geo_score":0.857,"organizers":1.0,"accounts":1.0,"id":"a622546482h6","geo_precision":"city","state":"Massachusetts"},"type":"Feature","geometry":{"type":"Point","coordinates":[-70.851048,42.123534]}},{"properties":{"city":"Hanson","supporters":3.0,"geo_score":0.857,"organizers":1.0,"accounts":1.0,"id":"a62254jdnef0","geo_precision":"city","state":"Massachusetts"},"type":"Feature","geometry":{"type":"Point","coordinates":[-70.875936,42.055701]}},{"properties":{"city":"Harvard","supporters":3.0,"geo_score":0.857,"organizers":1.0,"accounts":1.0,"id":"a62254hfal61","geo_precision":"city","state":"Massachusetts"},"type":"Feature","geometry":{"type":"Point","coordinates":[-71.575864,42.500187]}},{"properties":{"city":"Harwich","supporters":19.0,"geo_score":0.857,"organizers":0.0,"accounts":0.0,"id":"a62254d5pw0n","geo_precision":"city","state":"Massachusetts"},"type":"Feature","geometry":{"type":"Point","coordinates":[-70.043359,41.835582]}},{"properties":{"city":"Haverhill","supporters":22.0,"geo_score":0.857,"organizers":6.0,"accounts":8.0,"id":"a62254595zgf","geo_precision":"city","state":"Massachusetts"},"type":"Feature","geometry":{"type":"Point","coordinates":[-71.072501,42.792639]}},{"properties":{"city":"Heath","supporters":1.0,"geo_score":0.857,"organizers":0.0,"accounts":0.0,"id":"a62254b1uxf5","geo_precision":"city","state":"Massachusetts"},"type":"Feature","geometry":{"type":"Point","coordinates":[-72.788896,42.618011]}},{"properties":{"city":"Hingham","supporters":14.0,"geo_score":0.857,"organizers":1.0,"accounts":1.0,"id":"a62254c14gi7","geo_precision":"city","state":"Massachusetts"},"type":"Feature","geometry":{"type":"Point","coordinates":[-70.884989,42.212105]}},{"properties":{"city":"Hinsdale","supporters":2.0,"geo_score":0.857,"organizers":0.0,"accounts":0.0,"id":"a62254a2iurf","geo_precision":"city","state":"Massachusetts"},"type":"Feature","geometry":{"type":"Point","coordinates":[-73.22164,42.29237]}},{"properties":{"city":"Holbrook","supporters":2.0,"geo_score":0.857,"organizers":1.0,"accounts":2.0,"id":"a6225452bu9y","geo_precision":"city","state":"Massachusetts"},"type":"Feature","geometry":{"type":"Point","coordinates":[-71.00289,42.144424]}},{"properties":{"city":"Holden","supporters":21.0,"geo_score":0.857,"organizers":5.0,"accounts":4.0,"id":"a62254flmkvj","geo_precision":"city","state":"Massachusetts"},"type":"Feature","geometry":{"type":"Point","coordinates":[-71.845316,42.336791]}},{"properties":{"city":"Holliston","supporters":12.0,"geo_score":0.857,"organizers":4.0,"accounts":3.0,"id":"a622548b388o","geo_precision":"city","state":"Massachusetts"},"type":"Feature","geometry":{"type":"Point","coordinates":[-71.459405,42.446396]}},{"properties":{"city":"Holyoke","supporters":15.0,"geo_score":0.857,"organizers":5.0,"accounts":6.0,"id":"a622545e9sws","geo_precision":"city","state":"Massachusetts"},"type":"Feature","geometry":{"type":"Point","coordinates":[-72.64207,42.198291]}},{"properties":{"city":"Hopedale","supporters":3.0,"geo_score":0.857,"organizers":0.0,"accounts":0.0,"id":"a62254ie00wv","geo_precision":"city","state":"Massachusetts"},"type":"Feature","geometry":{"type":"Point","coordinates":[-71.533138,42.127515]}},{"properties":{"city":"Hopkinton","supporters":1.0,"geo_score":0.857,"organizers":0.0,"accounts":1.0,"id":"a62254cai9dw","geo_precision":"city","state":"Massachusetts"},"type":"Feature","geometry":{"type":"Point","coordinates":[-71.459405,42.446396]}},{"properties":{"city":"Hudson","supporters":13.0,"geo_score":0.857,"organizers":1.0,"accounts":4.0,"id":"a62254j2cjt2","geo_precision":"city","state":"Massachusetts"},"type":"Feature","geometry":{"type":"Point","coordinates":[-71.459405,42.446396]}},{"properties":{"city":"Hull","supporters":10.0,"geo_score":0.762,"organizers":4.0,"accounts":2.0,"id":"a622549kanza","geo_precision":"city","state":"Massachusetts"},"type":"Feature","geometry":{"type":"Point","coordinates":[-72.877873,42.564529]}},{"properties":{"city":"Ipswich","supporters":9.0,"geo_score":0.857,"organizers":3.0,"accounts":2.0,"id":"a622544y56aa","geo_precision":"city","state":"Massachusetts"},"type":"Feature","geometry":{"type":"Point","coordinates":[-70.864132,42.68571]}},{"properties":{"city":"Kingston","supporters":9.0,"geo_score":0.796,"organizers":0.0,"accounts":0.0,"id":"a62254h2vewe","geo_precision":"city","state":"Massachusetts"},"type":"Feature","geometry":{"type":"Point","coordinates":[-70.703648,41.998159]}},{"properties":{"city":"Lakeville","supporters":5.0,"geo_score":0.857,"organizers":2.0,"accounts":2.0,"id":"a62254bvefr0","geo_precision":"city","state":"Massachusetts"},"type":"Feature","geometry":{"type":"Point","coordinates":[-70.959981,41.843757]}},{"properties":{"city":"Lancaster","supporters":1.0,"geo_score":0.857,"organizers":1.0,"accounts":1.0,"id":"a62254853ti0","geo_precision":"city","state":"Massachusetts"},"type":"Feature","geometry":{"type":"Point","coordinates":[-71.91177,42.427188]}},{"properties":{"city":"Lanesborough","supporters":3.0,"geo_score":0.857,"organizers":1.0,"accounts":1.0,"id":"a62254ijk1rw","geo_precision":"city","state":"Massachusetts"},"type":"Feature","geometry":{"type":"Point","coordinates":[-73.22816,42.517306]}},{"properties":{"city":"Lawrence","supporters":16.0,"geo_score":0.857,"organizers":5.0,"accounts":4.0,"id":"a62254i2kace","geo_precision":"city","state":"Massachusetts"},"type":"Feature","geometry":{"type":"Point","coordinates":[-71.161052,42.70734]}},{"properties":{"city":"Lee","supporters":3.0,"geo_score":0.857,"organizers":0.0,"accounts":1.0,"id":"a622545izc7j","geo_precision":"city","state":"Massachusetts"},"type":"Feature","geometry":{"type":"Point","coordinates":[-73.267465,42.369856]}},{"properties":{"city":"Leeds","supporters":1.0,"geo_score":0.857,"organizers":0.0,"accounts":0.0,"id":"a62254iyz19w","geo_precision":"city","state":"Massachusetts"},"type":"Feature","geometry":{"type":"Point","coordinates":[-72.704385,42.353838]}},{"properties":{"city":"Leicester","supporters":2.0,"geo_score":0.857,"organizers":1.0,"accounts":1.0,"id":"a62254ku16fc","geo_precision":"city","state":"Massachusetts"},"type":"Feature","geometry":{"type":"Point","coordinates":[-72.012379,42.238192]}},{"properties":{"city":"Lenox","supporters":3.0,"geo_score":0.857,"organizers":0.0,"accounts":1.0,"id":"a62254h913rz","geo_precision":"city","state":"Massachusetts"},"type":"Feature","geometry":{"type":"Point","coordinates":[-73.219858,42.459202]}},{"properties":{"city":"Leominster","supporters":4.0,"geo_score":0.857,"organizers":2.0,"accounts":1.0,"id":"a622547ycc46","geo_precision":"city","state":"Massachusetts"},"type":"Feature","geometry":{"type":"Point","coordinates":[-71.837509,42.471316]}},{"properties":{"city":"Leverett","supporters":1.0,"geo_score":0.857,"organizers":1.0,"accounts":1.0,"id":"a62254an3fbn","geo_precision":"city","state":"Massachusetts"},"type":"Feature","geometry":{"type":"Point","coordinates":[-72.467543,42.474681]}},{"properties":{"city":"Lexington","supporters":21.0,"geo_score":0.857,"organizers":12.0,"accounts":13.0,"id":"a62254ho6ajr","geo_precision":"city","state":"Massachusetts"},"type":"Feature","geometry":{"type":"Point","coordinates":[-71.459405,42.446396]}},{"properties":{"city":"Lincoln","supporters":10.0,"geo_score":0.857,"organizers":2.0,"accounts":6.0,"id":"a622544ylra4","geo_precision":"city","state":"Massachusetts"},"type":"Feature","geometry":{"type":"Point","coordinates":[-71.459405,42.446396]}},{"properties":{"city":"Littleton","supporters":8.0,"geo_score":0.857,"organizers":2.0,"accounts":2.0,"id":"a6225473zw6p","geo_precision":"city","state":"Massachusetts"},"type":"Feature","geometry":{"type":"Point","coordinates":[-71.459405,42.446396]}},{"properties":{"city":"Longmeadow","supporters":24.0,"geo_score":0.857,"organizers":6.0,"accounts":4.0,"id":"a62254e0dfny","geo_precision":"city","state":"Massachusetts"},"type":"Feature","geometry":{"type":"Point","coordinates":[-72.567882,42.049194]}},{"properties":{"city":"Lowell","supporters":20.0,"geo_score":0.857,"organizers":11.0,"accounts":16.0,"id":"a62254h5v7eg","geo_precision":"city","state":"Massachusetts"},"type":"Feature","geometry":{"type":"Point","coordinates":[-71.459405,42.446396]}},{"properties":{"city":"Ludlow","supporters":10.0,"geo_score":0.857,"organizers":2.0,"accounts":3.0,"id":"a62254cqek0r","geo_precision":"city","state":"Massachusetts"},"type":"Feature","geometry":{"type":"Point","coordinates":[-72.627038,42.173276]}},{"properties":{"city":"Lunenburg","supporters":3.0,"geo_score":0.857,"organizers":1.0,"accounts":1.0,"id":"a62254bgb2a9","geo_precision":"city","state":"Massachusetts"},"type":"Feature","geometry":{"type":"Point","coordinates":[-71.752266,42.583322]}},{"properties":{"city":"Lynn","supporters":41.0,"geo_score":0.857,"organizers":7.0,"accounts":8.0,"id":"a62254dzw764","geo_precision":"city","state":"Massachusetts"},"type":"Feature","geometry":{"type":"Point","coordinates":[-70.946743,42.461246]}},{"properties":{"city":"Malden","supporters":13.0,"geo_score":0.857,"organizers":7.0,"accounts":12.0,"id":"a62254e46xnt","geo_precision":"city","state":"Massachusetts"},"type":"Feature","geometry":{"type":"Point","coordinates":[-71.085396,42.436545]}},{"properties":{"city":"Manchester","supporters":5.0,"geo_score":0.857,"organizers":2.0,"accounts":2.0,"id":"a622545x64nk","geo_precision":"city","state":"Massachusetts"},"type":"Feature","geometry":{"type":"Point","coordinates":[-70.755062,42.579503]}},{"properties":{"city":"Manchester-By-The-Sea","supporters":2.0,"geo_score":0.794,"organizers":0.0,"accounts":0.0,"id":"a622545pkeju","geo_precision":"city","state":"Massachusetts"},"type":"Feature","geometry":{"type":"Point","coordinates":[-70.755062,42.579503]}},{"properties":{"city":"Mansfield","supporters":6.0,"geo_score":0.8,"organizers":3.0,"accounts":2.0,"id":"a6225498uo8a","geo_precision":"city","state":"Massachusetts"},"type":"Feature","geometry":{"type":"Point","coordinates":[-71.218079,42.022619]}},{"properties":{"city":"Marblehead","supporters":6.0,"geo_score":0.816,"organizers":1.0,"accounts":1.0,"id":"a62254k4z44q","geo_precision":"city","state":"Massachusetts"},"type":"Feature","geometry":{"type":"Point","coordinates":[-70.836991,42.500096]}},{"properties":{"city":"Marion","supporters":5.0,"geo_score":0.857,"organizers":1.0,"accounts":1.0,"id":"a62254f5c0rl","geo_precision":"city","state":"Massachusetts"},"type":"Feature","geometry":{"type":"Point","coordinates":[-70.754015,41.736735]}},{"properties":{"city":"Marlborough","supporters":22.0,"geo_score":0.818,"organizers":3.0,"accounts":2.0,"id":"a62254am9n8q","geo_precision":"city","state":"Massachusetts"},"type":"Feature","geometry":{"type":"Point","coordinates":[-70.97311,42.716759]}},{"properties":{"city":"Marshfield","supporters":20.0,"geo_score":0.804,"organizers":3.0,"accounts":3.0,"id":"a622548571i1","geo_precision":"city","state":"Massachusetts"},"type":"Feature","geometry":{"type":"Point","coordinates":[-70.71615,42.116769]}},{"properties":{"city":"Mashpee","supporters":2.0,"geo_score":0.857,"organizers":2.0,"accounts":2.0,"id":"a622546f0xob","geo_precision":"city","state":"Massachusetts"},"type":"Feature","geometry":{"type":"Point","coordinates":[-70.253543,41.788337]}},{"properties":{"city":"Mattapoisett","supporters":7.0,"geo_score":0.857,"organizers":5.0,"accounts":4.0,"id":"a62254g6fo7d","geo_precision":"city","state":"Massachusetts"},"type":"Feature","geometry":{"type":"Point","coordinates":[-70.810856,41.664976]}},{"properties":{"city":"Maynard","supporters":9.0,"geo_score":0.857,"organizers":1.0,"accounts":1.0,"id":"a622548l5kmm","geo_precision":"city","state":"Massachusetts"},"type":"Feature","geometry":{"type":"Point","coordinates":[-71.459405,42.446396]}},{"properties":{"city":"Medfield","supporters":3.0,"geo_score":0.821,"organizers":1.0,"accounts":2.0,"id":"a62254kq628g","geo_precision":"city","state":"Massachusetts"},"type":"Feature","geometry":{"type":"Point","coordinates":[-70.99671,42.033434]}},{"properties":{"city":"Medford","supporters":37.0,"geo_score":0.781,"organizers":4.0,"accounts":8.0,"id":"a62254hd9rpw","geo_precision":"city","state":"Massachusetts"},"type":"Feature","geometry":{"type":"Point","coordinates":[-71.125331,42.412596]}},{"properties":{"city":"Medway","supporters":20.0,"geo_score":0.857,"organizers":6.0,"accounts":4.0,"id":"a62254ke12jo","geo_precision":"city","state":"Massachusetts"},"type":"Feature","geometry":{"type":"Point","coordinates":[-71.427663,42.156282]}},{"properties":{"city":"Melrose","supporters":11.0,"geo_score":0.857,"organizers":1.0,"accounts":3.0,"id":"a6225454eg5e","geo_precision":"city","state":"Massachusetts"},"type":"Feature","geometry":{"type":"Point","coordinates":[-71.053095,42.458995]}},{"properties":{"city":"Merrimac","supporters":1.0,"geo_score":0.857,"organizers":1.0,"accounts":1.0,"id":"a62254d6cj14","geo_precision":"city","state":"Massachusetts"},"type":"Feature","geometry":{"type":"Point","coordinates":[-71.0896,42.802441]}},{"properties":{"city":"Methuen","supporters":5.0,"geo_score":0.857,"organizers":3.0,"accounts":3.0,"id":"a6225498ku0k","geo_precision":"city","state":"Massachusetts"},"type":"Feature","geometry":{"type":"Point","coordinates":[-71.186915,42.73184]}},{"properties":{"city":"Middleborough","supporters":4.0,"geo_score":0.824,"organizers":0.0,"accounts":0.0,"id":"a62254b0zgop","geo_precision":"city","state":"Massachusetts"},"type":"Feature","geometry":{"type":"Point","coordinates":[-70.701357,41.970474]}},{"properties":{"city":"Middlefield","supporters":1.0,"geo_score":0.857,"organizers":0.0,"accounts":0.0,"id":"a62254a3ubi6","geo_precision":"city","state":"Massachusetts"},"type":"Feature","geometry":{"type":"Point","coordinates":[-73.010448,42.356088]}},{"properties":{"city":"Middleton","supporters":3.0,"geo_score":0.857,"organizers":1.0,"accounts":1.0,"id":"a62254b3yv6z","geo_precision":"city","state":"Massachusetts"},"type":"Feature","geometry":{"type":"Point","coordinates":[-71.087905,42.644942]}},{"properties":{"city":"Milford","supporters":9.0,"geo_score":0.857,"organizers":3.0,"accounts":4.0,"id":"a62254fm6n5t","geo_precision":"city","state":"Massachusetts"},"type":"Feature","geometry":{"type":"Point","coordinates":[-71.528085,42.147087]}},{"properties":{"city":"Millbury","supporters":8.0,"geo_score":0.857,"organizers":0.0,"accounts":1.0,"id":"a62254hv0k1b","geo_precision":"city","state":"Massachusetts"},"type":"Feature","geometry":{"type":"Point","coordinates":[-71.819961,42.255642]}},{"properties":{"city":"Millis","supporters":1.0,"geo_score":0.857,"organizers":1.0,"accounts":1.0,"id":"a62254870t75","geo_precision":"city","state":"Massachusetts"},"type":"Feature","geometry":{"type":"Point","coordinates":[-71.36126,42.165249]}},{"properties":{"city":"Milton","supporters":21.0,"geo_score":0.786,"organizers":12.0,"accounts":9.0,"id":"a62254c1dcq7","geo_precision":"city","state":"Massachusetts"},"type":"Feature","geometry":{"type":"Point","coordinates":[-71.085396,42.436545]}},{"properties":{"city":"Monson","supporters":2.0,"geo_score":0.857,"organizers":1.0,"accounts":1.0,"id":"a62254jg4o84","geo_precision":"city","state":"Massachusetts"},"type":"Feature","geometry":{"type":"Point","coordinates":[-72.282063,42.095323]}},{"properties":{"city":"Montague","supporters":2.0,"geo_score":0.857,"organizers":0.0,"accounts":0.0,"id":"a62254ijtsqn","geo_precision":"city","state":"Massachusetts"},"type":"Feature","geometry":{"type":"Point","coordinates":[-72.48693,42.548107]}},{"properties":{"city":"Monterey","supporters":4.0,"geo_score":0.857,"organizers":1.0,"accounts":2.0,"id":"a622546as5w7","geo_precision":"city","state":"Massachusetts"},"type":"Feature","geometry":{"type":"Point","coordinates":[-73.206498,42.18669]}},{"properties":{"city":"Nahant","supporters":3.0,"geo_score":0.857,"organizers":2.0,"accounts":2.0,"id":"a62254f6tdux","geo_precision":"city","state":"Massachusetts"},"type":"Feature","geometry":{"type":"Point","coordinates":[-70.922442,42.427296]}},{"properties":{"city":"Nantucket","supporters":3.0,"geo_score":0.857,"organizers":0.0,"accounts":0.0,"id":"a62254fuuwky","geo_precision":"city","state":"Massachusetts"},"type":"Feature","geometry":{"type":"Point","coordinates":[-70.08665,41.287647]}},{"properties":{"city":"Natick","supporters":43.0,"geo_score":0.857,"organizers":9.0,"accounts":14.0,"id":"a62254j3zj7k","geo_precision":"city","state":"Massachusetts"},"type":"Feature","geometry":{"type":"Point","coordinates":[-71.459405,42.446396]}},{"properties":{"city":"Needham","supporters":3.0,"geo_score":0.857,"organizers":2.0,"accounts":2.0,"id":"a62254e6f3y3","geo_precision":"city","state":"Massachusetts"},"type":"Feature","geometry":{"type":"Point","coordinates":[-71.08923,42.180048]}},{"properties":{"city":"New Bedford","supporters":10.0,"geo_score":0.755,"organizers":5.0,"accounts":2.0,"id":"a622544m93o1","geo_precision":"city","state":"Massachusetts"},"type":"Feature","geometry":{"type":"Point","coordinates":[-71.270891,42.516205]}},{"properties":{"city":"New Salem","supporters":1.0,"geo_score":0.857,"organizers":0.0,"accounts":0.0,"id":"a62254ftvlex","geo_precision":"city","state":"Massachusetts"},"type":"Feature","geometry":{"type":"Point","coordinates":[-72.534371,42.518718]}},{"properties":{"city":"Newbury","supporters":8.0,"geo_score":0.857,"organizers":1.0,"accounts":2.0,"id":"a62254hhsu9b","geo_precision":"city","state":"Massachusetts"},"type":"Feature","geometry":{"type":"Point","coordinates":[-70.867246,42.777524]}},{"properties":{"city":"Newburyport","supporters":14.0,"geo_score":0.857,"organizers":4.0,"accounts":6.0,"id":"a62254a1icay","geo_precision":"city","state":"Massachusetts"},"type":"Feature","geometry":{"type":"Point","coordinates":[-70.873196,42.80965]}},{"properties":{"city":"Newton","supporters":null,"geo_score":0.837,"organizers":27.0,"accounts":null,"id":"a622549v86xf","geo_precision":"city","state":"Massachusetts"},"type":"Feature","geometry":{"type":"Point","coordinates":[-70.438637,41.671776]}},{"properties":{"city":"Norfolk","supporters":1.0,"geo_score":0.798,"organizers":0.0,"accounts":0.0,"id":"a62254c58jp1","geo_precision":"city","state":"Massachusetts"},"type":"Feature","geometry":{"type":"Point","coordinates":[-71.020327,42.272321]}},{"properties":{"city":"North Adams","supporters":2.0,"geo_score":0.786,"organizers":0.0,"accounts":1.0,"id":"a62254at9r9c","geo_precision":"city","state":"Massachusetts"},"type":"Feature","geometry":{"type":"Point","coordinates":[-73.172166,42.385595]}},{"properties":{"city":"North Andover","supporters":5.0,"geo_score":0.786,"organizers":2.0,"accounts":3.0,"id":"a622545hvpko","geo_precision":"city","state":"Massachusetts"},"type":"Feature","geometry":{"type":"Point","coordinates":[-71.357837,42.301485]}},{"properties":{"city":"North Attleboro","supporters":2.0,"geo_score":0.786,"organizers":1.0,"accounts":1.0,"id":"a62254ktt9wy","geo_precision":"city","state":"Massachusetts"},"type":"Feature","geometry":{"type":"Point","coordinates":[-72.581478,42.3862]}},{"properties":{"city":"North Reading","supporters":9.0,"geo_score":0.798,"organizers":2.0,"accounts":2.0,"id":"a6225487fw1t","geo_precision":"city","state":"Massachusetts"},"type":"Feature","geometry":{"type":"Point","coordinates":[-71.975909,42.430646]}},{"properties":{"city":"Northampton","supporters":28.0,"geo_score":0.857,"organizers":7.0,"accounts":7.0,"id":"a622549zg4cu","geo_precision":"city","state":"Massachusetts"},"type":"Feature","geometry":{"type":"Point","coordinates":[-72.76927,42.415154]}},{"properties":{"city":"Northborough","supporters":24.0,"geo_score":0.773,"organizers":8.0,"accounts":10.0,"id":"a62254jnofci","geo_precision":"city","state":"Massachusetts"},"type":"Feature","geometry":{"type":"Point","coordinates":[-71.672568,42.134818]}},{"properties":{"city":"Northbridge","supporters":12.0,"geo_score":0.807,"organizers":1.0,"accounts":2.0,"id":"a6225488cuek","geo_precision":"city","state":"Massachusetts"},"type":"Feature","geometry":{"type":"Point","coordinates":[-71.672568,42.134818]}},{"properties":{"city":"Northfield","supporters":3.0,"geo_score":0.857,"organizers":1.0,"accounts":1.0,"id":"a622544z2wxp","geo_precision":"city","state":"Massachusetts"},"type":"Feature","geometry":{"type":"Point","coordinates":[-72.624164,42.522178]}},{"properties":{"city":"Norton","supporters":1.0,"geo_score":0.857,"organizers":1.0,"accounts":1.0,"id":"a62254fd91es","geo_precision":"city","state":"Massachusetts"},"type":"Feature","geometry":{"type":"Point","coordinates":[-71.180393,41.959149]}},{"properties":{"city":"Norwell","supporters":16.0,"geo_score":0.857,"organizers":4.0,"accounts":3.0,"id":"a622548f9cxt","geo_precision":"city","state":"Massachusetts"},"type":"Feature","geometry":{"type":"Point","coordinates":[-70.823035,42.154145]}},{"properties":{"city":"Norwood","supporters":2.0,"geo_score":0.857,"organizers":2.0,"accounts":2.0,"id":"a62254b4ourj","geo_precision":"city","state":"Massachusetts"},"type":"Feature","geometry":{"type":"Point","coordinates":[-71.196277,42.182798]}},{"properties":{"city":"Oak Bluffs","supporters":1.0,"geo_score":0.857,"organizers":0.0,"accounts":0.0,"id":"a622548jwofs","geo_precision":"city","state":"Massachusetts"},"type":"Feature","geometry":{"type":"Point","coordinates":[-70.560032,41.417376]}},{"properties":{"city":"Orange","supporters":1.0,"geo_score":0.857,"organizers":1.0,"accounts":1.0,"id":"a62254hu7job","geo_precision":"city","state":"Massachusetts"},"type":"Feature","geometry":{"type":"Point","coordinates":[-72.556589,42.578325]}},{"properties":{"city":"Orleans","supporters":4.0,"geo_score":0.857,"organizers":1.0,"accounts":1.0,"id":"a62254kkuc2n","geo_precision":"city","state":"Massachusetts"},"type":"Feature","geometry":{"type":"Point","coordinates":[-70.01539,41.852933]}},{"properties":{"city":"Oxford","supporters":6.0,"geo_score":0.857,"organizers":0.0,"accounts":1.0,"id":"a62254863obr","geo_precision":"city","state":"Massachusetts"},"type":"Feature","geometry":{"type":"Point","coordinates":[-71.855444,42.109223]}},{"properties":{"city":"Palmer","supporters":2.0,"geo_score":0.857,"organizers":0.0,"accounts":1.0,"id":"a62254apa6a5","geo_precision":"city","state":"Massachusetts"},"type":"Feature","geometry":{"type":"Point","coordinates":[-72.31457,42.176131]}},{"properties":{"city":"Paxton","supporters":4.0,"geo_score":0.857,"organizers":0.0,"accounts":0.0,"id":"a6225461z9g0","geo_precision":"city","state":"Massachusetts"},"type":"Feature","geometry":{"type":"Point","coordinates":[-71.892875,42.304675]}},{"properties":{"city":"Peabody","supporters":2.0,"geo_score":0.857,"organizers":1.0,"accounts":1.0,"id":"a6225469m2f9","geo_precision":"city","state":"Massachusetts"},"type":"Feature","geometry":{"type":"Point","coordinates":[-70.973646,42.536996]}},{"properties":{"city":"Pelham","supporters":3.0,"geo_score":0.857,"organizers":0.0,"accounts":1.0,"id":"a62254db2gva","geo_precision":"city","state":"Massachusetts"},"type":"Feature","geometry":{"type":"Point","coordinates":[-72.403696,42.393146]}},{"properties":{"city":"Pembroke","supporters":4.0,"geo_score":0.857,"organizers":0.0,"accounts":1.0,"id":"a62254jqozte","geo_precision":"city","state":"Massachusetts"},"type":"Feature","geometry":{"type":"Point","coordinates":[-70.800778,42.065702]}},{"properties":{"city":"Pepperell","supporters":2.0,"geo_score":0.857,"organizers":1.0,"accounts":1.0,"id":"a62254b2rmwe","geo_precision":"city","state":"Massachusetts"},"type":"Feature","geometry":{"type":"Point","coordinates":[-71.459405,42.446396]}},{"properties":{"city":"Phillipston","supporters":1.0,"geo_score":0.857,"organizers":0.0,"accounts":0.0,"id":"a62254h0x2b0","geo_precision":"city","state":"Massachusetts"},"type":"Feature","geometry":{"type":"Point","coordinates":[-72.132858,42.548699]}},{"properties":{"city":"Pittsfield","supporters":25.0,"geo_score":0.857,"organizers":5.0,"accounts":8.0,"id":"a62254d7p6l9","geo_precision":"city","state":"Massachusetts"},"type":"Feature","geometry":{"type":"Point","coordinates":[-73.24807,42.479475]}},{"properties":{"city":"Plainfield","supporters":1.0,"geo_score":0.814,"organizers":0.0,"accounts":0.0,"id":"a62254jffr3u","geo_precision":"city","state":"Massachusetts"},"type":"Feature","geometry":{"type":"Point","coordinates":[-70.960595,41.682048]}},{"properties":{"city":"Plainville","supporters":3.0,"geo_score":0.857,"organizers":0.0,"accounts":1.0,"id":"a622546nxsjc","geo_precision":"city","state":"Massachusetts"},"type":"Feature","geometry":{"type":"Point","coordinates":[-70.960595,41.682048]}},{"properties":{"city":"Plymouth","supporters":48.0,"geo_score":0.857,"organizers":1.0,"accounts":3.0,"id":"a622548tax9l","geo_precision":"city","state":"Massachusetts"},"type":"Feature","geometry":{"type":"Point","coordinates":[-70.638717,41.886207]}},{"properties":{"city":"Princeton","supporters":8.0,"geo_score":0.795,"organizers":1.0,"accounts":1.0,"id":"a62254ktr3m2","geo_precision":"city","state":"Massachusetts"},"type":"Feature","geometry":{"type":"Point","coordinates":[-71.924519,42.448146]}},{"properties":{"city":"Providence","supporters":1.0,"geo_score":0.0,"organizers":1.0,"accounts":1.0,"id":"a62254etcn1c","geo_precision":"unmatched","state":"Massachusetts"},"type":"Feature","geometry":null},{"properties":{"city":"Provincetown","supporters":1.0,"geo_score":0.857,"organizers":0.0,"accounts":0.0,"id":"a62254ghw3sq","geo_precision":"city","state":"Massachusetts"},"type":"Feature","geometry":{"type":"Point","coordinates":[-70.091057,41.888775]}},{"properties":{"city":"Quincy","supporters":17.0,"geo_score":0.857,"organizers":10.0,"accounts":13.0,"id":"a622548thzxw","geo_precision":"city","state":"Massachusetts"},"type":"Feature","geometry":{"type":"Point","coordinates":[-71.006042,42.241799]}},{"properties":{"city":"Randolph","supporters":17.0,"geo_score":0.857,"organizers":8.0,"accounts":9.0,"id":"a62254gts725","geo_precision":"city","state":"Massachusetts"},"type":"Feature","geometry":{"type":"Point","coordinates":[-71.055602,42.171467]}},{"properties":{"city":"Reading","supporters":10.0,"geo_score":0.857,"organizers":4.0,"accounts":4.0,"id":"a62254brb13z","geo_precision":"city","state":"Massachusetts"},"type":"Feature","geometry":{"type":"Point","coordinates":[-71.107172,42.537065]}},{"properties":{"city":"Rehoboth","supporters":1.0,"geo_score":0.857,"organizers":0.0,"accounts":1.0,"id":"a62254fqwczt","geo_precision":"city","state":"Massachusetts"},"type":"Feature","geometry":{"type":"Point","coordinates":[-71.243061,41.852989]}},{"properties":{"city":"Revere","supporters":14.0,"geo_score":0.857,"organizers":2.0,"accounts":2.0,"id":"a62254hmp1uj","geo_precision":"city","state":"Massachusetts"},"type":"Feature","geometry":{"type":"Point","coordinates":[-71.020494,42.366303]}},{"properties":{"city":"Rockport","supporters":3.0,"geo_score":0.857,"organizers":0.0,"accounts":1.0,"id":"a62254jjt48o","geo_precision":"city","state":"Massachusetts"},"type":"Feature","geometry":{"type":"Point","coordinates":[-70.618057,42.657866]}},{"properties":{"city":"Rowley","supporters":3.0,"geo_score":0.857,"organizers":0.0,"accounts":0.0,"id":"a62254ism1b2","geo_precision":"city","state":"Massachusetts"},"type":"Feature","geometry":{"type":"Point","coordinates":[-70.892754,42.716155]}},{"properties":{"city":"Rutland","supporters":2.0,"geo_score":0.857,"organizers":1.0,"accounts":1.0,"id":"a62254ihbny1","geo_precision":"city","state":"Massachusetts"},"type":"Feature","geometry":{"type":"Point","coordinates":[-71.95463,42.383516]}},{"properties":{"city":"Salem","supporters":12.0,"geo_score":0.857,"organizers":6.0,"accounts":9.0,"id":"a62254943dzm","geo_precision":"city","state":"Massachusetts"},"type":"Feature","geometry":{"type":"Point","coordinates":[-70.873647,42.642845]}},{"properties":{"city":"Salisbury","supporters":6.0,"geo_score":0.806,"organizers":0.0,"accounts":0.0,"id":"a62254gs432e","geo_precision":"city","state":"Massachusetts"},"type":"Feature","geometry":{"type":"Point","coordinates":[-70.911999,42.841757]}},{"properties":{"city":"Sandwich","supporters":23.0,"geo_score":0.857,"organizers":2.0,"accounts":2.0,"id":"a6225478ix9u","geo_precision":"city","state":"Massachusetts"},"type":"Feature","geometry":{"type":"Point","coordinates":[-70.477482,41.711291]}},{"properties":{"city":"Saugus","supporters":13.0,"geo_score":0.857,"organizers":3.0,"accounts":3.0,"id":"a622549xkay7","geo_precision":"city","state":"Massachusetts"},"type":"Feature","geometry":{"type":"Point","coordinates":[-70.997794,42.472112]}},{"properties":{"city":"Scituate","supporters":7.0,"geo_score":0.857,"organizers":2.0,"accounts":2.0,"id":"a62254gmwdwr","geo_precision":"city","state":"Massachusetts"},"type":"Feature","geometry":{"type":"Point","coordinates":[-70.770188,42.207254]}},{"properties":{"city":"Seekonk","supporters":1.0,"geo_score":0.857,"organizers":0.0,"accounts":0.0,"id":"a62254aqzion","geo_precision":"city","state":"Massachusetts"},"type":"Feature","geometry":{"type":"Point","coordinates":[-71.318995,41.840103]}},{"properties":{"city":"Sharon","supporters":16.0,"geo_score":0.857,"organizers":3.0,"accounts":4.0,"id":"a622545iywug","geo_precision":"city","state":"Massachusetts"},"type":"Feature","geometry":{"type":"Point","coordinates":[-71.184785,42.105288]}},{"properties":{"city":"Shelburne","supporters":2.0,"geo_score":0.857,"organizers":2.0,"accounts":2.0,"id":"a62254b1p77z","geo_precision":"city","state":"Massachusetts"},"type":"Feature","geometry":{"type":"Point","coordinates":[-72.688424,42.589807]}},{"properties":{"city":"Sherborn","supporters":2.0,"geo_score":0.857,"organizers":0.0,"accounts":1.0,"id":"a62254i65wxi","geo_precision":"city","state":"Massachusetts"},"type":"Feature","geometry":{"type":"Point","coordinates":[-71.459405,42.446396]}},{"properties":{"city":"Shirley","supporters":7.0,"geo_score":0.857,"organizers":1.0,"accounts":0.0,"id":"a622546ygsvf","geo_precision":"city","state":"Massachusetts"},"type":"Feature","geometry":{"type":"Point","coordinates":[-71.459405,42.446396]}},{"properties":{"city":"Shrewsbury","supporters":28.0,"geo_score":0.857,"organizers":1.0,"accounts":1.0,"id":"a62254kmr1ko","geo_precision":"city","state":"Massachusetts"},"type":"Feature","geometry":{"type":"Point","coordinates":[-71.715313,42.286992]}},{"properties":{"city":"Shutesbury","supporters":2.0,"geo_score":0.857,"organizers":0.0,"accounts":0.0,"id":"a622546lic9z","geo_precision":"city","state":"Massachusetts"},"type":"Feature","geometry":{"type":"Point","coordinates":[-72.44017,42.471562]}},{"properties":{"city":"Somerset","supporters":6.0,"geo_score":0.857,"organizers":0.0,"accounts":0.0,"id":"a62254ein8s8","geo_precision":"city","state":"Massachusetts"},"type":"Feature","geometry":{"type":"Point","coordinates":[-71.173989,41.723851]}},{"properties":{"city":"Somerville","supporters":104.0,"geo_score":0.857,"organizers":26.0,"accounts":27.0,"id":"a6225498nx9z","geo_precision":"city","state":"Massachusetts"},"type":"Feature","geometry":{"type":"Point","coordinates":[-71.098896,42.38092]}},{"properties":{"city":"South Hadley","supporters":7.0,"geo_score":0.792,"organizers":2.0,"accounts":2.0,"id":"a6225476qcg4","geo_precision":"city","state":"Massachusetts"},"type":"Feature","geometry":{"type":"Point","coordinates":[-72.576613,42.356804]}},{"properties":{"city":"Southampton","supporters":2.0,"geo_score":0.857,"organizers":0.0,"accounts":1.0,"id":"a622545zucuo","geo_precision":"city","state":"Massachusetts"},"type":"Feature","geometry":{"type":"Point","coordinates":[-72.728463,42.230008]}},{"properties":{"city":"Southborough","supporters":10.0,"geo_score":0.857,"organizers":4.0,"accounts":6.0,"id":"a62254c8syjx","geo_precision":"city","state":"Massachusetts"},"type":"Feature","geometry":{"type":"Point","coordinates":[-71.524509,42.30565]}},{"properties":{"city":"Southbridge","supporters":1.0,"geo_score":0.857,"organizers":0.0,"accounts":0.0,"id":"a62254jjaju7","geo_precision":"city","state":"Massachusetts"},"type":"Feature","geometry":{"type":"Point","coordinates":[-72.031155,42.129251]}},{"properties":{"city":"Southwick","supporters":5.0,"geo_score":0.857,"organizers":4.0,"accounts":2.0,"id":"a622544xm8im","geo_precision":"city","state":"Massachusetts"},"type":"Feature","geometry":{"type":"Point","coordinates":[-72.541205,42.066644]}},{"properties":{"city":"Spencer","supporters":1.0,"geo_score":0.857,"organizers":0.0,"accounts":0.0,"id":"a622548ofrtc","geo_precision":"city","state":"Massachusetts"},"type":"Feature","geometry":{"type":"Point","coordinates":[-72.065612,42.254837]}},{"properties":{"city":"Springfield","supporters":52.0,"geo_score":0.857,"organizers":14.0,"accounts":17.0,"id":"a62254dotowq","geo_precision":"city","state":"Massachusetts"},"type":"Feature","geometry":{"type":"Point","coordinates":[-72.589811,42.101483]}},{"properties":{"city":"Stoneham","supporters":4.0,"geo_score":0.857,"organizers":2.0,"accounts":3.0,"id":"a62254jlrxnx","geo_precision":"city","state":"Massachusetts"},"type":"Feature","geometry":{"type":"Point","coordinates":[-71.098146,42.474595]}},{"properties":{"city":"Stoughton","supporters":5.0,"geo_score":0.857,"organizers":4.0,"accounts":3.0,"id":"a62254hejng9","geo_precision":"city","state":"Massachusetts"},"type":"Feature","geometry":{"type":"Point","coordinates":[-71.105733,42.118416]}},{"properties":{"city":"Stow","supporters":12.0,"geo_score":0.857,"organizers":5.0,"accounts":2.0,"id":"a62254d1uw27","geo_precision":"city","state":"Massachusetts"},"type":"Feature","geometry":{"type":"Point","coordinates":[-71.459405,42.446396]}},{"properties":{"city":"Sturbridge","supporters":5.0,"geo_score":0.857,"organizers":0.0,"accounts":0.0,"id":"a622545cbcch","geo_precision":"city","state":"Massachusetts"},"type":"Feature","geometry":{"type":"Point","coordinates":[-72.080996,42.10273]}},{"properties":{"city":"Sudbury","supporters":18.0,"geo_score":0.857,"organizers":2.0,"accounts":3.0,"id":"a62254fktzwb","geo_precision":"city","state":"Massachusetts"},"type":"Feature","geometry":{"type":"Point","coordinates":[-71.459405,42.446396]}},{"properties":{"city":"Sunderland","supporters":4.0,"geo_score":0.747,"organizers":0.0,"accounts":0.0,"id":"a6225465eou6","geo_precision":"city","state":"Massachusetts"},"type":"Feature","geometry":{"type":"Point","coordinates":[-71.15061,42.491206]}},{"properties":{"city":"Sutton","supporters":7.0,"geo_score":0.857,"organizers":2.0,"accounts":2.0,"id":"a62254fdh21a","geo_precision":"city","state":"Massachusetts"},"type":"Feature","geometry":{"type":"Point","coordinates":[-71.762848,42.150095]}},{"properties":{"city":"Swampscott","supporters":17.0,"geo_score":0.857,"organizers":7.0,"accounts":7.0,"id":"a62254jjn8wk","geo_precision":"city","state":"Massachusetts"},"type":"Feature","geometry":{"type":"Point","coordinates":[-70.905893,42.513295]}},{"properties":{"city":"Swansea","supporters":4.0,"geo_score":0.857,"organizers":0.0,"accounts":1.0,"id":"a62254hc5t6a","geo_precision":"city","state":"Massachusetts"},"type":"Feature","geometry":{"type":"Point","coordinates":[-71.234443,41.766629]}},{"properties":{"city":"Taunton","supporters":8.0,"geo_score":0.857,"organizers":2.0,"accounts":3.0,"id":"a622549e8426","geo_precision":"city","state":"Massachusetts"},"type":"Feature","geometry":{"type":"Point","coordinates":[-71.092827,41.858851]}},{"properties":{"city":"Templeton","supporters":2.0,"geo_score":0.857,"organizers":1.0,"accounts":2.0,"id":"a62254dgimeq","geo_precision":"city","state":"Massachusetts"},"type":"Feature","geometry":{"type":"Point","coordinates":[-72.072285,42.555059]}},{"properties":{"city":"Test","supporters":1.0,"geo_score":0.768,"organizers":0.0,"accounts":1.0,"id":"a62254hfz6u2","geo_precision":"city","state":"Massachusetts"},"type":"Feature","geometry":{"type":"Point","coordinates":[-71.227269,41.720935]}},{"properties":{"city":"Tewksbury","supporters":7.0,"geo_score":0.857,"organizers":3.0,"accounts":4.0,"id":"a62254keyoly","geo_precision":"city","state":"Massachusetts"},"type":"Feature","geometry":{"type":"Point","coordinates":[-71.459405,42.446396]}},{"properties":{"city":"Tisbury","supporters":1.0,"geo_score":0.0,"organizers":0.0,"accounts":0.0,"id":"a62254jxja11","geo_precision":"unmatched","state":"Massachusetts"},"type":"Feature","geometry":null},{"properties":{"city":"Topsfield","supporters":3.0,"geo_score":0.857,"organizers":1.0,"accounts":2.0,"id":"a62254eqj7y0","geo_precision":"city","state":"Massachusetts"},"type":"Feature","geometry":{"type":"Point","coordinates":[-70.954487,42.661793]}},{"properties":{"city":"Townsend","supporters":3.0,"geo_score":0.796,"organizers":0.0,"accounts":0.0,"id":"a622548et3en","geo_precision":"city","state":"Massachusetts"},"type":"Feature","geometry":{"type":"Point","coordinates":[-71.671737,42.652867]}},{"properties":{"city":"Truro","supporters":3.0,"geo_score":0.8,"organizers":0.0,"accounts":0.0,"id":"a62254g4cbe5","geo_precision":"city","state":"Massachusetts"},"type":"Feature","geometry":{"type":"Point","coordinates":[-72.986231,42.642666]}},{"properties":{"city":"Tyngsboro","supporters":1.0,"geo_score":0.857,"organizers":0.0,"accounts":0.0,"id":"a62254f90519","geo_precision":"city","state":"Massachusetts"},"type":"Feature","geometry":{"type":"Point","coordinates":[-71.459405,42.446396]}},{"properties":{"city":"Tyringham","supporters":1.0,"geo_score":0.857,"organizers":0.0,"accounts":0.0,"id":"a62254k9h37k","geo_precision":"city","state":"Massachusetts"},"type":"Feature","geometry":{"type":"Point","coordinates":[-73.197865,42.220001]}},{"properties":{"city":"Uxbridge","supporters":1.0,"geo_score":0.857,"organizers":1.0,"accounts":1.0,"id":"a622549y5c4b","geo_precision":"city","state":"Massachusetts"},"type":"Feature","geometry":{"type":"Point","coordinates":[-71.638438,42.059736]}},{"properties":{"city":"Wakefield","supporters":13.0,"geo_score":0.79,"organizers":1.0,"accounts":1.0,"id":"a62254dl03qx","geo_precision":"city","state":"Massachusetts"},"type":"Feature","geometry":{"type":"Point","coordinates":[-71.07033,42.495929]}},{"properties":{"city":"Walpole","supporters":10.0,"geo_score":0.857,"organizers":4.0,"accounts":2.0,"id":"a62254b6sgmk","geo_precision":"city","state":"Massachusetts"},"type":"Feature","geometry":{"type":"Point","coordinates":[-71.255533,42.148624]}},{"properties":{"city":"Waltham","supporters":22.0,"geo_score":0.857,"organizers":5.0,"accounts":8.0,"id":"a622548aq2d4","geo_precision":"city","state":"Massachusetts"},"type":"Feature","geometry":{"type":"Point","coordinates":[-71.2398,42.388938]}},{"properties":{"city":"Ware","supporters":3.0,"geo_score":0.857,"organizers":0.0,"accounts":1.0,"id":"a62254dyxyvj","geo_precision":"city","state":"Massachusetts"},"type":"Feature","geometry":{"type":"Point","coordinates":[-72.548549,42.377471]}},{"properties":{"city":"Wareham","supporters":5.0,"geo_score":0.857,"organizers":2.0,"accounts":3.0,"id":"a62254k5eyz2","geo_precision":"city","state":"Massachusetts"},"type":"Feature","geometry":{"type":"Point","coordinates":[-70.694662,41.760216]}},{"properties":{"city":"Warren","supporters":1.0,"geo_score":0.857,"organizers":1.0,"accounts":1.0,"id":"a62254jhmm8l","geo_precision":"city","state":"Massachusetts"},"type":"Feature","geometry":{"type":"Point","coordinates":[-72.199439,42.204027]}},{"properties":{"city":"Washington","supporters":3.0,"geo_score":0.857,"organizers":2.0,"accounts":3.0,"id":"a62254dspj17","geo_precision":"city","state":"Massachusetts"},"type":"Feature","geometry":{"type":"Point","coordinates":[-73.116214,42.36592]}},{"properties":{"city":"Watertown","supporters":23.0,"geo_score":0.857,"organizers":5.0,"accounts":5.0,"id":"a62254b3a84x","geo_precision":"city","state":"Massachusetts"},"type":"Feature","geometry":{"type":"Point","coordinates":[-71.177998,42.372596]}},{"properties":{"city":"Wayland","supporters":6.0,"geo_score":0.857,"organizers":4.0,"accounts":5.0,"id":"a62254iihja9","geo_precision":"city","state":"Massachusetts"},"type":"Feature","geometry":{"type":"Point","coordinates":[-71.459405,42.446396]}},{"properties":{"city":"Webster","supporters":4.0,"geo_score":0.791,"organizers":1.0,"accounts":1.0,"id":"a62254deovtp","geo_precision":"city","state":"Massachusetts"},"type":"Feature","geometry":{"type":"Point","coordinates":[-71.831461,42.243149]}},{"properties":{"city":"Wellesley","supporters":26.0,"geo_score":0.857,"organizers":8.0,"accounts":10.0,"id":"a62254g1f5dm","geo_precision":"city","state":"Massachusetts"},"type":"Feature","geometry":{"type":"Point","coordinates":[-71.27875,42.300596]}},{"properties":{"city":"Wendell","supporters":1.0,"geo_score":0.857,"organizers":0.0,"accounts":0.0,"id":"a62254argy90","geo_precision":"city","state":"Massachusetts"},"type":"Feature","geometry":{"type":"Point","coordinates":[-72.437179,42.581007]}},{"properties":{"city":"Wenham","supporters":2.0,"geo_score":0.857,"organizers":1.0,"accounts":1.0,"id":"a62254c1pubi","geo_precision":"city","state":"Massachusetts"},"type":"Feature","geometry":{"type":"Point","coordinates":[-70.8732,42.597691]}},{"properties":{"city":"West Boylston","supporters":4.0,"geo_score":0.81,"organizers":3.0,"accounts":2.0,"id":"a62254b4n1rr","geo_precision":"city","state":"Massachusetts"},"type":"Feature","geometry":{"type":"Point","coordinates":[-71.943458,42.300037]}},{"properties":{"city":"West Bridgewater","supporters":1.0,"geo_score":0.781,"organizers":1.0,"accounts":1.0,"id":"a622549at5rb","geo_precision":"city","state":"Massachusetts"},"type":"Feature","geometry":{"type":"Point","coordinates":[-72.260635,42.175649]}},{"properties":{"city":"West Brookfield","supporters":4.0,"geo_score":0.755,"organizers":0.0,"accounts":1.0,"id":"a622546l3p7p","geo_precision":"city","state":"Massachusetts"},"type":"Feature","geometry":{"type":"Point","coordinates":[-72.712035,42.506475]}},{"properties":{"city":"West Newbury","supporters":6.0,"geo_score":0.802,"organizers":1.0,"accounts":1.0,"id":"a62254atjik6","geo_precision":"city","state":"Massachusetts"},"type":"Feature","geometry":{"type":"Point","coordinates":[-73.095385,42.102036]}},{"properties":{"city":"West Springfield","supporters":11.0,"geo_score":0.819,"organizers":1.0,"accounts":1.0,"id":"a62254farb69","geo_precision":"city","state":"Massachusetts"},"type":"Feature","geometry":{"type":"Point","coordinates":[-72.589811,42.101483]}},{"properties":{"city":"West Tisbury","supporters":4.0,"geo_score":0.857,"organizers":1.0,"accounts":1.0,"id":"a62254fi59zf","geo_precision":"city","state":"Massachusetts"},"type":"Feature","geometry":{"type":"Point","coordinates":[-70.642806,41.42125]}},{"properties":{"city":"Westborough","supporters":33.0,"geo_score":0.769,"organizers":8.0,"accounts":6.0,"id":"a62254iszrpw","geo_precision":"city","state":"Massachusetts"},"type":"Feature","geometry":{"type":"Point","coordinates":[-72.260635,42.175649]}},{"properties":{"city":"Westfield","supporters":9.0,"geo_score":0.81,"organizers":1.0,"accounts":2.0,"id":"a62254978wcf","geo_precision":"city","state":"Massachusetts"},"type":"Feature","geometry":{"type":"Point","coordinates":[-71.135602,41.886212]}},{"properties":{"city":"Westford","supporters":2.0,"geo_score":0.81,"organizers":0.0,"accounts":0.0,"id":"a622548szd6b","geo_precision":"city","state":"Massachusetts"},"type":"Feature","geometry":{"type":"Point","coordinates":[-72.714814,42.309811]}},{"properties":{"city":"Westhampton","supporters":1.0,"geo_score":0.857,"organizers":0.0,"accounts":0.0,"id":"a62254gf1lt8","geo_precision":"city","state":"Massachusetts"},"type":"Feature","geometry":{"type":"Point","coordinates":[-72.774538,42.302867]}},{"properties":{"city":"Westminster","supporters":3.0,"geo_score":0.816,"organizers":0.0,"accounts":0.0,"id":"a62254iot7di","geo_precision":"city","state":"Massachusetts"},"type":"Feature","geometry":{"type":"Point","coordinates":[-70.782825,42.566762]}},{"properties":{"city":"Weston","supporters":11.0,"geo_score":0.857,"organizers":3.0,"accounts":2.0,"id":"a62254ky0rvi","geo_precision":"city","state":"Massachusetts"},"type":"Feature","geometry":{"type":"Point","coordinates":[-71.459405,42.446396]}},{"properties":{"city":"Westport","supporters":13.0,"geo_score":0.79,"organizers":1.0,"accounts":1.0,"id":"a62254fha4xs","geo_precision":"city","state":"Massachusetts"},"type":"Feature","geometry":{"type":"Point","coordinates":[-71.049486,41.638992]}},{"properties":{"city":"Westwood","supporters":2.0,"geo_score":0.857,"organizers":0.0,"accounts":2.0,"id":"a62254fryxlg","geo_precision":"city","state":"Massachusetts"},"type":"Feature","geometry":{"type":"Point","coordinates":[-71.199238,42.220548]}},{"properties":{"city":"Weymouth","supporters":39.0,"geo_score":0.857,"organizers":5.0,"accounts":4.0,"id":"a62254dxqmvh","geo_precision":"city","state":"Massachusetts"},"type":"Feature","geometry":{"type":"Point","coordinates":[-70.95514,42.20794]}},{"properties":{"city":"Whately","supporters":1.0,"geo_score":0.857,"organizers":1.0,"accounts":1.0,"id":"a62254e01329","geo_precision":"city","state":"Massachusetts"},"type":"Feature","geometry":{"type":"Point","coordinates":[-72.652511,42.442673]}},{"properties":{"city":"Wilbraham","supporters":2.0,"geo_score":0.857,"organizers":1.0,"accounts":1.0,"id":"a62254jre1p4","geo_precision":"city","state":"Massachusetts"},"type":"Feature","geometry":{"type":"Point","coordinates":[-72.489988,42.125974]}},{"properties":{"city":"Williamsburg","supporters":1.0,"geo_score":0.857,"organizers":1.0,"accounts":1.0,"id":"a62254bb5pun","geo_precision":"city","state":"Massachusetts"},"type":"Feature","geometry":{"type":"Point","coordinates":[-72.821653,42.413069]}},{"properties":{"city":"Williamstown","supporters":4.0,"geo_score":0.857,"organizers":3.0,"accounts":4.0,"id":"a622549a14zt","geo_precision":"city","state":"Massachusetts"},"type":"Feature","geometry":{"type":"Point","coordinates":[-73.257699,42.642075]}},{"properties":{"city":"Winchester","supporters":33.0,"geo_score":0.789,"organizers":6.0,"accounts":6.0,"id":"a62254kg0m48","geo_precision":"city","state":"Massachusetts"},"type":"Feature","geometry":{"type":"Point","coordinates":[-71.125887,42.466762]}},{"properties":{"city":"Winthrop","supporters":3.0,"geo_score":0.802,"organizers":0.0,"accounts":1.0,"id":"a62254cp8wzb","geo_precision":"city","state":"Massachusetts"},"type":"Feature","geometry":{"type":"Point","coordinates":[-70.973105,42.377875]}},{"properties":{"city":"Woburn","supporters":3.0,"geo_score":0.857,"organizers":2.0,"accounts":2.0,"id":"a622544p872q","geo_precision":"city","state":"Massachusetts"},"type":"Feature","geometry":{"type":"Point","coordinates":[-71.157271,42.488595]}},{"properties":{"city":"Worcester","supporters":140.0,"geo_score":0.857,"organizers":42.0,"accounts":21.0,"id":"a622546gty0m","geo_precision":"city","state":"Massachusetts"},"type":"Feature","geometry":{"type":"Point","coordinates":[-71.802293,42.262593]}},{"properties":{"city":"Yarmouth","supporters":12.0,"geo_score":0.857,"organizers":3.0,"accounts":4.0,"id":"a62254f3bj30","geo_precision":"city","state":"Massachusetts"},"type":"Feature","geometry":{"type":"Point","coordinates":[-70.228631,41.705666]}}],"is_temporal":false,"author":{"url":"","metadata":"","contact_name":"","contact_address":"","source":"","contact_phone":""},"source":"","pagination":{"sort":null,"start":0,"total":274,"limit":1000000},"state":"complete","tags":"","published":"2014-08-10T15:24:47-04:00","id":34871}