{"type":"FeatureCollection","data_type":"Dataset","url_type":null,"permissions":[{"permissions":{"download":true,"view":true},"group_id":"everyone"}],"classification":null,"title":"Walgreens Locations - Madison, WI","count":34,"stream_id":35052,"contributor":{"url":"http://geocommons.com/users/695","name":"Bill"},"data_attributes":null,"calculation_params":null,"icon_link":null,"link":"http://geocommons.com/overlays/35052.json","extent":[-89.7385,42.9186,-89.2037,43.2378],"geometry_types":["point"],"unique_name":null,"name":"Walgreens Locations - Madison, WI","feature_count":34,"description":"Walgreens within 20 miles of Madison, Wisconsin","next_feature":null,"is_raster":false,"short_classification":"Y","stats":{"latitude":{"max":43.237764,"mean":43.0732410558824,"variance":0.00481092446102496,"stdev":0.0693608280012931,"min":42.9185514,"median":43.0741914},"longitude":{"max":-89.2036751,"mean":-89.4111830911765,"variance":0.0117132316893074,"stdev":0.108227684486491,"min":-89.7384562,"median":-89.3970537},"distance":{"max":16.8,"mean":6.12941176470588,"variance":12.4251693404635,"stdev":3.52493536684908,"min":0.8,"median":5.1}},"features":[{"properties":{"latitude":42.990758,"longitude":-89.534236,"id":"a62kvtt0uiwi","address":"104","distance":9.1},"type":"Feature","geometry":{"type":"Point","coordinates":[-89.534236,42.990758]}},{"properties":{"latitude":43.0836485,"longitude":-89.3244805,"id":"a62kvtw56nc6","address":"108","distance":4.1},"type":"Feature","geometry":{"type":"Point","coordinates":[-89.3244805,43.0836485]}},{"properties":{"latitude":43.008608,"longitude":-89.7384562,"id":"a62kvtr3tjbd","address":"1401","distance":16.8},"type":"Feature","geometry":{"type":"Point","coordinates":[-89.7384562,43.008608]}},{"properties":{"latitude":43.0741914,"longitude":-89.3826428,"id":"a62kvtv7ykxr","address":"15","distance":1.4},"type":"Feature","geometry":{"type":"Point","coordinates":[-89.3826428,43.0741914]}},{"properties":{"latitude":42.9185514,"longitude":-89.2036751,"id":"a62kvtqa4jsv","address":"1705","distance":13.1},"type":"Feature","geometry":{"type":"Point","coordinates":[-89.2036751,42.9185514]}},{"properties":{"latitude":43.129524,"longitude":-89.362109,"id":"a62kvtw7ogd6","address":"1725","distance":3.9},"type":"Feature","geometry":{"type":"Point","coordinates":[-89.362109,43.129524]}},{"properties":{"latitude":43.0970561,"longitude":-89.495103,"id":"a62kvtxc8ap8","address":"2010","distance":4.6},"type":"Feature","geometry":{"type":"Point","coordinates":[-89.495103,43.0970561]}},{"properties":{"latitude":43.0421509,"longitude":-89.3935,"id":"a62kvtumn1vx","address":"2121","distance":2.9},"type":"Feature","geometry":{"type":"Point","coordinates":[-89.3935,43.0421509]}},{"properties":{"latitude":43.186912,"longitude":-89.228916,"id":"a62kvto3xixl","address":"275","distance":11.4},"type":"Feature","geometry":{"type":"Point","coordinates":[-89.228916,43.186912]}},{"properties":{"latitude":43.1025149,"longitude":-89.344232,"id":"a62kvtp39ohm","address":"2909","distance":3.4},"type":"Feature","geometry":{"type":"Point","coordinates":[-89.344232,43.1025149]}},{"properties":{"latitude":43.015218,"longitude":-89.426492,"id":"a62kvtypg9hy","address":"2931","distance":4.9},"type":"Feature","geometry":{"type":"Point","coordinates":[-89.426492,43.015218]}},{"properties":{"latitude":43.0536552,"longitude":-89.3042182,"id":"a62kvtyna9fv","address":"3060","distance":5.6},"type":"Feature","geometry":{"type":"Point","coordinates":[-89.3042182,43.0536552]}},{"properties":{"latitude":43.0732411,"longitude":-89.3990486,"id":"a62kvtus4k2c","address":"311","distance":1.2},"type":"Feature","geometry":{"type":"Point","coordinates":[-89.3990486,43.0732411]}},{"properties":{"latitude":43.0754097,"longitude":-89.4499842,"id":"a62kvtv0jqng","address":"3700","distance":2.3},"type":"Feature","geometry":{"type":"Point","coordinates":[-89.4499842,43.0754097]}},{"properties":{"latitude":43.118189,"longitude":-89.32399,"id":"a62kvty9gqdw","address":"3710","distance":4.8},"type":"Feature","geometry":{"type":"Point","coordinates":[-89.32399,43.118189]}},{"properties":{"latitude":43.1920095,"longitude":-89.4602998,"id":"a62kvtwqksaj","address":"401","distance":8.0},"type":"Feature","geometry":{"type":"Point","coordinates":[-89.4602998,43.1920095]}},{"properties":{"latitude":43.1948852,"longitude":-89.3341843,"id":"a62kvtw8xk4y","address":"4400","distance":8.4},"type":"Feature","geometry":{"type":"Point","coordinates":[-89.3341843,43.1948852]}},{"properties":{"latitude":43.0842917,"longitude":-89.3033163,"id":"a62kvttfk0sy","address":"4518","distance":5.1},"type":"Feature","geometry":{"type":"Point","coordinates":[-89.3033163,43.0842917]}},{"properties":{"latitude":43.017089,"longitude":-89.302254,"id":"a62kvtqk76t7","address":"4605","distance":7.7},"type":"Feature","geometry":{"type":"Point","coordinates":[-89.302254,43.017089]}},{"properties":{"latitude":43.033156,"longitude":-89.455483,"id":"a62kvtz48tma","address":"4641","distance":4.3},"type":"Feature","geometry":{"type":"Point","coordinates":[-89.455483,43.033156]}},{"properties":{"latitude":43.0342115,"longitude":-89.4564014,"id":"a62kvtz8ajby","address":"4642","distance":4.2},"type":"Feature","geometry":{"type":"Point","coordinates":[-89.4564014,43.0342115]}},{"properties":{"latitude":43.0621441,"longitude":-89.3261558,"id":"a62kvtx5twvo","address":"5300","distance":4.3},"type":"Feature","geometry":{"type":"Point","coordinates":[-89.3261558,43.0621441]}},{"properties":{"latitude":43.1827327,"longitude":-89.2646667,"id":"a62kvtqegotl","address":"546","distance":10.0},"type":"Feature","geometry":{"type":"Point","coordinates":[-89.2646667,43.1827327]}},{"properties":{"latitude":43.03242,"longitude":-89.478205,"id":"a62kvtp20v02","address":"5702","distance":5.1},"type":"Feature","geometry":{"type":"Point","coordinates":[-89.478205,43.03242]}},{"properties":{"latitude":43.053144,"longitude":-89.474298,"id":"a62kvu3uj5xi","address":"606","distance":4.0},"type":"Feature","geometry":{"type":"Point","coordinates":[-89.474298,43.053144]}},{"properties":{"latitude":43.015244,"longitude":-89.497967,"id":"a62kvto608u7","address":"6601","distance":6.6},"type":"Feature","geometry":{"type":"Point","coordinates":[-89.497967,43.015244]}},{"properties":{"latitude":43.0748512,"longitude":-89.3970537,"id":"a62kvtxcyws1","address":"676","distance":0.8},"type":"Feature","geometry":{"type":"Point","coordinates":[-89.3970537,43.0748512]}},{"properties":{"latitude":43.096972,"longitude":-89.500294,"id":"a62kvtuay3tw","address":"6825","distance":4.8},"type":"Feature","geometry":{"type":"Point","coordinates":[-89.500294,43.096972]}},{"properties":{"latitude":42.936494,"longitude":-89.382746,"id":"a62kvu0bcie0","address":"704","distance":10.3},"type":"Feature","geometry":{"type":"Point","coordinates":[-89.382746,42.936494]}},{"properties":{"latitude":43.0605959,"longitude":-89.5196915,"id":"a62kvtu80oyx","address":"7810","distance":5.9},"type":"Feature","geometry":{"type":"Point","coordinates":[-89.5196915,43.0605959]}},{"properties":{"latitude":43.0618229,"longitude":-89.519127,"id":"a62kvtvw60gp","address":"7941","distance":5.9},"type":"Feature","geometry":{"type":"Point","coordinates":[-89.519127,43.0618229]}},{"properties":{"latitude":43.237764,"longitude":-89.342746,"id":"a62kvtpugnr8","address":"807","distance":11.2},"type":"Feature","geometry":{"type":"Point","coordinates":[-89.342746,43.237764]}},{"properties":{"latitude":43.07537,"longitude":-89.527126,"id":"a62kvtxkjaoh","address":"8302","distance":6.1},"type":"Feature","geometry":{"type":"Point","coordinates":[-89.527126,43.07537]}},{"properties":{"latitude":43.07537,"longitude":-89.527126,"id":"a62kvtqo0uk2","address":"8302","distance":6.2},"type":"Feature","geometry":{"type":"Point","coordinates":[-89.527126,43.07537]}}],"is_temporal":false,"author":{"url":"","metadata":"","contact_name":"","contact_address":"","source":"Insiderpages.com","contact_phone":""},"source":"","pagination":{"sort":null,"start":0,"total":34,"limit":1000000},"state":"complete","tags":"retail,stores,walgreens,wisconsin","published":"2010-03-26T16:00:00Z","id":35052}