{"type":"FeatureCollection","data_type":"Dataset","url_type":null,"permissions":[{"permissions":{"download":true,"view":true},"group_id":"everyone"}],"classification":null,"title":"conreport2009","count":30,"stream_id":350553,"contributor":{"url":"http://geocommons.com/users/70641","name":"acgoff"},"data_attributes":null,"calculation_params":null,"icon_link":null,"link":"http://geocommons.com/overlays/350553.json","extent":[0.0,0.0,0.0,0.0],"geometry_types":null,"unique_name":null,"name":"conreport2009","feature_count":30,"description":"","next_feature":null,"is_raster":false,"short_classification":"Y","features":[{"properties":{"lead mean 24-hr":".","pm10 mean 24-hr":"28","state_fips":"08","co 2nd max 1-hr":"2.6","county":"Adams","no2 98th percentile 1-hr":"63","so2 2nd max 24-hr":"5","ozone 4th max 8-hr":"0.072","pm10 2nd max 24-hr":"93","so2 99th percentile 1-hr":"33","co 2nd max 8-hr":"1.9","id":"adujhec5ga5x","pm2.5 weighted mean 24-hr":"8.1","pm2.5 98th percentile 24-hr":"22","ozone 2nd max 1-hr":"0.09","county_fips":"001","state":"CO"},"type":"Feature","geometry":null},{"properties":{"lead mean 24-hr":".","pm10 mean 24-hr":"24","state_fips":"08","co 2nd max 1-hr":".","county":"Alamosa","no2 98th percentile 1-hr":".","so2 2nd max 24-hr":".","ozone 4th max 8-hr":".","pm10 2nd max 24-hr":"135","so2 99th percentile 1-hr":".","co 2nd max 8-hr":".","id":"adujhefebwe5","pm2.5 weighted mean 24-hr":".","pm2.5 98th percentile 24-hr":".","ozone 2nd max 1-hr":".","county_fips":"003","state":"CO"},"type":"Feature","geometry":null},{"properties":{"lead mean 24-hr":".","pm10 mean 24-hr":".","state_fips":"08","co 2nd max 1-hr":".","county":"Arapahoe","no2 98th percentile 1-hr":".","so2 2nd max 24-hr":".","ozone 4th max 8-hr":"0.069","pm10 2nd max 24-hr":".","so2 99th percentile 1-hr":".","co 2nd max 8-hr":".","id":"adujhem13f86","pm2.5 weighted mean 24-hr":"6.4","pm2.5 98th percentile 24-hr":"16","ozone 2nd max 1-hr":"0.09","county_fips":"005","state":"CO"},"type":"Feature","geometry":null},{"properties":{"lead mean 24-hr":".","pm10 mean 24-hr":"25","state_fips":"08","co 2nd max 1-hr":".","county":"Archuleta","no2 98th percentile 1-hr":".","so2 2nd max 24-hr":".","ozone 4th max 8-hr":".","pm10 2nd max 24-hr":"225","so2 99th percentile 1-hr":".","co 2nd max 8-hr":".","id":"adujhe73009p","pm2.5 weighted mean 24-hr":".","pm2.5 98th percentile 24-hr":".","ozone 2nd max 1-hr":".","county_fips":"007","state":"CO"},"type":"Feature","geometry":null},{"properties":{"lead mean 24-hr":".","pm10 mean 24-hr":"20","state_fips":"08","co 2nd max 1-hr":"3.2","county":"Boulder","no2 98th percentile 1-hr":".","so2 2nd max 24-hr":".","ozone 4th max 8-hr":"0.073","pm10 2nd max 24-hr":"38","so2 99th percentile 1-hr":".","co 2nd max 8-hr":"1.6","id":"adujheh0pvyz","pm2.5 weighted mean 24-hr":"7.3","pm2.5 98th percentile 24-hr":"19","ozone 2nd max 1-hr":"0.09","county_fips":"013","state":"CO"},"type":"Feature","geometry":null},{"properties":{"lead mean 24-hr":".","pm10 mean 24-hr":".","state_fips":"08","co 2nd max 1-hr":".","county":"Chaffee","no2 98th percentile 1-hr":".","so2 2nd max 24-hr":".","ozone 4th max 8-hr":"0.062","pm10 2nd max 24-hr":".","so2 99th percentile 1-hr":".","co 2nd max 8-hr":".","id":"adujhemrhyj2","pm2.5 weighted mean 24-hr":".","pm2.5 98th percentile 24-hr":".","ozone 2nd max 1-hr":"0.07","county_fips":"015","state":"CO"},"type":"Feature","geometry":null},{"properties":{"lead mean 24-hr":".","pm10 mean 24-hr":".","state_fips":"08","co 2nd max 1-hr":".","county":"Clear Creek","no2 98th percentile 1-hr":".","so2 2nd max 24-hr":".","ozone 4th max 8-hr":"0.065","pm10 2nd max 24-hr":".","so2 99th percentile 1-hr":".","co 2nd max 8-hr":".","id":"adujhe9erm2p","pm2.5 weighted mean 24-hr":".","pm2.5 98th percentile 24-hr":".","ozone 2nd max 1-hr":"0.08","county_fips":"019","state":"CO"},"type":"Feature","geometry":null},{"properties":{"lead mean 24-hr":".","pm10 mean 24-hr":"27","state_fips":"08","co 2nd max 1-hr":".","county":"Delta","no2 98th percentile 1-hr":".","so2 2nd max 24-hr":".","ozone 4th max 8-hr":".","pm10 2nd max 24-hr":"114","so2 99th percentile 1-hr":".","co 2nd max 8-hr":".","id":"adujhel9jndi","pm2.5 weighted mean 24-hr":".","pm2.5 98th percentile 24-hr":".","ozone 2nd max 1-hr":".","county_fips":"029","state":"CO"},"type":"Feature","geometry":null},{"properties":{"lead mean 24-hr":"0.01","pm10 mean 24-hr":"26","state_fips":"08","co 2nd max 1-hr":"6.8","county":"Denver","no2 98th percentile 1-hr":"80","so2 2nd max 24-hr":"5","ozone 4th max 8-hr":"0.063","pm10 2nd max 24-hr":"58","so2 99th percentile 1-hr":"35","co 2nd max 8-hr":"2.2","id":"adujhefx4uck","pm2.5 weighted mean 24-hr":"7.7","pm2.5 98th percentile 24-hr":"19","ozone 2nd max 1-hr":"0.08","county_fips":"031","state":"CO"},"type":"Feature","geometry":null},{"properties":{"lead mean 24-hr":".","pm10 mean 24-hr":".","state_fips":"08","co 2nd max 1-hr":".","county":"Douglas","no2 98th percentile 1-hr":".","so2 2nd max 24-hr":".","ozone 4th max 8-hr":"0.071","pm10 2nd max 24-hr":".","so2 99th percentile 1-hr":".","co 2nd max 8-hr":".","id":"adujhemw39ti","pm2.5 weighted mean 24-hr":"5.7","pm2.5 98th percentile 24-hr":"18","ozone 2nd max 1-hr":"0.1","county_fips":"035","state":"CO"},"type":"Feature","geometry":null},{"properties":{"lead mean 24-hr":".","pm10 mean 24-hr":"17","state_fips":"08","co 2nd max 1-hr":"3.6","county":"El Paso","no2 98th percentile 1-hr":".","so2 2nd max 24-hr":".","ozone 4th max 8-hr":"0.064","pm10 2nd max 24-hr":"32","so2 99th percentile 1-hr":".","co 2nd max 8-hr":"1.9","id":"adujhee2yk17","pm2.5 weighted mean 24-hr":"5.6","pm2.5 98th percentile 24-hr":"11","ozone 2nd max 1-hr":"0.07","county_fips":"041","state":"CO"},"type":"Feature","geometry":null},{"properties":{"lead mean 24-hr":".","pm10 mean 24-hr":".","state_fips":"08","co 2nd max 1-hr":".","county":"Elbert","no2 98th percentile 1-hr":".","so2 2nd max 24-hr":".","ozone 4th max 8-hr":".","pm10 2nd max 24-hr":".","so2 99th percentile 1-hr":".","co 2nd max 8-hr":".","id":"adujheg9ccrx","pm2.5 weighted mean 24-hr":"3.9","pm2.5 98th percentile 24-hr":"10","ozone 2nd max 1-hr":".","county_fips":"039","state":"CO"},"type":"Feature","geometry":null},{"properties":{"lead mean 24-hr":".","pm10 mean 24-hr":"16","state_fips":"08","co 2nd max 1-hr":".","county":"Fremont","no2 98th percentile 1-hr":".","so2 2nd max 24-hr":".","ozone 4th max 8-hr":".","pm10 2nd max 24-hr":"33","so2 99th percentile 1-hr":".","co 2nd max 8-hr":".","id":"adujhemg7pcj","pm2.5 weighted mean 24-hr":".","pm2.5 98th percentile 24-hr":".","ozone 2nd max 1-hr":".","county_fips":"043","state":"CO"},"type":"Feature","geometry":null},{"properties":{"lead mean 24-hr":".","pm10 mean 24-hr":"25","state_fips":"08","co 2nd max 1-hr":".","county":"Garfield","no2 98th percentile 1-hr":".","so2 2nd max 24-hr":".","ozone 4th max 8-hr":"0.064","pm10 2nd max 24-hr":"71","so2 99th percentile 1-hr":".","co 2nd max 8-hr":".","id":"adujheklt4n9","pm2.5 weighted mean 24-hr":".","pm2.5 98th percentile 24-hr":".","ozone 2nd max 1-hr":"0.07","county_fips":"045","state":"CO"},"type":"Feature","geometry":null},{"properties":{"lead mean 24-hr":".","pm10 mean 24-hr":"27","state_fips":"08","co 2nd max 1-hr":".","county":"Gunnison","no2 98th percentile 1-hr":".","so2 2nd max 24-hr":".","ozone 4th max 8-hr":".","pm10 2nd max 24-hr":"86","so2 99th percentile 1-hr":".","co 2nd max 8-hr":".","id":"adujhemp8ywd","pm2.5 weighted mean 24-hr":".","pm2.5 98th percentile 24-hr":".","ozone 2nd max 1-hr":".","county_fips":"051","state":"CO"},"type":"Feature","geometry":null},{"properties":{"lead mean 24-hr":".","pm10 mean 24-hr":".","state_fips":"08","co 2nd max 1-hr":".","county":"Jefferson","no2 98th percentile 1-hr":".","so2 2nd max 24-hr":".","ozone 4th max 8-hr":"0.079","pm10 2nd max 24-hr":".","so2 99th percentile 1-hr":".","co 2nd max 8-hr":".","id":"adujhejjs8cs","pm2.5 weighted mean 24-hr":".","pm2.5 98th percentile 24-hr":".","ozone 2nd max 1-hr":"0.1","county_fips":"059","state":"CO"},"type":"Feature","geometry":null},{"properties":{"lead mean 24-hr":".","pm10 mean 24-hr":"23","state_fips":"08","co 2nd max 1-hr":"1.4","county":"La Plata","no2 98th percentile 1-hr":"47","so2 2nd max 24-hr":".","ozone 4th max 8-hr":"0.071","pm10 2nd max 24-hr":"198","so2 99th percentile 1-hr":".","co 2nd max 8-hr":"0.9","id":"adujheoansr9","pm2.5 weighted mean 24-hr":"4.4","pm2.5 98th percentile 24-hr":"12","ozone 2nd max 1-hr":"0.08","county_fips":"067","state":"CO"},"type":"Feature","geometry":null},{"properties":{"lead mean 24-hr":".","pm10 mean 24-hr":"18","state_fips":"08","co 2nd max 1-hr":"3","county":"Larimer","no2 98th percentile 1-hr":".","so2 2nd max 24-hr":".","ozone 4th max 8-hr":"0.073","pm10 2nd max 24-hr":"43","so2 99th percentile 1-hr":".","co 2nd max 8-hr":"1.8","id":"adujhexsxp0d","pm2.5 weighted mean 24-hr":"6.8","pm2.5 98th percentile 24-hr":"17","ozone 2nd max 1-hr":"0.09","county_fips":"069","state":"CO"},"type":"Feature","geometry":null},{"properties":{"lead mean 24-hr":".","pm10 mean 24-hr":".","state_fips":"08","co 2nd max 1-hr":".","county":"Logan","no2 98th percentile 1-hr":".","so2 2nd max 24-hr":".","ozone 4th max 8-hr":"0.063","pm10 2nd max 24-hr":".","so2 99th percentile 1-hr":".","co 2nd max 8-hr":".","id":"adujhev73yrt","pm2.5 weighted mean 24-hr":".","pm2.5 98th percentile 24-hr":".","ozone 2nd max 1-hr":"0.07","county_fips":"075","state":"CO"},"type":"Feature","geometry":null},{"properties":{"lead mean 24-hr":".","pm10 mean 24-hr":"32","state_fips":"08","co 2nd max 1-hr":"2.3","county":"Mesa","no2 98th percentile 1-hr":".","so2 2nd max 24-hr":".","ozone 4th max 8-hr":"0.064","pm10 2nd max 24-hr":"122","so2 99th percentile 1-hr":".","co 2nd max 8-hr":"2.2","id":"adujheoicr2q","pm2.5 weighted mean 24-hr":"9.7","pm2.5 98th percentile 24-hr":"41","ozone 2nd max 1-hr":"0.07","county_fips":"077","state":"CO"},"type":"Feature","geometry":null},{"properties":{"lead mean 24-hr":".","pm10 mean 24-hr":".","state_fips":"08","co 2nd max 1-hr":".","county":"Montezuma","no2 98th percentile 1-hr":".","so2 2nd max 24-hr":".","ozone 4th max 8-hr":"0.069","pm10 2nd max 24-hr":".","so2 99th percentile 1-hr":".","co 2nd max 8-hr":".","id":"adujheoh41o4","pm2.5 weighted mean 24-hr":"6.8","pm2.5 98th percentile 24-hr":"15","ozone 2nd max 1-hr":"0.08","county_fips":"083","state":"CO"},"type":"Feature","geometry":null},{"properties":{"lead mean 24-hr":".","pm10 mean 24-hr":".","state_fips":"08","co 2nd max 1-hr":".","county":"Morgan","no2 98th percentile 1-hr":".","so2 2nd max 24-hr":".","ozone 4th max 8-hr":"0.062","pm10 2nd max 24-hr":".","so2 99th percentile 1-hr":".","co 2nd max 8-hr":".","id":"adujhf30enrw","pm2.5 weighted mean 24-hr":".","pm2.5 98th percentile 24-hr":".","ozone 2nd max 1-hr":"0.08","county_fips":"087","state":"CO"},"type":"Feature","geometry":null},{"properties":{"lead mean 24-hr":".","pm10 mean 24-hr":".","state_fips":"08","co 2nd max 1-hr":".","county":"Park","no2 98th percentile 1-hr":".","so2 2nd max 24-hr":".","ozone 4th max 8-hr":"0.07","pm10 2nd max 24-hr":".","so2 99th percentile 1-hr":".","co 2nd max 8-hr":".","id":"adujheqmzr6y","pm2.5 weighted mean 24-hr":".","pm2.5 98th percentile 24-hr":".","ozone 2nd max 1-hr":"0.08","county_fips":"093","state":"CO"},"type":"Feature","geometry":null},{"properties":{"lead mean 24-hr":".","pm10 mean 24-hr":"16","state_fips":"08","co 2nd max 1-hr":".","county":"Pitkin","no2 98th percentile 1-hr":".","so2 2nd max 24-hr":".","ozone 4th max 8-hr":"0.073","pm10 2nd max 24-hr":"41","so2 99th percentile 1-hr":".","co 2nd max 8-hr":".","id":"adujhendjc8b","pm2.5 weighted mean 24-hr":".","pm2.5 98th percentile 24-hr":".","ozone 2nd max 1-hr":"0.09","county_fips":"097","state":"CO"},"type":"Feature","geometry":null},{"properties":{"lead mean 24-hr":".","pm10 mean 24-hr":"28","state_fips":"08","co 2nd max 1-hr":".","county":"Prowers","no2 98th percentile 1-hr":".","so2 2nd max 24-hr":".","ozone 4th max 8-hr":".","pm10 2nd max 24-hr":"174","so2 99th percentile 1-hr":".","co 2nd max 8-hr":".","id":"adujhenziqis","pm2.5 weighted mean 24-hr":".","pm2.5 98th percentile 24-hr":".","ozone 2nd max 1-hr":".","county_fips":"099","state":"CO"},"type":"Feature","geometry":null},{"properties":{"lead mean 24-hr":".","pm10 mean 24-hr":"36","state_fips":"08","co 2nd max 1-hr":".","county":"Pueblo","no2 98th percentile 1-hr":".","so2 2nd max 24-hr":".","ozone 4th max 8-hr":"0.062","pm10 2nd max 24-hr":"85","so2 99th percentile 1-hr":".","co 2nd max 8-hr":".","id":"adujhen8v18u","pm2.5 weighted mean 24-hr":"7.4","pm2.5 98th percentile 24-hr":"17","ozone 2nd max 1-hr":"0.07","county_fips":"101","state":"CO"},"type":"Feature","geometry":null},{"properties":{"lead mean 24-hr":".","pm10 mean 24-hr":"24","state_fips":"08","co 2nd max 1-hr":".","county":"Routt","no2 98th percentile 1-hr":".","so2 2nd max 24-hr":".","ozone 4th max 8-hr":".","pm10 2nd max 24-hr":"82","so2 99th percentile 1-hr":".","co 2nd max 8-hr":".","id":"adujhezt46k0","pm2.5 weighted mean 24-hr":".","pm2.5 98th percentile 24-hr":".","ozone 2nd max 1-hr":".","county_fips":"107","state":"CO"},"type":"Feature","geometry":null},{"properties":{"lead mean 24-hr":".","pm10 mean 24-hr":"19","state_fips":"08","co 2nd max 1-hr":".","county":"San Miguel","no2 98th percentile 1-hr":".","so2 2nd max 24-hr":".","ozone 4th max 8-hr":".","pm10 2nd max 24-hr":"102","so2 99th percentile 1-hr":".","co 2nd max 8-hr":".","id":"adujhepf542t","pm2.5 weighted mean 24-hr":".","pm2.5 98th percentile 24-hr":".","ozone 2nd max 1-hr":".","county_fips":"113","state":"CO"},"type":"Feature","geometry":null},{"properties":{"lead mean 24-hr":".","pm10 mean 24-hr":"18","state_fips":"08","co 2nd max 1-hr":".","county":"Summit","no2 98th percentile 1-hr":".","so2 2nd max 24-hr":".","ozone 4th max 8-hr":".","pm10 2nd max 24-hr":"79","so2 99th percentile 1-hr":".","co 2nd max 8-hr":".","id":"adujhf1y8mwm","pm2.5 weighted mean 24-hr":".","pm2.5 98th percentile 24-hr":".","ozone 2nd max 1-hr":".","county_fips":"117","state":"CO"},"type":"Feature","geometry":null},{"properties":{"lead mean 24-hr":".","pm10 mean 24-hr":"21","state_fips":"08","co 2nd max 1-hr":"3.6","county":"Weld","no2 98th percentile 1-hr":".","so2 2nd max 24-hr":".","ozone 4th max 8-hr":"0.067","pm10 2nd max 24-hr":"61","so2 99th percentile 1-hr":".","co 2nd max 8-hr":"2.1","id":"adujheys64r6","pm2.5 weighted mean 24-hr":"7.8","pm2.5 98th percentile 24-hr":"26","ozone 2nd max 1-hr":"0.09","county_fips":"123","state":"CO"},"type":"Feature","geometry":null}],"is_temporal":false,"author":{"url":"","metadata":null,"contact_name":null,"contact_address":null,"source":null,"contact_phone":null},"source":"","pagination":{"sort":null,"start":0,"total":30,"limit":1000000},"state":"parsed","tags":"","published":"2014-08-16T13:45:23-04:00","id":350553}