{"type":"FeatureCollection","data_type":"Dataset","url_type":null,"permissions":[{"permissions":{"download":true,"view":true},"group_id":"everyone"}],"classification":null,"title":"Brown trout spawn","count":972,"stream_id":350524,"contributor":{"url":"http://geocommons.com/users/70279","name":"creagan09"},"data_attributes":null,"calculation_params":null,"icon_link":null,"link":"http://geocommons.com/overlays/350524.json","extent":[-88.919,41.7904,-84.1588,46.6562],"geometry_types":["point"],"unique_name":null,"name":"Brown trout spawn","feature_count":972,"description":"Spawn locations of brown trout in Lake Michigan","next_feature":null,"is_raster":false,"short_classification":"Y","stats":{},"features":[{"properties":{"common_nm":"Brown trout","water":"stm","county":"Allegan","id":"aduipjhaq3rx"},"type":"Feature","geometry":{"type":"Point","coordinates":[-85.5526700000001,42.5012600000196]}},{"properties":{"common_nm":"Brown trout","water":"stm","county":"Antrim","id":"aduipjfl44v0"},"type":"Feature","geometry":{"type":"Point","coordinates":[-85.2354000000003,45.0548400000146]}},{"properties":{"common_nm":"Brown trout","water":"stm","county":"Antrim","id":"aduipjlzjsnb"},"type":"Feature","geometry":{"type":"Point","coordinates":[-85.0499000000005,45.0662800000146]}},{"properties":{"common_nm":"Brown trout","water":"inlk","county":"Antrim","id":"aduipjhsjdoq"},"type":"Feature","geometry":{"type":"Point","coordinates":[-85.2799100000002,44.9086600000149]}},{"properties":{"common_nm":"Brown trout","water":"inlk","county":"Antrim","id":"aduipje6ohtx"},"type":"Feature","geometry":{"type":"Point","coordinates":[-85.3342900000002,45.1000100000145]}},{"properties":{"common_nm":"Brown trout","water":"stm","county":"Berrien","id":"aduipjivnntz"},"type":"Feature","geometry":{"type":"Point","coordinates":[-86.3695099999999,41.8204300000208]}},{"properties":{"common_nm":"Brown trout","water":"stm","county":"Berrien","id":"aduipjk5b53b"},"type":"Feature","geometry":{"type":"Point","coordinates":[-86.2330499999999,42.1499300000202]}},{"properties":{"common_nm":"Brown trout","water":"stm","county":"Cass","id":"aduipjhfw5xc"},"type":"Feature","geometry":{"type":"Point","coordinates":[-86.0410499999999,42.0474000000204]}},{"properties":{"common_nm":"Brown trout","water":"stm","county":"Cass","id":"aduipjo804ew"},"type":"Feature","geometry":{"type":"Point","coordinates":[-86.07805,41.9043400000207]}},{"properties":{"common_nm":"Brown trout","water":"stm","county":"Cass","id":"aduipjolcz3m"},"type":"Feature","geometry":{"type":"Point","coordinates":[-86.07805,41.9043400000207]}},{"properties":{"common_nm":"Brown trout","water":"stm","county":"Cass","id":"aduipjhaqiyf"},"type":"Feature","geometry":{"type":"Point","coordinates":[-86.07805,41.9043400000207]}},{"properties":{"common_nm":"Brown trout","water":"stm","county":"Charlevoix","id":"aduipjf7ir1r"},"type":"Feature","geometry":{"type":"Point","coordinates":[-85.1915400000003,45.1974600000143]}},{"properties":{"common_nm":"Brown trout","water":"stm","county":"Charlevoix","id":"aduipjlimoou"},"type":"Feature","geometry":{"type":"Point","coordinates":[-85.2123500000003,45.1969500000143]}},{"properties":{"common_nm":"Brown trout","water":"stm","county":"Dickinson","id":"aduipjgovuyh"},"type":"Feature","geometry":{"type":"Point","coordinates":[-87.9604699999998,46.1234800000127]}},{"properties":{"common_nm":"Brown trout","water":"stm","county":"Emmet","id":"aduipje6dlkp"},"type":"Feature","geometry":{"type":"Point","coordinates":[-84.9259500000008,45.4268400000139]}},{"properties":{"common_nm":"Brown trout","water":"stm","county":"Grand Traverse","id":"aduipjivu09n"},"type":"Feature","geometry":{"type":"Point","coordinates":[-85.6472400000001,44.6654900000154]}},{"properties":{"common_nm":"Brown trout","water":"stm","county":"Grand Traverse","id":"aduipjfl8vv9"},"type":"Feature","geometry":{"type":"Point","coordinates":[-85.5054300000001,44.6496400000154]}},{"properties":{"common_nm":"Brown trout","water":"stm","county":"Grand Traverse","id":"aduipjcu2985"},"type":"Feature","geometry":{"type":"Point","coordinates":[-85.5054300000001,44.6496400000154]}},{"properties":{"common_nm":"Brown trout","water":"stm","county":"Grand Traverse","id":"aduipjfh1yjb"},"type":"Feature","geometry":{"type":"Point","coordinates":[-85.5069400000001,44.6350300000154]}},{"properties":{"common_nm":"Brown trout","water":"stm","county":"Grand Traverse","id":"aduipjhdvgta"},"type":"Feature","geometry":{"type":"Point","coordinates":[-85.60736,44.7368200000152]}},{"properties":{"common_nm":"Brown trout","water":"stm","county":"Grand Traverse","id":"aduipjpcoc09"},"type":"Feature","geometry":{"type":"Point","coordinates":[-85.62539,44.7078600000153]}},{"properties":{"common_nm":"Brown trout","water":"stm","county":"Grand Traverse","id":"aduipjhpwt4o"},"type":"Feature","geometry":{"type":"Point","coordinates":[-85.5231600000001,44.6342900000154]}},{"properties":{"common_nm":"Brown trout","water":"stm","county":"Grand Traverse","id":"aduipjklobfp"},"type":"Feature","geometry":{"type":"Point","coordinates":[-85.3828200000001,44.6792200000153]}},{"properties":{"common_nm":"Brown trout","water":"stm","county":"Grand Traverse","id":"aduipjkl5wre"},"type":"Feature","geometry":{"type":"Point","coordinates":[-85.5231600000001,44.6342900000154]}},{"properties":{"common_nm":"Brown trout","water":"stm","county":"Grand Traverse","id":"aduipjod705r"},"type":"Feature","geometry":{"type":"Point","coordinates":[-85.5231600000001,44.6342900000154]}},{"properties":{"common_nm":"Brown trout","water":"stm","county":"Grand Traverse","id":"aduipjd8vcxj"},"type":"Feature","geometry":{"type":"Point","coordinates":[-85.5242500000001,44.6192100000155]}},{"properties":{"common_nm":"Brown trout","water":"stm","county":"Grand Traverse","id":"aduipjob0mzx"},"type":"Feature","geometry":{"type":"Point","coordinates":[-85.62539,44.7078600000153]}},{"properties":{"common_nm":"Brown trout","water":"stm","county":"Grand Traverse","id":"aduipjkrfg88"},"type":"Feature","geometry":{"type":"Point","coordinates":[-85.3620100000002,44.6939700000153]}},{"properties":{"common_nm":"Brown trout","water":"stm","county":"Grand Traverse","id":"aduipjnu2p7s"},"type":"Feature","geometry":{"type":"Point","coordinates":[-85.3620100000002,44.6939700000153]}},{"properties":{"common_nm":"Brown trout","water":"stm","county":"Grand Traverse","id":"aduipjffzrq9"},"type":"Feature","geometry":{"type":"Point","coordinates":[-85.3450300000002,44.6622500000154]}},{"properties":{"common_nm":"Brown trout","water":"stm","county":"Grand Traverse","id":"aduipjgzqu1j"},"type":"Feature","geometry":{"type":"Point","coordinates":[-85.3842200000001,44.6326100000154]}},{"properties":{"common_nm":"Brown trout","water":"stm","county":"Ionia","id":"aduipjjz6vgn"},"type":"Feature","geometry":{"type":"Point","coordinates":[-85.1256600000002,42.9372300000188]}},{"properties":{"common_nm":"Brown trout","water":"stm","county":"Kalamazoo","id":"aduipjdnu7zj"},"type":"Feature","geometry":{"type":"Point","coordinates":[-85.3228100000001,42.0782100000204]}},{"properties":{"common_nm":"Brown trout","water":"stm","county":"Kalamazoo","id":"aduipjoneeea"},"type":"Feature","geometry":{"type":"Point","coordinates":[-85.52272,42.3686000000199]}},{"properties":{"common_nm":"Brown trout","water":"stm","county":"Kalkaska","id":"aduipjj9pmdq"},"type":"Feature","geometry":{"type":"Point","coordinates":[-84.9221500000007,44.6195300000155]}},{"properties":{"common_nm":"Brown trout","water":"stm","county":"Kalkaska","id":"aduipjl95apb"},"type":"Feature","geometry":{"type":"Point","coordinates":[-85.3221400000002,44.6638000000154]}},{"properties":{"common_nm":"Brown trout","water":"inlk","county":"Kalkaska","id":"aduipjrdd59s"},"type":"Feature","geometry":{"type":"Point","coordinates":[-85.2826500000002,44.6330100000154]}},{"properties":{"common_nm":"Brown trout","water":"stm","county":"Kent","id":"aduipjg1722k"},"type":"Feature","geometry":{"type":"Point","coordinates":[-85.62221,43.2422700000182]}},{"properties":{"common_nm":"Brown trout","water":"stm","county":"Kent","id":"aduipjpcfemy"},"type":"Feature","geometry":{"type":"Point","coordinates":[-85.66299,43.2276800000182]}},{"properties":{"common_nm":"Brown trout","water":"stm","county":"Kent","id":"aduipjouxfcw"},"type":"Feature","geometry":{"type":"Point","coordinates":[-85.60329,43.1816100000183]}},{"properties":{"common_nm":"Brown trout","water":"stm","county":"Kent","id":"aduipje266ww"},"type":"Feature","geometry":{"type":"Point","coordinates":[-85.68034,43.0651700000185]}},{"properties":{"common_nm":"Brown trout","water":"stm","county":"Kent","id":"aduipjqia8pc"},"type":"Feature","geometry":{"type":"Point","coordinates":[-85.68011,43.0494200000186]}},{"properties":{"common_nm":"Brown trout","water":"stm","county":"Lake","id":"aduipjoxbvww"},"type":"Feature","geometry":{"type":"Point","coordinates":[-85.85118,43.8907900000169]}},{"properties":{"common_nm":"Brown trout","water":"stm","county":"Lake","id":"aduipjl6g07o"},"type":"Feature","geometry":{"type":"Point","coordinates":[-85.85118,43.8907900000169]}},{"properties":{"common_nm":"Brown trout","water":"stm","county":"Lake","id":"aduipjr5pigq"},"type":"Feature","geometry":{"type":"Point","coordinates":[-85.85361,43.865020000017]}},{"properties":{"common_nm":"Brown trout","water":"stm","county":"Lake","id":"aduipjnfybdq"},"type":"Feature","geometry":{"type":"Point","coordinates":[-85.85118,43.8907900000169]}},{"properties":{"common_nm":"Brown trout","water":"stm","county":"Lake","id":"aduipjqk70jx"},"type":"Feature","geometry":{"type":"Point","coordinates":[-85.79224,43.851070000017]}},{"properties":{"common_nm":"Brown trout","water":"stm","county":"Lake","id":"aduipjqwq7hy"},"type":"Feature","geometry":{"type":"Point","coordinates":[-85.93314,44.0678200000165]}},{"properties":{"common_nm":"Brown trout","water":"stm","county":"Lake","id":"aduipjjapmha"},"type":"Feature","geometry":{"type":"Point","coordinates":[-86.02926,43.851140000017]}},{"properties":{"common_nm":"Brown trout","water":"stm","county":"Lake","id":"aduipjs736c6"},"type":"Feature","geometry":{"type":"Point","coordinates":[-85.95174,44.0530900000166]}},{"properties":{"common_nm":"Brown trout","water":"inlk","county":"Lake","id":"aduipjeg3x3e"},"type":"Feature","geometry":{"type":"Point","coordinates":[-85.89474,44.0680600000166]}},{"properties":{"common_nm":"Brown trout","water":"stm","county":"Lake","id":"aduipjknbzko"},"type":"Feature","geometry":{"type":"Point","coordinates":[-85.89474,44.0680600000166]}},{"properties":{"common_nm":"Brown trout","water":"stm","county":"Lake","id":"aduipjh7p0rm"},"type":"Feature","geometry":{"type":"Point","coordinates":[-85.89474,44.0680600000166]}},{"properties":{"common_nm":"Brown trout","water":"stm","county":"Lake","id":"aduipjd52i8l"},"type":"Feature","geometry":{"type":"Point","coordinates":[-85.89474,44.0680600000166]}},{"properties":{"common_nm":"Brown trout","water":"stm","county":"Lake","id":"aduipjinb8ev"},"type":"Feature","geometry":{"type":"Point","coordinates":[-85.85374,44.0542300000166]}},{"properties":{"common_nm":"Brown trout","water":"stm","county":"Lake","id":"aduipjggbu74"},"type":"Feature","geometry":{"type":"Point","coordinates":[-85.84963,43.833340000017]}},{"properties":{"common_nm":"Brown trout","water":"stm","county":"Lake","id":"aduipjh0jwga"},"type":"Feature","geometry":{"type":"Point","coordinates":[-85.85313,43.848460000017]}},{"properties":{"common_nm":"Brown trout","water":"stm","county":"Lake","id":"aduipjg7ct02"},"type":"Feature","geometry":{"type":"Point","coordinates":[-85.71146,43.8944800000169]}},{"properties":{"common_nm":"Brown trout","water":"stm","county":"Lake","id":"aduipjnto6l9"},"type":"Feature","geometry":{"type":"Point","coordinates":[-85.87146,43.865330000017]}},{"properties":{"common_nm":"Brown trout","water":"stm","county":"Lake","id":"aduipjcmeumk"},"type":"Feature","geometry":{"type":"Point","coordinates":[-85.95029,44.0380300000166]}},{"properties":{"common_nm":"Brown trout","water":"stm","county":"Lake","id":"aduipjkxvgqa"},"type":"Feature","geometry":{"type":"Point","coordinates":[-85.96955,43.8800300000169]}},{"properties":{"common_nm":"Brown trout","water":"stm","county":"Lake","id":"aduipjcxvkg7"},"type":"Feature","geometry":{"type":"Point","coordinates":[-85.87146,43.865330000017]}},{"properties":{"common_nm":"Brown trout","water":"stm","county":"Lake","id":"aduipjd89eao"},"type":"Feature","geometry":{"type":"Point","coordinates":[-85.87146,43.865330000017]}},{"properties":{"common_nm":"Brown trout","water":"stm","county":"Lake","id":"aduipjlsqdhb"},"type":"Feature","geometry":{"type":"Point","coordinates":[-85.89191,43.8639100000169]}},{"properties":{"common_nm":"Brown trout","water":"stm","county":"Lake","id":"aduipjmwb5nw"},"type":"Feature","geometry":{"type":"Point","coordinates":[-85.89191,43.8639100000169]}},{"properties":{"common_nm":"Brown trout","water":"stm","county":"Lake","id":"aduipjmimuek"},"type":"Feature","geometry":{"type":"Point","coordinates":[-85.7535300000001,44.0821300000165]}},{"properties":{"common_nm":"Brown trout","water":"stm","county":"Leelanau","id":"aduipjqwjl03"},"type":"Feature","geometry":{"type":"Point","coordinates":[-85.61987,45.0195300000147]}},{"properties":{"common_nm":"Brown trout","water":"stm","county":"Mackinac","id":"aduipjhoc8yu"},"type":"Feature","geometry":{"type":"Point","coordinates":[-85.3327000000002,46.0943100000127]}},{"properties":{"common_nm":"Brown trout","water":"gl","county":"Mackinac","id":"aduipjf0ylxb"},"type":"Feature","geometry":{"type":"Point","coordinates":[-85.4444906999123,46.0907744470872]}},{"properties":{"common_nm":"Brown trout","water":"inlk","county":"Manistee","id":"aduipjn6ekd3"},"type":"Feature","geometry":{"type":"Point","coordinates":[-86.22958,44.4803800000157]}},{"properties":{"common_nm":"Brown trout","water":"gl","county":"Manistee","id":"aduipjeia70g"},"type":"Feature","geometry":{"type":"Point","coordinates":[-86.2879128103845,44.3216457283807]}},{"properties":{"common_nm":"Brown trout","water":"stm","county":"Mason","id":"aduipjlzxsrd"},"type":"Feature","geometry":{"type":"Point","coordinates":[-86.05173,43.9683600000168]}},{"properties":{"common_nm":"Brown trout","water":"stm","county":"Mason","id":"aduipjg5lghy"},"type":"Feature","geometry":{"type":"Point","coordinates":[-86.05173,43.9683600000168]}},{"properties":{"common_nm":"Brown trout","water":"stm","county":"Mecosta","id":"aduipji9vaql"},"type":"Feature","geometry":{"type":"Point","coordinates":[-85.55287,43.5751300000175]}},{"properties":{"common_nm":"Brown trout","water":"stm","county":"Mecosta","id":"aduipjr3bvp4"},"type":"Feature","geometry":{"type":"Point","coordinates":[-85.2329300000002,43.6178700000174]}},{"properties":{"common_nm":"Brown trout","water":"hatch","county":"Mecosta","id":"aduipjkusnzm"},"type":"Feature","geometry":{"type":"Point","coordinates":[-85.5127300000001,43.7928200000171]}},{"properties":{"common_nm":"Brown trout","water":"stm","county":"Mecosta","id":"aduipjmexngd"},"type":"Feature","geometry":{"type":"Point","coordinates":[-85.5128100000001,43.8074000000171]}},{"properties":{"common_nm":"Brown trout","water":"hatch","county":"Mecosta","id":"aduipjm9nldh"},"type":"Feature","geometry":{"type":"Point","coordinates":[-85.5127300000001,43.7928200000171]}},{"properties":{"common_nm":"Brown trout","water":"hatch","county":"Mecosta","id":"aduipjlc4hx1"},"type":"Feature","geometry":{"type":"Point","coordinates":[-85.5127300000001,43.7928200000171]}},{"properties":{"common_nm":"Brown trout","water":"stm","county":"Mecosta","id":"aduipjoif2az"},"type":"Feature","geometry":{"type":"Point","coordinates":[-85.49237,43.7932300000171]}},{"properties":{"common_nm":"Brown trout","water":"stm","county":"Menominee","id":"aduipjmbh7ln"},"type":"Feature","geometry":{"type":"Point","coordinates":[-87.7703699999999,45.4723500000138]}},{"properties":{"common_nm":"Brown trout","water":"stm","county":"Menominee","id":"aduipjemd9wy"},"type":"Feature","geometry":{"type":"Point","coordinates":[-87.6872599999999,45.5292100000137]}},{"properties":{"common_nm":"Brown trout","water":"stm","county":"Menominee","id":"aduipjppokll"},"type":"Feature","geometry":{"type":"Point","coordinates":[-87.7446799999998,45.4722100000138]}},{"properties":{"common_nm":"Brown trout","water":"stm","county":"Menominee","id":"aduipje5czmm"},"type":"Feature","geometry":{"type":"Point","coordinates":[-87.7094899999998,45.5142100000137]}},{"properties":{"common_nm":"Brown trout","water":"stm","county":"Missaukee","id":"aduipje9dyfc"},"type":"Feature","geometry":{"type":"Point","coordinates":[-85.2654000000002,44.4610100000158]}},{"properties":{"common_nm":"Brown trout","water":"stm","county":"Missaukee","id":"aduipjiwb3uw"},"type":"Feature","geometry":{"type":"Point","coordinates":[-85.0662800000004,44.3706200000159]}},{"properties":{"common_nm":"Brown trout","water":"stm","county":"Montcalm","id":"aduipjfgzt4a"},"type":"Feature","geometry":{"type":"Point","coordinates":[-85.0953500000003,43.3006000000181]}},{"properties":{"common_nm":"Brown trout","water":"stm","county":"Montcalm","id":"aduipjerm1ve"},"type":"Feature","geometry":{"type":"Point","coordinates":[-85.1116700000002,43.1483300000184]}},{"properties":{"common_nm":"Brown trout","water":"stm","county":"Montcalm","id":"aduipjll1122"},"type":"Feature","geometry":{"type":"Point","coordinates":[-85.0755000000003,43.329450000018]}},{"properties":{"common_nm":"Brown trout","water":"stm","county":"Montcalm","id":"aduipjjx2fzv"},"type":"Feature","geometry":{"type":"Point","coordinates":[-84.9755100000004,43.327080000018]}},{"properties":{"common_nm":"Brown trout","water":"stm","county":"Montcalm","id":"aduipjjrkui6"},"type":"Feature","geometry":{"type":"Point","coordinates":[-85.2555300000002,43.316550000018]}},{"properties":{"common_nm":"Brown trout","water":"stm","county":"Montcalm","id":"aduipjh71asa"},"type":"Feature","geometry":{"type":"Point","coordinates":[-84.9833300000004,43.1250000000184]}},{"properties":{"common_nm":"Brown trout","water":"stm","county":"Montcalm","id":"aduipjc12prw"},"type":"Feature","geometry":{"type":"Point","coordinates":[-85.2630800000001,43.2559500000181]}},{"properties":{"common_nm":"Brown trout","water":"stm","county":"Montcalm","id":"aduipjh6uy8a"},"type":"Feature","geometry":{"type":"Point","coordinates":[-85.2958300000002,43.343910000018]}},{"properties":{"common_nm":"Brown trout","water":"inlk","county":"Muskegon","id":"aduipjgf6f3y"},"type":"Feature","geometry":{"type":"Point","coordinates":[-86.25806,43.2590000000181]}},{"properties":{"common_nm":"Brown trout","water":"stm","county":"Newaygo","id":"aduipjer66j3"},"type":"Feature","geometry":{"type":"Point","coordinates":[-85.77406,43.4306400000178]}},{"properties":{"common_nm":"Brown trout","water":"stm","county":"Newaygo","id":"aduipjk8dzky"},"type":"Feature","geometry":{"type":"Point","coordinates":[-85.59337,43.7508500000172]}},{"properties":{"common_nm":"Brown trout","water":"stm","county":"Newaygo","id":"aduipjnemgjy"},"type":"Feature","geometry":{"type":"Point","coordinates":[-85.75116,43.7935800000171]}},{"properties":{"common_nm":"Brown trout","water":"stm","county":"Newaygo","id":"aduipjms0541"},"type":"Feature","geometry":{"type":"Point","coordinates":[-85.6719,43.7205900000172]}},{"properties":{"common_nm":"Brown trout","water":"stm","county":"Newaygo","id":"aduipjq6oogt"},"type":"Feature","geometry":{"type":"Point","coordinates":[-85.73048,43.8076300000171]}},{"properties":{"common_nm":"Brown trout","water":"stm","county":"Newaygo","id":"aduipjgaxc7z"},"type":"Feature","geometry":{"type":"Point","coordinates":[-85.75116,43.7935800000171]}},{"properties":{"common_nm":"Brown trout","water":"inlk","county":"Oceana","id":"aduipjinh2ma"},"type":"Feature","geometry":{"type":"Point","coordinates":[-86.3670799999999,43.6531100000174]}},{"properties":{"common_nm":"Brown trout","water":"stm","county":"Oceana","id":"aduipjkjsamm"},"type":"Feature","geometry":{"type":"Point","coordinates":[-86.2880999999999,43.8087000000171]}},{"properties":{"common_nm":"Brown trout","water":"inlk","county":"Oceana","id":"aduipjlyhtti"},"type":"Feature","geometry":{"type":"Point","coordinates":[-86.4277499999999,43.7660900000171]}},{"properties":{"common_nm":"Brown trout","water":"stm","county":"Oceana","id":"aduipjs1g46b"},"type":"Feature","geometry":{"type":"Point","coordinates":[-86.18677,43.6063700000175]}},{"properties":{"common_nm":"Brown trout","water":"inlk","county":"Ogemaw","id":"aduipjfah2ao"},"type":"Feature","geometry":{"type":"Point","coordinates":[-84.624210000002,44.3996500000159]}},{"properties":{"common_nm":"Brown trout","water":"hatch","county":"Van Buren","id":"aduipjj8mnit"},"type":"Feature","geometry":{"type":"Point","coordinates":[-85.8705199999999,42.1642200000202]}},{"properties":{"common_nm":"Brown trout","water":"hatch","county":"Wexford","id":"aduipjjz12w6"},"type":"Feature","geometry":{"type":"Point","coordinates":[-85.71288,44.3011600000161]}},{"properties":{"common_nm":"Brown trout","water":"stm","county":"Wexford","id":"aduipje0zh9d"},"type":"Feature","geometry":{"type":"Point","coordinates":[-85.70859,44.4309000000158]}},{"properties":{"common_nm":"Brown trout","water":"stm","county":"Wexford","id":"aduipjqnwomu"},"type":"Feature","geometry":{"type":"Point","coordinates":[-85.66902,44.1713600000163]}},{"properties":{"common_nm":"Brown trout","water":"stm","county":"Wexford","id":"aduipjgry56w"},"type":"Feature","geometry":{"type":"Point","coordinates":[-85.77142,44.3153100000161]}},{"properties":{"common_nm":"Brown trout","water":"stm","county":"Allegan","id":"aduipjc1yiou"},"type":"Feature","geometry":{"type":"Point","coordinates":[-85.59359,42.6592300000193]}},{"properties":{"common_nm":"Brown trout","water":"stm","county":"Benzie","id":"aduipjq6g5y0"},"type":"Feature","geometry":{"type":"Point","coordinates":[-85.9286699999999,44.6810400000153]}},{"properties":{"common_nm":"Brown trout","water":"stm","county":"Berrien","id":"aduipjj4y4bi"},"type":"Feature","geometry":{"type":"Point","coordinates":[-86.4088099999999,41.7903500000209]}},{"properties":{"common_nm":"Brown trout","water":"stm","county":"Jackson","id":"aduipjq5xxbd"},"type":"Feature","geometry":{"type":"Point","coordinates":[-84.5733000000013,42.2845600000201]}},{"properties":{"common_nm":"Brown trout","water":"stm","county":"Kalkaska","id":"aduipjs037ux"},"type":"Feature","geometry":{"type":"Point","coordinates":[-85.2019100000003,44.7775300000152]}},{"properties":{"common_nm":"Brown trout","water":"stm","county":"Kent","id":"aduipji438uy"},"type":"Feature","geometry":{"type":"Point","coordinates":[-85.77253,42.8472100000189]}},{"properties":{"common_nm":"Brown trout","water":"stm","county":"Lake","id":"aduipjpjanxe"},"type":"Feature","geometry":{"type":"Point","coordinates":[-85.81319,43.8657800000169]}},{"properties":{"common_nm":"Brown trout","water":"stm","county":"Leelanau","id":"aduipjkc00w9"},"type":"Feature","geometry":{"type":"Point","coordinates":[-85.7857,44.7963600000151]}},{"properties":{"common_nm":"Brown trout","water":"stm","county":"Newaygo","id":"aduipjg6403l"},"type":"Feature","geometry":{"type":"Point","coordinates":[-85.83105,43.2994100000181]}},{"properties":{"common_nm":"Brown trout","water":"stm","county":"Alger","id":"aduipjpbmlqb"},"type":"Feature","geometry":{"type":"Point","coordinates":[-86.62544,46.2112600000125]}},{"properties":{"common_nm":"Brown trout","water":"stm","county":"Delta","id":"aduipjoyk1zz"},"type":"Feature","geometry":{"type":"Point","coordinates":[-87.0271099999999,45.891800000013]}},{"properties":{"common_nm":"Brown trout","water":"stm","county":"Delta","id":"aduipjqow0dj"},"type":"Feature","geometry":{"type":"Point","coordinates":[-86.6888399999999,46.0197700000128]}},{"properties":{"common_nm":"Brown trout","water":"stm","county":"Delta","id":"aduipjftcyyt"},"type":"Feature","geometry":{"type":"Point","coordinates":[-86.5834399999999,46.0341900000128]}},{"properties":{"common_nm":"Brown trout","water":"stm","county":"Delta","id":"aduipjlbt7up"},"type":"Feature","geometry":{"type":"Point","coordinates":[-86.5425999999999,46.0051400000128]}},{"properties":{"common_nm":"Brown trout","water":"stm","county":"Delta","id":"aduipjo5cstj"},"type":"Feature","geometry":{"type":"Point","coordinates":[-86.5641899999999,46.0196300000128]}},{"properties":{"common_nm":"Brown trout","water":"stm","county":"Delta","id":"aduipjjbi24z"},"type":"Feature","geometry":{"type":"Point","coordinates":[-86.5628599999999,45.9632000000129]}},{"properties":{"common_nm":"Brown trout","water":"stm","county":"Delta","id":"aduipjl6kvc7"},"type":"Feature","geometry":{"type":"Point","coordinates":[-86.5834399999999,46.0341900000128]}},{"properties":{"common_nm":"Brown trout","water":"stm","county":"Delta","id":"aduipjrgsr7h"},"type":"Feature","geometry":{"type":"Point","coordinates":[-86.5641899999999,46.0196300000128]}},{"properties":{"common_nm":"Brown trout","water":"stm","county":"Delta","id":"aduipjnz893m"},"type":"Feature","geometry":{"type":"Point","coordinates":[-86.7728399999999,46.0497700000128]}},{"properties":{"common_nm":"Brown trout","water":"stm","county":"Delta","id":"aduipjkhwppu"},"type":"Feature","geometry":{"type":"Point","coordinates":[-86.7093699999999,45.9477300000129]}},{"properties":{"common_nm":"Brown trout","water":"stm","county":"Dickinson","id":"aduipjf884ek"},"type":"Feature","geometry":{"type":"Point","coordinates":[-87.9804899999998,46.1246800000126]}},{"properties":{"common_nm":"Brown trout","water":"stm","county":"Dickinson","id":"aduipjroemmx"},"type":"Feature","geometry":{"type":"Point","coordinates":[-88.0870299999998,46.1233300000126]}},{"properties":{"common_nm":"Brown trout","water":"stm","county":"Dickinson","id":"aduipji52pbe"},"type":"Feature","geometry":{"type":"Point","coordinates":[-87.9604699999998,46.1234800000127]}},{"properties":{"common_nm":"Brown trout","water":"stm","county":"Dickinson","id":"aduipjfhcoj8"},"type":"Feature","geometry":{"type":"Point","coordinates":[-88.0238199999998,46.1234500000126]}},{"properties":{"common_nm":"Brown trout","water":"stm","county":"Dickinson","id":"aduipjfvwy18"},"type":"Feature","geometry":{"type":"Point","coordinates":[-87.7954099999998,46.1082300000127]}},{"properties":{"common_nm":"Brown trout","water":"stm","county":"Dickinson","id":"aduipjcn14bs"},"type":"Feature","geometry":{"type":"Point","coordinates":[-88.0870299999998,46.1233300000126]}},{"properties":{"common_nm":"Brown trout","water":"stm","county":"Dickinson","id":"aduipjmwxq4o"},"type":"Feature","geometry":{"type":"Point","coordinates":[-88.0238199999998,46.1234500000126]}},{"properties":{"common_nm":"Brown trout","water":"stm","county":"Dickinson","id":"aduipjj7j3lu"},"type":"Feature","geometry":{"type":"Point","coordinates":[-87.9804899999998,46.1246800000126]}},{"properties":{"common_nm":"Brown trout","water":"stm","county":"Dickinson","id":"aduipjpqmcgb"},"type":"Feature","geometry":{"type":"Point","coordinates":[-87.9184699999998,46.1233400000126]}},{"properties":{"common_nm":"Brown trout","water":"stm","county":"Dickinson","id":"aduipjendjif"},"type":"Feature","geometry":{"type":"Point","coordinates":[-88.0236399999998,46.0067900000128]}},{"properties":{"common_nm":"Brown trout","water":"stm","county":"Dickinson","id":"aduipjdkjvct"},"type":"Feature","geometry":{"type":"Point","coordinates":[-87.9754499999998,45.8750300000131]}},{"properties":{"common_nm":"Brown trout","water":"stm","county":"Dickinson","id":"aduipjpairu3"},"type":"Feature","geometry":{"type":"Point","coordinates":[-87.9804899999998,46.1246800000126]}},{"properties":{"common_nm":"Brown trout","water":"stm","county":"Dickinson","id":"aduipjejewc3"},"type":"Feature","geometry":{"type":"Point","coordinates":[-88.0656399999998,45.9936000000129]}},{"properties":{"common_nm":"Brown trout","water":"stm","county":"Dickinson","id":"aduipjcbkuq2"},"type":"Feature","geometry":{"type":"Point","coordinates":[-87.9422599999998,46.0087300000128]}},{"properties":{"common_nm":"Brown trout","water":"stm","county":"Iron","id":"aduipjpjfdr0"},"type":"Feature","geometry":{"type":"Point","coordinates":[-88.3553899999997,46.1091500000127]}},{"properties":{"common_nm":"Brown trout","water":"stm","county":"Iron","id":"aduipjd92smf"},"type":"Feature","geometry":{"type":"Point","coordinates":[-88.2934399999998,45.952840000013]}},{"properties":{"common_nm":"Brown trout","water":"stm","county":"Iron","id":"aduipjpbbod0"},"type":"Feature","geometry":{"type":"Point","coordinates":[-88.5647699999997,46.0209500000128]}},{"properties":{"common_nm":"Brown trout","water":"stm","county":"Iron","id":"aduipjozt2tb"},"type":"Feature","geometry":{"type":"Point","coordinates":[-88.5647699999997,46.0209500000128]}},{"properties":{"common_nm":"Brown trout","water":"stm","county":"Iron","id":"aduipjelzfm8"},"type":"Feature","geometry":{"type":"Point","coordinates":[-88.5647699999997,46.0209500000128]}},{"properties":{"common_nm":"Brown trout","water":"stm","county":"Iron","id":"aduipjdygkpm"},"type":"Feature","geometry":{"type":"Point","coordinates":[-88.4988899999997,46.0074500000128]}},{"properties":{"common_nm":"Brown trout","water":"stm","county":"Iron","id":"aduipjf0a8eu"},"type":"Feature","geometry":{"type":"Point","coordinates":[-88.5864899999996,46.0091500000129]}},{"properties":{"common_nm":"Brown trout","water":"stm","county":"Iron","id":"aduipjczsf9a"},"type":"Feature","geometry":{"type":"Point","coordinates":[-88.5864899999996,46.0091500000129]}},{"properties":{"common_nm":"Brown trout","water":"stm","county":"Iron","id":"aduipjnlz9uz"},"type":"Feature","geometry":{"type":"Point","coordinates":[-88.5864899999996,46.0091500000129]}},{"properties":{"common_nm":"Brown trout","water":"stm","county":"Iron","id":"aduipjqmtipm"},"type":"Feature","geometry":{"type":"Point","coordinates":[-88.5864899999996,46.0091500000129]}},{"properties":{"common_nm":"Brown trout","water":"stm","county":"Iron","id":"aduipjphfx3s"},"type":"Feature","geometry":{"type":"Point","coordinates":[-88.6485699999996,45.9941400000129]}},{"properties":{"common_nm":"Brown trout","water":"stm","county":"Iron","id":"aduipjks4c3n"},"type":"Feature","geometry":{"type":"Point","coordinates":[-88.6676899999996,46.0080400000129]}},{"properties":{"common_nm":"Brown trout","water":"stm","county":"Iron","id":"aduipjeqftn1"},"type":"Feature","geometry":{"type":"Point","coordinates":[-88.8775799999993,46.1671500000126]}},{"properties":{"common_nm":"Brown trout","water":"stm","county":"Iron","id":"aduipjfm8u4f"},"type":"Feature","geometry":{"type":"Point","coordinates":[-88.9181699999993,46.1512900000126]}},{"properties":{"common_nm":"Brown trout","water":"stm","county":"Iron","id":"aduipjnpbz2y"},"type":"Feature","geometry":{"type":"Point","coordinates":[-88.8145799999994,46.1812700000126]}},{"properties":{"common_nm":"Brown trout","water":"stm","county":"Iron","id":"aduipjgh7zgm"},"type":"Feature","geometry":{"type":"Point","coordinates":[-88.7311399999995,46.2517600000124]}},{"properties":{"common_nm":"Brown trout","water":"stm","county":"Iron","id":"aduipjks324k"},"type":"Feature","geometry":{"type":"Point","coordinates":[-88.4597899999997,46.2254400000125]}},{"properties":{"common_nm":"Brown trout","water":"stm","county":"Iron","id":"aduipjplwsy3"},"type":"Feature","geometry":{"type":"Point","coordinates":[-88.4416399999997,46.2398800000124]}},{"properties":{"common_nm":"Brown trout","water":"stm","county":"Iron","id":"aduipjmz8b01"},"type":"Feature","geometry":{"type":"Point","coordinates":[-88.4191899999997,46.2828300000123]}},{"properties":{"common_nm":"Brown trout","water":"stm","county":"Iron","id":"aduipjdc7pwa"},"type":"Feature","geometry":{"type":"Point","coordinates":[-88.4597899999997,46.2254400000125]}},{"properties":{"common_nm":"Brown trout","water":"stm","county":"Iron","id":"aduipjpcumla"},"type":"Feature","geometry":{"type":"Point","coordinates":[-88.5864899999996,46.0091500000129]}},{"properties":{"common_nm":"Brown trout","water":"stm","county":"Iron","id":"aduipjj1f7nk"},"type":"Feature","geometry":{"type":"Point","coordinates":[-88.5864899999996,46.0091500000129]}},{"properties":{"common_nm":"Brown trout","water":"stm","county":"Iron","id":"aduipjr1l2kb"},"type":"Feature","geometry":{"type":"Point","coordinates":[-88.6097799999996,46.0075800000128]}},{"properties":{"common_nm":"Brown trout","water":"stm","county":"Iron","id":"aduipjhb690z"},"type":"Feature","geometry":{"type":"Point","coordinates":[-88.4599299999997,46.2830100000124]}},{"properties":{"common_nm":"Brown trout","water":"stm","county":"Iron","id":"aduipjhqu2sk"},"type":"Feature","geometry":{"type":"Point","coordinates":[-88.7494999999995,46.2402300000124]}},{"properties":{"common_nm":"Brown trout","water":"stm","county":"Iron","id":"aduipjnp5mth"},"type":"Feature","geometry":{"type":"Point","coordinates":[-88.8758199999993,46.2968600000124]}},{"properties":{"common_nm":"Brown trout","water":"stm","county":"Iron","id":"aduipjoep8z4"},"type":"Feature","geometry":{"type":"Point","coordinates":[-88.8340799999993,46.0792300000127]}},{"properties":{"common_nm":"Brown trout","water":"stm","county":"Iron","id":"aduipjbvz4nl"},"type":"Feature","geometry":{"type":"Point","coordinates":[-88.8344499999994,46.0635700000128]}},{"properties":{"common_nm":"Brown trout","water":"stm","county":"Iron","id":"aduipjefyb02"},"type":"Feature","geometry":{"type":"Point","coordinates":[-88.9189699999992,46.2248200000125]}},{"properties":{"common_nm":"Brown trout","water":"stm","county":"Iron","id":"aduipjmglee1"},"type":"Feature","geometry":{"type":"Point","coordinates":[-88.7938999999994,46.1814600000125]}},{"properties":{"common_nm":"Brown trout","water":"stm","county":"Iron","id":"aduipjel2ekv"},"type":"Feature","geometry":{"type":"Point","coordinates":[-88.8352399999994,46.1965600000125]}},{"properties":{"common_nm":"Brown trout","water":"stm","county":"Iron","id":"aduipjrguo43"},"type":"Feature","geometry":{"type":"Point","coordinates":[-88.7521499999995,46.2100700000125]}},{"properties":{"common_nm":"Brown trout","water":"stm","county":"Iron","id":"aduipji4h9iu"},"type":"Feature","geometry":{"type":"Point","coordinates":[-88.4612399999997,46.0071500000128]}},{"properties":{"common_nm":"Brown trout","water":"stm","county":"Iron","id":"aduipjfn0bql"},"type":"Feature","geometry":{"type":"Point","coordinates":[-88.4186199999998,46.3118600000123]}},{"properties":{"common_nm":"Brown trout","water":"stm","county":"Mackinac","id":"aduipjs7xl6y"},"type":"Feature","geometry":{"type":"Point","coordinates":[-85.3737600000002,46.1231200000126]}},{"properties":{"common_nm":"Brown trout","water":"stm","county":"Mackinac","id":"aduipjmxlftx"},"type":"Feature","geometry":{"type":"Point","coordinates":[-85.3737600000002,46.1231200000126]}},{"properties":{"common_nm":"Brown trout","water":"stm","county":"Mackinac","id":"aduipjl3oiiq"},"type":"Feature","geometry":{"type":"Point","coordinates":[-85.3737600000002,46.1231200000126]}},{"properties":{"common_nm":"Brown trout","water":"stm","county":"Mackinac","id":"aduipjmpvsg9"},"type":"Feature","geometry":{"type":"Point","coordinates":[-85.3737600000002,46.1231200000126]}},{"properties":{"common_nm":"Brown trout","water":"stm","county":"Mackinac","id":"aduipjrx48xu"},"type":"Feature","geometry":{"type":"Point","coordinates":[-85.3737600000002,46.1231200000126]}},{"properties":{"common_nm":"Brown trout","water":"stm","county":"Mackinac","id":"aduipjgwdekq"},"type":"Feature","geometry":{"type":"Point","coordinates":[-85.3737600000002,46.1231200000126]}},{"properties":{"common_nm":"Brown trout","water":"stm","county":"Mackinac","id":"aduipjkrljl5"},"type":"Feature","geometry":{"type":"Point","coordinates":[-85.3689000000002,46.1376200000126]}},{"properties":{"common_nm":"Brown trout","water":"stm","county":"Mackinac","id":"aduipjm5g450"},"type":"Feature","geometry":{"type":"Point","coordinates":[-85.3715100000002,46.1518500000126]}},{"properties":{"common_nm":"Brown trout","water":"stm","county":"Mackinac","id":"aduipjg7zuy5"},"type":"Feature","geometry":{"type":"Point","coordinates":[-85.3715100000002,46.1518500000126]}},{"properties":{"common_nm":"Brown trout","water":"stm","county":"Mackinac","id":"aduipjf1bxdf"},"type":"Feature","geometry":{"type":"Point","coordinates":[-85.3715100000002,46.1518500000126]}},{"properties":{"common_nm":"Brown trout","water":"stm","county":"Mackinac","id":"aduipjolpo8m"},"type":"Feature","geometry":{"type":"Point","coordinates":[-85.3715100000002,46.1518500000126]}},{"properties":{"common_nm":"Brown trout","water":"stm","county":"Mackinac","id":"aduipjk85ys3"},"type":"Feature","geometry":{"type":"Point","coordinates":[-85.3689000000002,46.1376200000126]}},{"properties":{"common_nm":"Brown trout","water":"stm","county":"Mackinac","id":"aduipjffq2f1"},"type":"Feature","geometry":{"type":"Point","coordinates":[-85.3689000000002,46.1376200000126]}},{"properties":{"common_nm":"Brown trout","water":"stm","county":"Mackinac","id":"aduipjgl89j4"},"type":"Feature","geometry":{"type":"Point","coordinates":[-85.3689000000002,46.1376200000126]}},{"properties":{"common_nm":"Brown trout","water":"stm","county":"Mackinac","id":"aduipjfqemgf"},"type":"Feature","geometry":{"type":"Point","coordinates":[-85.3689000000002,46.1376200000126]}},{"properties":{"common_nm":"Brown trout","water":"stm","county":"Mackinac","id":"aduipje05q9b"},"type":"Feature","geometry":{"type":"Point","coordinates":[-85.3689000000002,46.1376200000126]}},{"properties":{"common_nm":"Brown trout","water":"stm","county":"Mackinac","id":"aduipjrarbof"},"type":"Feature","geometry":{"type":"Point","coordinates":[-85.3689000000002,46.1376200000126]}},{"properties":{"common_nm":"Brown trout","water":"stm","county":"Mackinac","id":"aduipjj3jog2"},"type":"Feature","geometry":{"type":"Point","coordinates":[-85.3737600000002,46.1231200000126]}},{"properties":{"common_nm":"Brown trout","water":"stm","county":"Mackinac","id":"aduipjfzboq4"},"type":"Feature","geometry":{"type":"Point","coordinates":[-85.3737600000002,46.1231200000126]}},{"properties":{"common_nm":"Brown trout","water":"stm","county":"Mackinac","id":"aduipjr39ohc"},"type":"Feature","geometry":{"type":"Point","coordinates":[-85.3689000000002,46.1376200000126]}},{"properties":{"common_nm":"Brown trout","water":"stm","county":"Mackinac","id":"aduipje6i6of"},"type":"Feature","geometry":{"type":"Point","coordinates":[-85.3689000000002,46.1376200000126]}},{"properties":{"common_nm":"Brown trout","water":"stm","county":"Mackinac","id":"aduipjclq09v"},"type":"Feature","geometry":{"type":"Point","coordinates":[-85.3689000000002,46.1376200000126]}},{"properties":{"common_nm":"Brown trout","water":"stm","county":"Mackinac","id":"aduipjhmr5g2"},"type":"Feature","geometry":{"type":"Point","coordinates":[-85.3715100000002,46.1518500000126]}},{"properties":{"common_nm":"Brown trout","water":"stm","county":"Mackinac","id":"aduipji3z2wr"},"type":"Feature","geometry":{"type":"Point","coordinates":[-85.3715100000002,46.1518500000126]}},{"properties":{"common_nm":"Brown trout","water":"stm","county":"Mackinac","id":"aduipjdd9vif"},"type":"Feature","geometry":{"type":"Point","coordinates":[-85.3715100000002,46.1518500000126]}},{"properties":{"common_nm":"Brown trout","water":"stm","county":"Mackinac","id":"aduipjivid14"},"type":"Feature","geometry":{"type":"Point","coordinates":[-85.3737600000002,46.1231200000126]}},{"properties":{"common_nm":"Brown trout","water":"stm","county":"Mackinac","id":"aduipjrxyakx"},"type":"Feature","geometry":{"type":"Point","coordinates":[-85.3327000000002,46.0943100000127]}},{"properties":{"common_nm":"Brown trout","water":"stm","county":"Mackinac","id":"aduipjp3mcbt"},"type":"Feature","geometry":{"type":"Point","coordinates":[-85.3689000000002,46.1376200000126]}},{"properties":{"common_nm":"Brown trout","water":"stm","county":"Mackinac","id":"aduipjcp4jzi"},"type":"Feature","geometry":{"type":"Point","coordinates":[-85.3689000000002,46.1376200000126]}},{"properties":{"common_nm":"Brown trout","water":"stm","county":"Mackinac","id":"aduipjo1krmh"},"type":"Feature","geometry":{"type":"Point","coordinates":[-85.3689000000002,46.1376200000126]}},{"properties":{"common_nm":"Brown trout","water":"stm","county":"Mackinac","id":"aduipjfj123g"},"type":"Feature","geometry":{"type":"Point","coordinates":[-85.3737600000002,46.1231200000126]}},{"properties":{"common_nm":"Brown trout","water":"stm","county":"Mackinac","id":"aduipjg33lym"},"type":"Feature","geometry":{"type":"Point","coordinates":[-85.3737600000002,46.1231200000126]}},{"properties":{"common_nm":"Brown trout","water":"stm","county":"Mackinac","id":"aduipjhciq78"},"type":"Feature","geometry":{"type":"Point","coordinates":[-85.3737600000002,46.1231200000126]}},{"properties":{"common_nm":"Brown trout","water":"stm","county":"Mackinac","id":"aduipjbvn5rs"},"type":"Feature","geometry":{"type":"Point","coordinates":[-85.3737600000002,46.1231200000126]}},{"properties":{"common_nm":"Brown trout","water":"stm","county":"Mackinac","id":"aduipjrfzduw"},"type":"Feature","geometry":{"type":"Point","coordinates":[-85.3503300000002,46.1511500000126]}},{"properties":{"common_nm":"Brown trout","water":"stm","county":"Mackinac","id":"aduipjf45z0a"},"type":"Feature","geometry":{"type":"Point","coordinates":[-85.3503300000002,46.1511500000126]}},{"properties":{"common_nm":"Brown trout","water":"stm","county":"Mackinac","id":"aduipjnn4buw"},"type":"Feature","geometry":{"type":"Point","coordinates":[-85.3327000000002,46.0943100000127]}},{"properties":{"common_nm":"Brown trout","water":"stm","county":"Marquette","id":"aduipjn8h1d0"},"type":"Feature","geometry":{"type":"Point","coordinates":[-87.5434499999999,46.3121900000123]}},{"properties":{"common_nm":"Brown trout","water":"stm","county":"Marquette","id":"aduipjn8hs8j"},"type":"Feature","geometry":{"type":"Point","coordinates":[-87.4393199999999,46.3256500000123]}},{"properties":{"common_nm":"Brown trout","water":"stm","county":"Marquette","id":"aduipjlvp1kr"},"type":"Feature","geometry":{"type":"Point","coordinates":[-87.4330199999999,46.2824000000124]}},{"properties":{"common_nm":"Brown trout","water":"stm","county":"Marquette","id":"aduipjeo53k8"},"type":"Feature","geometry":{"type":"Point","coordinates":[-87.4600799999999,46.3701700000122]}},{"properties":{"common_nm":"Brown trout","water":"stm","county":"Marquette","id":"aduipje7ms5l"},"type":"Feature","geometry":{"type":"Point","coordinates":[-87.4394899999998,46.2385900000124]}},{"properties":{"common_nm":"Brown trout","water":"stm","county":"Marquette","id":"aduipjq1c8z5"},"type":"Feature","geometry":{"type":"Point","coordinates":[-87.5002499999999,46.3985800000122]}},{"properties":{"common_nm":"Brown trout","water":"stm","county":"Marquette","id":"aduipjg08o4t"},"type":"Feature","geometry":{"type":"Point","coordinates":[-87.7934299999999,46.4113400000122]}},{"properties":{"common_nm":"Brown trout","water":"stm","county":"Marquette","id":"aduipjjjtlly"},"type":"Feature","geometry":{"type":"Point","coordinates":[-87.8529399999998,46.484620000012]}},{"properties":{"common_nm":"Brown trout","water":"stm","county":"Marquette","id":"aduipjfzb9mx"},"type":"Feature","geometry":{"type":"Point","coordinates":[-88.0419499999998,46.6418800000118]}},{"properties":{"common_nm":"Brown trout","water":"stm","county":"Marquette","id":"aduipjlfe4b0"},"type":"Feature","geometry":{"type":"Point","coordinates":[-88.0859499999998,46.6561800000117]}},{"properties":{"common_nm":"Brown trout","water":"stm","county":"Menominee","id":"aduipjnq8khe"},"type":"Feature","geometry":{"type":"Point","coordinates":[-87.3434399999999,45.4156200000139]}},{"properties":{"common_nm":"Brown trout","water":"stm","county":"Menominee","id":"aduipjegk1r4"},"type":"Feature","geometry":{"type":"Point","coordinates":[-87.3820199999999,45.5879100000136]}},{"properties":{"common_nm":"Brown trout","water":"stm","county":"Menominee","id":"aduipjkmkt7l"},"type":"Feature","geometry":{"type":"Point","coordinates":[-87.3808199999998,45.5720900000136]}},{"properties":{"common_nm":"Brown trout","water":"stm","county":"Menominee","id":"aduipjgofudb"},"type":"Feature","geometry":{"type":"Point","coordinates":[-87.4027699999999,45.5028800000138]}},{"properties":{"common_nm":"Brown trout","water":"stm","county":"Menominee","id":"aduipjimbxct"},"type":"Feature","geometry":{"type":"Point","coordinates":[-87.4598199999998,45.7011700000134]}},{"properties":{"common_nm":"Brown trout","water":"stm","county":"Schoolcraft","id":"aduipjm8itou"},"type":"Feature","geometry":{"type":"Point","coordinates":[-86.45802,46.1951100000125]}},{"properties":{"common_nm":"Brown trout","water":"stm","county":"Schoolcraft","id":"aduipjew0lfz"},"type":"Feature","geometry":{"type":"Point","coordinates":[-86.1268,46.3963300000122]}},{"properties":{"common_nm":"Brown trout","water":"stm","county":"Schoolcraft","id":"aduipjdrhvdz"},"type":"Feature","geometry":{"type":"Point","coordinates":[-86.3346599999999,45.947600000013]}},{"properties":{"common_nm":"Brown trout","water":"stm","county":"Schoolcraft","id":"aduipjjyym7f"},"type":"Feature","geometry":{"type":"Point","coordinates":[-86.06416,46.498120000012]}},{"properties":{"common_nm":"Brown trout","water":"stm","county":"Schoolcraft","id":"aduipjelcv3a"},"type":"Feature","geometry":{"type":"Point","coordinates":[-85.93836,46.3965100000122]}},{"properties":{"common_nm":"Brown trout","water":"stm","county":"Schoolcraft","id":"aduipjhhwh5w"},"type":"Feature","geometry":{"type":"Point","coordinates":[-85.93896,46.4109600000121]}},{"properties":{"common_nm":"Brown trout","water":"stm","county":"Schoolcraft","id":"aduipjijinou"},"type":"Feature","geometry":{"type":"Point","coordinates":[-85.93986,46.4252900000121]}},{"properties":{"common_nm":"Brown trout","water":"stm","county":"Schoolcraft","id":"aduipjir0tfx"},"type":"Feature","geometry":{"type":"Point","coordinates":[-85.93942,46.469390000012]}},{"properties":{"common_nm":"Brown trout","water":"stm","county":"Schoolcraft","id":"aduipjffim08"},"type":"Feature","geometry":{"type":"Point","coordinates":[-86.3958,46.1516200000126]}},{"properties":{"common_nm":"Brown trout","water":"stm","county":"Schoolcraft","id":"aduipjccq93i"},"type":"Feature","geometry":{"type":"Point","coordinates":[-86.4807399999999,46.1797100000125]}},{"properties":{"common_nm":"Brown trout","water":"stm","county":"Schoolcraft","id":"aduipjql4tjn"},"type":"Feature","geometry":{"type":"Point","coordinates":[-86.4179799999999,46.1800100000125]}},{"properties":{"common_nm":"Brown trout","water":"stm","county":"Schoolcraft","id":"aduipjmu1m28"},"type":"Feature","geometry":{"type":"Point","coordinates":[-86.54205,46.2238700000125]}},{"properties":{"common_nm":"Brown trout","water":"stm","county":"Schoolcraft","id":"aduipjprmkrv"},"type":"Feature","geometry":{"type":"Point","coordinates":[-86.25013,45.9612500000129]}},{"properties":{"common_nm":"Brown trout","water":"stm","county":"Allegan","id":"aduipjjug9bz"},"type":"Feature","geometry":{"type":"Point","coordinates":[-85.74506,42.4346700000197]}},{"properties":{"common_nm":"Brown trout","water":"stm","county":"Allegan","id":"aduipjou1yaa"},"type":"Feature","geometry":{"type":"Point","coordinates":[-85.64091,42.4745100000196]}},{"properties":{"common_nm":"Brown trout","water":"stm","county":"Allegan","id":"aduipjg86i5f"},"type":"Feature","geometry":{"type":"Point","coordinates":[-85.92912,42.6677300000193]}},{"properties":{"common_nm":"Brown trout","water":"stm","county":"Allegan","id":"aduipji1t4px"},"type":"Feature","geometry":{"type":"Point","coordinates":[-85.93739,42.6801300000192]}},{"properties":{"common_nm":"Brown trout","water":"stm","county":"Allegan","id":"aduipjr7rryt"},"type":"Feature","geometry":{"type":"Point","coordinates":[-85.58396,42.6677300000193]}},{"properties":{"common_nm":"Brown trout","water":"stm","county":"Allegan","id":"aduipje9sl7f"},"type":"Feature","geometry":{"type":"Point","coordinates":[-85.57906,42.4366200000197]}},{"properties":{"common_nm":"Brown trout","water":"stm","county":"Antrim","id":"aduipjpc95j2"},"type":"Feature","geometry":{"type":"Point","coordinates":[-84.9691400000006,45.0253300000147]}},{"properties":{"common_nm":"Brown trout","water":"stm","county":"Antrim","id":"aduipjre1evv"},"type":"Feature","geometry":{"type":"Point","coordinates":[-85.0560800000006,45.0226600000147]}},{"properties":{"common_nm":"Brown trout","water":"stm","county":"Antrim","id":"aduipjbw9n9v"},"type":"Feature","geometry":{"type":"Point","coordinates":[-85.0598100000005,45.0113600000147]}},{"properties":{"common_nm":"Brown trout","water":"stm","county":"Antrim","id":"aduipjgjw4p3"},"type":"Feature","geometry":{"type":"Point","coordinates":[-85.1188400000004,44.9424000000148]}},{"properties":{"common_nm":"Brown trout","water":"stm","county":"Antrim","id":"aduipjk13xbu"},"type":"Feature","geometry":{"type":"Point","coordinates":[-84.8819200000009,45.1041100000145]}},{"properties":{"common_nm":"Brown trout","water":"stm","county":"Antrim","id":"aduipjkirhj9"},"type":"Feature","geometry":{"type":"Point","coordinates":[-85.0952900000004,45.0992500000145]}},{"properties":{"common_nm":"Brown trout","water":"stm","county":"Barry","id":"aduipjmnrve9"},"type":"Feature","geometry":{"type":"Point","coordinates":[-85.3102000000001,42.7690200000191]}},{"properties":{"common_nm":"Brown trout","water":"stm","county":"Benzie","id":"aduipjh91rgg"},"type":"Feature","geometry":{"type":"Point","coordinates":[-85.96007,44.5248700000156]}},{"properties":{"common_nm":"Brown trout","water":"stm","county":"Benzie","id":"aduipjkmffio"},"type":"Feature","geometry":{"type":"Point","coordinates":[-85.96359,44.6551400000154]}},{"properties":{"common_nm":"Brown trout","water":"stm","county":"Benzie","id":"aduipjkwehnk"},"type":"Feature","geometry":{"type":"Point","coordinates":[-85.9393,44.5320200000157]}},{"properties":{"common_nm":"Brown trout","water":"stm","county":"Berrien","id":"aduipjdsvuzf"},"type":"Feature","geometry":{"type":"Point","coordinates":[-86.2535399999999,41.8032200000208]}},{"properties":{"common_nm":"Brown trout","water":"stm","county":"Berrien","id":"aduipjeh6jv2"},"type":"Feature","geometry":{"type":"Point","coordinates":[-86.2696299999999,41.8629300000207]}},{"properties":{"common_nm":"Brown trout","water":"stm","county":"Berrien","id":"aduipjhsf905"},"type":"Feature","geometry":{"type":"Point","coordinates":[-86.3659499999999,41.8443900000208]}},{"properties":{"common_nm":"Brown trout","water":"stm","county":"Berrien","id":"aduipjhksa48"},"type":"Feature","geometry":{"type":"Point","coordinates":[-86.3217199999999,41.9361200000206]}},{"properties":{"common_nm":"Brown trout","water":"stm","county":"Berrien","id":"aduipjp0flek"},"type":"Feature","geometry":{"type":"Point","coordinates":[-86.3674199999999,41.8563400000208]}},{"properties":{"common_nm":"Brown trout","water":"stm","county":"Berrien","id":"aduipji3jfma"},"type":"Feature","geometry":{"type":"Point","coordinates":[-86.3635899999999,41.9611700000206]}},{"properties":{"common_nm":"Brown trout","water":"stm","county":"Berrien","id":"aduipjnpv16h"},"type":"Feature","geometry":{"type":"Point","coordinates":[-86.2935499999999,41.8721700000207]}},{"properties":{"common_nm":"Brown trout","water":"stm","county":"Berrien","id":"aduipjrogf9p"},"type":"Feature","geometry":{"type":"Point","coordinates":[-86.2878999999999,41.8637300000207]}},{"properties":{"common_nm":"Brown trout","water":"stm","county":"Calhoun","id":"aduipjjfh91g"},"type":"Feature","geometry":{"type":"Point","coordinates":[-84.9146100000003,42.29086000002]}},{"properties":{"common_nm":"Brown trout","water":"stm","county":"Calhoun","id":"aduipjmxjao9"},"type":"Feature","geometry":{"type":"Point","coordinates":[-84.8275000000005,42.29832000002]}},{"properties":{"common_nm":"Brown trout","water":"stm","county":"Calhoun","id":"aduipjgv8uba"},"type":"Feature","geometry":{"type":"Point","coordinates":[-85.2147600000001,42.0934500000203]}},{"properties":{"common_nm":"Brown trout","water":"stm","county":"Calhoun","id":"aduipjodad9v"},"type":"Feature","geometry":{"type":"Point","coordinates":[-85.2899600000001,42.3780000000198]}},{"properties":{"common_nm":"Brown trout","water":"stm","county":"Cass","id":"aduipjl4sx4c"},"type":"Feature","geometry":{"type":"Point","coordinates":[-86.06812,42.0483800000204]}},{"properties":{"common_nm":"Brown trout","water":"stm","county":"Cass","id":"aduipjk4aerk"},"type":"Feature","geometry":{"type":"Point","coordinates":[-86.0880799999999,41.8993000000207]}},{"properties":{"common_nm":"Brown trout","water":"stm","county":"Cass","id":"aduipjdnxd86"},"type":"Feature","geometry":{"type":"Point","coordinates":[-86.17966,41.9707800000206]}},{"properties":{"common_nm":"Brown trout","water":"stm","county":"Cass","id":"aduipjkg7n45"},"type":"Feature","geometry":{"type":"Point","coordinates":[-86.2160799999999,41.9107500000206]}},{"properties":{"common_nm":"Brown trout","water":"stm","county":"Cass","id":"aduipjo1izz0"},"type":"Feature","geometry":{"type":"Point","coordinates":[-86.14346,42.0089100000205]}},{"properties":{"common_nm":"Brown trout","water":"stm","county":"Cass","id":"aduipjn4okl3"},"type":"Feature","geometry":{"type":"Point","coordinates":[-86.1905699999999,41.9452600000206]}},{"properties":{"common_nm":"Brown trout","water":"stm","county":"Charlevoix","id":"aduipjnjcike"},"type":"Feature","geometry":{"type":"Point","coordinates":[-85.2072400000003,45.2092600000143]}},{"properties":{"common_nm":"Brown trout","water":"stm","county":"Clare","id":"aduipjjqbkit"},"type":"Feature","geometry":{"type":"Point","coordinates":[-85.0143700000005,44.1532600000164]}},{"properties":{"common_nm":"Brown trout","water":"stm","county":"Clare","id":"aduipjco0u3a"},"type":"Feature","geometry":{"type":"Point","coordinates":[-85.0643400000004,44.1244900000165]}},{"properties":{"common_nm":"Brown trout","water":"stm","county":"Crawford","id":"aduipjox6mot"},"type":"Feature","geometry":{"type":"Point","coordinates":[-84.843800000001,44.6928900000154]}},{"properties":{"common_nm":"Brown trout","water":"stm","county":"Delta","id":"aduipjev9adz"},"type":"Feature","geometry":{"type":"Point","coordinates":[-86.7093699999999,45.9477300000129]}},{"properties":{"common_nm":"Brown trout","water":"stm","county":"GrandTraverse","id":"aduipjp4zvvc"},"type":"Feature","geometry":{"type":"Point","coordinates":[-85.3873000000001,44.6755600000153]}},{"properties":{"common_nm":"Brown trout","water":"stm","county":"GrandTraverse","id":"aduipjfs55y7"},"type":"Feature","geometry":{"type":"Point","coordinates":[-85.3906900000002,44.7840200000151]}},{"properties":{"common_nm":"Brown trout","water":"stm","county":"GrandTraverse","id":"aduipjgykc01"},"type":"Feature","geometry":{"type":"Point","coordinates":[-85.4752100000001,44.7635900000152]}},{"properties":{"common_nm":"Brown trout","water":"stm","county":"GrandTraverse","id":"aduipjpdnxw5"},"type":"Feature","geometry":{"type":"Point","coordinates":[-85.45473,44.6513300000154]}},{"properties":{"common_nm":"Brown trout","water":"stm","county":"GrandTraverse","id":"aduipjmk6g3i"},"type":"Feature","geometry":{"type":"Point","coordinates":[-85.3969600000001,44.6735900000154]}},{"properties":{"common_nm":"Brown trout","water":"stm","county":"GrandTraverse","id":"aduipjnl0o8p"},"type":"Feature","geometry":{"type":"Point","coordinates":[-85.4959900000001,44.7748800000152]}},{"properties":{"common_nm":"Brown trout","water":"stm","county":"GrTraverse","id":"aduipjhxdddx"},"type":"Feature","geometry":{"type":"Point","coordinates":[-85.5309100000001,44.6422200000154]}},{"properties":{"common_nm":"Brown trout","water":"stm","county":"Ionia","id":"aduipjl5jl4l"},"type":"Feature","geometry":{"type":"Point","coordinates":[-84.9611400000004,43.0902100000185]}},{"properties":{"common_nm":"Brown trout","water":"stm","county":"Ionia","id":"aduipjdtzgnl"},"type":"Feature","geometry":{"type":"Point","coordinates":[-85.0171100000003,43.0109900000186]}},{"properties":{"common_nm":"Brown trout","water":"stm","county":"Jackson","id":"aduipjh4jf5c"},"type":"Feature","geometry":{"type":"Point","coordinates":[-84.5932800000011,42.0760600000204]}},{"properties":{"common_nm":"Brown trout","water":"stm","county":"Kalamazoo","id":"aduipjpkxhgh"},"type":"Feature","geometry":{"type":"Point","coordinates":[-85.59328,42.4167400000197]}},{"properties":{"common_nm":"Brown trout","water":"stm","county":"Kalamazoo","id":"aduipjgbvaul"},"type":"Feature","geometry":{"type":"Point","coordinates":[-85.5856,42.3300000000199]}},{"properties":{"common_nm":"Brown trout","water":"stm","county":"Kalamazoo","id":"aduipjrbdc2b"},"type":"Feature","geometry":{"type":"Point","coordinates":[-85.35925,42.3723000000198]}},{"properties":{"common_nm":"Brown trout","water":"stm","county":"Kalamazoo","id":"aduipjih26j1"},"type":"Feature","geometry":{"type":"Point","coordinates":[-85.3531,42.3884200000198]}},{"properties":{"common_nm":"Brown trout","water":"stm","county":"Kalamazoo","id":"aduipjkkxzev"},"type":"Feature","geometry":{"type":"Point","coordinates":[-85.52934,42.3639800000198]}},{"properties":{"common_nm":"Brown trout","water":"stm","county":"Kalamazoo","id":"aduipji191xc"},"type":"Feature","geometry":{"type":"Point","coordinates":[-85.35472,42.3538000000198]}},{"properties":{"common_nm":"Brown trout","water":"stm","county":"Kalamazoo","id":"aduipjci7md8"},"type":"Feature","geometry":{"type":"Point","coordinates":[-85.48397,42.26760000002]}},{"properties":{"common_nm":"Brown trout","water":"stm","county":"Kalamazoo","id":"aduipjp54x81"},"type":"Feature","geometry":{"type":"Point","coordinates":[-85.55103,42.3562200000199]}},{"properties":{"common_nm":"Brown trout","water":"stm","county":"Kalamazoo","id":"aduipjn5g6e4"},"type":"Feature","geometry":{"type":"Point","coordinates":[-85.58994,42.3602800000199]}},{"properties":{"common_nm":"Brown trout","water":"stm","county":"Kalkaska","id":"aduipjg839n4"},"type":"Feature","geometry":{"type":"Point","coordinates":[-85.0504100000005,44.5578500000156]}},{"properties":{"common_nm":"Brown trout","water":"stm","county":"Kalkaska","id":"aduipjnyywzg"},"type":"Feature","geometry":{"type":"Point","coordinates":[-85.0904900000004,44.5835700000155]}},{"properties":{"common_nm":"Brown trout","water":"stm","county":"Kent","id":"aduipjj86r2u"},"type":"Feature","geometry":{"type":"Point","coordinates":[-85.56562,43.1491900000184]}},{"properties":{"common_nm":"Brown trout","water":"stm","county":"Lake","id":"aduipjj02a1h"},"type":"Feature","geometry":{"type":"Point","coordinates":[-85.99556,44.1327800000164]}},{"properties":{"common_nm":"Brown trout","water":"stm","county":"Lake","id":"aduipjrhoneu"},"type":"Feature","geometry":{"type":"Point","coordinates":[-85.82438,43.9125400000168]}},{"properties":{"common_nm":"Brown trout","water":"stm","county":"Lake","id":"aduipjmnfukf"},"type":"Feature","geometry":{"type":"Point","coordinates":[-85.6758499999999,44.1201700000165]}},{"properties":{"common_nm":"Brown trout","water":"stm","county":"Lake","id":"aduipjin799w"},"type":"Feature","geometry":{"type":"Point","coordinates":[-85.97112,44.1152500000165]}},{"properties":{"common_nm":"Brown trout","water":"stm","county":"Lake","id":"aduipjrccf84"},"type":"Feature","geometry":{"type":"Point","coordinates":[-85.58244,44.0621400000166]}},{"properties":{"common_nm":"Brown trout","water":"stm","county":"Lake","id":"aduipjkpgt4c"},"type":"Feature","geometry":{"type":"Point","coordinates":[-85.88852,44.0791900000165]}},{"properties":{"common_nm":"Brown trout","water":"stm","county":"Lake","id":"aduipjmzvfo1"},"type":"Feature","geometry":{"type":"Point","coordinates":[-85.86182,43.860020000017]}},{"properties":{"common_nm":"Brown trout","water":"stm","county":"Lake","id":"aduipje97aq3"},"type":"Feature","geometry":{"type":"Point","coordinates":[-85.85123,43.857770000017]}},{"properties":{"common_nm":"Brown trout","water":"stm","county":"Lake","id":"aduipjm20ww6"},"type":"Feature","geometry":{"type":"Point","coordinates":[-85.8891899999999,43.8675800000169]}},{"properties":{"common_nm":"Brown trout","water":"stm","county":"Lake","id":"aduipji9xkig"},"type":"Feature","geometry":{"type":"Point","coordinates":[-85.6855200000001,44.1151500000164]}},{"properties":{"common_nm":"Brown trout","water":"stm","county":"Lake","id":"aduipjlmqam0"},"type":"Feature","geometry":{"type":"Point","coordinates":[-85.84355,43.834960000017]}},{"properties":{"common_nm":"Brown trout","water":"stm","county":"Leelanau","id":"aduipjm4uypa"},"type":"Feature","geometry":{"type":"Point","coordinates":[-85.5940900000001,45.0472900000146]}},{"properties":{"common_nm":"Brown trout","water":"stm","county":"Leelenau","id":"aduipjqzb4l1"},"type":"Feature","geometry":{"type":"Point","coordinates":[-85.6173600000001,45.0176800000147]}},{"properties":{"common_nm":"Brown trout","water":"stm","county":"Mackinac","id":"aduipjfj5acb"},"type":"Feature","geometry":{"type":"Point","coordinates":[-85.3737600000002,46.1231200000126]}},{"properties":{"common_nm":"Brown trout","water":"stm","county":"Manistee","id":"aduipjrsyer1"},"type":"Feature","geometry":{"type":"Point","coordinates":[-86.1648899999999,44.1822500000163]}},{"properties":{"common_nm":"Brown trout","water":"stm","county":"Manistee","id":"aduipjqjcvvo"},"type":"Feature","geometry":{"type":"Point","coordinates":[-85.85068,44.306420000016]}},{"properties":{"common_nm":"Brown trout","water":"stm","county":"Manistee","id":"aduipjf199ln"},"type":"Feature","geometry":{"type":"Point","coordinates":[-86.0151699999999,44.2658500000162]}},{"properties":{"common_nm":"Brown trout","water":"stm","county":"Manistee","id":"aduipjcr097d"},"type":"Feature","geometry":{"type":"Point","coordinates":[-85.82632,44.365340000016]}},{"properties":{"common_nm":"Brown trout","water":"stm","county":"Manistee","id":"aduipjndw2vg"},"type":"Feature","geometry":{"type":"Point","coordinates":[-85.95446,44.2670100000161]}},{"properties":{"common_nm":"Brown trout","water":"stm","county":"Montcalm","id":"aduipjfxetcu"},"type":"Feature","geometry":{"type":"Point","coordinates":[-85.2693400000001,43.2647900000182]}},{"properties":{"common_nm":"Brown trout","water":"stm","county":"Montcalm","id":"aduipjk8ib4a"},"type":"Feature","geometry":{"type":"Point","coordinates":[-85.3990800000001,43.4019400000179]}},{"properties":{"common_nm":"Brown trout","water":"stm","county":"Montcalm","id":"aduipji943ud"},"type":"Feature","geometry":{"type":"Point","coordinates":[-84.9879000000004,43.1763500000183]}},{"properties":{"common_nm":"Brown trout","water":"stm","county":"Montcalm","id":"aduipjm6v76b"},"type":"Feature","geometry":{"type":"Point","coordinates":[-85.1341200000003,43.1855000000183]}},{"properties":{"common_nm":"Brown trout","water":"stm","county":"Muskegon","id":"aduipjdn15ty"},"type":"Feature","geometry":{"type":"Point","coordinates":[-86.2595599999999,43.4612000000177]}},{"properties":{"common_nm":"Brown trout","water":"stm","county":"Newaygo","id":"aduipjm3itce"},"type":"Feature","geometry":{"type":"Point","coordinates":[-85.9077700000001,43.5679500000175]}},{"properties":{"common_nm":"Brown trout","water":"stm","county":"Newaygo","id":"aduipjjo0x03"},"type":"Feature","geometry":{"type":"Point","coordinates":[-85.90996,43.6255400000174]}},{"properties":{"common_nm":"Brown trout","water":"stm","county":"Newaygo","id":"aduipjgha4m5"},"type":"Feature","geometry":{"type":"Point","coordinates":[-85.7672499999999,43.5460900000176]}},{"properties":{"common_nm":"Brown trout","water":"stm","county":"Newaygo","id":"aduipjq17ikk"},"type":"Feature","geometry":{"type":"Point","coordinates":[-85.88945,43.5536800000176]}},{"properties":{"common_nm":"Brown trout","water":"stm","county":"Newaygo","id":"aduipjiz3krh"},"type":"Feature","geometry":{"type":"Point","coordinates":[-85.76011,43.7903400000171]}},{"properties":{"common_nm":"Brown trout","water":"stm","county":"Newaygo","id":"aduipjiy8bf3"},"type":"Feature","geometry":{"type":"Point","coordinates":[-85.81305,43.4148600000178]}},{"properties":{"common_nm":"Brown trout","water":"stm","county":"Newaygo","id":"aduipjhsh5vd"},"type":"Feature","geometry":{"type":"Point","coordinates":[-85.75223,43.5910300000175]}},{"properties":{"common_nm":"Brown trout","water":"stm","county":"Newaygo","id":"aduipjjordmk"},"type":"Feature","geometry":{"type":"Point","coordinates":[-85.7283300000001,43.5621000000176]}},{"properties":{"common_nm":"Brown trout","water":"stm","county":"Newaygo","id":"aduipjot5kgm"},"type":"Feature","geometry":{"type":"Point","coordinates":[-85.71278,43.4325700000178]}},{"properties":{"common_nm":"Brown trout","water":"stm","county":"Oceana","id":"aduipjherjw7"},"type":"Feature","geometry":{"type":"Point","coordinates":[-86.19147,43.5179300000176]}},{"properties":{"common_nm":"Brown trout","water":"stm","county":"Oceana","id":"aduipjk8ci68"},"type":"Feature","geometry":{"type":"Point","coordinates":[-86.20341,43.5953100000175]}},{"properties":{"common_nm":"Brown trout","water":"stm","county":"Osceola","id":"aduipjf6pzk8"},"type":"Feature","geometry":{"type":"Point","coordinates":[-85.50492,44.1146800000165]}},{"properties":{"common_nm":"Brown trout","water":"stm","county":"Osceola","id":"aduipjrip18t"},"type":"Feature","geometry":{"type":"Point","coordinates":[-85.5358000000001,44.1139000000164]}},{"properties":{"common_nm":"Brown trout","water":"stm","county":"Osceola","id":"aduipjm7ssfx"},"type":"Feature","geometry":{"type":"Point","coordinates":[-85.4329000000001,43.847320000017]}},{"properties":{"common_nm":"Brown trout","water":"stm","county":"Otsego","id":"aduipjiqfqp0"},"type":"Feature","geometry":{"type":"Point","coordinates":[-84.847650000001,44.9023400000149]}},{"properties":{"common_nm":"Brown trout","water":"stm","county":"StJoseph","id":"aduipjnsx0j0"},"type":"Feature","geometry":{"type":"Point","coordinates":[-85.76174,41.8952500000206]}},{"properties":{"common_nm":"Brown trout","water":"stm","county":"Van Buren","id":"aduipjj9r05m"},"type":"Feature","geometry":{"type":"Point","coordinates":[-85.8277,42.26277000002]}},{"properties":{"common_nm":"Brown trout","water":"stm","county":"Van Buren","id":"aduipjrgn2b9"},"type":"Feature","geometry":{"type":"Point","coordinates":[-86.06551,42.1475400000202]}},{"properties":{"common_nm":"Brown trout","water":"stm","county":"Wexford","id":"aduipjmws526"},"type":"Feature","geometry":{"type":"Point","coordinates":[-85.65537,44.1802400000163]}},{"properties":{"common_nm":"Brown trout","water":"stm","county":"Wexford","id":"aduipjkizkic"},"type":"Feature","geometry":{"type":"Point","coordinates":[-85.70982,44.1700600000163]}},{"properties":{"common_nm":"Brown trout","water":"stm","county":"Wexford","id":"aduipjrbtz3o"},"type":"Feature","geometry":{"type":"Point","coordinates":[-85.4989700000001,44.4667700000158]}},{"properties":{"common_nm":"Brown trout","water":"stm","county":"Wexford","id":"aduipjmpzwhy"},"type":"Feature","geometry":{"type":"Point","coordinates":[-85.69597,44.4361900000158]}},{"properties":{"common_nm":"Brown trout","water":"stm","county":"Wexford","id":"aduipjd73011"},"type":"Feature","geometry":{"type":"Point","coordinates":[-85.62591,44.4183000000159]}},{"properties":{"common_nm":"Brown trout","water":"gl","county":"Ottawa","id":"aduipjetvp80"},"type":"Feature","geometry":{"type":"Point","coordinates":[-86.2165663898548,42.9063703359633]}},{"properties":{"common_nm":"Brown trout","water":"gl","county":"Ottawa","id":"aduipjizz0yq"},"type":"Feature","geometry":{"type":"Point","coordinates":[-86.2165663898548,42.9063703359633]}},{"properties":{"common_nm":"Brown trout","water":"gl","county":"Ottawa","id":"aduipjccm7m5"},"type":"Feature","geometry":{"type":"Point","coordinates":[-86.2165663898548,42.9063703359633]}},{"properties":{"common_nm":"Brown trout","water":"gl","county":"Ottawa","id":"aduipjcfw1ne"},"type":"Feature","geometry":{"type":"Point","coordinates":[-86.2165663898548,42.9063703359633]}},{"properties":{"common_nm":"Brown trout","water":"gl","county":"Ottawa","id":"aduipjmibovq"},"type":"Feature","geometry":{"type":"Point","coordinates":[-86.2165663898548,42.9063703359633]}},{"properties":{"common_nm":"Brown trout","water":"gl","county":"Berrien","id":"aduipjs5nt3l"},"type":"Feature","geometry":{"type":"Point","coordinates":[-86.5670593180731,41.9785246329276]}},{"properties":{"common_nm":"Brown trout","water":"gl","county":"Berrien","id":"aduipjon6i3m"},"type":"Feature","geometry":{"type":"Point","coordinates":[-86.5670593180731,41.9785246329276]}},{"properties":{"common_nm":"Brown trout","water":"gl","county":"Berrien","id":"aduipjdctre7"},"type":"Feature","geometry":{"type":"Point","coordinates":[-86.5670593180731,41.9785246329276]}},{"properties":{"common_nm":"Brown trout","water":"gl","county":"Berrien","id":"aduipjglj55u"},"type":"Feature","geometry":{"type":"Point","coordinates":[-86.5670593180731,41.9785246329276]}},{"properties":{"common_nm":"Brown trout","water":"gl","county":"Berrien","id":"aduipjm1hsgc"},"type":"Feature","geometry":{"type":"Point","coordinates":[-86.5670593180731,41.9785246329276]}},{"properties":{"common_nm":"Brown trout","water":"gl","county":"Berrien","id":"aduipjpelu16"},"type":"Feature","geometry":{"type":"Point","coordinates":[-86.5670593180731,41.9785246329276]}},{"properties":{"common_nm":"Brown trout","water":"gl","county":"Berrien","id":"aduipjqypyl0"},"type":"Feature","geometry":{"type":"Point","coordinates":[-86.5670593180731,41.9785246329276]}},{"properties":{"common_nm":"Brown trout","water":"gl","county":"Berrien","id":"aduipjngz30t"},"type":"Feature","geometry":{"type":"Point","coordinates":[-86.5670593180731,41.9785246329276]}},{"properties":{"common_nm":"Brown trout","water":"gl","county":"Berrien","id":"aduipjnwt8os"},"type":"Feature","geometry":{"type":"Point","coordinates":[-86.5670593180731,41.9785246329276]}},{"properties":{"common_nm":"Brown trout","water":"gl","county":"Berrien","id":"aduipjeqk58c"},"type":"Feature","geometry":{"type":"Point","coordinates":[-86.5670593180731,41.9785246329276]}},{"properties":{"common_nm":"Brown trout","water":"stm","county":null,"id":"aduipjgmm8fj"},"type":"Feature","geometry":{"type":"Point","coordinates":[-85.4857500000001,44.7663500000152]}},{"properties":{"common_nm":"Brown trout","water":"stm","county":"Lake","id":"aduipjgjibrg"},"type":"Feature","geometry":{"type":"Point","coordinates":[-85.83279,43.9077600000169]}},{"properties":{"common_nm":"Brown trout","water":"stm","county":"Lake","id":"aduipjjeps0m"},"type":"Feature","geometry":{"type":"Point","coordinates":[-85.83184,43.8921900000169]}},{"properties":{"common_nm":"Brown trout","water":"stm","county":"Lake","id":"aduipjnwbd1q"},"type":"Feature","geometry":{"type":"Point","coordinates":[-85.85118,43.8907900000169]}},{"properties":{"common_nm":"Brown trout","water":"stm","county":"Lake","id":"aduipjqva6by"},"type":"Feature","geometry":{"type":"Point","coordinates":[-85.85133,43.8784400000169]}},{"properties":{"common_nm":"Brown trout","water":"stm","county":"Lake","id":"aduipjfylc8s"},"type":"Feature","geometry":{"type":"Point","coordinates":[-85.85361,43.865020000017]}},{"properties":{"common_nm":"Brown trout","water":"stm","county":"Lake","id":"aduipjrreb8b"},"type":"Feature","geometry":{"type":"Point","coordinates":[-85.87146,43.865330000017]}},{"properties":{"common_nm":"Brown trout","water":"stm","county":null,"id":"aduipjr68g4n"},"type":"Feature","geometry":{"type":"Point","coordinates":[-85.91088,42.6310700000194]}},{"properties":{"common_nm":"Brown trout","water":"stm","county":null,"id":"aduipjfre34n"},"type":"Feature","geometry":{"type":"Point","coordinates":[-85.94742,42.6137100000194]}},{"properties":{"common_nm":"Brown trout","water":"stm","county":null,"id":"aduipjg58vv2"},"type":"Feature","geometry":{"type":"Point","coordinates":[-86.03005,44.4482400000158]}},{"properties":{"common_nm":"Brown trout","water":"stm","county":null,"id":"aduipjc91rc4"},"type":"Feature","geometry":{"type":"Point","coordinates":[-86.0491999999999,44.3753900000159]}},{"properties":{"common_nm":"Brown trout","water":"stm","county":null,"id":"aduipjmmngkn"},"type":"Feature","geometry":{"type":"Point","coordinates":[-85.95075,44.5189000000156]}},{"properties":{"common_nm":"Brown trout","water":"stm","county":null,"id":"aduipjjb98lh"},"type":"Feature","geometry":{"type":"Point","coordinates":[-85.96964,44.5209400000157]}},{"properties":{"common_nm":"Brown trout","water":"stm","county":null,"id":"aduipjdlhq96"},"type":"Feature","geometry":{"type":"Point","coordinates":[-85.96964,44.5053100000157]}},{"properties":{"common_nm":"Brown trout","water":"stm","county":null,"id":"aduipjhvfyjn"},"type":"Feature","geometry":{"type":"Point","coordinates":[-86.0687999999999,43.8663200000169]}},{"properties":{"common_nm":"Brown trout","water":"stm","county":"Newaygo","id":"aduipjovebux"},"type":"Feature","geometry":{"type":"Point","coordinates":[-85.754,43.4450500000178]}},{"properties":{"common_nm":"Brown trout","water":"stm","county":"Newaygo","id":"aduipjh55qbw"},"type":"Feature","geometry":{"type":"Point","coordinates":[-85.75378,43.4309000000178]}},{"properties":{"common_nm":"Brown trout","water":"stm","county":"Newaygo","id":"aduipjntf4jf"},"type":"Feature","geometry":{"type":"Point","coordinates":[-85.77406,43.4306400000178]}},{"properties":{"common_nm":"Brown trout","water":"stm","county":"Newaygo","id":"aduipjpslh2k"},"type":"Feature","geometry":{"type":"Point","coordinates":[-85.7711600000001,43.4151200000178]}},{"properties":{"common_nm":"Brown trout","water":"stm","county":null,"id":"aduipjojxl8p"},"type":"Feature","geometry":{"type":"Point","coordinates":[-84.9661000000007,45.1977400000144]}},{"properties":{"common_nm":"Brown trout","water":"stm","county":null,"id":"aduipjrki3q4"},"type":"Feature","geometry":{"type":"Point","coordinates":[-85.93729,43.1825400000183]}},{"properties":{"common_nm":"Brown trout","water":"stm","county":null,"id":"aduipjhl0ynh"},"type":"Feature","geometry":{"type":"Point","coordinates":[-85.71477,42.8916000000188]}},{"properties":{"common_nm":"Brown trout","water":"stm","county":null,"id":"aduipjpseclb"},"type":"Feature","geometry":{"type":"Point","coordinates":[-85.71477,42.8916000000188]}},{"properties":{"common_nm":"Brown trout","water":"stm","county":null,"id":"aduipjhbpfpo"},"type":"Feature","geometry":{"type":"Point","coordinates":[-85.52126,43.0208500000186]}},{"properties":{"common_nm":"Brown trout","water":"stm","county":null,"id":"aduipjpn4mcs"},"type":"Feature","geometry":{"type":"Point","coordinates":[-85.54015,43.0061600000186]}},{"properties":{"common_nm":"Brown trout","water":"stm","county":null,"id":"aduipjj9vj1v"},"type":"Feature","geometry":{"type":"Point","coordinates":[-85.0592900000006,45.0091100000147]}},{"properties":{"common_nm":"Brown trout","water":"stm","county":null,"id":"aduipjg2y06w"},"type":"Feature","geometry":{"type":"Point","coordinates":[-85.0572700000005,45.0242800000147]}},{"properties":{"common_nm":"Brown trout","water":"stm","county":null,"id":"aduipjqjryr7"},"type":"Feature","geometry":{"type":"Point","coordinates":[-85.0189100000006,45.0128600000147]}},{"properties":{"common_nm":"Brown trout","water":"stm","county":null,"id":"aduipjgmvvj4"},"type":"Feature","geometry":{"type":"Point","coordinates":[-84.9985900000006,45.0095700000147]}},{"properties":{"common_nm":"Brown trout","water":"stm","county":null,"id":"aduipjc29jvc"},"type":"Feature","geometry":{"type":"Point","coordinates":[-84.9676500000007,45.0373700000147]}},{"properties":{"common_nm":"Brown trout","water":"stm","county":null,"id":"aduipjc9epdi"},"type":"Feature","geometry":{"type":"Point","coordinates":[-84.9482700000007,45.0523000000146]}},{"properties":{"common_nm":"Brown trout","water":"stm","county":null,"id":"aduipjeysyfg"},"type":"Feature","geometry":{"type":"Point","coordinates":[-85.62247,44.7620600000152]}},{"properties":{"common_nm":"Brown trout","water":"stm","county":null,"id":"aduipjrg5j4c"},"type":"Feature","geometry":{"type":"Point","coordinates":[-85.0189100000006,45.0128600000147]}},{"properties":{"common_nm":"Brown trout","water":"stm","county":"Lake","id":"aduipjc0p43n"},"type":"Feature","geometry":{"type":"Point","coordinates":[-85.85313,43.848460000017]}},{"properties":{"common_nm":"Brown trout","water":"stm","county":null,"id":"aduipjqnfi3h"},"type":"Feature","geometry":{"type":"Point","coordinates":[-86.4475599999999,42.0215700000205]}},{"properties":{"common_nm":"Brown trout","water":"stm","county":"Lake","id":"aduipjeek858"},"type":"Feature","geometry":{"type":"Point","coordinates":[-85.77509,43.864370000017]}},{"properties":{"common_nm":"Brown trout","water":"stm","county":"Lake","id":"aduipjpfmbsw"},"type":"Feature","geometry":{"type":"Point","coordinates":[-85.83183,43.848610000017]}},{"properties":{"common_nm":"Brown trout","water":"stm","county":"Lake","id":"aduipjgiao2g"},"type":"Feature","geometry":{"type":"Point","coordinates":[-85.85361,43.865020000017]}},{"properties":{"common_nm":"Brown trout","water":"stm","county":"Lake","id":"aduipjipzmnw"},"type":"Feature","geometry":{"type":"Point","coordinates":[-85.87146,43.865330000017]}},{"properties":{"common_nm":"Brown trout","water":"stm","county":"Lake","id":"aduipjiy1ssd"},"type":"Feature","geometry":{"type":"Point","coordinates":[-85.89191,43.8639100000169]}},{"properties":{"common_nm":"Brown trout","water":"stm","county":"Lake","id":"aduipjg0yiyk"},"type":"Feature","geometry":{"type":"Point","coordinates":[-85.9293,43.8803800000169]}},{"properties":{"common_nm":"Brown trout","water":"stm","county":"Lake","id":"aduipjlit21b"},"type":"Feature","geometry":{"type":"Point","coordinates":[-85.97055,43.9249700000168]}},{"properties":{"common_nm":"Brown trout","water":"stm","county":null,"id":"aduipjcr66pc"},"type":"Feature","geometry":{"type":"Point","coordinates":[-85.5670500000001,44.7381300000152]}},{"properties":{"common_nm":"Brown trout","water":"stm","county":null,"id":"aduipjphk6zk"},"type":"Feature","geometry":{"type":"Point","coordinates":[-85.57127,44.7516900000152]}},{"properties":{"common_nm":"Brown trout","water":"stm","county":"Newaygo","id":"aduipjqfey2o"},"type":"Feature","geometry":{"type":"Point","coordinates":[-85.67021,43.4306100000178]}},{"properties":{"common_nm":"Brown trout","water":"stm","county":"Newaygo","id":"aduipjhceoyj"},"type":"Feature","geometry":{"type":"Point","coordinates":[-85.59318,43.4157500000178]}},{"properties":{"common_nm":"Brown trout","water":"stm","county":"Newaygo","id":"aduipjc6wokp"},"type":"Feature","geometry":{"type":"Point","coordinates":[-85.7711600000001,43.4151200000178]}},{"properties":{"common_nm":"Brown trout","water":"stm","county":"Newaygo","id":"aduipjklsr7x"},"type":"Feature","geometry":{"type":"Point","coordinates":[-85.7939,43.4125400000178]}},{"properties":{"common_nm":"Brown trout","water":"stm","county":null,"id":"aduipjlyzmdh"},"type":"Feature","geometry":{"type":"Point","coordinates":[-86.0115099999999,44.2173300000162]}},{"properties":{"common_nm":"Brown trout","water":"stm","county":null,"id":"aduipjiyd1p3"},"type":"Feature","geometry":{"type":"Point","coordinates":[-85.97062,44.2146600000162]}},{"properties":{"common_nm":"Brown trout","water":"stm","county":null,"id":"aduipji9qmg9"},"type":"Feature","geometry":{"type":"Point","coordinates":[-86.17317,44.2517100000162]}},{"properties":{"common_nm":"Brown trout","water":"stm","county":null,"id":"aduipjmf3ks9"},"type":"Feature","geometry":{"type":"Point","coordinates":[-85.94822,44.6520800000154]}},{"properties":{"common_nm":"Brown trout","water":"stm","county":null,"id":"aduipjel7ios"},"type":"Feature","geometry":{"type":"Point","coordinates":[-85.98803,44.6525200000154]}},{"properties":{"common_nm":"Brown trout","water":"stm","county":null,"id":"aduipji8slbl"},"type":"Feature","geometry":{"type":"Point","coordinates":[-86.0495,44.6528500000154]}},{"properties":{"common_nm":"Brown trout","water":"stm","county":null,"id":"aduipjqz48aa"},"type":"Feature","geometry":{"type":"Point","coordinates":[-85.58299,43.1084400000184]}},{"properties":{"common_nm":"Brown trout","water":"stm","county":null,"id":"aduipjd52jor"},"type":"Feature","geometry":{"type":"Point","coordinates":[-85.60133,43.0792600000185]}},{"properties":{"common_nm":"Brown trout","water":"stm","county":null,"id":"aduipjdbixso"},"type":"Feature","geometry":{"type":"Point","coordinates":[-85.5995000000001,43.0650000000185]}},{"properties":{"common_nm":"Brown trout","water":"stm","county":null,"id":"aduipjnjb7fv"},"type":"Feature","geometry":{"type":"Point","coordinates":[-85.96863,42.6013400000194]}},{"properties":{"common_nm":"Brown trout","water":"stm","county":"Berrien","id":"aduipjr21go6"},"type":"Feature","geometry":{"type":"Point","coordinates":[-86.3301099999999,41.9338200000206]}},{"properties":{"common_nm":"Brown trout","water":"stm","county":"Oceana","id":"aduipjrko38z"},"type":"Feature","geometry":{"type":"Point","coordinates":[-86.0517099999999,43.5600200000176]}},{"properties":{"common_nm":"Brown trout","water":"gl","county":null,"id":"aduipjjwa1nc"},"type":"Feature","geometry":{"type":"Point","coordinates":[-86.2333,42.6667000000193]}},{"properties":{"common_nm":"Brown trout","water":"gl","county":null,"id":"aduipjnhg4rd"},"type":"Feature","geometry":{"type":"Point","coordinates":[-86.225,42.6767000000193]}},{"properties":{"common_nm":"Brown trout","water":"gl","county":null,"id":"aduipjkze94q"},"type":"Feature","geometry":{"type":"Point","coordinates":[-86.2332999999999,42.7000000000192]}},{"properties":{"common_nm":"Brown trout","water":"gl","county":null,"id":"aduipjdrp1tz"},"type":"Feature","geometry":{"type":"Point","coordinates":[-86.2417,42.7500000000191]}},{"properties":{"common_nm":"Brown trout","water":"gl","county":null,"id":"aduipjlcxf6x"},"type":"Feature","geometry":{"type":"Point","coordinates":[-86.2266999999999,42.8850000000189]}},{"properties":{"common_nm":"Brown trout","water":"gl","county":null,"id":"aduipjl3nsad"},"type":"Feature","geometry":{"type":"Point","coordinates":[-86.2167,42.6667000000193]}},{"properties":{"common_nm":"Brown trout","water":"gl","county":null,"id":"aduipje292b3"},"type":"Feature","geometry":{"type":"Point","coordinates":[-86.2216999999999,42.6750000000192]}},{"properties":{"common_nm":"Brown trout","water":"gl","county":null,"id":"aduipjdfftem"},"type":"Feature","geometry":{"type":"Point","coordinates":[-86.22,42.6750000000193]}},{"properties":{"common_nm":"Brown trout","water":"gl","county":null,"id":"aduipjhdqw3c"},"type":"Feature","geometry":{"type":"Point","coordinates":[-86.2233,42.6767000000193]}},{"properties":{"common_nm":"Brown trout","water":"gl","county":null,"id":"aduipjqfh8pd"},"type":"Feature","geometry":{"type":"Point","coordinates":[-86.22,42.6767000000193]}},{"properties":{"common_nm":"Brown trout","water":"gl","county":null,"id":"aduipjjttlc5"},"type":"Feature","geometry":{"type":"Point","coordinates":[-86.2332999999999,42.6417000000193]}},{"properties":{"common_nm":"Brown trout","water":"gl","county":null,"id":"aduipjonrr5y"},"type":"Feature","geometry":{"type":"Point","coordinates":[-86.4599999999999,43.9100000000169]}},{"properties":{"common_nm":"Brown trout","water":"gl","county":null,"id":"aduipjf4ziqg"},"type":"Feature","geometry":{"type":"Point","coordinates":[-86.2417,44.6083000000155]}},{"properties":{"common_nm":"Brown trout","water":"gl","county":null,"id":"aduipjiepb8s"},"type":"Feature","geometry":{"type":"Point","coordinates":[-86.2467,42.6383000000193]}},{"properties":{"common_nm":"Brown trout","water":"gl","county":null,"id":"aduipjn6zz8i"},"type":"Feature","geometry":{"type":"Point","coordinates":[-86.2217,42.6933000000192]}},{"properties":{"common_nm":"Brown trout","water":"gl","county":null,"id":"aduipjq40wau"},"type":"Feature","geometry":{"type":"Point","coordinates":[-86.2167,42.6750000000192]}},{"properties":{"common_nm":"Brown trout","water":"gl","county":null,"id":"aduipjkh2ijz"},"type":"Feature","geometry":{"type":"Point","coordinates":[-86.22,42.6917000000192]}},{"properties":{"common_nm":"Brown trout","water":"gl","county":null,"id":"aduipjjuu7ol"},"type":"Feature","geometry":{"type":"Point","coordinates":[-86.2382999999999,42.6417000000193]}},{"properties":{"common_nm":"Brown trout","water":"gl","county":null,"id":"aduipjgffjre"},"type":"Feature","geometry":{"type":"Point","coordinates":[-86.2583,42.6417000000193]}},{"properties":{"common_nm":"Brown trout","water":"gl","county":null,"id":"aduipjd2iz7z"},"type":"Feature","geometry":{"type":"Point","coordinates":[-86.225,42.6883000000192]}},{"properties":{"common_nm":"Brown trout","water":"gl","county":null,"id":"aduipjqdhkwk"},"type":"Feature","geometry":{"type":"Point","coordinates":[-86.2282999999999,42.6950000000192]}},{"properties":{"common_nm":"Brown trout","water":"gl","county":null,"id":"aduipjp6qatn"},"type":"Feature","geometry":{"type":"Point","coordinates":[-86.2499999999999,42.6383000000193]}},{"properties":{"common_nm":"Brown trout","water":"gl","county":null,"id":"aduipjs0gvtq"},"type":"Feature","geometry":{"type":"Point","coordinates":[-86.2382999999999,42.6383000000193]}},{"properties":{"common_nm":"Brown trout","water":"gl","county":null,"id":"aduipjcg2uq5"},"type":"Feature","geometry":{"type":"Point","coordinates":[-86.5766999999999,41.9950000000205]}},{"properties":{"common_nm":"Brown trout","water":"gl","county":null,"id":"aduipjryaiym"},"type":"Feature","geometry":{"type":"Point","coordinates":[-86.4866999999999,42.1283000000203]}},{"properties":{"common_nm":"Brown trout","water":"gl","county":null,"id":"aduipjojhm4f"},"type":"Feature","geometry":{"type":"Point","coordinates":[-86.4833,42.1283000000203]}},{"properties":{"common_nm":"Brown trout","water":"gl","county":null,"id":"aduipjj1adob"},"type":"Feature","geometry":{"type":"Point","coordinates":[-86.3232999999999,42.3283000000199]}},{"properties":{"common_nm":"Brown trout","water":"gl","county":null,"id":"aduipjem7goo"},"type":"Feature","geometry":{"type":"Point","coordinates":[-86.2916999999999,42.4133000000198]}},{"properties":{"common_nm":"Brown trout","water":"gl","county":null,"id":"aduipjdvvupb"},"type":"Feature","geometry":{"type":"Point","coordinates":[-86.2499999999999,42.5333000000196]}},{"properties":{"common_nm":"Brown trout","water":"gl","county":null,"id":"aduipjiff91g"},"type":"Feature","geometry":{"type":"Point","coordinates":[-86.245,42.5333000000195]}},{"properties":{"common_nm":"Brown trout","water":"gl","county":null,"id":"aduipjmlam4h"},"type":"Feature","geometry":{"type":"Point","coordinates":[-86.2499999999999,42.6383000000193]}},{"properties":{"common_nm":"Brown trout","water":"gl","county":null,"id":"aduipjqhso98"},"type":"Feature","geometry":{"type":"Point","coordinates":[-86.22,42.6917000000192]}},{"properties":{"common_nm":"Brown trout","water":"gl","county":null,"id":"aduipjehn5ek"},"type":"Feature","geometry":{"type":"Point","coordinates":[-86.2349999999999,42.6417000000193]}},{"properties":{"common_nm":"Brown trout","water":"gl","county":null,"id":"aduipjdhvtf5"},"type":"Feature","geometry":{"type":"Point","coordinates":[-86.3333,42.3250000000199]}},{"properties":{"common_nm":"Brown trout","water":"gl","county":null,"id":"aduipjiyw2p6"},"type":"Feature","geometry":{"type":"Point","coordinates":[-86.3299999999999,42.3250000000199]}},{"properties":{"common_nm":"Brown trout","water":"gl","county":null,"id":"aduipjqynioy"},"type":"Feature","geometry":{"type":"Point","coordinates":[-86.3467,42.7150000000192]}},{"properties":{"common_nm":"Brown trout","water":"gl","county":null,"id":"aduipjdsajgd"},"type":"Feature","geometry":{"type":"Point","coordinates":[-86.2182999999999,42.7200000000192]}},{"properties":{"common_nm":"Brown trout","water":"gl","county":null,"id":"aduipjj31d9s"},"type":"Feature","geometry":{"type":"Point","coordinates":[-86.2167,42.7133000000192]}},{"properties":{"common_nm":"Brown trout","water":"gl","county":null,"id":"aduipjm813z4"},"type":"Feature","geometry":{"type":"Point","coordinates":[-86.2833,42.4133000000198]}},{"properties":{"common_nm":"Brown trout","water":"gl","county":null,"id":"aduipjltpue9"},"type":"Feature","geometry":{"type":"Point","coordinates":[-86.2333,42.6067000000194]}},{"properties":{"common_nm":"Brown trout","water":"gl","county":null,"id":"aduipjlq8l4r"},"type":"Feature","geometry":{"type":"Point","coordinates":[-86.2333,42.7100000000192]}},{"properties":{"common_nm":"Brown trout","water":"gl","county":null,"id":"aduipjjwkipo"},"type":"Feature","geometry":{"type":"Point","coordinates":[-86.2467,42.6417000000193]}},{"properties":{"common_nm":"Brown trout","water":"gl","county":null,"id":"aduipjmti14j"},"type":"Feature","geometry":{"type":"Point","coordinates":[-86.2583,42.6417000000193]}},{"properties":{"common_nm":"Brown trout","water":"gl","county":null,"id":"aduipjlwtvy1"},"type":"Feature","geometry":{"type":"Point","coordinates":[-86.2782999999999,43.0350000000186]}},{"properties":{"common_nm":"Brown trout","water":"gl","county":null,"id":"aduipjc8fr8t"},"type":"Feature","geometry":{"type":"Point","coordinates":[-86.22,42.6933000000192]}},{"properties":{"common_nm":"Brown trout","water":"gl","county":null,"id":"aduipjnq0ha9"},"type":"Feature","geometry":{"type":"Point","coordinates":[-86.2499999999999,42.7167000000192]}},{"properties":{"common_nm":"Brown trout","water":"gl","county":null,"id":"aduipjhp764g"},"type":"Feature","geometry":{"type":"Point","coordinates":[-86.225,42.7167000000192]}},{"properties":{"common_nm":"Brown trout","water":"gl","county":null,"id":"aduipjedv5xg"},"type":"Feature","geometry":{"type":"Point","coordinates":[-86.2833,42.7167000000192]}},{"properties":{"common_nm":"Brown trout","water":"gl","county":null,"id":"aduipjimvkld"},"type":"Feature","geometry":{"type":"Point","coordinates":[-86.2482999999999,43.0417000000186]}},{"properties":{"common_nm":"Brown trout","water":"gl","county":null,"id":"aduipjkfn86z"},"type":"Feature","geometry":{"type":"Point","coordinates":[-86.2499999999999,42.6083000000194]}},{"properties":{"common_nm":"Brown trout","water":"gl","county":null,"id":"aduipje4wlqm"},"type":"Feature","geometry":{"type":"Point","coordinates":[-86.4766999999999,42.1333000000202]}},{"properties":{"common_nm":"Brown trout","water":"gl","county":null,"id":"aduipjqvc4gp"},"type":"Feature","geometry":{"type":"Point","coordinates":[-86.5716999999999,41.9833000000205]}},{"properties":{"common_nm":"Brown trout","water":"gl","county":null,"id":"aduipjfja426"},"type":"Feature","geometry":{"type":"Point","coordinates":[-86.2499999999999,42.6333000000193]}},{"properties":{"common_nm":"Brown trout","water":"gl","county":null,"id":"aduipjomdmgq"},"type":"Feature","geometry":{"type":"Point","coordinates":[-86.22,42.6933000000192]}},{"properties":{"common_nm":"Brown trout","water":"gl","county":null,"id":"aduipjouavjc"},"type":"Feature","geometry":{"type":"Point","coordinates":[-86.2617,42.7017000000192]}},{"properties":{"common_nm":"Brown trout","water":"gl","county":null,"id":"aduipjpk7pj0"},"type":"Feature","geometry":{"type":"Point","coordinates":[-86.2167,42.7100000000192]}},{"properties":{"common_nm":"Brown trout","water":"gl","county":null,"id":"aduipjhi55kw"},"type":"Feature","geometry":{"type":"Point","coordinates":[-86.2583,42.6417000000193]}},{"properties":{"common_nm":"Brown trout","water":"gl","county":null,"id":"aduipjixgfee"},"type":"Feature","geometry":{"type":"Point","coordinates":[-86.3166999999999,42.3583000000198]}},{"properties":{"common_nm":"Brown trout","water":"gl","county":null,"id":"aduipjcylq6b"},"type":"Feature","geometry":{"type":"Point","coordinates":[-86.4749999999999,42.1283000000203]}},{"properties":{"common_nm":"Brown trout","water":"gl","county":null,"id":"aduipjl7unoa"},"type":"Feature","geometry":{"type":"Point","coordinates":[-86.5,42.1267000000203]}},{"properties":{"common_nm":"Brown trout","water":"gl","county":null,"id":"aduipjfx5nte"},"type":"Feature","geometry":{"type":"Point","coordinates":[-86.3333,42.3117000000199]}},{"properties":{"common_nm":"Brown trout","water":"gl","county":null,"id":"aduipjctpa1q"},"type":"Feature","geometry":{"type":"Point","coordinates":[-86.2649999999999,43.0450000000186]}},{"properties":{"common_nm":"Brown trout","water":"gl","county":null,"id":"aduipjjqrret"},"type":"Feature","geometry":{"type":"Point","coordinates":[-86.2167,42.6917000000192]}},{"properties":{"common_nm":"Brown trout","water":"gl","county":null,"id":"aduipjqppqtx"},"type":"Feature","geometry":{"type":"Point","coordinates":[-86.2117,42.7083000000192]}},{"properties":{"common_nm":"Brown trout","water":"gl","county":null,"id":"aduipjp2h7uj"},"type":"Feature","geometry":{"type":"Point","coordinates":[-86.3166999999999,42.5333000000196]}},{"properties":{"common_nm":"Brown trout","water":"gl","county":null,"id":"aduipjcg5cjj"},"type":"Feature","geometry":{"type":"Point","coordinates":[-86.2916999999999,42.4133000000198]}},{"properties":{"common_nm":"Brown trout","water":"gl","county":null,"id":"aduipjh7l8yc"},"type":"Feature","geometry":{"type":"Point","coordinates":[-86.2833,42.4133000000198]}},{"properties":{"common_nm":"Brown trout","water":"gl","county":null,"id":"aduipjkhkhwh"},"type":"Feature","geometry":{"type":"Point","coordinates":[-86.7249999999999,41.8167000000208]}},{"properties":{"common_nm":"Brown trout","water":"gl","county":null,"id":"aduipjk1kq7o"},"type":"Feature","geometry":{"type":"Point","coordinates":[-86.2849999999999,43.0083000000186]}},{"properties":{"common_nm":"Brown trout","water":"gl","county":null,"id":"aduipjeaxbya"},"type":"Feature","geometry":{"type":"Point","coordinates":[-86.2182999999999,42.7083000000192]}},{"properties":{"common_nm":"Brown trout","water":"gl","county":null,"id":"aduipjmyrota"},"type":"Feature","geometry":{"type":"Point","coordinates":[-86.2117,42.7083000000192]}},{"properties":{"common_nm":"Brown trout","water":"gl","county":null,"id":"aduipjmymymp"},"type":"Feature","geometry":{"type":"Point","coordinates":[-86.2416999999999,42.7250000000192]}},{"properties":{"common_nm":"Brown trout","water":"gl","county":null,"id":"aduipjgzxpmv"},"type":"Feature","geometry":{"type":"Point","coordinates":[-86.2417,42.7417000000192]}},{"properties":{"common_nm":"Brown trout","water":"gl","county":null,"id":"aduipjqj4fmb"},"type":"Feature","geometry":{"type":"Point","coordinates":[-86.2182999999999,42.7167000000192]}},{"properties":{"common_nm":"Brown trout","water":"gl","county":null,"id":"aduipjgmiysy"},"type":"Feature","geometry":{"type":"Point","coordinates":[-86.255,43.0450000000186]}},{"properties":{"common_nm":"Brown trout","water":"gl","county":null,"id":"aduipjs5azw2"},"type":"Feature","geometry":{"type":"Point","coordinates":[-86.2366999999999,42.6417000000193]}},{"properties":{"common_nm":"Brown trout","water":"gl","county":null,"id":"aduipjs7scp8"},"type":"Feature","geometry":{"type":"Point","coordinates":[-86.2882999999999,42.5250000000196]}},{"properties":{"common_nm":"Brown trout","water":"gl","county":null,"id":"aduipjh3vucq"},"type":"Feature","geometry":{"type":"Point","coordinates":[-86.3249999999999,42.3117000000199]}},{"properties":{"common_nm":"Brown trout","water":"gl","county":null,"id":"aduipjizwpc8"},"type":"Feature","geometry":{"type":"Point","coordinates":[-86.2833,42.4250000000197]}},{"properties":{"common_nm":"Brown trout","water":"gl","county":null,"id":"aduipjmt7pdw"},"type":"Feature","geometry":{"type":"Point","coordinates":[-86.7467,41.8050000000208]}},{"properties":{"common_nm":"Brown trout","water":"gl","county":null,"id":"aduipjo2cgee"},"type":"Feature","geometry":{"type":"Point","coordinates":[-86.5683,41.9833000000206]}},{"properties":{"common_nm":"Brown trout","water":"gl","county":null,"id":"aduipjmuditr"},"type":"Feature","geometry":{"type":"Point","coordinates":[-86.4749999999999,42.1333000000202]}},{"properties":{"common_nm":"Brown trout","water":"gl","county":null,"id":"aduipjfsvauk"},"type":"Feature","geometry":{"type":"Point","coordinates":[-86.3166999999999,42.5250000000195]}},{"properties":{"common_nm":"Brown trout","water":"gl","county":null,"id":"aduipjg1znjz"},"type":"Feature","geometry":{"type":"Point","coordinates":[-86.2416999999999,42.6917000000192]}},{"properties":{"common_nm":"Brown trout","water":"gl","county":null,"id":"aduipjnalank"},"type":"Feature","geometry":{"type":"Point","coordinates":[-86.2182999999999,42.7083000000192]}},{"properties":{"common_nm":"Brown trout","water":"gl","county":null,"id":"aduipjjyl5qt"},"type":"Feature","geometry":{"type":"Point","coordinates":[-86.225,42.6667000000193]}},{"properties":{"common_nm":"Brown trout","water":"gl","county":null,"id":"aduipjgurnnw"},"type":"Feature","geometry":{"type":"Point","coordinates":[-86.225,42.6500000000193]}},{"properties":{"common_nm":"Brown trout","water":"gl","county":null,"id":"aduipjd4epd5"},"type":"Feature","geometry":{"type":"Point","coordinates":[-86.2399999999999,42.7067000000192]}},{"properties":{"common_nm":"Brown trout","water":"gl","county":null,"id":"aduipjpglq9u"},"type":"Feature","geometry":{"type":"Point","coordinates":[-86.25,42.6667000000193]}},{"properties":{"common_nm":"Brown trout","water":"gl","county":null,"id":"aduipjpdc8ga"},"type":"Feature","geometry":{"type":"Point","coordinates":[-86.2932999999999,42.6000000000194]}},{"properties":{"common_nm":"Brown trout","water":"gl","county":null,"id":"aduipjj3od8h"},"type":"Feature","geometry":{"type":"Point","coordinates":[-86.255,42.9783000000187]}},{"properties":{"common_nm":"Brown trout","water":"gl","county":null,"id":"aduipjgtyze6"},"type":"Feature","geometry":{"type":"Point","coordinates":[-86.2583,42.6417000000193]}},{"properties":{"common_nm":"Brown trout","water":"gl","county":null,"id":"aduipje173sc"},"type":"Feature","geometry":{"type":"Point","coordinates":[-86.3166999999999,42.5250000000195]}},{"properties":{"common_nm":"Brown trout","water":"gl","county":null,"id":"aduipjodig41"},"type":"Feature","geometry":{"type":"Point","coordinates":[-86.2882999999999,42.5250000000196]}},{"properties":{"common_nm":"Brown trout","water":"gl","county":null,"id":"aduipjo0vlc7"},"type":"Feature","geometry":{"type":"Point","coordinates":[-86.4816999999999,42.1483000000202]}},{"properties":{"common_nm":"Brown trout","water":"gl","county":null,"id":"aduipjq3de6m"},"type":"Feature","geometry":{"type":"Point","coordinates":[-86.7467,41.8050000000208]}},{"properties":{"common_nm":"Brown trout","water":"gl","county":null,"id":"aduipjnx0c1l"},"type":"Feature","geometry":{"type":"Point","coordinates":[-86.7516999999999,41.8117000000208]}},{"properties":{"common_nm":"Brown trout","water":"gl","county":null,"id":"aduipjhaoodu"},"type":"Feature","geometry":{"type":"Point","coordinates":[-86.2833,42.4250000000197]}},{"properties":{"common_nm":"Brown trout","water":"gl","county":null,"id":"aduipjcrtwh3"},"type":"Feature","geometry":{"type":"Point","coordinates":[-86.2182999999999,42.7083000000192]}},{"properties":{"common_nm":"Brown trout","water":"gl","county":null,"id":"aduipjovrjl1"},"type":"Feature","geometry":{"type":"Point","coordinates":[-86.2182999999999,42.7383000000191]}},{"properties":{"common_nm":"Brown trout","water":"gl","county":null,"id":"aduipjhi9m1r"},"type":"Feature","geometry":{"type":"Point","coordinates":[-86.2182999999999,42.7550000000191]}},{"properties":{"common_nm":"Brown trout","water":"gl","county":null,"id":"aduipjeh7ngj"},"type":"Feature","geometry":{"type":"Point","coordinates":[-86.2382999999999,42.6417000000193]}},{"properties":{"common_nm":"Brown trout","water":"gl","county":null,"id":"aduipjccyjbb"},"type":"Feature","geometry":{"type":"Point","coordinates":[-86.2382999999999,42.6417000000193]}},{"properties":{"common_nm":"Brown trout","water":"gl","county":null,"id":"aduipjolbytz"},"type":"Feature","geometry":{"type":"Point","coordinates":[-86.5082999999999,42.1483000000202]}},{"properties":{"common_nm":"Brown trout","water":"gl","county":null,"id":"aduipjl6lsnp"},"type":"Feature","geometry":{"type":"Point","coordinates":[-86.7932999999999,41.8300000000208]}},{"properties":{"common_nm":"Brown trout","water":"gl","county":null,"id":"aduipjj8qsy3"},"type":"Feature","geometry":{"type":"Point","coordinates":[-86.2499999999999,43.0250000000186]}},{"properties":{"common_nm":"Brown trout","water":"gl","county":null,"id":"aduipjow9vix"},"type":"Feature","geometry":{"type":"Point","coordinates":[-86.2667,43.0350000000186]}},{"properties":{"common_nm":"Brown trout","water":"gl","county":null,"id":"aduipjg53a8p"},"type":"Feature","geometry":{"type":"Point","coordinates":[-86.3766999999999,43.2600000000181]}},{"properties":{"common_nm":"Brown trout","water":"gl","county":null,"id":"aduipjs7n06p"},"type":"Feature","geometry":{"type":"Point","coordinates":[-86.4499999999999,43.871700000017]}},{"properties":{"common_nm":"Brown trout","water":"gl","county":null,"id":"aduipjs0oxzs"},"type":"Feature","geometry":{"type":"Point","coordinates":[-86.4466999999999,43.8717000000169]}},{"properties":{"common_nm":"Brown trout","water":"gl","county":null,"id":"aduipjbzi7r8"},"type":"Feature","geometry":{"type":"Point","coordinates":[-86.4632999999999,43.4083000000178]}},{"properties":{"common_nm":"Brown trout","water":"gl","county":null,"id":"aduipjj97yly"},"type":"Feature","geometry":{"type":"Point","coordinates":[-86.4583,43.4083000000179]}},{"properties":{"common_nm":"Brown trout","water":"gl","county":null,"id":"aduipjqv5cej"},"type":"Feature","geometry":{"type":"Point","coordinates":[-86.2382999999999,42.6417000000193]}},{"properties":{"common_nm":"Brown trout","water":"gl","county":null,"id":"aduipjgnhhaz"},"type":"Feature","geometry":{"type":"Point","coordinates":[-86.4749999999999,42.1483000000202]}},{"properties":{"common_nm":"Brown trout","water":"gl","county":null,"id":"aduipjr40r2w"},"type":"Feature","geometry":{"type":"Point","coordinates":[-86.2416999999999,42.7083000000192]}},{"properties":{"common_nm":"Brown trout","water":"gl","county":null,"id":"aduipjhs7vkf"},"type":"Feature","geometry":{"type":"Point","coordinates":[-86.2216999999999,42.7083000000192]}},{"properties":{"common_nm":"Brown trout","water":"gl","county":null,"id":"aduipjhaoz0s"},"type":"Feature","geometry":{"type":"Point","coordinates":[-86.2182999999999,42.7083000000192]}},{"properties":{"common_nm":"Brown trout","water":"gl","county":null,"id":"aduipjhtyjsh"},"type":"Feature","geometry":{"type":"Point","coordinates":[-86.2532999999999,43.0450000000186]}},{"properties":{"common_nm":"Brown trout","water":"gl","county":null,"id":"aduipjjzp0b0"},"type":"Feature","geometry":{"type":"Point","coordinates":[-86.3249999999999,42.3117000000199]}},{"properties":{"common_nm":"Brown trout","water":"gl","county":null,"id":"aduipjmw5qka"},"type":"Feature","geometry":{"type":"Point","coordinates":[-86.2499999999999,42.6917000000192]}},{"properties":{"common_nm":"Brown trout","water":"gl","county":null,"id":"aduipjns02ip"},"type":"Feature","geometry":{"type":"Point","coordinates":[-86.2816999999999,42.7250000000192]}},{"properties":{"common_nm":"Brown trout","water":"gl","county":null,"id":"aduipjoyk376"},"type":"Feature","geometry":{"type":"Point","coordinates":[-86.2416999999999,42.7250000000192]}},{"properties":{"common_nm":"Brown trout","water":"gl","county":null,"id":"aduipjcs221t"},"type":"Feature","geometry":{"type":"Point","coordinates":[-86.3249999999999,42.3117000000199]}},{"properties":{"common_nm":"Brown trout","water":"gl","county":null,"id":"aduipjjjkiie"},"type":"Feature","geometry":{"type":"Point","coordinates":[-86.4816999999999,42.1483000000202]}},{"properties":{"common_nm":"Brown trout","water":"gl","county":null,"id":"aduipjhov9rg"},"type":"Feature","geometry":{"type":"Point","coordinates":[-86.7467,41.8050000000208]}},{"properties":{"common_nm":"Brown trout","water":"gl","county":null,"id":"aduipjgock3r"},"type":"Feature","geometry":{"type":"Point","coordinates":[-86.2432999999999,43.0300000000186]}},{"properties":{"common_nm":"Brown trout","water":"gl","county":null,"id":"aduipjkolvx4"},"type":"Feature","geometry":{"type":"Point","coordinates":[-86.2499999999999,42.6450000000193]}},{"properties":{"common_nm":"Brown trout","water":"gl","county":null,"id":"aduipjrtsd8x"},"type":"Feature","geometry":{"type":"Point","coordinates":[-86.2366999999999,42.5833000000194]}},{"properties":{"common_nm":"Brown trout","water":"gl","county":null,"id":"aduipjp3v1ls"},"type":"Feature","geometry":{"type":"Point","coordinates":[-86.2282999999999,42.5950000000194]}},{"properties":{"common_nm":"Brown trout","water":"gl","county":null,"id":"aduipjlwqpnz"},"type":"Feature","geometry":{"type":"Point","coordinates":[-86.2382999999999,42.9883000000187]}},{"properties":{"common_nm":"Brown trout","water":"gl","county":null,"id":"aduipjr63l8x"},"type":"Feature","geometry":{"type":"Point","coordinates":[-86.2399999999999,44.6100000000155]}},{"properties":{"common_nm":"Brown trout","water":"gl","county":null,"id":"aduipjmph0bp"},"type":"Feature","geometry":{"type":"Point","coordinates":[-86.2699999999999,42.5917000000194]}},{"properties":{"common_nm":"Brown trout","water":"gl","county":null,"id":"aduipjg43knc"},"type":"Feature","geometry":{"type":"Point","coordinates":[-86.25,42.5733000000195]}},{"properties":{"common_nm":"Brown trout","water":"gl","county":null,"id":"aduipjm5rh69"},"type":"Feature","geometry":{"type":"Point","coordinates":[-86.2716999999999,42.5883000000194]}},{"properties":{"common_nm":"Brown trout","water":"gl","county":null,"id":"aduipjisuxzc"},"type":"Feature","geometry":{"type":"Point","coordinates":[-86.2383,42.5917000000194]}},{"properties":{"common_nm":"Brown trout","water":"gl","county":null,"id":"aduipjljgbo7"},"type":"Feature","geometry":{"type":"Point","coordinates":[-86.2332999999999,42.5967000000194]}},{"properties":{"common_nm":"Brown trout","water":"gl","county":null,"id":"aduipjeuw830"},"type":"Feature","geometry":{"type":"Point","coordinates":[-86.2749999999999,42.7250000000192]}},{"properties":{"common_nm":"Brown trout","water":"gl","county":null,"id":"aduipjkn2gw7"},"type":"Feature","geometry":{"type":"Point","coordinates":[-86.255,42.6933000000192]}},{"properties":{"common_nm":"Brown trout","water":"gl","county":null,"id":"aduipjsac0qs"},"type":"Feature","geometry":{"type":"Point","coordinates":[-86.2749999999999,42.5933000000194]}},{"properties":{"common_nm":"Brown trout","water":"gl","county":null,"id":"aduipjjzljp0"},"type":"Feature","geometry":{"type":"Point","coordinates":[-86.22,42.6900000000192]}},{"properties":{"common_nm":"Brown trout","water":"gl","county":null,"id":"aduipjm1z8or"},"type":"Feature","geometry":{"type":"Point","coordinates":[-85.0600000000006,45.6733000000135]}},{"properties":{"common_nm":"Brown trout","water":"gl","county":null,"id":"aduipjogieah"},"type":"Feature","geometry":{"type":"Point","coordinates":[-86.2166999999999,42.7067000000192]}},{"properties":{"common_nm":"Brown trout","water":"gl","county":null,"id":"aduipjn71dl7"},"type":"Feature","geometry":{"type":"Point","coordinates":[-86.2467,42.7250000000192]}},{"properties":{"common_nm":"Brown trout","water":"gl","county":null,"id":"aduipjdk85om"},"type":"Feature","geometry":{"type":"Point","coordinates":[-86.2583,42.6333000000193]}},{"properties":{"common_nm":"Brown trout","water":"gl","county":null,"id":"aduipjrjnvyv"},"type":"Feature","geometry":{"type":"Point","coordinates":[-86.23,42.7083000000192]}},{"properties":{"common_nm":"Brown trout","water":"gl","county":null,"id":"aduipjpguymr"},"type":"Feature","geometry":{"type":"Point","coordinates":[-85.7367,45.5600000000137]}},{"properties":{"common_nm":"Brown trout","water":"gl","county":null,"id":"aduipjnvgfpo"},"type":"Feature","geometry":{"type":"Point","coordinates":[-86.23,42.7067000000192]}},{"properties":{"common_nm":"Brown trout","water":"gl","county":null,"id":"aduipjn9t81c"},"type":"Feature","geometry":{"type":"Point","coordinates":[-86.2532999999999,42.7300000000192]}},{"properties":{"common_nm":"Brown trout","water":"gl","county":null,"id":"aduipjgnpah1"},"type":"Feature","geometry":{"type":"Point","coordinates":[-86.2749999999999,42.7433000000191]}},{"properties":{"common_nm":"Brown trout","water":"gl","county":null,"id":"aduipjimnq7x"},"type":"Feature","geometry":{"type":"Point","coordinates":[-86.2599999999999,42.7433000000192]}},{"properties":{"common_nm":"Brown trout","water":"gl","county":null,"id":"aduipjfwzfvl"},"type":"Feature","geometry":{"type":"Point","coordinates":[-85.3683000000001,45.2950000000141]}},{"properties":{"common_nm":"Brown trout","water":"gl","county":null,"id":"aduipjdgqy49"},"type":"Feature","geometry":{"type":"Point","coordinates":[-86.2599999999999,42.6433000000193]}},{"properties":{"common_nm":"Brown trout","water":"gl","county":null,"id":"aduipjhxl29k"},"type":"Feature","geometry":{"type":"Point","coordinates":[-86.245,42.7233000000192]}},{"properties":{"common_nm":"Brown trout","water":"gl","county":null,"id":"aduipjcpdy4k"},"type":"Feature","geometry":{"type":"Point","coordinates":[-86.245,42.7083000000192]}},{"properties":{"common_nm":"Brown trout","water":"gl","county":null,"id":"aduipjnk0yxv"},"type":"Feature","geometry":{"type":"Point","coordinates":[-86.2233,42.7083000000192]}},{"properties":{"common_nm":"Brown trout","water":"gl","county":null,"id":"aduipjp2kxtg"},"type":"Feature","geometry":{"type":"Point","coordinates":[-86.2467,42.6917000000192]}},{"properties":{"common_nm":"Brown trout","water":"gl","county":null,"id":"aduipjitevi6"},"type":"Feature","geometry":{"type":"Point","coordinates":[-86.22,42.7050000000192]}},{"properties":{"common_nm":"Brown trout","water":"gl","county":null,"id":"aduipjkmcd63"},"type":"Feature","geometry":{"type":"Point","coordinates":[-86.225,42.7067000000192]}},{"properties":{"common_nm":"Brown trout","water":"gl","county":null,"id":"aduipjbxruf6"},"type":"Feature","geometry":{"type":"Point","coordinates":[-86.2383,42.6550000000193]}},{"properties":{"common_nm":"Brown trout","water":"gl","county":null,"id":"aduipjpqdjr7"},"type":"Feature","geometry":{"type":"Point","coordinates":[-86.2467,42.6417000000193]}},{"properties":{"common_nm":"Brown trout","water":"gl","county":null,"id":"aduipjkto5p6"},"type":"Feature","geometry":{"type":"Point","coordinates":[-85.1417000000004,45.375000000014]}},{"properties":{"common_nm":"Brown trout","water":"gl","county":null,"id":"aduipjmgdte4"},"type":"Feature","geometry":{"type":"Point","coordinates":[-85.1300000000004,45.380000000014]}},{"properties":{"common_nm":"Brown trout","water":"gl","county":null,"id":"aduipjcwurac"},"type":"Feature","geometry":{"type":"Point","coordinates":[-85.1500000000003,45.380000000014]}},{"properties":{"common_nm":"Brown trout","water":"gl","county":null,"id":"aduipjebtmn6"},"type":"Feature","geometry":{"type":"Point","coordinates":[-85.1367000000004,45.383300000014]}},{"properties":{"common_nm":"Brown trout","water":"gl","county":null,"id":"aduipjpmwxah"},"type":"Feature","geometry":{"type":"Point","coordinates":[-85.3767000000002,45.3033000000141]}},{"properties":{"common_nm":"Brown trout","water":"gl","county":null,"id":"aduipjig971h"},"type":"Feature","geometry":{"type":"Point","coordinates":[-85.3533000000002,45.3033000000141]}},{"properties":{"common_nm":"Brown trout","water":"gl","county":null,"id":"aduipjfhznat"},"type":"Feature","geometry":{"type":"Point","coordinates":[-85.7417,45.5633000000136]}},{"properties":{"common_nm":"Brown trout","water":"gl","county":null,"id":"aduipjlah10q"},"type":"Feature","geometry":{"type":"Point","coordinates":[-86.2182999999999,42.6933000000192]}},{"properties":{"common_nm":"Brown trout","water":"gl","county":null,"id":"aduipjkoidez"},"type":"Feature","geometry":{"type":"Point","coordinates":[-86.2282999999999,42.6950000000192]}},{"properties":{"common_nm":"Brown trout","water":"gl","county":null,"id":"aduipjqinfhv"},"type":"Feature","geometry":{"type":"Point","coordinates":[-86.2449999999999,42.6933000000192]}},{"properties":{"common_nm":"Brown trout","water":"gl","county":null,"id":"aduipjqrdbup"},"type":"Feature","geometry":{"type":"Point","coordinates":[-86.27182,42.9166700000188]}},{"properties":{"common_nm":"Brown trout","water":"gl","county":null,"id":"aduipjjeo1gc"},"type":"Feature","geometry":{"type":"Point","coordinates":[-86.2901099999999,42.4166700000198]}},{"properties":{"common_nm":"Brown trout","water":"gl","county":null,"id":"aduipjglphs2"},"type":"Feature","geometry":{"type":"Point","coordinates":[-86.45252,43.4166700000178]}},{"properties":{"common_nm":"Brown trout","water":"gl","county":null,"id":"aduipjluklbi"},"type":"Feature","geometry":{"type":"Point","coordinates":[-86.5833299999999,43.4166700000178]}},{"properties":{"common_nm":"Brown trout","water":"gl","county":null,"id":"aduipje4f223"},"type":"Feature","geometry":{"type":"Point","coordinates":[-86.58333,43.7500000000172]}},{"properties":{"common_nm":"Brown trout","water":"gl","county":null,"id":"aduipjc84pf5"},"type":"Feature","geometry":{"type":"Point","coordinates":[-86.58333,43.9166700000168]}},{"properties":{"common_nm":"Brown trout","water":"gl","county":null,"id":"aduipjp33kwz"},"type":"Feature","geometry":{"type":"Point","coordinates":[-86.4652099999999,43.9166700000169]}},{"properties":{"common_nm":"Brown trout","water":"gl","county":null,"id":"aduipjlmeuhg"},"type":"Feature","geometry":{"type":"Point","coordinates":[-85.0832300000005,45.4307600000139]}},{"properties":{"common_nm":"Brown trout","water":"gl","county":null,"id":"aduipjd03i3b"},"type":"Feature","geometry":{"type":"Point","coordinates":[-85.51834,44.7903700000151]}},{"properties":{"common_nm":"Brown trout","water":"gl","county":null,"id":"aduipjlifgap"},"type":"Feature","geometry":{"type":"Point","coordinates":[-85.57212,44.9172200000149]}},{"properties":{"common_nm":"Brown trout","water":"gl","county":null,"id":"aduipjl4as0j"},"type":"Feature","geometry":{"type":"Point","coordinates":[-86.39902,43.2507300000182]}},{"properties":{"common_nm":"Brown trout","water":"gl","county":null,"id":"aduipjhtqio6"},"type":"Feature","geometry":{"type":"Point","coordinates":[-86.4650099999999,43.7720800000172]}},{"properties":{"common_nm":"Brown trout","water":"gl","county":null,"id":"aduipjr96gkk"},"type":"Feature","geometry":{"type":"Point","coordinates":[-86.27182,42.9166700000188]}},{"properties":{"common_nm":"Brown trout","water":"gl","county":null,"id":"aduipjetlu3w"},"type":"Feature","geometry":{"type":"Point","coordinates":[-86.4166699999999,44.2500000000162]}},{"properties":{"common_nm":"Brown trout","water":"gl","county":null,"id":"aduipjknhwir"},"type":"Feature","geometry":{"type":"Point","coordinates":[-86.11586,44.7781900000152]}},{"properties":{"common_nm":"Brown trout","water":"gl","county":null,"id":"aduipjkelg6y"},"type":"Feature","geometry":{"type":"Point","coordinates":[-87.5628899999998,45.0833300000145]}},{"properties":{"common_nm":"Brown trout","water":"gl","county":null,"id":"aduipjcapcbz"},"type":"Feature","geometry":{"type":"Point","coordinates":[-85.60661,44.8006100000151]}},{"properties":{"common_nm":"Brown trout","water":"gl","county":null,"id":"aduipjgswe98"},"type":"Feature","geometry":{"type":"Point","coordinates":[-85.91667,45.901300000013]}},{"properties":{"common_nm":"Brown trout","water":"gl","county":null,"id":"aduipjdevfb1"},"type":"Feature","geometry":{"type":"Point","coordinates":[-86.08333,45.900070000013]}},{"properties":{"common_nm":"Brown trout","water":"gl","county":null,"id":"aduipjrsx22q"},"type":"Feature","geometry":{"type":"Point","coordinates":[-85.4166700000002,45.7500000000133]}},{"properties":{"common_nm":"Brown trout","water":"gl","county":null,"id":"aduipjipri3m"},"type":"Feature","geometry":{"type":"Point","coordinates":[-85.2500000000002,45.416670000014]}},{"properties":{"common_nm":"Brown trout","water":"gl","county":null,"id":"aduipjn0uqxg"},"type":"Feature","geometry":{"type":"Point","coordinates":[-85.58333,45.7507300000133]}},{"properties":{"common_nm":"Brown trout","water":"gl","county":null,"id":"aduipjq3q87n"},"type":"Feature","geometry":{"type":"Point","coordinates":[-85.2500000000002,45.416670000014]}},{"properties":{"common_nm":"Brown trout","water":"gl","county":null,"id":"aduipjjveamm"},"type":"Feature","geometry":{"type":"Point","coordinates":[-85.91667,45.4166700000139]}},{"properties":{"common_nm":"Brown trout","water":"gl","county":null,"id":"aduipjguh1h2"},"type":"Feature","geometry":{"type":"Point","coordinates":[-85.4166700000002,45.7500000000133]}},{"properties":{"common_nm":"Brown trout","water":"gl","county":null,"id":"aduipjcwoo5x"},"type":"Feature","geometry":{"type":"Point","coordinates":[-87.3716399999999,45.375470000014]}},{"properties":{"common_nm":"Brown trout","water":"gl","county":null,"id":"aduipjhqp6rc"},"type":"Feature","geometry":{"type":"Point","coordinates":[-85.91667,45.901300000013]}},{"properties":{"common_nm":"Brown trout","water":"gl","county":null,"id":"aduipjoj6z2h"},"type":"Feature","geometry":{"type":"Point","coordinates":[-87.5628899999998,45.0833300000145]}},{"properties":{"common_nm":"Brown trout","water":"gl","county":null,"id":"aduipjryrcej"},"type":"Feature","geometry":{"type":"Point","coordinates":[-87.5628899999998,45.0833300000145]}},{"properties":{"common_nm":"Brown trout","water":"gl","county":null,"id":"aduipjoxcw4r"},"type":"Feature","geometry":{"type":"Point","coordinates":[-87.4594199999999,45.2500000000142]}},{"properties":{"common_nm":"Brown trout","water":"gl","county":null,"id":"aduipjh69sn5"},"type":"Feature","geometry":{"type":"Point","coordinates":[-87.2499999999999,45.4171200000139]}},{"properties":{"common_nm":"Brown trout","water":"gl","county":null,"id":"aduipjjl6scp"},"type":"Feature","geometry":{"type":"Point","coordinates":[-87.0466499999999,45.7957500000132]}},{"properties":{"common_nm":"Brown trout","water":"gl","county":null,"id":"aduipjenqqb5"},"type":"Feature","geometry":{"type":"Point","coordinates":[-87.0466499999999,45.7957500000132]}},{"properties":{"common_nm":"Brown trout","water":"gl","county":null,"id":"aduipjdnv4qi"},"type":"Feature","geometry":{"type":"Point","coordinates":[-87.0466499999999,45.7957500000132]}},{"properties":{"common_nm":"Brown trout","water":"gl","county":null,"id":"aduipjnlvc5c"},"type":"Feature","geometry":{"type":"Point","coordinates":[-85.91667,45.901300000013]}},{"properties":{"common_nm":"Brown trout","water":"gl","county":null,"id":"aduipjm6una1"},"type":"Feature","geometry":{"type":"Point","coordinates":[-87.0466499999999,45.7957500000132]}},{"properties":{"common_nm":"Brown trout","water":"gl","county":null,"id":"aduipjjoz19i"},"type":"Feature","geometry":{"type":"Point","coordinates":[-86.5975899999999,45.8134800000132]}},{"properties":{"common_nm":"Brown trout","water":"gl","county":null,"id":"aduipjjyd7s1"},"type":"Feature","geometry":{"type":"Point","coordinates":[-86.8153699999999,45.7666500000133]}},{"properties":{"common_nm":"Brown trout","water":"gl","county":null,"id":"aduipjl338gt"},"type":"Feature","geometry":{"type":"Point","coordinates":[-87.4594199999999,45.2500000000142]}},{"properties":{"common_nm":"Brown trout","water":"gl","county":null,"id":"aduipjrxxb6x"},"type":"Feature","geometry":{"type":"Point","coordinates":[-86.7499999999999,45.5833300000136]}},{"properties":{"common_nm":"Brown trout","water":"gl","county":null,"id":"aduipjjx0dn7"},"type":"Feature","geometry":{"type":"Point","coordinates":[-86.5975899999999,45.8134800000132]}},{"properties":{"common_nm":"Brown trout","water":"gl","county":null,"id":"aduipjiw69wk"},"type":"Feature","geometry":{"type":"Point","coordinates":[-85.91667,45.4166700000139]}},{"properties":{"common_nm":"Brown trout","water":"gl","county":null,"id":"aduipjrobr3v"},"type":"Feature","geometry":{"type":"Point","coordinates":[-85.91667,45.4166700000139]}},{"properties":{"common_nm":"Brown trout","water":"gl","county":null,"id":"aduipjo9bork"},"type":"Feature","geometry":{"type":"Point","coordinates":[-85.75,45.4166700000139]}},{"properties":{"common_nm":"Brown trout","water":"gl","county":null,"id":"aduipjdu6qk4"},"type":"Feature","geometry":{"type":"Point","coordinates":[-86.47372,45.7500000000133]}},{"properties":{"common_nm":"Brown trout","water":"gl","county":null,"id":"aduipji51r2i"},"type":"Feature","geometry":{"type":"Point","coordinates":[-86.2577299999999,45.898220000013]}},{"properties":{"common_nm":"Brown trout","water":"gl","county":null,"id":"aduipjeoycr6"},"type":"Feature","geometry":{"type":"Point","coordinates":[-86.47372,45.7500000000133]}},{"properties":{"common_nm":"Brown trout","water":"gl","county":null,"id":"aduipjg8j8gk"},"type":"Feature","geometry":{"type":"Point","coordinates":[-86.2577299999999,45.898220000013]}},{"properties":{"common_nm":"Brown trout","water":"gl","county":null,"id":"aduipjhis21y"},"type":"Feature","geometry":{"type":"Point","coordinates":[-87.5628899999998,45.0833300000145]}},{"properties":{"common_nm":"Brown trout","water":"gl","county":null,"id":"aduipjg7vnhm"},"type":"Feature","geometry":{"type":"Point","coordinates":[-86.27616,44.5833300000155]}},{"properties":{"common_nm":"Brown trout","water":"gl","county":null,"id":"aduipji78nvh"},"type":"Feature","geometry":{"type":"Point","coordinates":[-85.56575,45.0838400000146]}},{"properties":{"common_nm":"Brown trout","water":"gl","county":null,"id":"aduipjdwzz5c"},"type":"Feature","geometry":{"type":"Point","coordinates":[-85.56575,45.0838400000146]}},{"properties":{"common_nm":"Brown trout","water":"gl","county":null,"id":"aduipjm2l2ss"},"type":"Feature","geometry":{"type":"Point","coordinates":[-85.57212,44.9172200000149]}},{"properties":{"common_nm":"Brown trout","water":"gl","county":null,"id":"aduipjp6lek4"},"type":"Feature","geometry":{"type":"Point","coordinates":[-85.0832300000005,45.4307600000139]}},{"properties":{"common_nm":"Brown trout","water":"gl","county":null,"id":"aduipjkml30u"},"type":"Feature","geometry":{"type":"Point","coordinates":[-86.7499999999999,45.5833300000136]}},{"properties":{"common_nm":"Brown trout","water":"gl","county":null,"id":"aduipjln5xv4"},"type":"Feature","geometry":{"type":"Point","coordinates":[-85.56575,45.0838400000146]}},{"properties":{"common_nm":"Brown trout","water":"gl","county":null,"id":"aduipjc7lepb"},"type":"Feature","geometry":{"type":"Point","coordinates":[-85.57212,44.9172200000149]}},{"properties":{"common_nm":"Brown trout","water":"gl","county":null,"id":"aduipjofjd69"},"type":"Feature","geometry":{"type":"Point","coordinates":[-86.08333,45.0833300000146]}},{"properties":{"common_nm":"Brown trout","water":"gl","county":null,"id":"aduipjmfaqj5"},"type":"Feature","geometry":{"type":"Point","coordinates":[-85.91667,45.901300000013]}},{"properties":{"common_nm":"Brown trout","water":"gl","county":null,"id":"aduipjpkb5ub"},"type":"Feature","geometry":{"type":"Point","coordinates":[-86.27616,44.5833300000155]}},{"properties":{"common_nm":"Brown trout","water":"gl","county":null,"id":"aduipjq238z8"},"type":"Feature","geometry":{"type":"Point","coordinates":[-85.73415,45.0834700000146]}},{"properties":{"common_nm":"Brown trout","water":"gl","county":null,"id":"aduipjpbgmxd"},"type":"Feature","geometry":{"type":"Point","coordinates":[-85.73415,45.0834700000146]}},{"properties":{"common_nm":"Brown trout","water":"gl","county":null,"id":"aduipji19cjf"},"type":"Feature","geometry":{"type":"Point","coordinates":[-85.0833300000005,45.916670000013]}},{"properties":{"common_nm":"Brown trout","water":"gl","county":null,"id":"aduipjrk4sks"},"type":"Feature","geometry":{"type":"Point","coordinates":[-85.0832300000005,45.4307600000139]}},{"properties":{"common_nm":"Brown trout","water":"gl","county":null,"id":"aduipjo0ughg"},"type":"Feature","geometry":{"type":"Point","coordinates":[-87.0466499999999,45.7957500000132]}},{"properties":{"common_nm":"Brown trout","water":"gl","county":null,"id":"aduipjqxa47i"},"type":"Feature","geometry":{"type":"Point","coordinates":[-86.47372,45.7500000000133]}},{"properties":{"common_nm":"Brown trout","water":"gl","county":null,"id":"aduipjizch1o"},"type":"Feature","geometry":{"type":"Point","coordinates":[-85.58333,45.7507300000133]}},{"properties":{"common_nm":"Brown trout","water":"gl","county":null,"id":"aduipjd41fut"},"type":"Feature","geometry":{"type":"Point","coordinates":[-85.58333,45.7507300000133]}},{"properties":{"common_nm":"Brown trout","water":"gl","county":null,"id":"aduipjq7gg4e"},"type":"Feature","geometry":{"type":"Point","coordinates":[-85.57212,44.9172200000149]}},{"properties":{"common_nm":"Brown trout","water":"gl","county":null,"id":"aduipjru5ctl"},"type":"Feature","geometry":{"type":"Point","coordinates":[-86.25,44.7500000000152]}},{"properties":{"common_nm":"Brown trout","water":"gl","county":null,"id":"aduipjhautn1"},"type":"Feature","geometry":{"type":"Point","coordinates":[-86.25,44.7500000000152]}},{"properties":{"common_nm":"Brown trout","water":"gl","county":null,"id":"aduipjeo0x2w"},"type":"Feature","geometry":{"type":"Point","coordinates":[-85.56575,45.0838400000146]}},{"properties":{"common_nm":"Brown trout","water":"gl","county":null,"id":"aduipjpt6tph"},"type":"Feature","geometry":{"type":"Point","coordinates":[-86.2831999999999,44.4171300000159]}},{"properties":{"common_nm":"Brown trout","water":"gl","county":null,"id":"aduipji2083f"},"type":"Feature","geometry":{"type":"Point","coordinates":[-86.2831999999999,44.4171300000159]}},{"properties":{"common_nm":"Brown trout","water":"gl","county":null,"id":"aduipjjajv4f"},"type":"Feature","geometry":{"type":"Point","coordinates":[-86.45252,43.4166700000178]}},{"properties":{"common_nm":"Brown trout","water":"gl","county":null,"id":"aduipjrp2dle"},"type":"Feature","geometry":{"type":"Point","coordinates":[-86.27036,42.7509900000191]}},{"properties":{"common_nm":"Brown trout","water":"gl","county":null,"id":"aduipjkznbew"},"type":"Feature","geometry":{"type":"Point","coordinates":[-86.27036,42.7509900000191]}},{"properties":{"common_nm":"Brown trout","water":"gl","county":null,"id":"aduipjsa4ioc"},"type":"Feature","geometry":{"type":"Point","coordinates":[-86.2577299999999,45.898220000013]}},{"properties":{"common_nm":"Brown trout","water":"gl","county":null,"id":"aduipjdi5906"},"type":"Feature","geometry":{"type":"Point","coordinates":[-86.5506199999999,42.0833300000203]}},{"properties":{"common_nm":"Brown trout","water":"gl","county":null,"id":"aduipjoz5s21"},"type":"Feature","geometry":{"type":"Point","coordinates":[-86.5506199999999,42.0833300000203]}},{"properties":{"common_nm":"Brown trout","water":"gl","county":null,"id":"aduipjs103h7"},"type":"Feature","geometry":{"type":"Point","coordinates":[-86.2577299999999,45.898220000013]}},{"properties":{"common_nm":"Brown trout","water":"gl","county":null,"id":"aduipjkenj0c"},"type":"Feature","geometry":{"type":"Point","coordinates":[-85.73415,45.0834700000146]}},{"properties":{"common_nm":"Brown trout","water":"gl","county":null,"id":"aduipjokrjoi"},"type":"Feature","geometry":{"type":"Point","coordinates":[-85.73415,45.0834700000146]}},{"properties":{"common_nm":"Brown trout","water":"gl","county":null,"id":"aduipjotohpc"},"type":"Feature","geometry":{"type":"Point","coordinates":[-86.8153699999999,45.7666500000133]}},{"properties":{"common_nm":"Brown trout","water":"gl","county":null,"id":"aduipjl4t6l5"},"type":"Feature","geometry":{"type":"Point","coordinates":[-85.4567000000001,44.9172800000149]}},{"properties":{"common_nm":"Brown trout","water":"gl","county":null,"id":"aduipjr5x3e4"},"type":"Feature","geometry":{"type":"Point","coordinates":[-85.4567000000001,44.9172800000149]}},{"properties":{"common_nm":"Brown trout","water":"gl","county":null,"id":"aduipjqyaxul"},"type":"Feature","geometry":{"type":"Point","coordinates":[-86.25,44.7500000000152]}},{"properties":{"common_nm":"Brown trout","water":"gl","county":null,"id":"aduipjixkdxu"},"type":"Feature","geometry":{"type":"Point","coordinates":[-86.25,44.7500000000152]}},{"properties":{"common_nm":"Brown trout","water":"gl","county":null,"id":"aduipjcaxirx"},"type":"Feature","geometry":{"type":"Point","coordinates":[-86.2831999999999,44.4171300000159]}},{"properties":{"common_nm":"Brown trout","water":"gl","county":null,"id":"aduipjl5w1x3"},"type":"Feature","geometry":{"type":"Point","coordinates":[-86.2831999999999,44.4171300000159]}},{"properties":{"common_nm":"Brown trout","water":"gl","county":null,"id":"aduipjm09xty"},"type":"Feature","geometry":{"type":"Point","coordinates":[-86.58333,43.7500000000172]}},{"properties":{"common_nm":"Brown trout","water":"gl","county":null,"id":"aduipjpmr21x"},"type":"Feature","geometry":{"type":"Point","coordinates":[-86.58333,43.7500000000172]}},{"properties":{"common_nm":"Brown trout","water":"gl","county":null,"id":"aduipjiomk7w"},"type":"Feature","geometry":{"type":"Point","coordinates":[-86.58333,43.7500000000172]}},{"properties":{"common_nm":"Brown trout","water":"gl","county":null,"id":"aduipjc2e0zo"},"type":"Feature","geometry":{"type":"Point","coordinates":[-86.45252,43.4166700000178]}},{"properties":{"common_nm":"Brown trout","water":"gl","county":null,"id":"aduipjc53e0c"},"type":"Feature","geometry":{"type":"Point","coordinates":[-86.45252,43.4166700000178]}},{"properties":{"common_nm":"Brown trout","water":"gl","county":null,"id":"aduipjnh5p9x"},"type":"Feature","geometry":{"type":"Point","coordinates":[-86.28104,43.0839000000185]}},{"properties":{"common_nm":"Brown trout","water":"gl","county":null,"id":"aduipjeeih71"},"type":"Feature","geometry":{"type":"Point","coordinates":[-86.27036,42.7509900000191]}},{"properties":{"common_nm":"Brown trout","water":"gl","county":null,"id":"aduipjp5n1u1"},"type":"Feature","geometry":{"type":"Point","coordinates":[-86.27036,42.7509900000191]}},{"properties":{"common_nm":"Brown trout","water":"gl","county":null,"id":"aduipjiyhngy"},"type":"Feature","geometry":{"type":"Point","coordinates":[-86.2901099999999,42.4166700000198]}},{"properties":{"common_nm":"Brown trout","water":"gl","county":null,"id":"aduipjj5o60w"},"type":"Feature","geometry":{"type":"Point","coordinates":[-85.4567000000001,44.9172800000149]}},{"properties":{"common_nm":"Brown trout","water":"gl","county":null,"id":"aduipjfxxi6i"},"type":"Feature","geometry":{"type":"Point","coordinates":[-86.5506199999999,42.0833300000203]}},{"properties":{"common_nm":"Brown trout","water":"gl","county":null,"id":"aduipjeg19qc"},"type":"Feature","geometry":{"type":"Point","coordinates":[-86.5506199999999,42.0833300000203]}},{"properties":{"common_nm":"Brown trout","water":"gl","county":null,"id":"aduipjga7xe3"},"type":"Feature","geometry":{"type":"Point","coordinates":[-85.58333,45.2500000000142]}},{"properties":{"common_nm":"Brown trout","water":"gl","county":null,"id":"aduipjgpvvz4"},"type":"Feature","geometry":{"type":"Point","coordinates":[-86.2901099999999,42.4166700000198]}},{"properties":{"common_nm":"Brown trout","water":"gl","county":null,"id":"aduipjlbbw4u"},"type":"Feature","geometry":{"type":"Point","coordinates":[-86.3211899999999,44.2950400000161]}},{"properties":{"common_nm":"Brown trout","water":"gl","county":null,"id":"aduipjigyvhp"},"type":"Feature","geometry":{"type":"Point","coordinates":[-86.28104,43.0839000000185]}},{"properties":{"common_nm":"Brown trout","water":"gl","county":null,"id":"aduipjnchxnh"},"type":"Feature","geometry":{"type":"Point","coordinates":[-86.28104,43.0839000000185]}},{"properties":{"common_nm":"Brown trout","water":"gl","county":null,"id":"aduipjlgfqd2"},"type":"Feature","geometry":{"type":"Point","coordinates":[-86.5506199999999,42.0833300000203]}},{"properties":{"common_nm":"Brown trout","water":"gl","county":null,"id":"aduipjs4isgu"},"type":"Feature","geometry":{"type":"Point","coordinates":[-86.5506199999999,42.0833300000203]}},{"properties":{"common_nm":"Brown trout","water":"gl","county":null,"id":"aduipjnhkxjk"},"type":"Feature","geometry":{"type":"Point","coordinates":[-86.25,44.7500000000152]}},{"properties":{"common_nm":"Brown trout","water":"gl","county":null,"id":"aduipjd3s323"},"type":"Feature","geometry":{"type":"Point","coordinates":[-86.08333,45.900070000013]}},{"properties":{"common_nm":"Brown trout","water":"gl","county":null,"id":"aduipjjb1p34"},"type":"Feature","geometry":{"type":"Point","coordinates":[-86.08333,45.900070000013]}},{"properties":{"common_nm":"Brown trout","water":"gl","county":null,"id":"aduipjlhn50g"},"type":"Feature","geometry":{"type":"Point","coordinates":[-85.2500000000003,45.916670000013]}},{"properties":{"common_nm":"Brown trout","water":"gl","county":null,"id":"aduipjhoxbf5"},"type":"Feature","geometry":{"type":"Point","coordinates":[-85.0832300000005,45.4307600000139]}},{"properties":{"common_nm":"Brown trout","water":"gl","county":null,"id":"aduipjlo1swu"},"type":"Feature","geometry":{"type":"Point","coordinates":[-87.0466499999999,45.7957500000132]}},{"properties":{"common_nm":"Brown trout","water":"gl","county":null,"id":"aduipjie2fxg"},"type":"Feature","geometry":{"type":"Point","coordinates":[-85.56575,45.0838400000146]}},{"properties":{"common_nm":"Brown trout","water":"gl","county":null,"id":"aduipjnee0fj"},"type":"Feature","geometry":{"type":"Point","coordinates":[-86.58333,43.7500000000172]}},{"properties":{"common_nm":"Brown trout","water":"gl","county":null,"id":"aduipjjk0zwq"},"type":"Feature","geometry":{"type":"Point","coordinates":[-86.58333,43.7500000000172]}},{"properties":{"common_nm":"Brown trout","water":"gl","county":null,"id":"aduipjkalevi"},"type":"Feature","geometry":{"type":"Point","coordinates":[-86.58333,43.7500000000172]}},{"properties":{"common_nm":"Brown trout","water":"gl","county":null,"id":"aduipjfl9pe0"},"type":"Feature","geometry":{"type":"Point","coordinates":[-86.58333,43.7500000000172]}},{"properties":{"common_nm":"Brown trout","water":"gl","county":null,"id":"aduipjconco2"},"type":"Feature","geometry":{"type":"Point","coordinates":[-86.28104,43.0839000000185]}},{"properties":{"common_nm":"Brown trout","water":"gl","county":null,"id":"aduipjetkn4a"},"type":"Feature","geometry":{"type":"Point","coordinates":[-86.25,44.7500000000152]}},{"properties":{"common_nm":"Brown trout","water":"gl","county":null,"id":"aduipjcmekdy"},"type":"Feature","geometry":{"type":"Point","coordinates":[-85.51834,44.7903700000151]}},{"properties":{"common_nm":"Brown trout","water":"gl","county":null,"id":"aduipjc9vnxf"},"type":"Feature","geometry":{"type":"Point","coordinates":[-86.3211899999999,44.2950400000161]}},{"properties":{"common_nm":"Brown trout","water":"gl","county":null,"id":"aduipjix6xl8"},"type":"Feature","geometry":{"type":"Point","coordinates":[-86.4650099999999,43.7720800000172]}},{"properties":{"common_nm":"Brown trout","water":"gl","county":null,"id":"aduipjc758i5"},"type":"Feature","geometry":{"type":"Point","coordinates":[-85.80461,44.9707700000148]}},{"properties":{"common_nm":"Brown trout","water":"gl","county":null,"id":"aduipjpvn1su"},"type":"Feature","geometry":{"type":"Point","coordinates":[-86.25,44.7500000000152]}},{"properties":{"common_nm":"Brown trout","water":"gl","county":null,"id":"aduipjfv87xi"},"type":"Feature","geometry":{"type":"Point","coordinates":[-85.4567000000001,44.9172800000149]}},{"properties":{"common_nm":"Brown trout","water":"gl","county":null,"id":"aduipjnyzrfl"},"type":"Feature","geometry":{"type":"Point","coordinates":[-85.57212,44.9172200000149]}},{"properties":{"common_nm":"Brown trout","water":"gl","county":null,"id":"aduipjre6pbv"},"type":"Feature","geometry":{"type":"Point","coordinates":[-85.56575,45.0838400000146]}},{"properties":{"common_nm":"Brown trout","water":"gl","county":null,"id":"aduipjmu5n21"},"type":"Feature","geometry":{"type":"Point","coordinates":[-86.58333,43.7500000000172]}},{"properties":{"common_nm":"Brown trout","water":"gl","county":null,"id":"aduipjio0a37"},"type":"Feature","geometry":{"type":"Point","coordinates":[-86.58333,43.7500000000172]}},{"properties":{"common_nm":"Brown trout","water":"gl","county":null,"id":"aduipje8oi93"},"type":"Feature","geometry":{"type":"Point","coordinates":[-86.4650099999999,43.7720800000172]}},{"properties":{"common_nm":"Brown trout","water":"gl","county":null,"id":"aduipjl4m454"},"type":"Feature","geometry":{"type":"Point","coordinates":[-86.4650099999999,43.7720800000172]}},{"properties":{"common_nm":"Brown trout","water":"gl","county":null,"id":"aduipjfkdyki"},"type":"Feature","geometry":{"type":"Point","coordinates":[-86.4650099999999,43.7720800000172]}},{"properties":{"common_nm":"Brown trout","water":"gl","county":null,"id":"aduipjly311r"},"type":"Feature","geometry":{"type":"Point","coordinates":[-86.25,44.7500000000152]}},{"properties":{"common_nm":"Brown trout","water":"gl","county":null,"id":"aduipjnxwsrf"},"type":"Feature","geometry":{"type":"Point","coordinates":[-85.4567000000001,44.9172800000149]}},{"properties":{"common_nm":"Brown trout","water":"gl","county":null,"id":"aduipjkvsvfm"},"type":"Feature","geometry":{"type":"Point","coordinates":[-85.57212,44.9172200000149]}},{"properties":{"common_nm":"Brown trout","water":"gl","county":null,"id":"aduipjd78hke"},"type":"Feature","geometry":{"type":"Point","coordinates":[-85.56575,45.0838400000146]}},{"properties":{"common_nm":"Brown trout","water":"gl","county":null,"id":"aduipjli6r5k"},"type":"Feature","geometry":{"type":"Point","coordinates":[-85.4567000000001,44.9172800000149]}},{"properties":{"common_nm":"Brown trout","water":"gl","county":null,"id":"aduipjhauu1g"},"type":"Feature","geometry":{"type":"Point","coordinates":[-86.58333,43.7500000000172]}},{"properties":{"common_nm":"Brown trout","water":"gl","county":null,"id":"aduipjko14do"},"type":"Feature","geometry":{"type":"Point","coordinates":[-86.58333,43.7500000000172]}},{"properties":{"common_nm":"Brown trout","water":"gl","county":null,"id":"aduipjs442h0"},"type":"Feature","geometry":{"type":"Point","coordinates":[-86.4650099999999,43.7720800000172]}},{"properties":{"common_nm":"Brown trout","water":"gl","county":null,"id":"aduipjc7k6tr"},"type":"Feature","geometry":{"type":"Point","coordinates":[-86.4650099999999,43.7720800000172]}},{"properties":{"common_nm":"Brown trout","water":"gl","county":null,"id":"aduipjk420fz"},"type":"Feature","geometry":{"type":"Point","coordinates":[-86.4650099999999,43.7720800000172]}},{"properties":{"common_nm":"Brown trout","water":"gl","county":null,"id":"aduipjgcaeyk"},"type":"Feature","geometry":{"type":"Point","coordinates":[-85.97319,44.9493000000148]}},{"properties":{"common_nm":"Brown trout","water":"gl","county":null,"id":"aduipjjkt6rw"},"type":"Feature","geometry":{"type":"Point","coordinates":[-85.4567000000001,44.9172800000149]}},{"properties":{"common_nm":"Brown trout","water":"gl","county":null,"id":"aduipjcc3ra4"},"type":"Feature","geometry":{"type":"Point","coordinates":[-87.0466499999999,45.7957500000132]}},{"properties":{"common_nm":"Brown trout","water":"gl","county":null,"id":"aduipjizn8cl"},"type":"Feature","geometry":{"type":"Point","coordinates":[-87.0466499999999,45.7957500000132]}},{"properties":{"common_nm":"Brown trout","water":"gl","county":null,"id":"aduipjk1s6eo"},"type":"Feature","geometry":{"type":"Point","coordinates":[-85.57212,44.9172200000149]}},{"properties":{"common_nm":"Brown trout","water":"gl","county":null,"id":"aduipjhcxx4r"},"type":"Feature","geometry":{"type":"Point","coordinates":[-86.25,44.7500000000152]}},{"properties":{"common_nm":"Brown trout","water":"gl","county":null,"id":"aduipjkdgfqu"},"type":"Feature","geometry":{"type":"Point","coordinates":[-86.4650099999999,43.7720800000172]}},{"properties":{"common_nm":"Brown trout","water":"gl","county":null,"id":"aduipjf4yogj"},"type":"Feature","geometry":{"type":"Point","coordinates":[-86.4650099999999,43.7720800000172]}},{"properties":{"common_nm":"Brown trout","water":"gl","county":null,"id":"aduipje5gtzd"},"type":"Feature","geometry":{"type":"Point","coordinates":[-86.9999999999999,45.7083300000134]}},{"properties":{"common_nm":"Brown trout","water":"gl","county":null,"id":"aduipjozvx4b"},"type":"Feature","geometry":{"type":"Point","coordinates":[-86.9999999999999,45.7083300000134]}},{"properties":{"common_nm":"Brown trout","water":"gl","county":null,"id":"aduipjcd66na"},"type":"Feature","geometry":{"type":"Point","coordinates":[-85.53333,45.1666700000144]}},{"properties":{"common_nm":"Brown trout","water":"gl","county":null,"id":"aduipjpi66jn"},"type":"Feature","geometry":{"type":"Point","coordinates":[-86.4583299999999,43.7625000000171]}},{"properties":{"common_nm":"Brown trout","water":"gl","county":null,"id":"aduipjqpin17"},"type":"Feature","geometry":{"type":"Point","coordinates":[-85.85,44.9833300000148]}},{"properties":{"common_nm":"Brown trout","water":"gl","county":null,"id":"aduipjr1zxm8"},"type":"Feature","geometry":{"type":"Point","coordinates":[-85.85,44.9777800000148]}},{"properties":{"common_nm":"Brown trout","water":"gl","county":null,"id":"aduipjhng496"},"type":"Feature","geometry":{"type":"Point","coordinates":[-85.4166700000001,44.9083300000149]}},{"properties":{"common_nm":"Brown trout","water":"gl","county":null,"id":"aduipjfv2u3c"},"type":"Feature","geometry":{"type":"Point","coordinates":[-86.25,44.7500000000152]}},{"properties":{"common_nm":"Brown trout","water":"gl","county":null,"id":"aduipjdsbjgy"},"type":"Feature","geometry":{"type":"Point","coordinates":[-86.25,44.7500000000152]}},{"properties":{"common_nm":"Brown trout","water":"gl","county":null,"id":"aduipjmsgz9b"},"type":"Feature","geometry":{"type":"Point","coordinates":[-85.80461,44.9707700000148]}},{"properties":{"common_nm":"Brown trout","water":"gl","county":null,"id":"aduipjoclqsm"},"type":"Feature","geometry":{"type":"Point","coordinates":[-85.80461,44.9707700000148]}},{"properties":{"common_nm":"Brown trout","water":"gl","county":null,"id":"aduipjia5t55"},"type":"Feature","geometry":{"type":"Point","coordinates":[-85.80461,44.9707700000148]}},{"properties":{"common_nm":"Brown trout","water":"gl","county":null,"id":"aduipjcguzp5"},"type":"Feature","geometry":{"type":"Point","coordinates":[-85.80461,44.9707700000148]}},{"properties":{"common_nm":"Brown trout","water":"gl","county":null,"id":"aduipjehj1i0"},"type":"Feature","geometry":{"type":"Point","coordinates":[-86.28104,43.0839000000185]}},{"properties":{"common_nm":"Brown trout","water":"gl","county":null,"id":"aduipjopj3lz"},"type":"Feature","geometry":{"type":"Point","coordinates":[-87.0466499999999,45.7957500000132]}},{"properties":{"common_nm":"Brown trout","water":"gl","county":null,"id":"aduipjmlltyt"},"type":"Feature","geometry":{"type":"Point","coordinates":[-87.0466499999999,45.7957500000132]}},{"properties":{"common_nm":"Brown trout","water":"gl","county":null,"id":"aduipjnibmqt"},"type":"Feature","geometry":{"type":"Point","coordinates":[-85.56575,45.0838400000146]}},{"properties":{"common_nm":"Brown trout","water":"gl","county":null,"id":"aduipjidqgzb"},"type":"Feature","geometry":{"type":"Point","coordinates":[-85.58333,45.2500000000142]}},{"properties":{"common_nm":"Brown trout","water":"gl","county":null,"id":"aduipjezc5mp"},"type":"Feature","geometry":{"type":"Point","coordinates":[-85.80461,44.9707700000148]}},{"properties":{"common_nm":"Brown trout","water":"gl","county":null,"id":"aduipjib92ng"},"type":"Feature","geometry":{"type":"Point","coordinates":[-85.80461,44.9707700000148]}},{"properties":{"common_nm":"Brown trout","water":"gl","county":null,"id":"aduipjdxe1p0"},"type":"Feature","geometry":{"type":"Point","coordinates":[-85.4398700000001,45.2500000000142]}},{"properties":{"common_nm":"Brown trout","water":"gl","county":null,"id":"aduipjdplo08"},"type":"Feature","geometry":{"type":"Point","coordinates":[-87.0466499999999,45.7957500000132]}},{"properties":{"common_nm":"Brown trout","water":"gl","county":null,"id":"aduipjgt9qth"},"type":"Feature","geometry":{"type":"Point","coordinates":[-87.0466499999999,45.7957500000132]}},{"properties":{"common_nm":"Brown trout","water":"gl","county":null,"id":"aduipjqpu4ni"},"type":"Feature","geometry":{"type":"Point","coordinates":[-85.56575,45.0838400000146]}},{"properties":{"common_nm":"Brown trout","water":"gl","county":null,"id":"aduipjec1lap"},"type":"Feature","geometry":{"type":"Point","coordinates":[-85.80461,44.9707700000148]}},{"properties":{"common_nm":"Brown trout","water":"gl","county":null,"id":"aduipjgnmsug"},"type":"Feature","geometry":{"type":"Point","coordinates":[-86.4166699999999,43.0833300000185]}},{"properties":{"common_nm":"Brown trout","water":"gl","county":null,"id":"aduipjiimem4"},"type":"Feature","geometry":{"type":"Point","coordinates":[-86.58333,43.7500000000172]}},{"properties":{"common_nm":"Brown trout","water":"gl","county":null,"id":"aduipjc3ox9k"},"type":"Feature","geometry":{"type":"Point","coordinates":[-85.57212,44.9172200000149]}},{"properties":{"common_nm":"Brown trout","water":"gl","county":null,"id":"aduipjiftfe7"},"type":"Feature","geometry":{"type":"Point","coordinates":[-85.58333,45.2500000000142]}},{"properties":{"common_nm":"Brown trout","water":"gl","county":null,"id":"aduipjc1pkta"},"type":"Feature","geometry":{"type":"Point","coordinates":[-85.0832300000005,45.4307600000139]}},{"properties":{"common_nm":"Brown trout","water":"gl","county":null,"id":"aduipjc7pynm"},"type":"Feature","geometry":{"type":"Point","coordinates":[-86.2901099999999,42.4166700000198]}},{"properties":{"common_nm":"Brown trout","water":"gl","county":null,"id":"aduipjdjsrwx"},"type":"Feature","geometry":{"type":"Point","coordinates":[-86.58333,43.7500000000172]}},{"properties":{"common_nm":"Brown trout","water":"gl","county":null,"id":"aduipjcwposc"},"type":"Feature","geometry":{"type":"Point","coordinates":[-86.5741899999999,44.0833300000165]}},{"properties":{"common_nm":"Brown trout","water":"gl","county":null,"id":"aduipjdue2xz"},"type":"Feature","geometry":{"type":"Point","coordinates":[-85.4567000000001,44.9172800000149]}},{"properties":{"common_nm":"Brown trout","water":"gl","county":null,"id":"aduipjjpkidm"},"type":"Feature","geometry":{"type":"Point","coordinates":[-85.4166700000002,45.7500000000133]}},{"properties":{"common_nm":"Brown trout","water":"gl","county":null,"id":"aduipjlc9l8w"},"type":"Feature","geometry":{"type":"Point","coordinates":[-86.58333,43.7500000000172]}},{"properties":{"common_nm":"Brown trout","water":"gl","county":null,"id":"aduipjcfom8m"},"type":"Feature","geometry":{"type":"Point","coordinates":[-86.4652099999999,43.9166700000169]}},{"properties":{"common_nm":"Brown trout","water":"gl","county":null,"id":"aduipjjq49x2"},"type":"Feature","geometry":{"type":"Point","coordinates":[-86.4652099999999,43.9166700000169]}},{"properties":{"common_nm":"Brown trout","water":"gl","county":null,"id":"aduipjoeylnv"},"type":"Feature","geometry":{"type":"Point","coordinates":[-86.4652099999999,43.9166700000169]}},{"properties":{"common_nm":"Brown trout","water":"gl","county":null,"id":"aduipjnc42xr"},"type":"Feature","geometry":{"type":"Point","coordinates":[-86.4652099999999,43.9166700000169]}},{"properties":{"common_nm":"Brown trout","water":"gl","county":null,"id":"aduipjpx58ub"},"type":"Feature","geometry":{"type":"Point","coordinates":[-86.4652099999999,43.9166700000169]}},{"properties":{"common_nm":"Brown trout","water":"gl","county":null,"id":"aduipjiqtsn8"},"type":"Feature","geometry":{"type":"Point","coordinates":[-86.7499999999999,43.7500000000172]}},{"properties":{"common_nm":"Brown trout","water":"gl","county":null,"id":"aduipjem6nad"},"type":"Feature","geometry":{"type":"Point","coordinates":[-86.58333,43.7500000000172]}},{"properties":{"common_nm":"Brown trout","water":"gl","county":null,"id":"aduipjjisarz"},"type":"Feature","geometry":{"type":"Point","coordinates":[-86.58333,43.9166700000168]}},{"properties":{"common_nm":"Brown trout","water":"gl","county":null,"id":"aduipjphuwet"},"type":"Feature","geometry":{"type":"Point","coordinates":[-86.4650099999999,43.7720800000172]}},{"properties":{"common_nm":"Brown trout","water":"gl","county":null,"id":"aduipjo3ph9k"},"type":"Feature","geometry":{"type":"Point","coordinates":[-86.58333,43.7500000000172]}},{"properties":{"common_nm":"Brown trout","water":"gl","county":null,"id":"aduipjhzsje6"},"type":"Feature","geometry":{"type":"Point","coordinates":[-86.4652099999999,43.9166700000169]}},{"properties":{"common_nm":"Brown trout","water":"gl","county":null,"id":"aduipjqr0ydc"},"type":"Feature","geometry":{"type":"Point","coordinates":[-86.4652099999999,43.9166700000169]}},{"properties":{"common_nm":"Brown trout","water":"gl","county":null,"id":"aduipjislbfj"},"type":"Feature","geometry":{"type":"Point","coordinates":[-86.58333,43.7500000000172]}},{"properties":{"common_nm":"Brown trout","water":"gl","county":null,"id":"aduipjg2lujz"},"type":"Feature","geometry":{"type":"Point","coordinates":[-86.58333,43.7500000000172]}},{"properties":{"common_nm":"Brown trout","water":"gl","county":null,"id":"aduipjcc1dts"},"type":"Feature","geometry":{"type":"Point","coordinates":[-86.4652099999999,43.9166700000169]}},{"properties":{"common_nm":"Brown trout","water":"gl","county":null,"id":"aduipjlx25ex"},"type":"Feature","geometry":{"type":"Point","coordinates":[-86.4652099999999,43.9166700000169]}},{"properties":{"common_nm":"Brown trout","water":"gl","county":null,"id":"aduipjqg44h1"},"type":"Feature","geometry":{"type":"Point","coordinates":[-86.4166699999999,44.2500000000162]}},{"properties":{"common_nm":"Brown trout","water":"gl","county":null,"id":"aduipjnzyr3e"},"type":"Feature","geometry":{"type":"Point","coordinates":[-86.4166699999999,44.2500000000162]}},{"properties":{"common_nm":"Brown trout","water":"gl","county":null,"id":"aduipjnxtkuf"},"type":"Feature","geometry":{"type":"Point","coordinates":[-86.27616,44.5833300000155]}},{"properties":{"common_nm":"Brown trout","water":"gl","county":null,"id":"aduipjcgpvm5"},"type":"Feature","geometry":{"type":"Point","coordinates":[-85.64361,45.5833300000136]}},{"properties":{"common_nm":"Brown trout","water":"gl","county":null,"id":"aduipjocknhy"},"type":"Feature","geometry":{"type":"Point","coordinates":[-85.7500000000001,45.7500000000133]}},{"properties":{"common_nm":"Brown trout","water":"gl","county":null,"id":"aduipjdmwl9h"},"type":"Feature","geometry":{"type":"Point","coordinates":[-86.5833299999999,43.4166700000178]}},{"properties":{"common_nm":"Brown trout","water":"gl","county":null,"id":"aduipjs134uz"},"type":"Feature","geometry":{"type":"Point","coordinates":[-86.58333,43.7500000000172]}},{"properties":{"common_nm":"Brown trout","water":"gl","county":null,"id":"aduipjnmhvb2"},"type":"Feature","geometry":{"type":"Point","coordinates":[-86.25,45.2500000000142]}},{"properties":{"common_nm":"Brown trout","water":"gl","county":null,"id":"aduipjp4m7w9"},"type":"Feature","geometry":{"type":"Point","coordinates":[-86.4166699999999,44.2500000000162]}},{"properties":{"common_nm":"Brown trout","water":"gl","county":null,"id":"aduipjqheqm9"},"type":"Feature","geometry":{"type":"Point","coordinates":[-85.7500000000001,45.5833300000136]}},{"properties":{"common_nm":"Brown trout","water":"gl","county":null,"id":"aduipjhmtqhv"},"type":"Feature","geometry":{"type":"Point","coordinates":[-86.5506199999999,42.0833300000203]}},{"properties":{"common_nm":"Brown trout","water":"gl","county":null,"id":"aduipjknrxum"},"type":"Feature","geometry":{"type":"Point","coordinates":[-86.2901099999999,42.4166700000198]}},{"properties":{"common_nm":"Brown trout","water":"gl","county":null,"id":"aduipjdh5wlc"},"type":"Feature","geometry":{"type":"Point","coordinates":[-86.28104,43.0839000000185]}},{"properties":{"common_nm":"Brown trout","water":"gl","county":null,"id":"aduipjgqhbey"},"type":"Feature","geometry":{"type":"Point","coordinates":[-86.4166699999999,44.2500000000162]}},{"properties":{"common_nm":"Brown trout","water":"gl","county":null,"id":"aduipjlzpadv"},"type":"Feature","geometry":{"type":"Point","coordinates":[-86.27616,44.5833300000155]}},{"properties":{"common_nm":"Brown trout","water":"gl","county":null,"id":"aduipjfivwd7"},"type":"Feature","geometry":{"type":"Point","coordinates":[-86.25,44.7500000000152]}},{"properties":{"common_nm":"Brown trout","water":"gl","county":null,"id":"aduipjmcfsf0"},"type":"Feature","geometry":{"type":"Point","coordinates":[-86.2499999999999,44.9166700000149]}},{"properties":{"common_nm":"Brown trout","water":"gl","county":null,"id":"aduipjmurbhk"},"type":"Feature","geometry":{"type":"Point","coordinates":[-86.08333,45.2500000000142]}},{"properties":{"common_nm":"Brown trout","water":"gl","county":null,"id":"aduipjgoohbc"},"type":"Feature","geometry":{"type":"Point","coordinates":[-86.08333,45.0833300000146]}},{"properties":{"common_nm":"Brown trout","water":"gl","county":null,"id":"aduipjfgt2o6"},"type":"Feature","geometry":{"type":"Point","coordinates":[-85.7500000000001,45.5833300000136]}},{"properties":{"common_nm":"Brown trout","water":"gl","county":null,"id":"aduipjhotinl"},"type":"Feature","geometry":{"type":"Point","coordinates":[-85.4166700000001,45.4166700000139]}},{"properties":{"common_nm":"Brown trout","water":"gl","county":null,"id":"aduipjl7rxbi"},"type":"Feature","geometry":{"type":"Point","coordinates":[-86.3145,43.1904000000183]}},{"properties":{"common_nm":"Brown trout","water":"gl","county":null,"id":"aduipjpp9pqf"},"type":"Feature","geometry":{"type":"Point","coordinates":[-86.3530799999999,43.2510300000181]}},{"properties":{"common_nm":"Brown trout","water":"gl","county":null,"id":"aduipji1bp1y"},"type":"Feature","geometry":{"type":"Point","coordinates":[-86.27444,43.1002800000184]}},{"properties":{"common_nm":"Brown trout","water":"gl","county":null,"id":"aduipjlsbzu8"},"type":"Feature","geometry":{"type":"Point","coordinates":[-86.4902799999999,42.1350000000203]}},{"properties":{"common_nm":"Brown trout","water":"gl","county":null,"id":"aduipjksf5l3"},"type":"Feature","geometry":{"type":"Point","coordinates":[-86.5180599999999,42.0933300000203]}},{"properties":{"common_nm":"Brown trout","water":"gl","county":null,"id":"aduipjkclgij"},"type":"Feature","geometry":{"type":"Point","coordinates":[-86.2847199999999,42.9647200000187]}},{"properties":{"common_nm":"Brown trout","water":"gl","county":null,"id":"aduipjmwb4x5"},"type":"Feature","geometry":{"type":"Point","coordinates":[-86.19417,44.7750000000151]}},{"properties":{"common_nm":"Brown trout","water":"gl","county":null,"id":"aduipjc2ldd6"},"type":"Feature","geometry":{"type":"Point","coordinates":[-86.4938462404076,42.1045355475595]}},{"properties":{"common_nm":"Brown trout","water":"gl","county":null,"id":"aduipjnffea7"},"type":"Feature","geometry":{"type":"Point","coordinates":[-86.27917,42.7211100000192]}},{"properties":{"common_nm":"Brown trout","water":"gl","county":null,"id":"aduipjhjg9zb"},"type":"Feature","geometry":{"type":"Point","coordinates":[-86.29222,42.9575000000187]}},{"properties":{"common_nm":"Brown trout","water":"gl","county":null,"id":"aduipjf8uejg"},"type":"Feature","geometry":{"type":"Point","coordinates":[-86.41917,43.0583300000185]}},{"properties":{"common_nm":"Brown trout","water":"gl","county":null,"id":"aduipjcmwwv5"},"type":"Feature","geometry":{"type":"Point","coordinates":[-86.62306,43.5250000000176]}},{"properties":{"common_nm":"Brown trout","water":"gl","county":null,"id":"aduipjcdgq5j"},"type":"Feature","geometry":{"type":"Point","coordinates":[-86.51944,44.0141700000167]}},{"properties":{"common_nm":"Brown trout","water":"gl","county":null,"id":"aduipjpskuq8"},"type":"Feature","geometry":{"type":"Point","coordinates":[-86.52722,43.9202800000168]}},{"properties":{"common_nm":"Brown trout","water":"gl","county":null,"id":"aduipjhb95px"},"type":"Feature","geometry":{"type":"Point","coordinates":[-86.2696699999999,42.4271700000197]}},{"properties":{"common_nm":"Brown trout","water":"gl","county":null,"id":"aduipjfsaq3s"},"type":"Feature","geometry":{"type":"Point","coordinates":[-86.13972,44.7386100000152]}},{"properties":{"common_nm":"Brown trout","water":"gl","county":null,"id":"aduipjsbpx0s"},"type":"Feature","geometry":{"type":"Point","coordinates":[-86.28222,44.5916700000155]}},{"properties":{"common_nm":"Brown trout","water":"gl","county":null,"id":"aduipjr91u5b"},"type":"Feature","geometry":{"type":"Point","coordinates":[-85.95694,45.0055600000147]}},{"properties":{"common_nm":"Brown trout","water":"gl","county":null,"id":"aduipjip2xhr"},"type":"Feature","geometry":{"type":"Point","coordinates":[-86.6255599999999,41.9552800000206]}},{"properties":{"common_nm":"Brown trout","water":"gl","county":null,"id":"aduipjng8898"},"type":"Feature","geometry":{"type":"Point","coordinates":[-86.5530599999999,42.0627800000204]}},{"properties":{"common_nm":"Brown trout","water":"gl","county":null,"id":"aduipjicu619"},"type":"Feature","geometry":{"type":"Point","coordinates":[-86.2438899999999,42.7430600000191]}},{"properties":{"common_nm":"Brown trout","water":"gl","county":null,"id":"aduipjkzwzpx"},"type":"Feature","geometry":{"type":"Point","coordinates":[-86.5105599999999,43.8936100000169]}},{"properties":{"common_nm":"Brown trout","water":"gl","county":null,"id":"aduipjou016v"},"type":"Feature","geometry":{"type":"Point","coordinates":[-86.4483299999999,44.2116700000163]}},{"properties":{"common_nm":"Brown trout","water":"gl","county":null,"id":"aduipji5p8wl"},"type":"Feature","geometry":{"type":"Point","coordinates":[-86.4749999999999,43.834440000017]}},{"properties":{"common_nm":"Brown trout","water":"gl","county":null,"id":"aduipjduujpf"},"type":"Feature","geometry":{"type":"Point","coordinates":[-86.4149999999999,44.326670000016]}},{"properties":{"common_nm":"Brown trout","water":"gl","county":null,"id":"aduipjk30vqa"},"type":"Feature","geometry":{"type":"Point","coordinates":[-86.2262499999999,42.6955600000192]}},{"properties":{"common_nm":"Brown trout","water":"gl","county":null,"id":"aduipjh7y8qa"},"type":"Feature","geometry":{"type":"Point","coordinates":[-86.5449999999999,42.0883300000203]}},{"properties":{"common_nm":"Brown trout","water":"gl","county":null,"id":"aduipjde96jt"},"type":"Feature","geometry":{"type":"Point","coordinates":[-86.4469399999999,42.1969400000201]}},{"properties":{"common_nm":"Brown trout","water":"gl","county":null,"id":"aduipjlq54mu"},"type":"Feature","geometry":{"type":"Point","coordinates":[-86.2722199999999,42.5283300000196]}},{"properties":{"common_nm":"Brown trout","water":"gl","county":null,"id":"aduipjeteldn"},"type":"Feature","geometry":{"type":"Point","coordinates":[-86.2394399999999,42.7102800000192]}},{"properties":{"common_nm":"Brown trout","water":"gl","county":null,"id":"aduipjqaz9j3"},"type":"Feature","geometry":{"type":"Point","coordinates":[-86.6088899999999,43.819170000017]}},{"properties":{"common_nm":"Brown trout","water":"gl","county":null,"id":"aduipjh1s58t"},"type":"Feature","geometry":{"type":"Point","coordinates":[-86.2831899999999,44.3937500000159]}},{"properties":{"common_nm":"Brown trout","water":"gl","county":null,"id":"aduipjh6gi2r"},"type":"Feature","geometry":{"type":"Point","coordinates":[-86.37583,44.2858300000161]}},{"properties":{"common_nm":"Brown trout","water":"gl","county":null,"id":"aduipjo1qs2h"},"type":"Feature","geometry":{"type":"Point","coordinates":[-86.5338899999999,42.2456900000201]}},{"properties":{"common_nm":"Brown trout","water":"gl","county":null,"id":"aduipjd3rlez"},"type":"Feature","geometry":{"type":"Point","coordinates":[-86.5265299999999,44.0261100000166]}},{"properties":{"common_nm":"Brown trout","water":"gl","county":null,"id":"aduipjjcy6es"},"type":"Feature","geometry":{"type":"Point","coordinates":[-86.4662499999999,43.828330000017]}},{"properties":{"common_nm":"Brown trout","water":"gl","county":null,"id":"aduipjhrc4po"},"type":"Feature","geometry":{"type":"Point","coordinates":[-86.6227799999999,43.814580000017]}},{"properties":{"common_nm":"Brown trout","water":"gl","county":null,"id":"aduipjoutbm3"},"type":"Feature","geometry":{"type":"Point","coordinates":[-86.3091699999999,44.3918100000159]}},{"properties":{"common_nm":"Brown trout","water":"gl","county":null,"id":"aduipjp6lag8"},"type":"Feature","geometry":{"type":"Point","coordinates":[-86.3059999999999,44.4503300000158]}},{"properties":{"common_nm":"Brown trout","water":"gl","county":null,"id":"aduipjjml730"},"type":"Feature","geometry":{"type":"Point","coordinates":[-86.2788299999999,44.4746700000157]}},{"properties":{"common_nm":"Brown trout","water":"gl","county":null,"id":"aduipjeoee93"},"type":"Feature","geometry":{"type":"Point","coordinates":[-86.2219999999999,42.6935800000192]}},{"properties":{"common_nm":"Brown trout","water":"gl","county":null,"id":"aduipjij004f"},"type":"Feature","geometry":{"type":"Point","coordinates":[-86.25975,42.5591700000195]}},{"properties":{"common_nm":"Brown trout","water":"gl","county":null,"id":"aduipjoje1l6"},"type":"Feature","geometry":{"type":"Point","coordinates":[-86.5061699999999,42.0991700000203]}},{"properties":{"common_nm":"Brown trout","water":"gl","county":null,"id":"aduipjpwincx"},"type":"Feature","geometry":{"type":"Point","coordinates":[-86.5498299999999,42.0726700000204]}},{"properties":{"common_nm":"Brown trout","water":"gl","county":null,"id":"aduipjhci7jp"},"type":"Feature","geometry":{"type":"Point","coordinates":[-86.63575,42.1241700000203]}},{"properties":{"common_nm":"Brown trout","water":"gl","county":null,"id":"aduipjptfjq2"},"type":"Feature","geometry":{"type":"Point","coordinates":[-86.4895,43.9250000000168]}},{"properties":{"common_nm":"Brown trout","water":"gl","county":null,"id":"aduipjig4i1b"},"type":"Feature","geometry":{"type":"Point","coordinates":[-86.5205799999999,44.0227500000166]}},{"properties":{"common_nm":"Brown trout","water":"gl","county":null,"id":"aduipjd6p0if"},"type":"Feature","geometry":{"type":"Point","coordinates":[-86.25333,43.0609700000185]}},{"properties":{"common_nm":"Brown trout","water":"gl","county":null,"id":"aduipjjc6tfy"},"type":"Feature","geometry":{"type":"Point","coordinates":[-86.25472,43.0700000000185]}},{"properties":{"common_nm":"Brown trout","water":"gl","county":null,"id":"aduipjcx823n"},"type":"Feature","geometry":{"type":"Point","coordinates":[-85.83708,45.2367500000143]}},{"properties":{"common_nm":"Brown trout","water":"gl","county":null,"id":"aduipjcwvmjh"},"type":"Feature","geometry":{"type":"Point","coordinates":[-85.2890000000002,45.4958300000138]}},{"properties":{"common_nm":"Brown trout","water":"gl","county":null,"id":"aduipjqkwn71"},"type":"Feature","geometry":{"type":"Point","coordinates":[-86.21667,42.6833300000192]}},{"properties":{"common_nm":"Brown trout","water":"gl","county":null,"id":"aduipjos5vwo"},"type":"Feature","geometry":{"type":"Point","coordinates":[-86.3333299999999,42.3500000000199]}},{"properties":{"common_nm":"Brown trout","water":"gl","county":null,"id":"aduipjp7gv6i"},"type":"Feature","geometry":{"type":"Point","coordinates":[-86.5416699999999,42.0750000000204]}},{"properties":{"common_nm":"Brown trout","water":"gl","county":null,"id":"aduipjparaa9"},"type":"Feature","geometry":{"type":"Point","coordinates":[-86.2499999999999,42.6333300000194]}},{"properties":{"common_nm":"Brown trout","water":"gl","county":null,"id":"aduipjlbsahi"},"type":"Feature","geometry":{"type":"Point","coordinates":[-86.4583299999999,43.816670000017]}},{"properties":{"common_nm":"Brown trout","water":"gl","county":null,"id":"aduipjfz8ebb"},"type":"Feature","geometry":{"type":"Point","coordinates":[-86.46667,43.850000000017]}},{"properties":{"common_nm":"Brown trout","water":"gl","county":null,"id":"aduipjkjvb38"},"type":"Feature","geometry":{"type":"Point","coordinates":[-86.5749999999999,43.858330000017]}},{"properties":{"common_nm":"Brown trout","water":"gl","county":null,"id":"aduipjpn3gtq"},"type":"Feature","geometry":{"type":"Point","coordinates":[-87.0466499999999,45.7957500000132]}},{"properties":{"common_nm":"Brown trout","water":"gl","county":null,"id":"aduipjkvdvt7"},"type":"Feature","geometry":{"type":"Point","coordinates":[-87.0466499999999,45.7957500000132]}},{"properties":{"common_nm":"Brown trout","water":"gl","county":null,"id":"aduipjf5jl8i"},"type":"Feature","geometry":{"type":"Point","coordinates":[-87.0466499999999,45.7957500000132]}},{"properties":{"common_nm":"Brown trout","water":"gl","county":null,"id":"aduipjgjre30"},"type":"Feature","geometry":{"type":"Point","coordinates":[-87.0466499999999,45.7957500000132]}},{"properties":{"common_nm":"Brown trout","water":"gl","county":null,"id":"aduipjmh835p"},"type":"Feature","geometry":{"type":"Point","coordinates":[-86.27616,44.5833300000155]}},{"properties":{"common_nm":"Brown trout","water":"gl","county":null,"id":"aduipjmlf6y9"},"type":"Feature","geometry":{"type":"Point","coordinates":[-86.9833299999999,45.8666700000131]}},{"properties":{"common_nm":"Brown trout","water":"gl","county":null,"id":"aduipji1fnpa"},"type":"Feature","geometry":{"type":"Point","coordinates":[-86.9833299999999,45.8666700000131]}},{"properties":{"common_nm":"Brown trout","water":"gl","county":null,"id":"aduipjh92w9c"},"type":"Feature","geometry":{"type":"Point","coordinates":[-86.9833299999999,45.8666700000131]}},{"properties":{"common_nm":"Brown trout","water":"gl","county":null,"id":"aduipjj0cfj3"},"type":"Feature","geometry":{"type":"Point","coordinates":[-86.9833299999999,45.8666700000131]}},{"properties":{"common_nm":"Brown trout","water":"stm","county":"Allegan","id":"aduipjo99qpv"},"type":"Feature","geometry":{"type":"Point","coordinates":[-85.94742,42.6137100000194]}},{"properties":{"common_nm":"Brown trout","water":"stm","county":"Allegan","id":"aduipjixps6m"},"type":"Feature","geometry":{"type":"Point","coordinates":[-85.61382,42.6585300000193]}},{"properties":{"common_nm":"Brown trout","water":"stm","county":"Allegan","id":"aduipjkzvhoi"},"type":"Feature","geometry":{"type":"Point","coordinates":[-85.57553,42.7608200000191]}},{"properties":{"common_nm":"Brown trout","water":"stm","county":"Allegan","id":"aduipjhrwok6"},"type":"Feature","geometry":{"type":"Point","coordinates":[-85.6312000000001,42.4715500000197]}},{"properties":{"common_nm":"Brown trout","water":"stm","county":"Allegan","id":"aduipjdaozjh"},"type":"Feature","geometry":{"type":"Point","coordinates":[-85.92831,42.6583500000193]}},{"properties":{"common_nm":"Brown trout","water":"stm","county":"Allegan","id":"aduipjod946m"},"type":"Feature","geometry":{"type":"Point","coordinates":[-85.92831,42.6583500000193]}},{"properties":{"common_nm":"Brown trout","water":"stm","county":"Allegan","id":"aduipjg7yj40"},"type":"Feature","geometry":{"type":"Point","coordinates":[-85.57275,42.4431000000197]}},{"properties":{"common_nm":"Brown trout","water":"stm","county":"Allegan","id":"aduipjcygn9q"},"type":"Feature","geometry":{"type":"Point","coordinates":[-85.98579,42.5136300000196]}},{"properties":{"common_nm":"Brown trout","water":"stm","county":"Barry","id":"aduipjc551qv"},"type":"Feature","geometry":{"type":"Point","coordinates":[-85.2601600000001,42.5885000000195]}},{"properties":{"common_nm":"Brown trout","water":"stm","county":"Barry","id":"aduipjrx5npz"},"type":"Feature","geometry":{"type":"Point","coordinates":[-85.2818800000001,42.7610800000191]}},{"properties":{"common_nm":"Brown trout","water":"stm","county":"Barry","id":"aduipjlpidxs"},"type":"Feature","geometry":{"type":"Point","coordinates":[-85.2987500000001,42.6613300000193]}},{"properties":{"common_nm":"Brown trout","water":"stm","county":"Berrien","id":"aduipjdy9lbb"},"type":"Feature","geometry":{"type":"Point","coordinates":[-86.2565999999999,41.8638200000207]}},{"properties":{"common_nm":"Brown trout","water":"stm","county":"Berrien","id":"aduipjjl63n1"},"type":"Feature","geometry":{"type":"Point","coordinates":[-86.2555199999999,41.8492300000208]}},{"properties":{"common_nm":"Brown trout","water":"stm","county":"Calhoun","id":"aduipjjq1t3s"},"type":"Feature","geometry":{"type":"Point","coordinates":[-84.9936300000003,42.26641000002]}},{"properties":{"common_nm":"Brown trout","water":"stm","county":"Calhoun","id":"aduipjm37q01"},"type":"Feature","geometry":{"type":"Point","coordinates":[-84.9563800000003,42.2653800000201]}},{"properties":{"common_nm":"Brown trout","water":"stm","county":"Calhoun","id":"aduipjqsthy6"},"type":"Feature","geometry":{"type":"Point","coordinates":[-84.9176300000004,42.29601000002]}},{"properties":{"common_nm":"Brown trout","water":"stm","county":"Calhoun","id":"aduipjlx8hm0"},"type":"Feature","geometry":{"type":"Point","coordinates":[-84.9169200000004,42.2248800000201]}},{"properties":{"common_nm":"Brown trout","water":"stm","county":"Calhoun","id":"aduipjpexcpd"},"type":"Feature","geometry":{"type":"Point","coordinates":[-84.8972800000004,42.2087700000202]}},{"properties":{"common_nm":"Brown trout","water":"stm","county":"Grand Traverse","id":"aduipjfwhoem"},"type":"Feature","geometry":{"type":"Point","coordinates":[-85.4438700000001,44.6623400000154]}},{"properties":{"common_nm":"Brown trout","water":"stm","county":"Grand Traverse","id":"aduipjqfyaxw"},"type":"Feature","geometry":{"type":"Point","coordinates":[-85.4668200000001,44.6489300000154]}},{"properties":{"common_nm":"Brown trout","water":"stm","county":"Grand Traverse","id":"aduipjr7ar9m"},"type":"Feature","geometry":{"type":"Point","coordinates":[-85.4461000000001,44.6479800000154]}},{"properties":{"common_nm":"Brown trout","water":"stm","county":"Grand Traverse","id":"aduipjjtxm6y"},"type":"Feature","geometry":{"type":"Point","coordinates":[-85.4056700000001,44.6787300000153]}},{"properties":{"common_nm":"Brown trout","water":"stm","county":"Grand Traverse","id":"aduipjkvn5vc"},"type":"Feature","geometry":{"type":"Point","coordinates":[-85.4246900000001,44.6625100000154]}},{"properties":{"common_nm":"Brown trout","water":"stm","county":"Grand Traverse","id":"aduipjrd8hes"},"type":"Feature","geometry":{"type":"Point","coordinates":[-85.4461000000001,44.6479800000154]}},{"properties":{"common_nm":"Brown trout","water":"stm","county":"Grand Traverse","id":"aduipjqi96pz"},"type":"Feature","geometry":{"type":"Point","coordinates":[-85.3838100000001,44.6922100000153]}},{"properties":{"common_nm":"Brown trout","water":"stm","county":"Grand Traverse","id":"aduipjfdj14s"},"type":"Feature","geometry":{"type":"Point","coordinates":[-85.60741,44.6500800000154]}},{"properties":{"common_nm":"Brown trout","water":"stm","county":"Grand Traverse","id":"aduipjlza9j3"},"type":"Feature","geometry":{"type":"Point","coordinates":[-85.5231600000001,44.6342900000154]}},{"properties":{"common_nm":"Brown trout","water":"stm","county":"Grand Traverse","id":"aduipjeosmvf"},"type":"Feature","geometry":{"type":"Point","coordinates":[-85.62482,44.6788200000153]}},{"properties":{"common_nm":"Brown trout","water":"stm","county":"Grand Traverse","id":"aduipjmva383"},"type":"Feature","geometry":{"type":"Point","coordinates":[-85.3828200000001,44.6792200000153]}},{"properties":{"common_nm":"Brown trout","water":"stm","county":"Hillsdale","id":"aduipjmohqhn"},"type":"Feature","geometry":{"type":"Point","coordinates":[-84.6231900000011,42.0642500000205]}},{"properties":{"common_nm":"Brown trout","water":"stm","county":"Jackson","id":"aduipjk0b29p"},"type":"Feature","geometry":{"type":"Point","coordinates":[-84.649570000001,42.2695000000201]}},{"properties":{"common_nm":"Brown trout","water":"stm","county":"Jackson","id":"aduipjbxszu8"},"type":"Feature","geometry":{"type":"Point","coordinates":[-84.158840000005,42.3145800000202]}},{"properties":{"common_nm":"Brown trout","water":"stm","county":"Kalamazoo","id":"aduipjg30ufg"},"type":"Feature","geometry":{"type":"Point","coordinates":[-85.34849,42.3674700000199]}},{"properties":{"common_nm":"Brown trout","water":"stm","county":"Kalamazoo","id":"aduipjkhz7hb"},"type":"Feature","geometry":{"type":"Point","coordinates":[-85.52313,42.3819900000198]}},{"properties":{"common_nm":"Brown trout","water":"stm","county":"Kalkaska","id":"aduipjf0qo35"},"type":"Feature","geometry":{"type":"Point","coordinates":[-85.0834600000004,44.5903300000156]}},{"properties":{"common_nm":"Brown trout","water":"stm","county":"Kent","id":"aduipjr7e7ik"},"type":"Feature","geometry":{"type":"Point","coordinates":[-85.6007200000001,43.1528000000184]}},{"properties":{"common_nm":"Brown trout","water":"stm","county":"Kent","id":"aduipjedl9eb"},"type":"Feature","geometry":{"type":"Point","coordinates":[-85.62128,43.1823000000183]}},{"properties":{"common_nm":"Brown trout","water":"stm","county":"Kent","id":"aduipjjxublt"},"type":"Feature","geometry":{"type":"Point","coordinates":[-85.3988700000001,42.790630000019]}},{"properties":{"common_nm":"Brown trout","water":"stm","county":"Kent","id":"aduipjod69ne"},"type":"Feature","geometry":{"type":"Point","coordinates":[-85.56254,43.1262200000184]}},{"properties":{"common_nm":"Brown trout","water":"stm","county":"Kent","id":"aduipjgcs7e9"},"type":"Feature","geometry":{"type":"Point","coordinates":[-85.56107,43.1533800000184]}},{"properties":{"common_nm":"Brown trout","water":"stm","county":"Lake","id":"aduipjj92hm8"},"type":"Feature","geometry":{"type":"Point","coordinates":[-85.69451,44.1555700000164]}},{"properties":{"common_nm":"Brown trout","water":"stm","county":"Lake","id":"aduipjnbxs1e"},"type":"Feature","geometry":{"type":"Point","coordinates":[-85.85313,43.848460000017]}},{"properties":{"common_nm":"Brown trout","water":"stm","county":"Lake","id":"aduipjivju4o"},"type":"Feature","geometry":{"type":"Point","coordinates":[-85.89197,43.850810000017]}},{"properties":{"common_nm":"Brown trout","water":"stm","county":"Lake","id":"aduipjfyev4i"},"type":"Feature","geometry":{"type":"Point","coordinates":[-85.79178,43.822090000017]}},{"properties":{"common_nm":"Brown trout","water":"stm","county":"Lake","id":"aduipjhgumi6"},"type":"Feature","geometry":{"type":"Point","coordinates":[-85.6735800000001,44.0961500000165]}},{"properties":{"common_nm":"Brown trout","water":"stm","county":"Lake","id":"aduipjnubd3x"},"type":"Feature","geometry":{"type":"Point","coordinates":[-85.69415,44.1392900000164]}},{"properties":{"common_nm":"Brown trout","water":"stm","county":"Lake","id":"aduipjlh84hg"},"type":"Feature","geometry":{"type":"Point","coordinates":[-85.7139200000001,44.1556300000164]}},{"properties":{"common_nm":"Brown trout","water":"stm","county":"Lake","id":"aduipjrdnzxz"},"type":"Feature","geometry":{"type":"Point","coordinates":[-85.69433,44.1254300000164]}},{"properties":{"common_nm":"Brown trout","water":"stm","county":"Lake","id":"aduipjqpjggp"},"type":"Feature","geometry":{"type":"Point","coordinates":[-85.69415,44.1392900000164]}},{"properties":{"common_nm":"Brown trout","water":"stm","county":"Lake","id":"aduipjcun5qx"},"type":"Feature","geometry":{"type":"Point","coordinates":[-85.69433,44.1254300000164]}},{"properties":{"common_nm":"Brown trout","water":"stm","county":"Lake","id":"aduipjq2n1s5"},"type":"Feature","geometry":{"type":"Point","coordinates":[-85.7139200000001,44.1556300000164]}},{"properties":{"common_nm":"Brown trout","water":"stm","county":"Lake","id":"aduipjf7puxk"},"type":"Feature","geometry":{"type":"Point","coordinates":[-85.69433,44.1254300000164]}},{"properties":{"common_nm":"Brown trout","water":"stm","county":"Lake","id":"aduipjcmrpp5"},"type":"Feature","geometry":{"type":"Point","coordinates":[-85.69415,44.1392900000164]}},{"properties":{"common_nm":"Brown trout","water":"stm","county":"Lake","id":"aduipjj9cbyg"},"type":"Feature","geometry":{"type":"Point","coordinates":[-85.61311,44.0669400000166]}},{"properties":{"common_nm":"Brown trout","water":"stm","county":"Lake","id":"aduipjr59mln"},"type":"Feature","geometry":{"type":"Point","coordinates":[-85.69433,44.1254300000164]}},{"properties":{"common_nm":"Brown trout","water":"stm","county":"Lake","id":"aduipjrjyvwx"},"type":"Feature","geometry":{"type":"Point","coordinates":[-85.69433,44.1254300000164]}},{"properties":{"common_nm":"Brown trout","water":"stm","county":"Lake","id":"aduipjncrdzi"},"type":"Feature","geometry":{"type":"Point","coordinates":[-85.7139200000001,44.1556300000164]}},{"properties":{"common_nm":"Brown trout","water":"stm","county":"Lake","id":"aduipjmtb9di"},"type":"Feature","geometry":{"type":"Point","coordinates":[-85.7139200000001,44.1556300000164]}},{"properties":{"common_nm":"Brown trout","water":"stm","county":"Lake","id":"aduipjj20lzj"},"type":"Feature","geometry":{"type":"Point","coordinates":[-85.7139200000001,44.1556300000164]}},{"properties":{"common_nm":"Brown trout","water":"stm","county":"Lake","id":"aduipjpo14fz"},"type":"Feature","geometry":{"type":"Point","coordinates":[-85.69451,44.1555700000164]}},{"properties":{"common_nm":"Brown trout","water":"stm","county":"Lake","id":"aduipjnc1ppv"},"type":"Feature","geometry":{"type":"Point","coordinates":[-85.67412,44.1256100000164]}},{"properties":{"common_nm":"Brown trout","water":"stm","county":"Lake","id":"aduipjs4r15p"},"type":"Feature","geometry":{"type":"Point","coordinates":[-85.63564,44.1254500000164]}},{"properties":{"common_nm":"Brown trout","water":"stm","county":"Lake","id":"aduipjpesdd0"},"type":"Feature","geometry":{"type":"Point","coordinates":[-85.67412,44.1256100000164]}},{"properties":{"common_nm":"Brown trout","water":"stm","county":"Lake","id":"aduipjg7jice"},"type":"Feature","geometry":{"type":"Point","coordinates":[-85.63564,44.1254500000164]}},{"properties":{"common_nm":"Brown trout","water":"inlk","county":"Manistee","id":"aduipjj2wjsg"},"type":"Feature","geometry":{"type":"Point","coordinates":[-86.31266,44.2505100000162]}},{"properties":{"common_nm":"Brown trout","water":"stm","county":"Manistee","id":"aduipjqddaa9"},"type":"Feature","geometry":{"type":"Point","coordinates":[-85.83331,44.2003300000163]}},{"properties":{"common_nm":"Brown trout","water":"stm","county":"Montcalm","id":"aduipji4v7jc"},"type":"Feature","geometry":{"type":"Point","coordinates":[-85.2642400000001,43.2855600000181]}},{"properties":{"common_nm":"Brown trout","water":"stm","county":"Montcalm","id":"aduipjd1ofim"},"type":"Feature","geometry":{"type":"Point","coordinates":[-85.51437,43.4030800000178]}},{"properties":{"common_nm":"Brown trout","water":"stm","county":"Newaygo","id":"aduipjq2l8px"},"type":"Feature","geometry":{"type":"Point","coordinates":[-85.8695799999999,43.4728400000177]}},{"properties":{"common_nm":"Brown trout","water":"stm","county":"Newaygo","id":"aduipjkdpk9r"},"type":"Feature","geometry":{"type":"Point","coordinates":[-85.73236,43.5892900000175]}},{"properties":{"common_nm":"Brown trout","water":"stm","county":"Newaygo","id":"aduipjeu4p3n"},"type":"Feature","geometry":{"type":"Point","coordinates":[-85.77081,43.7929300000171]}},{"properties":{"common_nm":"Brown trout","water":"stm","county":"Newaygo","id":"aduipjfgo3vp"},"type":"Feature","geometry":{"type":"Point","coordinates":[-85.75116,43.7935800000171]}},{"properties":{"common_nm":"Brown trout","water":"stm","county":"Newaygo","id":"aduipjhwen5p"},"type":"Feature","geometry":{"type":"Point","coordinates":[-85.75207,43.7780700000171]}},{"properties":{"common_nm":"Brown trout","water":"stm","county":"Newaygo","id":"aduipjdkpr3i"},"type":"Feature","geometry":{"type":"Point","coordinates":[-85.83267,43.5604400000176]}},{"properties":{"common_nm":"Brown trout","water":"stm","county":"Oceana","id":"aduipjs684ym"},"type":"Feature","geometry":{"type":"Point","coordinates":[-86.2087199999999,43.5470200000176]}},{"properties":{"common_nm":"Brown trout","water":"stm","county":"Oceana","id":"aduipjjys899"},"type":"Feature","geometry":{"type":"Point","coordinates":[-86.18984,43.5200000000177]}},{"properties":{"common_nm":"Brown trout","water":"stm","county":"Oceana","id":"aduipjiz28hd"},"type":"Feature","geometry":{"type":"Point","coordinates":[-86.06831,43.5320100000176]}},{"properties":{"common_nm":"Brown trout","water":"stm","county":"Oceana","id":"aduipjnawu82"},"type":"Feature","geometry":{"type":"Point","coordinates":[-86.09045,43.5036000000177]}},{"properties":{"common_nm":"Brown trout","water":"stm","county":"Oceana","id":"aduipjeodrii"},"type":"Feature","geometry":{"type":"Point","coordinates":[-86.18873,43.5339100000176]}},{"properties":{"common_nm":"Brown trout","water":"stm","county":"Van Buren","id":"aduipjl1ejcb"},"type":"Feature","geometry":{"type":"Point","coordinates":[-85.77448,42.3537100000199]}},{"properties":{"common_nm":"Brown trout","water":"stm","county":"Wexford","id":"aduipjliv5se"},"type":"Feature","geometry":{"type":"Point","coordinates":[-85.8149,44.2301100000162]}},{"properties":{"common_nm":"Brown trout","water":"stm","county":"Wexford","id":"aduipjiko7p5"},"type":"Feature","geometry":{"type":"Point","coordinates":[-85.4884900000001,44.4602900000158]}}],"is_temporal":false,"author":{"url":"http://gis.glin.net/ogc/services.php?by=topic","metadata":"http://gis.glin.net/ogc/metadata/publish/lm_spawn_brooktrt_gsa.xml","contact_name":"","contact_address":"","source":"Great Lakes Geographic Information System","contact_phone":""},"source":"http://gis.glin.net/ogc/services.php?by=topic","pagination":{"sort":null,"start":0,"total":972,"limit":1000000},"state":"complete","tags":"brown,location,spawn","published":"2007-01-01T17:00:00Z","id":350524}