{"type":"FeatureCollection","data_type":"Dataset","url_type":null,"permissions":[{"permissions":{"download":true,"view":true},"group_id":"everyone"}],"classification":null,"title":"us states locations","count":51,"stream_id":350703,"contributor":{"url":"http://geocommons.com/users/70083","name":"paulene.relano"},"data_attributes":null,"calculation_params":null,"icon_link":null,"link":"http://geocommons.com/overlays/350703.json","extent":[-156.358,20.2542,-69.2136,64.1117],"geometry_types":["point"],"unique_name":null,"name":"us states locations","feature_count":51,"description":"","next_feature":null,"is_raster":false,"short_classification":"Y","stats":{"lat":{"max":64.11168324,"variance":40.1765714042412,"mean":39.6079902968627,"stdev":6.33849914445377,"min":20.254154,"median":39.35651606},"long":{"max":-69.21363127,"variance":365.988448746475,"mean":-93.4854741531373,"stdev":19.1308245704798,"min":-156.3584158,"median":-89.6650468}},"features":[{"properties":{"id":"aduplxki677e","lat":64.11168324,"state":"AK","long":-152.6292415},"type":"Feature","geometry":{"type":"Point","coordinates":[-152.6292415,64.11168324]}},{"properties":{"id":"aduplxuyqune","lat":32.78984119,"state":"AL","long":-86.82830224},"type":"Feature","geometry":{"type":"Point","coordinates":[-86.82830224,32.78984119]}},{"properties":{"id":"aduplxvme4k2","lat":34.89968206,"state":"AR","long":-92.43906417},"type":"Feature","geometry":{"type":"Point","coordinates":[-92.43906417,34.89968206]}},{"properties":{"id":"aduplxsc5qp1","lat":34.29317334,"state":"AZ","long":-111.6638638},"type":"Feature","geometry":{"type":"Point","coordinates":[-111.6638638,34.29317334]}},{"properties":{"id":"aduplxsl00b8","lat":37.24626641,"state":"CA","long":-119.6095429},"type":"Feature","geometry":{"type":"Point","coordinates":[-119.6095429,37.24626641]}},{"properties":{"id":"aduplxs63o6k","lat":38.99856243,"state":"CO","long":-105.5472736},"type":"Feature","geometry":{"type":"Point","coordinates":[-105.5472736,38.99856243]}},{"properties":{"id":"aduplxuczwhw","lat":41.62039474,"state":"CT","long":-72.72618195},"type":"Feature","geometry":{"type":"Point","coordinates":[-72.72618195,41.62039474]}},{"properties":{"id":"aduplxfr9sky","lat":38.90519784,"state":"DC","long":-77.01654314},"type":"Feature","geometry":{"type":"Point","coordinates":[-77.01654314,38.90519784]}},{"properties":{"id":"aduplxjs0sr1","lat":39.00247649,"state":"DE","long":-75.50171752},"type":"Feature","geometry":{"type":"Point","coordinates":[-75.50171752,39.00247649]}},{"properties":{"id":"aduplxn15p4p","lat":28.60844606,"state":"FL","long":-82.49565881},"type":"Feature","geometry":{"type":"Point","coordinates":[-82.49565881,28.60844606]}},{"properties":{"id":"aduplxkxz6n7","lat":32.64874719,"state":"GA","long":-83.44589728},"type":"Feature","geometry":{"type":"Point","coordinates":[-83.44589728,32.64874719]}},{"properties":{"id":"aduplxgw85p1","lat":20.254154,"state":"HI","long":-156.3584158},"type":"Feature","geometry":{"type":"Point","coordinates":[-156.3584158,20.254154]}},{"properties":{"id":"aduplxpl3c32","lat":42.07464391,"state":"IA","long":-93.49987813},"type":"Feature","geometry":{"type":"Point","coordinates":[-93.49987813,42.07464391]}},{"properties":{"id":"aduplxlut205","lat":44.38919398,"state":"ID","long":-114.6584705},"type":"Feature","geometry":{"type":"Point","coordinates":[-114.6584705,44.38919398]}},{"properties":{"id":"aduplxmiyv4m","lat":40.06492538,"state":"IL","long":-89.19834378},"type":"Feature","geometry":{"type":"Point","coordinates":[-89.19834378,40.06492538]}},{"properties":{"id":"aduplxjh025q","lat":39.90798087,"state":"IN","long":-86.27552444},"type":"Feature","geometry":{"type":"Point","coordinates":[-86.27552444,39.90798087]}},{"properties":{"id":"aduplxif7byg","lat":38.48468889,"state":"KS","long":-98.37983782},"type":"Feature","geometry":{"type":"Point","coordinates":[-98.37983782,38.48468889]}},{"properties":{"id":"aduplxsgq8pb","lat":37.52661355,"state":"KY","long":-85.29048107},"type":"Feature","geometry":{"type":"Point","coordinates":[-85.29048107,37.52661355]}},{"properties":{"id":"aduplxk421yy","lat":31.03966078,"state":"LA","long":-91.96227705},"type":"Feature","geometry":{"type":"Point","coordinates":[-91.96227705,31.03966078]}},{"properties":{"id":"aduplxhnds4x","lat":42.25264628,"state":"MA","long":-71.797345},"type":"Feature","geometry":{"type":"Point","coordinates":[-71.797345,42.25264628]}},{"properties":{"id":"aduplxqr31s1","lat":39.03226395,"state":"MD","long":-76.76573564},"type":"Feature","geometry":{"type":"Point","coordinates":[-76.76573564,39.03226395]}},{"properties":{"id":"aduplxnw8fwd","lat":44.35160367,"state":"MI","long":-85.43923949},"type":"Feature","geometry":{"type":"Point","coordinates":[-85.43923949,44.35160367]}},{"properties":{"id":"aduplxhbe920","lat":38.3674722,"state":"MO","long":-92.47707224},"type":"Feature","geometry":{"type":"Point","coordinates":[-92.47707224,38.3674722]}},{"properties":{"id":"aduplxjseim1","lat":32.75056329,"state":"MS","long":-89.6650468},"type":"Feature","geometry":{"type":"Point","coordinates":[-89.6650468,32.75056329]}},{"properties":{"id":"aduplxmlzxp6","lat":47.03354061,"state":"MT","long":-109.6443789},"type":"Feature","geometry":{"type":"Point","coordinates":[-109.6443789,47.03354061]}},{"properties":{"id":"aduplxg6f8tg","lat":35.53974009,"state":"NC","long":-79.34876979},"type":"Feature","geometry":{"type":"Point","coordinates":[-79.34876979,35.53974009]}},{"properties":{"id":"aduplxvs534i","lat":47.44632319,"state":"ND","long":-100.4689007},"type":"Feature","geometry":{"type":"Point","coordinates":[-100.4689007,47.44632319]}},{"properties":{"id":"aduplxti6894","lat":41.52708755,"state":"NE","long":-99.8102474},"type":"Feature","geometry":{"type":"Point","coordinates":[-99.8102474,41.52708755]}},{"properties":{"id":"aduplxgnnmkr","lat":43.68566875,"state":"NH","long":-71.57813516},"type":"Feature","geometry":{"type":"Point","coordinates":[-71.57813516,43.68566875]}},{"properties":{"id":"aduplxo87evm","lat":40.18361842,"state":"NJ","long":-74.66205425},"type":"Feature","geometry":{"type":"Point","coordinates":[-74.66205425,40.18361842]}},{"properties":{"id":"aduplxirh214","lat":34.42129939,"state":"NM","long":-106.1078095},"type":"Feature","geometry":{"type":"Point","coordinates":[-106.1078095,34.42129939]}},{"properties":{"id":"aduplxtikbee","lat":39.35651606,"state":"NV","long":-116.6544592},"type":"Feature","geometry":{"type":"Point","coordinates":[-116.6544592,39.35651606]}},{"properties":{"id":"aduplxj0rw3o","lat":42.94376197,"state":"NY","long":-75.50990319},"type":"Feature","geometry":{"type":"Point","coordinates":[-75.50990319,42.94376197]}},{"properties":{"id":"aduplxnythse","lat":40.29162222,"state":"OH","long":-82.79015148},"type":"Feature","geometry":{"type":"Point","coordinates":[-82.79015148,40.29162222]}},{"properties":{"id":"aduplxq65vpn","lat":35.58343224,"state":"OK","long":-97.50796541},"type":"Feature","geometry":{"type":"Point","coordinates":[-97.50796541,35.58343224]}},{"properties":{"id":"aduplxudv8s9","lat":43.93612222,"state":"OR","long":-120.5534579},"type":"Feature","geometry":{"type":"Point","coordinates":[-120.5534579,43.93612222]}},{"properties":{"id":"aduplxmlvvbl","lat":40.87375116,"state":"PA","long":-77.79988875},"type":"Feature","geometry":{"type":"Point","coordinates":[-77.79988875,40.87375116]}},{"properties":{"id":"aduplxkrego5","lat":41.67327474,"state":"RI","long":-71.54636204},"type":"Feature","geometry":{"type":"Point","coordinates":[-71.54636204,41.67327474]}},{"properties":{"id":"aduplxny6sar","lat":33.90668106,"state":"SC","long":-80.89584322},"type":"Feature","geometry":{"type":"Point","coordinates":[-80.89584322,33.90668106]}},{"properties":{"id":"aduplxibzrdb","lat":44.43616309,"state":"SD","long":-100.2300889},"type":"Feature","geometry":{"type":"Point","coordinates":[-100.2300889,44.43616309]}},{"properties":{"id":"aduplxrn7urs","lat":35.84292526,"state":"TN","long":-86.34337529},"type":"Feature","geometry":{"type":"Point","coordinates":[-86.34337529,35.84292526]}},{"properties":{"id":"aduplxqgsig5","lat":31.46282985,"state":"TX","long":-99.3324114},"type":"Feature","geometry":{"type":"Point","coordinates":[-99.3324114,31.46282985]}},{"properties":{"id":"aduplxjj81f9","lat":39.32380945,"state":"UT","long":-111.6774759},"type":"Feature","geometry":{"type":"Point","coordinates":[-111.6774759,39.32380945]}},{"properties":{"id":"aduplxh0j17f","lat":37.51615894,"state":"VA","long":-78.81620758},"type":"Feature","geometry":{"type":"Point","coordinates":[-78.81620758,37.51615894]}},{"properties":{"id":"aduplxjukwm9","lat":44.07516147,"state":"VT","long":-72.66318741},"type":"Feature","geometry":{"type":"Point","coordinates":[-72.66318741,44.07516147]}},{"properties":{"id":"aduplxla1czf","lat":44.63783551,"state":"WI","long":-90.0119235},"type":"Feature","geometry":{"type":"Point","coordinates":[-90.0119235,44.63783551]}},{"properties":{"id":"aduplxltb1of","lat":38.64249003,"state":"WV","long":-80.6139},"type":"Feature","geometry":{"type":"Point","coordinates":[-80.6139,38.64249003]}},{"properties":{"id":"aduplxjlzc0o","lat":42.99965746,"state":"WY","long":-107.5508261},"type":"Feature","geometry":{"type":"Point","coordinates":[-107.5508261,42.99965746]}},{"properties":{"id":"aduplxgtiq7o","lat":47.3807002,"state":"WA","long":-120.4480269},"type":"Feature","geometry":{"type":"Point","coordinates":[-120.4480269,47.3807002]}},{"properties":{"id":"aduplxn4x0du","lat":46.31645207,"state":"MN","long":-94.308846},"type":"Feature","geometry":{"type":"Point","coordinates":[-94.308846,46.31645207]}},{"properties":{"id":"aduplxqfo502","lat":45.3500004,"state":"ME","long":-69.21363127},"type":"Feature","geometry":{"type":"Point","coordinates":[-69.21363127,45.3500004]}}],"is_temporal":false,"author":{"url":"","metadata":"","contact_name":"","contact_address":"","source":"","contact_phone":""},"source":"","pagination":{"sort":null,"start":0,"total":51,"limit":1000000},"state":"complete","tags":"","published":"2014-08-16T14:09:02-04:00","id":350703}