{"type":"FeatureCollection","data_type":"Dataset","url_type":null,"permissions":[{"permissions":{"download":true,"view":true},"group_id":"everyone"}],"classification":null,"title":"State Data","count":28,"stream_id":350907,"contributor":{"url":"http://geocommons.com/users/69869","name":"konishi"},"data_attributes":null,"calculation_params":null,"icon_link":null,"link":"http://geocommons.com/overlays/350907.json","extent":[-157.517,20.5755,-71.4919,47.2715],"geometry_types":["point"],"unique_name":null,"name":"State Data","feature_count":28,"description":"","next_feature":null,"is_raster":false,"short_classification":"Y","stats":{"latitude":{"max":47.27151208,"variance":33.3725461700688,"mean":37.9603592060714,"stdev":5.77689762502927,"min":20.57545311,"median":38.49777576},"region freq":{"max":64,"variance":511.793650793651,"mean":34.6428571428571,"stdev":22.6228568221092,"min":10,"median":23},"region percent":{"max":55.2,"variance":380.951746031746,"mean":29.8714285714286,"stdev":19.5179851939627,"min":8.6,"median":19.8},"state freq":{"max":48,"variance":78.941798941799,"mean":4.14285714285714,"stdev":8.88491974875401,"min":1,"median":2},"longitude":{"max":-71.49190558,"variance":371.478155395182,"mean":-95.2125800971429,"stdev":19.2737685831075,"min":-157.5167511,"median":-89.51209675}},"features":[{"properties":{"latitude":39.74809298,"region":"Midwest","region freq":19,"state freq":4,"region percent":16.4,"state name":"Illinois","longitude":-89.51209675,"id":"adv4gilxu6e1","state":"IL"},"type":"Feature","geometry":{"type":"Point","coordinates":[-89.51209675,39.74809298]}},{"properties":{"latitude":39.77088229,"region":"Midwest","region freq":19,"state freq":2,"region percent":16.4,"state name":"Indiana","longitude":-86.44446803,"id":"adv4girx8h1i","state":"IN"},"type":"Feature","geometry":{"type":"Point","coordinates":[-86.44446803,39.77088229]}},{"properties":{"latitude":38.49593181,"region":"Midwest","region freq":19,"state freq":1,"region percent":16.4,"state name":"Kansas","longitude":-98.32637995,"id":"adv4gist54fq","state":"KS"},"type":"Feature","geometry":{"type":"Point","coordinates":[-98.32637995,38.49593181]}},{"properties":{"latitude":44.93564502,"region":"Midwest","region freq":19,"state freq":6,"region percent":16.4,"state name":"Michigan","longitude":-86.41401786,"id":"adv4ginh5fd7","state":"MI"},"type":"Feature","geometry":{"type":"Point","coordinates":[-86.41401786,44.93564502]}},{"properties":{"latitude":46.43491612,"region":"Midwest","region freq":19,"state freq":2,"region percent":16.4,"state name":"Minnesota","longitude":-93.38005479,"id":"adv4gischwmo","state":"MN"},"type":"Feature","geometry":{"type":"Point","coordinates":[-93.38005479,46.43491612]}},{"properties":{"latitude":40.19369154,"region":"Midwest","region freq":19,"state freq":3,"region percent":16.4,"state name":"Ohio","longitude":-82.66603338,"id":"adv4gidcy7e1","state":"OH"},"type":"Feature","geometry":{"type":"Point","coordinates":[-82.66603338,40.19369154]}},{"properties":{"latitude":44.72081619,"region":"Midwest","region freq":19,"state freq":1,"region percent":16.4,"state name":"Wisconsin","longitude":-89.92655482,"id":"adv4gim7eqgu","state":"WI"},"type":"Feature","geometry":{"type":"Point","coordinates":[-89.92655482,44.72081619]}},{"properties":{"latitude":38.2997204,"region":"Midwest","region freq":19,"state freq":2,"region percent":16.4,"state name":"Missouri","longitude":-92.43625673,"id":"adv4gio3kdvj","state":"MO"},"type":"Feature","geometry":{"type":"Point","coordinates":[-92.43625673,38.2997204]}},{"properties":{"latitude":38.89088755,"region":"Northeast","region freq":10,"state freq":1,"region percent":8.6,"state name":"District of Columbia","longitude":-77.0166165,"id":"adv4gin0ia97","state":"DC"},"type":"Feature","geometry":{"type":"Point","coordinates":[-77.0166165,38.89088755]}},{"properties":{"latitude":42.06257858,"region":"Northeast","region freq":10,"state freq":4,"region percent":8.6,"state name":"Massachusetts","longitude":-71.7083099,"id":"adv4gispv4ez","state":"MA"},"type":"Feature","geometry":{"type":"Point","coordinates":[-71.7083099,42.06257858]}},{"properties":{"latitude":42.75607104,"region":"Northeast","region freq":10,"state freq":3,"region percent":8.6,"state name":"New York","longitude":-75.81661084,"id":"adv4gigqe3wc","state":"NY"},"type":"Feature","geometry":{"type":"Point","coordinates":[-75.81661084,42.75607104]}},{"properties":{"latitude":41.66824148,"region":"Northeast","region freq":10,"state freq":2,"region percent":8.6,"state name":"Rhode Island","longitude":-71.49190558,"id":"adv4gim8tr2j","state":"RI"},"type":"Feature","geometry":{"type":"Point","coordinates":[-71.49190558,41.66824148]}},{"properties":{"latitude":34.16978002,"region":"South","region freq":64,"state freq":48,"region percent":55.2,"state name":"Arizona","longitude":-111.9336881,"id":"adv4giqqsm9h","state":"AZ"},"type":"Feature","geometry":{"type":"Point","coordinates":[-111.9336881,34.16978002]}},{"properties":{"latitude":27.97976682,"region":"South","region freq":64,"state freq":1,"region percent":55.2,"state name":"Florida","longitude":-83.83831119,"id":"adv4giiyyp4a","state":"FL"},"type":"Feature","geometry":{"type":"Point","coordinates":[-83.83831119,27.97976682]}},{"properties":{"latitude":32.68082927,"region":"South","region freq":64,"state freq":1,"region percent":55.2,"state name":"Georgia","longitude":-83.2518569,"id":"adv4giqaalrn","state":"GA"},"type":"Feature","geometry":{"type":"Point","coordinates":[-83.2518569,32.68082927]}},{"properties":{"latitude":35.23596621,"region":"South","region freq":64,"state freq":1,"region percent":55.2,"state name":"North Carolina","longitude":-79.89017696,"id":"adv4gip8fym2","state":"NC"},"type":"Feature","geometry":{"type":"Point","coordinates":[-79.89017696,35.23596621]}},{"properties":{"latitude":34.17160662,"region":"South","region freq":64,"state freq":3,"region percent":55.2,"state name":"New Mexico","longitude":-106.0243736,"id":"adv4giopm474","state":"NM"},"type":"Feature","geometry":{"type":"Point","coordinates":[-106.0243736,34.17160662]}},{"properties":{"latitude":35.31130735,"region":"South","region freq":64,"state freq":2,"region percent":55.2,"state name":"Oklahoma","longitude":-98.71313073,"id":"adv4gijlu3vv","state":"OK"},"type":"Feature","geometry":{"type":"Point","coordinates":[-98.71313073,35.31130735]}},{"properties":{"latitude":33.63826517,"region":"South","region freq":64,"state freq":1,"region percent":55.2,"state name":"South Carolina","longitude":-80.96506932,"id":"adv4giqc2u47","state":"SC"},"type":"Feature","geometry":{"type":"Point","coordinates":[-80.96506932,33.63826517]}},{"properties":{"latitude":35.83422151,"region":"South","region freq":64,"state freq":1,"region percent":55.2,"state name":"Tennessee","longitude":-85.97886026,"id":"adv4gis9p0nx","state":"TN"},"type":"Feature","geometry":{"type":"Point","coordinates":[-85.97886026,35.83422151]}},{"properties":{"latitude":31.16973507,"region":"South","region freq":64,"state freq":3,"region percent":55.2,"state name":"Texas","longitude":-100.0787254,"id":"adv4gih77xxw","state":"TX"},"type":"Feature","geometry":{"type":"Point","coordinates":[-100.0787254,31.16973507]}},{"properties":{"latitude":37.99931082,"region":"South","region freq":64,"state freq":1,"region percent":55.2,"state name":"Virginia","longitude":-79.45869803,"id":"adv4gilo9my3","state":"VA"},"type":"Feature","geometry":{"type":"Point","coordinates":[-79.45869803,37.99931082]}},{"properties":{"latitude":37.26898656,"region":"West","region freq":23,"state freq":12,"region percent":19.8,"state name":"California","longitude":-119.2589342,"id":"adv4gijppzoy","state":"CA"},"type":"Feature","geometry":{"type":"Point","coordinates":[-119.2589342,37.26898656]}},{"properties":{"latitude":38.99618452,"region":"West","region freq":23,"state freq":3,"region percent":19.8,"state name":"Colorado","longitude":-105.5465344,"id":"adv4gilx0ssd","state":"CO"},"type":"Feature","geometry":{"type":"Point","coordinates":[-105.5465344,38.99618452]}},{"properties":{"latitude":20.57545311,"region":"West","region freq":23,"state freq":1,"region percent":19.8,"state name":"Hawaii","longitude":-157.5167511,"id":"adv4girslw1d","state":"HI"},"type":"Feature","geometry":{"type":"Point","coordinates":[-157.5167511,20.57545311]}},{"properties":{"latitude":38.49777576,"region":"West","region freq":23,"state freq":2,"region percent":19.8,"state name":"Nevada","longitude":-117.0168584,"id":"adv4gimqhqbl","state":"NV"},"type":"Feature","geometry":{"type":"Point","coordinates":[-117.0168584,38.49777576]}},{"properties":{"latitude":44.11188188,"region":"West","region freq":23,"state freq":1,"region percent":19.8,"state name":"Oregon","longitude":-120.5150179,"id":"adv4gid6f5zs","state":"OR"},"type":"Feature","geometry":{"type":"Point","coordinates":[-120.5150179,44.11188188]}},{"properties":{"latitude":47.27151208,"region":"West","region freq":23,"state freq":4,"region percent":19.8,"state name":"Washington","longitude":-120.8259511,"id":"adv4giqa5h8o","state":"WA"},"type":"Feature","geometry":{"type":"Point","coordinates":[-120.8259511,47.27151208]}}],"is_temporal":false,"author":{"url":"","metadata":"","contact_name":"","contact_address":"","source":"","contact_phone":""},"source":"","pagination":{"sort":null,"start":0,"total":28,"limit":1000000},"state":"complete","tags":"","published":"2014-08-16T14:49:57-04:00","id":350907}