{"type":"FeatureCollection","data_type":"Dataset","url_type":null,"permissions":[{"permissions":{"download":true,"edit":true,"view":true},"group_id":"everyone"}],"classification":null,"title":"Annual State Precipitaiton","count":50,"stream_id":350971,"contributor":{"url":"http://geocommons.com/users/68594","name":"butchakia"},"data_attributes":null,"calculation_params":null,"icon_link":null,"link":"http://geocommons.com/overlays/350971.json","extent":[-168.022,24.8598,-69.8038,58.3583],"geometry_types":["point"],"unique_name":null,"name":"Annual State Precipitaiton","feature_count":50,"description":"This data shows the average precipitation that each state receives in a year. The data is measured in millimeters. It was collected by NOAA from 1971-2000.","next_feature":null,"is_raster":false,"short_classification":"Y","stats":{"precipitation (mm)":{"max":1618,"variance":138199.62,"mean":941.82,"stdev":371.752094815887,"min":241,"median":1062}},"features":[{"properties":{"geo_score":0.714,"precipitation (mm)":1480,"id":"adv5wda76vb9","geo_precision":"zip","state":"36101"},"type":"Feature","geometry":{"type":"Point","coordinates":[-86.257817,32.356988]}},{"properties":{"geo_score":0.714,"precipitation (mm)":572,"id":"adv5wcvezxpp","geo_precision":"zip","state":"99801"},"type":"Feature","geometry":{"type":"Point","coordinates":[-134.498611,58.358333]}},{"properties":{"geo_score":0.714,"precipitation (mm)":345,"id":"adv5wcwung21","geo_precision":"zip","state":"85001"},"type":"Feature","geometry":{"type":"Point","coordinates":[-112.351835,33.703967]}},{"properties":{"geo_score":0.714,"precipitation (mm)":1284,"id":"adv5wd03ffhq","geo_precision":"zip","state":"72201"},"type":"Feature","geometry":{"type":"Point","coordinates":[-92.284832,34.755998]}},{"properties":{"geo_score":0.714,"precipitation (mm)":563,"id":"adv5wcyqnj3s","geo_precision":"zip","state":"94203"},"type":"Feature","geometry":{"type":"Point","coordinates":[-121.555406,38.380456]}},{"properties":{"geo_score":0.714,"precipitation (mm)":405,"id":"adv5wd428hha","geo_precision":"zip","state":"80201"},"type":"Feature","geometry":{"type":"Point","coordinates":[-104.856808,39.726303]}},{"properties":{"geo_score":0.714,"precipitation (mm)":1279,"id":"adv5wcwsn6ay","geo_precision":"zip","state":"6101"},"type":"Feature","geometry":{"type":"Point","coordinates":[-72.677099,41.78007]}},{"properties":{"geo_score":0.714,"precipitation (mm)":1160,"id":"adv5wd3iordy","geo_precision":"zip","state":"19901"},"type":"Feature","geometry":{"type":"Point","coordinates":[-75.517701,39.131501]}},{"properties":{"geo_score":0.714,"precipitation (mm)":1385,"id":"adv5wdaefs1k","geo_precision":"zip","state":"32301"},"type":"Feature","geometry":{"type":"Point","coordinates":[-84.399347,30.287701]}},{"properties":{"geo_score":0.714,"precipitation (mm)":1287,"id":"adv5wd041he3","geo_precision":"zip","state":"30301"},"type":"Feature","geometry":{"type":"Point","coordinates":[-84.47405,33.844371]}},{"properties":{"geo_score":0.714,"precipitation (mm)":1618,"id":"adv5wcyulw9h","geo_precision":"zip","state":"96801"},"type":"Feature","geometry":{"type":"Point","coordinates":[-168.021815,24.859832]}},{"properties":{"geo_score":0.714,"precipitation (mm)":481,"id":"adv5wd3mxlpc","geo_precision":"zip","state":"83701"},"type":"Feature","geometry":{"type":"Point","coordinates":[-116.23198,43.603267]}},{"properties":{"geo_score":0.714,"precipitation (mm)":996,"id":"adv5wd1c65l8","geo_precision":"zip","state":"62701"},"type":"Feature","geometry":{"type":"Point","coordinates":[-89.598978,39.820839]}},{"properties":{"geo_score":0.714,"precipitation (mm)":1060,"id":"adv5wd4butxs","geo_precision":"zip","state":"46201"},"type":"Feature","geometry":{"type":"Point","coordinates":[-86.136654,39.876429]}},{"properties":{"geo_score":0.714,"precipitation (mm)":864,"id":"adv5wda3jp2u","geo_precision":"zip","state":"50301"},"type":"Feature","geometry":{"type":"Point","coordinates":[-93.572173,41.672687]}},{"properties":{"geo_score":0.714,"precipitation (mm)":733,"id":"adv5wd9n4isx","geo_precision":"zip","state":"66601"},"type":"Feature","geometry":{"type":"Point","coordinates":[-95.780662,38.988075]}},{"properties":{"geo_score":0.714,"precipitation (mm)":1242,"id":"adv5wcxsy52x","geo_precision":"zip","state":"40601"},"type":"Feature","geometry":{"type":"Point","coordinates":[-84.814393,38.178684]}},{"properties":{"geo_score":0.714,"precipitation (mm)":1528,"id":"adv5wcylpo6r","geo_precision":"zip","state":"70801"},"type":"Feature","geometry":{"type":"Point","coordinates":[-91.185607,30.44924]}},{"properties":{"geo_score":0.714,"precipitation (mm)":1072,"id":"adv5wcysa4ji","geo_precision":"zip","state":"4330"},"type":"Feature","geometry":{"type":"Point","coordinates":[-69.803773,44.351642]}},{"properties":{"geo_score":0.714,"precipitation (mm)":1131,"id":"adv5wd8grg6b","geo_precision":"zip","state":"21401"},"type":"Feature","geometry":{"type":"Point","coordinates":[-76.59163,38.967334]}},{"properties":{"geo_score":0.714,"precipitation (mm)":1211,"id":"adv5wcyuxxpa","geo_precision":"zip","state":"2108"},"type":"Feature","geometry":{"type":"Point","coordinates":[-71.102446,42.353806]}},{"properties":{"geo_score":0.714,"precipitation (mm)":833,"id":"adv5wd21p25i","geo_precision":"zip","state":"48901"},"type":"Feature","geometry":{"type":"Point","coordinates":[-84.371973,42.599184]}},{"properties":{"geo_score":0.714,"precipitation (mm)":693,"id":"adv5wdag48vt","geo_precision":"zip","state":"55101"},"type":"Feature","geometry":{"type":"Point","coordinates":[-93.092168,44.967965]}},{"properties":{"geo_score":0.714,"precipitation (mm)":1499,"id":"adv5wd6ffuiu","geo_precision":"zip","state":"39201"},"type":"Feature","geometry":{"type":"Point","coordinates":[-90.192687,32.291095]}},{"properties":{"geo_score":0.714,"precipitation (mm)":1071,"id":"adv5wd9c575l","geo_precision":"zip","state":"65101"},"type":"Feature","geometry":{"type":"Point","coordinates":[-92.217403,38.437534]}},{"properties":{"geo_score":0.714,"precipitation (mm)":390,"id":"adv5wd2g1ogs","geo_precision":"zip","state":"59601"},"type":"Feature","geometry":{"type":"Point","coordinates":[-112.197616,46.70934]}},{"properties":{"geo_score":0.714,"precipitation (mm)":599,"id":"adv5wd91ywpv","geo_precision":"zip","state":"68501"},"type":"Feature","geometry":{"type":"Point","coordinates":[-96.823133,40.865142]}},{"properties":{"geo_score":0.714,"precipitation (mm)":241,"id":"adv5wcz0z9ov","geo_precision":"zip","state":"89701"},"type":"Feature","geometry":{"type":"Point","coordinates":[-119.809631,39.320188]}},{"properties":{"geo_score":0.714,"precipitation (mm)":1103,"id":"adv5wdbar70o","geo_precision":"zip","state":"3301"},"type":"Feature","geometry":{"type":"Point","coordinates":[-71.629796,43.149803]}},{"properties":{"geo_score":0.714,"precipitation (mm)":1196,"id":"adv5wdahnr0z","geo_precision":"zip","state":"8601"},"type":"Feature","geometry":{"type":"Point","coordinates":[-74.712018,40.280531]}},{"properties":{"geo_score":0.714,"precipitation (mm)":370,"id":"adv5wd4oo77r","geo_precision":"zip","state":"87501"},"type":"Feature","geometry":{"type":"Point","coordinates":[-105.932521,35.5992]}},{"properties":{"geo_score":0.714,"precipitation (mm)":1062,"id":"adv5wczd986n","geo_precision":"zip","state":"12201"},"type":"Feature","geometry":{"type":"Point","coordinates":[-73.970812,42.614852]}},{"properties":{"geo_score":0.714,"precipitation (mm)":1279,"id":"adv5wd5er19t","geo_precision":"zip","state":"27601"},"type":"Feature","geometry":{"type":"Point","coordinates":[-78.604175,35.773755]}},{"properties":{"geo_score":0.714,"precipitation (mm)":452,"id":"adv5wcw0j03d","geo_precision":"zip","state":"58501"},"type":"Feature","geometry":{"type":"Point","coordinates":[-100.502724,46.981207]}},{"properties":{"geo_score":0.714,"precipitation (mm)":993,"id":"adv5wcydvfha","geo_precision":"zip","state":"43201"},"type":"Feature","geometry":{"type":"Point","coordinates":[-83.011389,39.969036]}},{"properties":{"geo_score":0.714,"precipitation (mm)":927,"id":"adv5wd8tjal7","geo_precision":"zip","state":"73101"},"type":"Feature","geometry":{"type":"Point","coordinates":[-97.562817,35.491608]}},{"properties":{"geo_score":0.714,"precipitation (mm)":695,"id":"adv5wcv3js4e","geo_precision":"zip","state":"97301"},"type":"Feature","geometry":{"type":"Point","coordinates":[-122.887314,44.907899]}},{"properties":{"geo_score":0.714,"precipitation (mm)":1089,"id":"adv5wdb1x3mr","geo_precision":"zip","state":"17101"},"type":"Feature","geometry":{"type":"Point","coordinates":[-76.869644,40.264589]}},{"properties":{"geo_score":0.714,"precipitation (mm)":1218,"id":"adv5wd9pewdc","geo_precision":"zip","state":"2901"},"type":"Feature","geometry":{"type":"Point","coordinates":[-71.414451,41.82275]}},{"properties":{"geo_score":0.714,"precipitation (mm)":1264,"id":"adv5wd4dvbyi","geo_precision":"zip","state":"29201"},"type":"Feature","geometry":{"type":"Point","coordinates":[-81.029814,33.976544]}},{"properties":{"geo_score":0.714,"precipitation (mm)":511,"id":"adv5wd7jevxk","geo_precision":"zip","state":"57501"},"type":"Feature","geometry":{"type":"Point","coordinates":[-100.032068,44.396372]}},{"properties":{"geo_score":0.714,"precipitation (mm)":1376,"id":"adv5wd6p7mhx","geo_precision":"zip","state":"37201"},"type":"Feature","geometry":{"type":"Point","coordinates":[-86.784474,36.171152]}},{"properties":{"geo_score":0.714,"precipitation (mm)":734,"id":"adv5wd5ak3op","geo_precision":"zip","state":"73301"},"type":"Feature","geometry":{"type":"Point","coordinates":[-97.771258,30.326374]}},{"properties":{"geo_score":0.714,"precipitation (mm)":310,"id":"adv5wd10zjho","geo_precision":"zip","state":"84101"},"type":"Feature","geometry":{"type":"Point","coordinates":[-111.900719,40.756095]}},{"properties":{"geo_score":0.714,"precipitation (mm)":1085,"id":"adv5wcyu7mvq","geo_precision":"zip","state":"5601"},"type":"Feature","geometry":{"type":"Point","coordinates":[-72.559638,44.19906]}},{"properties":{"geo_score":0.714,"precipitation (mm)":1125,"id":"adv5wd5ph3vd","geo_precision":"zip","state":"23218"},"type":"Feature","geometry":{"type":"Point","coordinates":[-77.493157,37.524246]}},{"properties":{"geo_score":0.714,"precipitation (mm)":976,"id":"adv5wd1fjhkb","geo_precision":"zip","state":"98501"},"type":"Feature","geometry":{"type":"Point","coordinates":[-122.782412,47.0515]}},{"properties":{"geo_score":0.714,"precipitation (mm)":1147,"id":"adv5wd9xz21u","geo_precision":"zip","state":"25301"},"type":"Feature","geometry":{"type":"Point","coordinates":[-81.605094,38.328948]}},{"properties":{"geo_score":0.714,"precipitation (mm)":829,"id":"adv5wd2edqa4","geo_precision":"zip","state":"53701"},"type":"Feature","geometry":{"type":"Point","coordinates":[-89.423861,43.06956]}},{"properties":{"geo_score":0.714,"precipitation (mm)":328,"id":"adv5wcxu6zuh","geo_precision":"zip","state":"82001"},"type":"Feature","geometry":{"type":"Point","coordinates":[-110.537114,41.814113]}}],"is_temporal":false,"author":{"url":"http://www.esrl.noaa.gov/psd/data/usclimate/pcp.state.19712000.climo","metadata":"http://www.esrl.noaa.gov/psd/data/usclimate/pcp.state.19712000.climo","contact_name":"","contact_address":"","source":"National Oceanic and Atmospheric Administration National Climatic Data Center","contact_phone":""},"source":"http://www.esrl.noaa.gov/psd/data/usclimate/pcp.state.19712000.climo","pagination":{"sort":null,"start":0,"total":50,"limit":1000000},"state":"complete","tags":"average,precipitation,state","published":"2000-01-01T17:00:00Z","id":350971}