{"type":"FeatureCollection","data_type":"Dataset","url_type":null,"permissions":[{"permissions":{"download":true,"view":true},"group_id":"everyone"}],"classification":null,"title":"canada_map","count":31,"stream_id":351280,"contributor":{"url":"http://geocommons.com/users/70826","name":"jayhawk1"},"data_attributes":null,"calculation_params":null,"icon_link":null,"link":"http://geocommons.com/overlays/351280.json","extent":[-105.119,-34.4667,153.617,69.051],"geometry_types":["point"],"unique_name":null,"name":"canada_map","feature_count":31,"description":"","next_feature":null,"is_raster":false,"short_classification":"Y","stats":{"employee count":{"max":421,"variance":10770.9462365591,"mean":62.7096774193548,"stdev":103.783169331829,"min":1,"median":12}},"features":[{"properties":{"city":"BELLEVILLE","country":"Canada","geo_score":0.714,"employee count":3,"id":"advgpmcdjx42","province":"Ontario","geo_precision":"zip"},"type":"Feature","geometry":{"type":"Point","coordinates":[-5.6333333,6.6166667]}},{"properties":{"city":"BRAMPTON","country":"Canada","geo_score":0.714,"employee count":14,"id":"advgpmnsqyz2","province":"Ontario","geo_precision":"zip"},"type":"Feature","geometry":{"type":"Point","coordinates":[90.7272222,23.9183333]}},{"properties":{"city":"Brossard","country":"Canada","geo_score":0.714,"employee count":154,"id":"advgpmg3aycu","province":"Sas","geo_precision":"zip"},"type":"Feature","geometry":{"type":"Point","coordinates":[63.0463889,32.3947222]}},{"properties":{"city":"Burnaby","country":"Canada","geo_score":0.714,"employee count":240,"id":"advgpm8ngdex","province":"British Columbia","geo_precision":"zip"},"type":"Feature","geometry":{"type":"Point","coordinates":[153.6166667,-28.6333333]}},{"properties":{"city":"CALGARY","country":"Canada","geo_score":0.714,"employee count":57,"id":"advgpmc2j2q6","province":"Alberta","geo_precision":"zip"},"type":"Feature","geometry":{"type":"Point","coordinates":[25.4833333,44.15]}},{"properties":{"city":"CAMBRIDGE","country":"Canada","geo_score":0.714,"employee count":21,"id":"advgpm8y1hdu","province":"Ontario","geo_precision":"zip"},"type":"Feature","geometry":{"type":"Point","coordinates":[-105.118736314,69.050987963]}},{"properties":{"city":"Chicoutimi","country":"Canada","geo_score":0.714,"employee count":1,"id":"advgpmktrdk5","province":"Quebec","geo_precision":"zip"},"type":"Feature","geometry":{"type":"Point","coordinates":[31.1333333,16.9166667]}},{"properties":{"city":"DEER VALLEY","country":"Canada","geo_score":0.857,"employee count":1,"id":"advgpmja1kfu","province":"Saskatchewan","geo_precision":"zip"},"type":"Feature","geometry":{"type":"Point","coordinates":[-70.2166667,42.5333333]}},{"properties":{"city":"EDMONTON","country":"Canada","geo_score":0.714,"employee count":101,"id":"advgpmjfuym7","province":"Alberta","geo_precision":"zip"},"type":"Feature","geometry":{"type":"Point","coordinates":[-61.6666667,-34.4666667]}},{"properties":{"city":"HALIFAX","country":"Canada","geo_score":0.714,"employee count":7,"id":"advgpmg41rni","province":"Nova Scotia","geo_precision":"zip"},"type":"Feature","geometry":{"type":"Point","coordinates":[5.1863889,59.7258333]}},{"properties":{"city":"Kanata","country":"Canada","geo_score":0.714,"employee count":102,"id":"advgpmj9j4bw","province":"Ontario","geo_precision":"zip"},"type":"Feature","geometry":{"type":"Point","coordinates":[80.2333333,8.7666667]}},{"properties":{"city":"KITCHENER","country":"Canada","geo_score":0.714,"employee count":2,"id":"advgpmjf2mmu","province":"Ontario","geo_precision":"zip"},"type":"Feature","geometry":{"type":"Point","coordinates":[100.6686111,42.4222222]}},{"properties":{"city":"La Prairie","country":"Canada","geo_score":0.714,"employee count":87,"id":"advgpmdnyn2l","province":"Quebec","geo_precision":"zip"},"type":"Feature","geometry":{"type":"Point","coordinates":[-79.166340683,47.166842011]}},{"properties":{"city":"LONDON","country":"Canada","geo_score":0.714,"employee count":2,"id":"advgpm86k3g9","province":"Ontario","geo_precision":"zip"},"type":"Feature","geometry":{"type":"Point","coordinates":[-80.75,8.5833333]}},{"properties":{"city":"MARKHAM","country":"Canada","geo_score":0.714,"employee count":4,"id":"advgpmlwadus","province":"Ontario","geo_precision":"zip"},"type":"Feature","geometry":{"type":"Point","coordinates":[67.8147222,30.7747222]}},{"properties":{"city":"Mississauga","country":"Canada","geo_score":0.714,"employee count":421,"id":"advgpmird8a7","province":"Ontario","geo_precision":"zip"},"type":"Feature","geometry":{"type":"Point","coordinates":[32.5,-13.7666667]}},{"properties":{"city":"MONCTON","country":"Canada","geo_score":0.714,"employee count":8,"id":"advgpmaght71","province":"New Brunswick","geo_precision":"zip"},"type":"Feature","geometry":{"type":"Point","coordinates":[117.6333333,-31.6333333]}},{"properties":{"city":"OTTAWA","country":"Canada","geo_score":0.714,"employee count":18,"id":"advgpm9ebpw7","province":"Ontario","geo_precision":"zip"},"type":"Feature","geometry":{"type":"Point","coordinates":[43.2461111,11.3780556]}},{"properties":{"city":"POINTE CLAIRE","country":"Canada","geo_score":0.714,"employee count":92,"id":"advgpmg40q4q","province":"Quebec","geo_precision":"zip"},"type":"Feature","geometry":{"type":"Point","coordinates":[21.9466667,42.2855556]}},{"properties":{"city":"Quebec","country":"Canada","geo_score":0.714,"employee count":11,"id":"advgpmeihu4s","province":"Quebec","geo_precision":"zip"},"type":"Feature","geometry":{"type":"Point","coordinates":[15.05,-6.1833333]}},{"properties":{"city":"Richmond","country":"Canada","geo_score":0.857,"employee count":90,"id":"advgpmkfu86l","province":"British Columbia","geo_precision":"zip"},"type":"Feature","geometry":{"type":"Point","coordinates":[112.7166667,5.0833333]}},{"properties":{"city":"Richmond","country":"Canada","geo_score":0.857,"employee count":4,"id":"advgpm953z9x","province":"British Columbia","geo_precision":"zip"},"type":"Feature","geometry":{"type":"Point","coordinates":[112.7166667,5.0833333]}},{"properties":{"city":"Saint Leonard","country":"Canada","geo_score":0.714,"employee count":42,"id":"advgpme3q0tm","province":"New Brunswick","geo_precision":"zip"},"type":"Feature","geometry":{"type":"Point","coordinates":[107.7729,-7.0076]}},{"properties":{"city":"SASKATOON","country":"Canada","geo_score":0.714,"employee count":9,"id":"advgpm7f480z","province":"Saskatchewan","geo_precision":"zip"},"type":"Feature","geometry":{"type":"Point","coordinates":[-95.465807084,49.637493596]}},{"properties":{"city":"St. Leonard","country":"Canada","geo_score":0.714,"employee count":70,"id":"advgpmk63jlo","province":"Quebec","geo_precision":"zip"},"type":"Feature","geometry":{"type":"Point","coordinates":[13.4333333,8.4833333]}},{"properties":{"city":"St-Jean-Sur-Richelieu","country":"Canada","geo_score":0.714,"employee count":1,"id":"advgpm8zbmbr","province":"Quebec","geo_precision":"zip"},"type":"Feature","geometry":{"type":"Point","coordinates":[-72.0151233673096,44.4252601561366]}},{"properties":{"city":"STONEY CREEK","country":"Canada","geo_score":0.857,"employee count":1,"id":"advgpm9zg12u","province":"Ontario","geo_precision":"zip"},"type":"Feature","geometry":{"type":"Point","coordinates":[142.3666667,20.5]}},{"properties":{"city":"SUDBURY","country":"Canada","geo_score":0.714,"employee count":5,"id":"advgpmjd7gpe","province":"Ontario","geo_precision":"zip"},"type":"Feature","geometry":{"type":"Point","coordinates":[13.983333,49.666667]}},{"properties":{"city":"VICTORIA","country":"Canada","geo_score":0.714,"employee count":361,"id":"advgpmbwdbku","province":"British Columbia","geo_precision":"zip"},"type":"Feature","geometry":{"type":"Point","coordinates":[-4.421239,36.718467]}},{"properties":{"city":"WINDSOR","country":"Canada","geo_score":0.714,"employee count":3,"id":"advgpmjpnljc","province":"Ontario","geo_precision":"zip"},"type":"Feature","geometry":{"type":"Point","coordinates":[29.1666667,-29.0166667]}},{"properties":{"city":"WINNIPEG","country":"Canada","geo_score":0.714,"employee count":12,"id":"advgpm9lg92u","province":"Manitoba","geo_precision":"zip"},"type":"Feature","geometry":{"type":"Point","coordinates":[-97.147044715,49.884398624]}}],"is_temporal":false,"author":{"url":"","metadata":null,"contact_name":null,"contact_address":null,"source":null,"contact_phone":null},"source":"","pagination":{"sort":null,"start":0,"total":31,"limit":1000000},"state":"complete","tags":"","published":"2014-08-16T15:38:57-04:00","id":351280}