{"type":"FeatureCollection","data_type":"Dataset","url_type":null,"permissions":[{"permissions":{"download":true,"view":true},"group_id":"everyone"}],"classification":null,"title":"ZeeMap-554726_1","count":8,"stream_id":351716,"contributor":{"url":"http://geocommons.com/users/70955","name":"conniego414"},"data_attributes":null,"calculation_params":null,"icon_link":null,"link":"http://geocommons.com/overlays/351716.json","extent":[-71.1307,42.3453,-71.0555,42.3736],"geometry_types":["point"],"unique_name":null,"name":"ZeeMap-554726_1","feature_count":8,"description":"","next_feature":null,"is_raster":false,"short_classification":"Y","stats":{"latitude":{"max":42.373616,"variance":0.000110935887553555,"mean":42.357083875,"stdev":0.0105326106713177,"min":42.3453,"median":42.35236},"longitude":{"max":-71.055489,"variance":0.000802433555696468,"mean":-71.087981375,"stdev":0.0283272581747064,"min":-71.130668,"median":-71.066117}},"features":[{"properties":{"name":"Improve Boston","city":"Cambridge","latitude":42.373616,"zipcode":"02139","country":"United States","website":"http://www.improvboston.com/","description":"This Cambridge comedy hot spot hosts a wide array of standup and improv shows. However, it’s not just a theater. It’s a comedy school. Go here to watch funny people, or to become a funny person yourself.","street":"40 Prospect Street","color":"red","longitude":-71.109734,"id":"adwvmfsry4d4","state":"Massachusetts"},"type":"Feature","geometry":{"type":"Point","coordinates":[-71.109734,42.373616]}},{"properties":{"name":"Improv Asylum","city":"Boston","latitude":42.362972,"zipcode":"02113","country":"United States","website":"http://www.improvasylum.com/","description":"Located in the North End, Improv Asylum stays true to its name by focusing on improvisation and sketch comedy. It also offers corporate and student training.","street":"216 Hanover St, Boston, MA 02113","color":"red","longitude":-71.055489,"id":"adwvmfmrg0y6","state":"Massachusetts"},"type":"Feature","geometry":{"type":"Point","coordinates":[-71.055489,42.362972]}},{"properties":{"name":"Dick’s Beantown Comedy Vault","city":"Boston","latitude":42.35236,"zipcode":"02116","country":"United States","website":"http://beantowncomedy.com/","description":"Dick’s is Boston’s only comedy venue that features shows seven nights per week. Seeing that it’s been around for over 24 years, Dick’s has a storied history and has launched the careers of famous comedians such as Dane Cook.","street":"124 Boylston St","color":"red","longitude":-71.065852,"id":"adwvmfzu93sx","state":"Massachusetts"},"type":"Feature","geometry":{"type":"Point","coordinates":[-71.065852,42.35236]}},{"properties":{"name":"Nick’s Comedy Stop","city":"Boston","latitude":42.350768,"zipcode":"02116","country":"United States","website":"http://www.nickscomedystop.com/","description":"Nick’s has been around for almost 30 years, making it Boston’s oldest comedy club. Legends such as Jay Leno and Jerry Seinfeld have taken the stage at Nick’s, making it one of Boston’s most esteemed comedy haunts.","street":"100 Warrenton St, Boston, MA 02116","color":"red","longitude":-71.066117,"id":"adwvmfkw7wxz","state":"Massachusetts"},"type":"Feature","geometry":{"type":"Point","coordinates":[-71.066117,42.350768]}},{"properties":{"name":"The Wilbur Theatre","city":"Boston","latitude":42.350977,"zipcode":"02116","country":"United States","website":"http://www.thewilburtheatre.com/","description":"Built in 1915 as a traditional theater, The Wilbur received a revamping in 2008 and turned into a comedy destination. The Wilbur prides itself on bringing in A-list performers such as Joan Rivers, Jimmy Fallon and Bill Maher on a weekly basis.","street":"246 Tremont St","color":"red","longitude":-71.064899,"id":"adwvmfmx76c3","state":"Massachusetts"},"type":"Feature","geometry":{"type":"Point","coordinates":[-71.064899,42.350977]}},{"properties":{"name":"Comedy Studio","city":"Cambridge","latitude":42.370562,"zipcode":"02138","country":"United States","website":"http://www.thecomedystudio.com/","description":null,"street":"1238 Massachusetts Ave","color":"red","longitude":-71.114159,"id":"adwvmftznwk5","state":"Massachusetts"},"type":"Feature","geometry":{"type":"Point","coordinates":[-71.114159,42.370562]}},{"properties":{"name":"Grandma’s Basement","city":"Boston","latitude":42.3453,"zipcode":"02215","country":"United States","website":"http://grandmasbasementcomedy.blogspot.com/","description":null,"street":"1271 Boylston St, Boston, MA 02215","color":"red","longitude":-71.096933,"id":"adwvmfy0pfiy","state":"Massachusetts"},"type":"Feature","geometry":{"type":"Point","coordinates":[-71.096933,42.3453]}},{"properties":{"name":"The Gas at Great Scott","city":"Boston","latitude":42.350116,"zipcode":"02134","country":"United States","website":"http://www.greatscottboston.com/","description":null,"street":"1222 Commonwealth Ave, Boston, MA 02134","color":"red","longitude":-71.130668,"id":"adwvmfxsbokq","state":"Massachusetts"},"type":"Feature","geometry":{"type":"Point","coordinates":[-71.130668,42.350116]}}],"is_temporal":false,"author":{"url":"","metadata":null,"contact_name":null,"contact_address":null,"source":null,"contact_phone":null},"source":"","pagination":{"sort":null,"start":0,"total":8,"limit":1000000},"state":"complete","tags":"","published":"2014-08-16T16:18:08-04:00","id":351716}