{"type":"FeatureCollection","data_type":"Dataset","url_type":null,"permissions":[{"permissions":{"download":true,"view":true},"group_id":"everyone"}],"classification":null,"title":"Number of rail accidents and incidents in the United States in 2010","count":49,"stream_id":352001,"contributor":{"url":"http://geocommons.com/users/71001","name":"SyamilPetra"},"data_attributes":null,"calculation_params":null,"icon_link":null,"link":"http://geocommons.com/overlays/352001.json","extent":[-120.826,27.9798,-69.0284,47.4654],"geometry_types":["point"],"unique_name":null,"name":"Number of rail accidents and incidents in the United States in 2010","feature_count":49,"description":"","next_feature":null,"is_raster":false,"short_classification":"Y","stats":{"number of rail accidents":{"max":1122,"variance":63981.4506802721,"mean":234.387755102041,"stdev":252.945548844553,"min":2,"median":160},"latitude":{"max":47.46542445,"variance":22.4513690802904,"mean":39.4612825530612,"stdev":4.73828756834053,"min":27.97976682,"median":39.49702344},"longitude":{"max":-69.02839014,"variance":219.262456265617,"mean":-91.0705555740817,"stdev":14.8075135071901,"min":-120.8259511,"median":-89.51209675}},"features":[{"properties":{"latitude":32.62481896,"number of rail accidents":208,"longitude":-86.6834839,"id":"adyegs03wjq2","state":"Alabama"},"type":"Feature","geometry":{"type":"Point","coordinates":[-86.6834839,32.62481896]}},{"properties":{"latitude":34.16978002,"number of rail accidents":113,"longitude":-111.9336881,"id":"adyegrr64mz5","state":"Arizona"},"type":"Feature","geometry":{"type":"Point","coordinates":[-111.9336881,34.16978002]}},{"properties":{"latitude":34.75148134,"number of rail accidents":159,"longitude":-92.13136815,"id":"adyegrt3xkcb","state":"Arkansas"},"type":"Feature","geometry":{"type":"Point","coordinates":[-92.13136815,34.75148134]}},{"properties":{"latitude":37.26898656,"number of rail accidents":710,"longitude":-119.2589342,"id":"adyegru9jvzp","state":"California"},"type":"Feature","geometry":{"type":"Point","coordinates":[-119.2589342,37.26898656]}},{"properties":{"latitude":38.99618452,"number of rail accidents":141,"longitude":-105.5465344,"id":"adyegrxggi5k","state":"Colorado"},"type":"Feature","geometry":{"type":"Point","coordinates":[-105.5465344,38.99618452]}},{"properties":{"latitude":41.52291025,"number of rail accidents":142,"longitude":-72.75674326,"id":"adyegrw4sktp","state":"Connecticut"},"type":"Feature","geometry":{"type":"Point","coordinates":[-72.75674326,41.52291025]}},{"properties":{"latitude":39.1448606,"number of rail accidents":71,"longitude":-75.41835879,"id":"adyegrxxjjl5","state":"Delaware"},"type":"Feature","geometry":{"type":"Point","coordinates":[-75.41835879,39.1448606]}},{"properties":{"latitude":38.89088755,"number of rail accidents":88,"longitude":-77.0166165,"id":"adyegrrswhsi","state":"District of Columbia"},"type":"Feature","geometry":{"type":"Point","coordinates":[-77.0166165,38.89088755]}},{"properties":{"latitude":27.97976682,"number of rail accidents":253,"longitude":-83.83831119,"id":"adyegrmmxw7q","state":"Florida"},"type":"Feature","geometry":{"type":"Point","coordinates":[-83.83831119,27.97976682]}},{"properties":{"latitude":32.68082927,"number of rail accidents":249,"longitude":-83.2518569,"id":"adyegryrv9yb","state":"Georgia"},"type":"Feature","geometry":{"type":"Point","coordinates":[-83.2518569,32.68082927]}},{"properties":{"latitude":45.49727496,"number of rail accidents":50,"longitude":-114.141846,"id":"adyegrprt50x","state":"Idaho"},"type":"Feature","geometry":{"type":"Point","coordinates":[-114.141846,45.49727496]}},{"properties":{"latitude":39.74809298,"number of rail accidents":1088,"longitude":-89.51209675,"id":"adyegryughja","state":"Illinois"},"type":"Feature","geometry":{"type":"Point","coordinates":[-89.51209675,39.74809298]}},{"properties":{"latitude":39.77088229,"number of rail accidents":286,"longitude":-86.44446803,"id":"adyegrkj1nta","state":"Indiana"},"type":"Feature","geometry":{"type":"Point","coordinates":[-86.44446803,39.77088229]}},{"properties":{"latitude":41.93670203,"number of rail accidents":209,"longitude":-93.39175297,"id":"adyegrvx1ulo","state":"Iowa"},"type":"Feature","geometry":{"type":"Point","coordinates":[-93.39175297,41.93670203]}},{"properties":{"latitude":38.49593181,"number of rail accidents":198,"longitude":-98.32637995,"id":"adyegrq77yn7","state":"Kansas"},"type":"Feature","geometry":{"type":"Point","coordinates":[-98.32637995,38.49593181]}},{"properties":{"latitude":37.81931706,"number of rail accidents":148,"longitude":-85.76390324,"id":"adyegrq5fbaj","state":"Kentucky"},"type":"Feature","geometry":{"type":"Point","coordinates":[-85.76390324,37.81931706]}},{"properties":{"latitude":30.98153904,"number of rail accidents":258,"longitude":-91.53179419,"id":"adyegrpyrgxv","state":"Louisiana"},"type":"Feature","geometry":{"type":"Point","coordinates":[-91.53179419,30.98153904]}},{"properties":{"latitude":45.27219253,"number of rail accidents":23,"longitude":-69.02839014,"id":"adyegrtl1cao","state":"Maine"},"type":"Feature","geometry":{"type":"Point","coordinates":[-69.02839014,45.27219253]}},{"properties":{"latitude":38.84785799,"number of rail accidents":170,"longitude":-77.2677439,"id":"adyegrofzsaf","state":"Maryland"},"type":"Feature","geometry":{"type":"Point","coordinates":[-77.2677439,38.84785799]}},{"properties":{"latitude":42.06257858,"number of rail accidents":249,"longitude":-71.7083099,"id":"adyegrwikmou","state":"Massachusetts"},"type":"Feature","geometry":{"type":"Point","coordinates":[-71.7083099,42.06257858]}},{"properties":{"latitude":44.93564502,"number of rail accidents":178,"longitude":-86.41401786,"id":"adyegrx4tgr5","state":"Michigan"},"type":"Feature","geometry":{"type":"Point","coordinates":[-86.41401786,44.93564502]}},{"properties":{"latitude":46.43491612,"number of rail accidents":219,"longitude":-93.38005479,"id":"adyegrtbqgdy","state":"Minnesota"},"type":"Feature","geometry":{"type":"Point","coordinates":[-93.38005479,46.43491612]}},{"properties":{"latitude":32.59998842,"number of rail accidents":115,"longitude":-89.86707555,"id":"adyegrp6fo3f","state":"Mississippi"},"type":"Feature","geometry":{"type":"Point","coordinates":[-89.86707555,32.59998842]}},{"properties":{"latitude":38.2997204,"number of rail accidents":252,"longitude":-92.43625673,"id":"adyegrw3lud4","state":"Missouri"},"type":"Feature","geometry":{"type":"Point","coordinates":[-92.43625673,38.2997204]}},{"properties":{"latitude":46.67683322,"number of rail accidents":158,"longitude":-110.0533018,"id":"adyegrwi2sde","state":"Montana"},"type":"Feature","geometry":{"type":"Point","coordinates":[-110.0533018,46.67683322]}},{"properties":{"latitude":41.49782869,"number of rail accidents":230,"longitude":-99.6824583,"id":"adyegrw9g330","state":"Nebraska"},"type":"Feature","geometry":{"type":"Point","coordinates":[-99.6824583,41.49782869]}},{"properties":{"latitude":38.49777576,"number of rail accidents":37,"longitude":-117.0168584,"id":"adyegrkkowm7","state":"Nevada"},"type":"Feature","geometry":{"type":"Point","coordinates":[-117.0168584,38.49777576]}},{"properties":{"latitude":44.00003633,"number of rail accidents":2,"longitude":-71.64378366,"id":"adyegryeab01","state":"New Hampshire"},"type":"Feature","geometry":{"type":"Point","coordinates":[-71.64378366,44.00003633]}},{"properties":{"latitude":40.15362776,"number of rail accidents":589,"longitude":-74.73319127,"id":"adyegro0xdrc","state":"New Jersey"},"type":"Feature","geometry":{"type":"Point","coordinates":[-74.73319127,40.15362776]}},{"properties":{"latitude":34.17160662,"number of rail accidents":94,"longitude":-106.0243736,"id":"adyegroob8oa","state":"New Mexico"},"type":"Feature","geometry":{"type":"Point","coordinates":[-106.0243736,34.17160662]}},{"properties":{"latitude":42.75607104,"number of rail accidents":1122,"longitude":-75.81661084,"id":"adyegrqu847y","state":"New York"},"type":"Feature","geometry":{"type":"Point","coordinates":[-75.81661084,42.75607104]}},{"properties":{"latitude":35.23596621,"number of rail accidents":175,"longitude":-79.89017696,"id":"adyegrxtmkuw","state":"North Carolina"},"type":"Feature","geometry":{"type":"Point","coordinates":[-79.89017696,35.23596621]}},{"properties":{"latitude":47.46542445,"number of rail accidents":110,"longitude":-100.307461,"id":"adyegrpcobhl","state":"North Dakota"},"type":"Feature","geometry":{"type":"Point","coordinates":[-100.307461,47.46542445]}},{"properties":{"latitude":40.19369154,"number of rail accidents":294,"longitude":-82.66603338,"id":"adyegrsh28ea","state":"Ohio"},"type":"Feature","geometry":{"type":"Point","coordinates":[-82.66603338,40.19369154]}},{"properties":{"latitude":35.31130735,"number of rail accidents":160,"longitude":-98.71313073,"id":"adyegrnru0zl","state":"Oklahoma"},"type":"Feature","geometry":{"type":"Point","coordinates":[-98.71313073,35.31130735]}},{"properties":{"latitude":44.11188188,"number of rail accidents":133,"longitude":-120.5150179,"id":"adyegrqnr8i6","state":"Oregon"},"type":"Feature","geometry":{"type":"Point","coordinates":[-120.5150179,44.11188188]}},{"properties":{"latitude":40.99332035,"number of rail accidents":747,"longitude":-77.61305381,"id":"adyegrqhkqsz","state":"Pennsylvania"},"type":"Feature","geometry":{"type":"Point","coordinates":[-77.61305381,40.99332035]}},{"properties":{"latitude":41.66824148,"number of rail accidents":18,"longitude":-71.49190558,"id":"adyegrxeuzrr","state":"Rhode Island"},"type":"Feature","geometry":{"type":"Point","coordinates":[-71.49190558,41.66824148]}},{"properties":{"latitude":33.63826517,"number of rail accidents":113,"longitude":-80.96506932,"id":"adyegrpx1n6k","state":"South Carolina"},"type":"Feature","geometry":{"type":"Point","coordinates":[-80.96506932,33.63826517]}},{"properties":{"latitude":44.21600327,"number of rail accidents":34,"longitude":-100.2502154,"id":"adyegrqllyc8","state":"South Dakota"},"type":"Feature","geometry":{"type":"Point","coordinates":[-100.2502154,44.21600327]}},{"properties":{"latitude":35.83422151,"number of rail accidents":167,"longitude":-85.97886026,"id":"adyegrnzdvlv","state":"Tennessee"},"type":"Feature","geometry":{"type":"Point","coordinates":[-85.97886026,35.83422151]}},{"properties":{"latitude":31.16973507,"number of rail accidents":828,"longitude":-100.0787254,"id":"adyegrnl5qqg","state":"Texas"},"type":"Feature","geometry":{"type":"Point","coordinates":[-100.0787254,31.16973507]}},{"properties":{"latitude":39.49702344,"number of rail accidents":59,"longitude":-111.5452397,"id":"adyegrkslynm","state":"Utah"},"type":"Feature","geometry":{"type":"Point","coordinates":[-111.5452397,39.49702344]}},{"properties":{"latitude":43.86960212,"number of rail accidents":20,"longitude":-72.47068651,"id":"adyegru0b1t0","state":"Vermont"},"type":"Feature","geometry":{"type":"Point","coordinates":[-72.47068651,43.86960212]}},{"properties":{"latitude":37.99931082,"number of rail accidents":202,"longitude":-79.45869803,"id":"adyegrwn6zrc","state":"Virginia"},"type":"Feature","geometry":{"type":"Point","coordinates":[-79.45869803,37.99931082]}},{"properties":{"latitude":47.27151208,"number of rail accidents":270,"longitude":-120.8259511,"id":"adyegrqx1gkd","state":"Washington"},"type":"Feature","geometry":{"type":"Point","coordinates":[-120.8259511,47.27151208]}},{"properties":{"latitude":38.9210566,"number of rail accidents":106,"longitude":-80.18731287,"id":"adyegrsgkxu5","state":"West Virginia"},"type":"Feature","geometry":{"type":"Point","coordinates":[-80.18731287,38.9210566]}},{"properties":{"latitude":44.72081619,"number of rail accidents":151,"longitude":-89.92655482,"id":"adyegrlhgw8v","state":"Wisconsin"},"type":"Feature","geometry":{"type":"Point","coordinates":[-89.92655482,44.72081619]}},{"properties":{"latitude":42.99854103,"number of rail accidents":89,"longitude":-107.5525671,"id":"adyegrmg3pj3","state":"Wyoming"},"type":"Feature","geometry":{"type":"Point","coordinates":[-107.5525671,42.99854103]}}],"is_temporal":false,"author":{"url":"http://www.statista.com/statistics/205090/rail-accidents-in-the-us-by-state/","metadata":null,"contact_name":null,"contact_address":null,"source":null,"contact_phone":null},"source":"http://www.statista.com/statistics/205090/rail-accidents-in-the-us-by-state/","pagination":{"sort":null,"start":0,"total":49,"limit":1000000},"state":"complete","tags":"","published":"2014-08-16T16:53:31-04:00","id":352001}