{"type":"FeatureCollection","data_type":"Dataset","url_type":null,"permissions":[{"permissions":{"download":true,"view":true},"group_id":"everyone"}],"classification":null,"title":"CWG_MapData","count":104,"stream_id":352834,"contributor":{"url":"http://geocommons.com/users/71182","name":"chris.spear@tradepulse.com"},"data_attributes":null,"calculation_params":null,"icon_link":null,"link":"http://geocommons.com/overlays/352834.json","extent":[-121.953,-24.8333,115.817,49.133],"geometry_types":["point"],"unique_name":null,"name":"CWG_MapData","feature_count":104,"description":"","next_feature":null,"is_raster":false,"short_classification":"Y","stats":{"freight":{"max":9.1,"variance":2.69417998506348,"mean":4.48076923076923,"stdev":1.64139574297714,"min":1.0,"median":4.5}},"features":[{"properties":{"city":"Little Rock","freight":5.0,"geo_score":0.857,"id":"adzlg8db1puy","geo_precision":"zip","state":"AR"},"type":"Feature","geometry":{"type":"Point","coordinates":[-59.2666667,-24.8333333]}},{"properties":{"city":"North Little Rock","freight":5.0,"geo_score":0.857,"id":"adzlg8a2w4gu","geo_precision":"zip","state":"AR"},"type":"Feature","geometry":{"type":"Point","coordinates":[-59.2666667,-24.8333333]}},{"properties":{"city":"Phoenix","freight":3.0,"geo_score":0.857,"id":"adzlg80a8a6x","geo_precision":"zip","state":"AZ"},"type":"Feature","geometry":{"type":"Point","coordinates":[46.5430556,39.7611111]}},{"properties":{"city":"Denver","freight":4.0,"geo_score":0.0,"id":"adzlg8aqbe5t","geo_precision":"unmatched","state":"CO"},"type":"Feature","geometry":null},{"properties":{"city":"New Orleans","freight":4.68,"geo_score":0.857,"id":"adzlg89lpb8a","geo_precision":"zip","state":"LA"},"type":"Feature","geometry":{"type":"Point","coordinates":[104.15,20.6166667]}},{"properties":{"city":"Albuquerque","freight":4.5,"geo_score":0.0,"id":"adzlg84wck39","geo_precision":"unmatched","state":"NM"},"type":"Feature","geometry":null},{"properties":{"city":"Oklahoma City","freight":5.0,"geo_score":0.0,"id":"adzlg88zpv08","geo_precision":"unmatched","state":"OK"},"type":"Feature","geometry":null},{"properties":{"city":"Oklahoma City","freight":4.68,"geo_score":0.0,"id":"adzlg7yw3m51","geo_precision":"unmatched","state":"OK"},"type":"Feature","geometry":null},{"properties":{"city":"Houston","freight":4.68,"geo_score":0.0,"id":"adzlg7x8d8kd","geo_precision":"unmatched","state":"TX"},"type":"Feature","geometry":null},{"properties":{"city":"Amarillo","freight":4.68,"geo_score":0.0,"id":"adzlg81bnd7a","geo_precision":"unmatched","state":"TX"},"type":"Feature","geometry":null},{"properties":{"city":"Schertz","freight":4.68,"geo_score":0.0,"id":"adzlg80p47tg","geo_precision":"unmatched","state":"TX"},"type":"Feature","geometry":null},{"properties":{"city":"Grand Prairie","freight":4.68,"geo_score":0.0,"id":"adzlg7yp7575","geo_precision":"unmatched","state":"TX"},"type":"Feature","geometry":null},{"properties":{"city":"Urbandale","freight":3.0,"geo_score":0.0,"id":"adzlg80sjkc7","geo_precision":"unmatched","state":"IA"},"type":"Feature","geometry":null},{"properties":{"city":"Des Moines","freight":3.0,"geo_score":0.0,"id":"adzlg83xn4g6","geo_precision":"unmatched","state":"IA"},"type":"Feature","geometry":null},{"properties":{"city":"Effingham","freight":3.0,"geo_score":0.0,"id":"adzlg81d46li","geo_precision":"unmatched","state":"IL"},"type":"Feature","geometry":null},{"properties":{"city":"East Peoria","freight":3.0,"geo_score":0.0,"id":"adzlg7y8a8lo","geo_precision":"unmatched","state":"IL"},"type":"Feature","geometry":null},{"properties":{"city":"Bolingbrook","freight":3.0,"geo_score":0.0,"id":"adzlg875ch5m","geo_precision":"unmatched","state":"IL"},"type":"Feature","geometry":null},{"properties":{"city":"Des Plaines","freight":3.0,"geo_score":0.857,"id":"adzlg80176z5","geo_precision":"zip","state":"IL"},"type":"Feature","geometry":{"type":"Point","coordinates":[34.9833333,31.8]}},{"properties":{"city":"Indianapolis","freight":4.0,"geo_score":0.0,"id":"adzlg8347ak5","geo_precision":"unmatched","state":"IN"},"type":"Feature","geometry":null},{"properties":{"city":"Overland Park","freight":4.5,"geo_score":0.0,"id":"adzlg84uxjjz","geo_precision":"unmatched","state":"KS"},"type":"Feature","geometry":null},{"properties":{"city":"Wichita","freight":4.5,"geo_score":0.0,"id":"adzlg8bj0cjs","geo_precision":"unmatched","state":"KS"},"type":"Feature","geometry":null},{"properties":{"city":"Highland Park","freight":3.78,"geo_score":0.0,"id":"adzlg8ak8fwi","geo_precision":"unmatched","state":"MI"},"type":"Feature","geometry":null},{"properties":{"city":"Madison Heights","freight":3.78,"geo_score":0.0,"id":"adzlg8425iwm","geo_precision":"unmatched","state":"MI"},"type":"Feature","geometry":null},{"properties":{"city":"St. Paul","freight":3.0,"geo_score":0.0,"id":"adzlg886l2hm","geo_precision":"unmatched","state":"MN"},"type":"Feature","geometry":null},{"properties":{"city":"St. Louis","freight":3.78,"geo_score":0.0,"id":"adzlg84uy70k","geo_precision":"unmatched","state":"MO"},"type":"Feature","geometry":null},{"properties":{"city":"St. Louis","freight":3.78,"geo_score":0.0,"id":"adzlg817zmx7","geo_precision":"unmatched","state":"MO"},"type":"Feature","geometry":null},{"properties":{"city":"Fargo","freight":3.0,"geo_score":0.0,"id":"adzlg86jxp43","geo_precision":"unmatched","state":"ND"},"type":"Feature","geometry":null},{"properties":{"city":"Fargo","freight":4.5,"geo_score":0.0,"id":"adzlg883ne74","geo_precision":"unmatched","state":"ND"},"type":"Feature","geometry":null},{"properties":{"city":"Omaha","freight":4.0,"geo_score":0.0,"id":"adzlg84oktr9","geo_precision":"unmatched","state":"NE"},"type":"Feature","geometry":null},{"properties":{"city":"Solon","freight":4.5,"geo_score":0.0,"id":"adzlg85ky3vt","geo_precision":"unmatched","state":"OH"},"type":"Feature","geometry":null},{"properties":{"city":"Independence","freight":4.5,"geo_score":0.0,"id":"adzlg8a1irob","geo_precision":"unmatched","state":"OH"},"type":"Feature","geometry":null},{"properties":{"city":"Cincinnati","freight":4.5,"geo_score":0.0,"id":"adzlg8bl6drc","geo_precision":"unmatched","state":"OH"},"type":"Feature","geometry":null},{"properties":{"city":"Sioux Falls","freight":4.0,"geo_score":0.857,"id":"adzlg88852pe","geo_precision":"zip","state":"SD"},"type":"Feature","geometry":{"type":"Point","coordinates":[30.7666667,10.3166667]}},{"properties":{"city":"New Berlin","freight":4.96,"geo_score":0.0,"id":"adzlg7yrvzs3","geo_precision":"unmatched","state":"WI"},"type":"Feature","geometry":null},{"properties":{"city":"Hartland","freight":4.18,"geo_score":0.0,"id":"adzlg868aqwq","geo_precision":"unmatched","state":"WI"},"type":"Feature","geometry":null},{"properties":{"city":"Wallingford","freight":6.0,"geo_score":0.0,"id":"adzlg85x1mzk","geo_precision":"unmatched","state":"CT"},"type":"Feature","geometry":null},{"properties":{"city":"West Haven","freight":6.0,"geo_score":0.0,"id":"adzlg853vdn8","geo_precision":"unmatched","state":"CT"},"type":"Feature","geometry":null},{"properties":{"city":"North Haven","freight":6.0,"geo_score":0.0,"id":"adzlg7xt5bbm","geo_precision":"unmatched","state":"CT"},"type":"Feature","geometry":null},{"properties":{"city":"Washington","freight":6.0,"geo_score":0.0,"id":"adzlg7zuq72y","geo_precision":"unmatched","state":"DC"},"type":"Feature","geometry":null},{"properties":{"city":"Wilmington","freight":7.0,"geo_score":0.0,"id":"adzlg89etgjx","geo_precision":"unmatched","state":"DE"},"type":"Feature","geometry":null},{"properties":{"city":"Avon","freight":6.0,"geo_score":0.0,"id":"adzlg7y09s7h","geo_precision":"unmatched","state":"MA"},"type":"Feature","geometry":null},{"properties":{"city":"Baltimore","freight":6.0,"geo_score":0.0,"id":"adzlg88bs490","geo_precision":"unmatched","state":"MD"},"type":"Feature","geometry":null},{"properties":{"city":"Baltimore","freight":6.0,"geo_score":0.0,"id":"adzlg897qp9l","geo_precision":"unmatched","state":"MD"},"type":"Feature","geometry":null},{"properties":{"city":"Lewiston","freight":4.6,"geo_score":0.0,"id":"adzlg85t8tkl","geo_precision":"unmatched","state":"ME"},"type":"Feature","geometry":null},{"properties":{"city":"Bangor","freight":4.6,"geo_score":0.0,"id":"adzlg88spcbq","geo_precision":"unmatched","state":"ME"},"type":"Feature","geometry":null},{"properties":{"city":"Gorham","freight":6.0,"geo_score":0.0,"id":"adzlg84dqb9r","geo_precision":"unmatched","state":"ME"},"type":"Feature","geometry":null},{"properties":{"city":"Gardiner","freight":6.0,"geo_score":0.0,"id":"adzlg7zu16j1","geo_precision":"unmatched","state":"ME"},"type":"Feature","geometry":null},{"properties":{"city":"Manchester","freight":5.22,"geo_score":0.0,"id":"adzlg89pp5d2","geo_precision":"unmatched","state":"NH"},"type":"Feature","geometry":null},{"properties":{"city":"Montvale","freight":6.0,"geo_score":0.0,"id":"adzlg84phbcq","geo_precision":"unmatched","state":"NJ"},"type":"Feature","geometry":null},{"properties":{"city":"Montvale","freight":6.0,"geo_score":0.0,"id":"adzlg858qqo0","geo_precision":"unmatched","state":"NJ"},"type":"Feature","geometry":null},{"properties":{"city":"Montvale","freight":6.0,"geo_score":0.0,"id":"adzlg7zxz5h8","geo_precision":"unmatched","state":"NJ"},"type":"Feature","geometry":null},{"properties":{"city":"North Wales","freight":4.5,"geo_score":0.0,"id":"adzlg7xe435m","geo_precision":"unmatched","state":"PA"},"type":"Feature","geometry":null},{"properties":{"city":"West Greenwich","freight":6.0,"geo_score":0.0,"id":"adzlg86u8ee0","geo_precision":"unmatched","state":"RI"},"type":"Feature","geometry":null},{"properties":{"city":"Coventry","freight":6.0,"geo_score":0.0,"id":"adzlg7yhcplu","geo_precision":"unmatched","state":"RI"},"type":"Feature","geometry":null},{"properties":{"city":"Ashland","freight":6.25,"geo_score":0.0,"id":"adzlg83hxnur","geo_precision":"unmatched","state":"VA"},"type":"Feature","geometry":null},{"properties":{"city":"Ashland","freight":6.25,"geo_score":0.0,"id":"adzlg85j0k89","geo_precision":"unmatched","state":"VA"},"type":"Feature","geometry":null},{"properties":{"city":"Ashland","freight":6.0,"geo_score":0.0,"id":"adzlg7xyus7z","geo_precision":"unmatched","state":"VA"},"type":"Feature","geometry":null},{"properties":{"city":"Ashland","freight":6.25,"geo_score":0.0,"id":"adzlg89u7p8t","geo_precision":"unmatched","state":"VA"},"type":"Feature","geometry":null},{"properties":{"city":"Chantilly","freight":6.25,"geo_score":0.0,"id":"adzlg7x9xrxf","geo_precision":"unmatched","state":"VA"},"type":"Feature","geometry":null},{"properties":{"city":"S. Burlington","freight":6.0,"geo_score":0.0,"id":"adzlg85zkq69","geo_precision":"unmatched","state":"VT"},"type":"Feature","geometry":null},{"properties":{"city":"Rutland","freight":6.0,"geo_score":0.0,"id":"adzlg8517d00","geo_precision":"unmatched","state":"VT"},"type":"Feature","geometry":null},{"properties":{"city":"Birmingham","freight":9.1,"geo_score":0.0,"id":"adzlg891ipjo","geo_precision":"unmatched","state":"AL"},"type":"Feature","geometry":null},{"properties":{"city":"Miramar","freight":5.5,"geo_score":0.0,"id":"adzlg88kxh4c","geo_precision":"unmatched","state":"FL"},"type":"Feature","geometry":null},{"properties":{"city":"Tampa","freight":5.5,"geo_score":0.0,"id":"adzlg7zyj0tl","geo_precision":"unmatched","state":"FL"},"type":"Feature","geometry":null},{"properties":{"city":"Atlanta","freight":4.5,"geo_score":0.0,"id":"adzlg7yu6hrb","geo_precision":"unmatched","state":"GA"},"type":"Feature","geometry":null},{"properties":{"city":"Mcdonough","freight":5.0,"geo_score":0.0,"id":"adzlg8196as1","geo_precision":"unmatched","state":"GA"},"type":"Feature","geometry":null},{"properties":{"city":"Louisville","freight":6.44,"geo_score":0.0,"id":"adzlg8bzqk2q","geo_precision":"unmatched","state":"KY"},"type":"Feature","geometry":null},{"properties":{"city":"Madison","freight":8.6,"geo_score":0.0,"id":"adzlg81jalpl","geo_precision":"unmatched","state":"MS"},"type":"Feature","geometry":null},{"properties":{"city":"Madison","freight":8.6,"geo_score":0.0,"id":"adzlg8aq70ft","geo_precision":"unmatched","state":"MS"},"type":"Feature","geometry":null},{"properties":{"city":"Colfax","freight":4.75,"geo_score":0.0,"id":"adzlg89zob1i","geo_precision":"unmatched","state":"NC"},"type":"Feature","geometry":null},{"properties":{"city":"Charlotte","freight":4.0,"geo_score":0.0,"id":"adzlg7xxb2jn","geo_precision":"unmatched","state":"NC"},"type":"Feature","geometry":null},{"properties":{"city":"West Columbia","freight":4.5,"geo_score":0.0,"id":"adzlg85rjang","geo_precision":"unmatched","state":"SC"},"type":"Feature","geometry":null},{"properties":{"city":"Chattanooga","freight":4.0,"geo_score":0.857,"id":"adzlg8bd2cij","geo_precision":"zip","state":"TN"},"type":"Feature","geometry":{"type":"Point","coordinates":[8.7847222,33.7575]}},{"properties":{"city":"Antioch","freight":4.0,"geo_score":0.0,"id":"adzlg7zm8w06","geo_precision":"unmatched","state":"TN"},"type":"Feature","geometry":null},{"properties":{"city":"Knoxville","freight":4.0,"geo_score":0.0,"id":"adzlg891ymft","geo_precision":"unmatched","state":"TN"},"type":"Feature","geometry":null},{"properties":{"city":"Nashville","freight":4.0,"geo_score":0.0,"id":"adzlg80b2hp5","geo_precision":"unmatched","state":"TN"},"type":"Feature","geometry":null},{"properties":{"city":"Chattanooga","freight":4.0,"geo_score":0.857,"id":"adzlg8396nah","geo_precision":"zip","state":"TN"},"type":"Feature","geometry":{"type":"Point","coordinates":[8.7847222,33.7575]}},{"properties":{"city":"Knoxville","freight":4.0,"geo_score":0.0,"id":"adzlg8ak8cne","geo_precision":"unmatched","state":"TN"},"type":"Feature","geometry":null},{"properties":{"city":"Memphis","freight":4.0,"geo_score":0.0,"id":"adzlg7zm6fso","geo_precision":"unmatched","state":"TN"},"type":"Feature","geometry":null},{"properties":{"city":"Ashland","freight":6.25,"geo_score":0.0,"id":"adzlg7zzs3gm","geo_precision":"unmatched","state":"VA"},"type":"Feature","geometry":null},{"properties":{"city":"Anchorage","freight":7.0,"geo_score":0.0,"id":"adzlg80of60c","geo_precision":"unmatched","state":"AK"},"type":"Feature","geometry":null},{"properties":{"city":"Cerritos","freight":1.0,"geo_score":0.857,"id":"adzlg86pxsu1","geo_precision":"zip","state":"CA"},"type":"Feature","geometry":{"type":"Point","coordinates":[-121.952565697,49.132980621]}},{"properties":{"city":"Union City","freight":1.0,"geo_score":0.857,"id":"adzlg8c1roml","geo_precision":"zip","state":"CA"},"type":"Feature","geometry":{"type":"Point","coordinates":[-81.199736974,42.700092005]}},{"properties":{"city":"Tustin","freight":1.0,"geo_score":0.857,"id":"adzlg89wvqrm","geo_precision":"zip","state":"CA"},"type":"Feature","geometry":{"type":"Point","coordinates":[-79.532913857,43.866814427]}},{"properties":{"city":"Honolulu","freight":9.0,"geo_score":0.0,"id":"adzlg870dfat","geo_precision":"unmatched","state":"HI"},"type":"Feature","geometry":null},{"properties":{"city":"Idaho Falls","freight":3.5,"geo_score":0.0,"id":"adzlg8a2mlce","geo_precision":"unmatched","state":"ID"},"type":"Feature","geometry":null},{"properties":{"city":"Boise","freight":3.5,"geo_score":0.857,"id":"adzlg85mvhce","geo_precision":"zip","state":"ID"},"type":"Feature","geometry":{"type":"Point","coordinates":[115.8166667,-1.8]}},{"properties":{"city":"Boise","freight":3.5,"geo_score":0.857,"id":"adzlg86wx30w","geo_precision":"zip","state":"ID"},"type":"Feature","geometry":{"type":"Point","coordinates":[115.8166667,-1.8]}},{"properties":{"city":"Ketchum","freight":3.5,"geo_score":0.0,"id":"adzlg7yd5a65","geo_precision":"unmatched","state":"ID"},"type":"Feature","geometry":null},{"properties":{"city":"Bozeman","freight":3.0,"geo_score":0.0,"id":"adzlg8bkkn2g","geo_precision":"unmatched","state":"MT"},"type":"Feature","geometry":null},{"properties":{"city":"Kalispell","freight":3.0,"geo_score":0.0,"id":"adzlg81ij3bh","geo_precision":"unmatched","state":"MT"},"type":"Feature","geometry":null},{"properties":{"city":"Great Falls","freight":3.0,"geo_score":0.857,"id":"adzlg81qr6tz","geo_precision":"zip","state":"MT"},"type":"Feature","geometry":{"type":"Point","coordinates":[14.3180556,36.0488889]}},{"properties":{"city":"Billings","freight":3.0,"geo_score":0.0,"id":"adzlg8ajdeg5","geo_precision":"unmatched","state":"MT"},"type":"Feature","geometry":null},{"properties":{"city":"Missoula","freight":3.0,"geo_score":0.0,"id":"adzlg814clsg","geo_precision":"unmatched","state":"MT"},"type":"Feature","geometry":null},{"properties":{"city":"Las Vegas","freight":2.5,"geo_score":0.0,"id":"adzlg82e5bfa","geo_precision":"unmatched","state":"NV"},"type":"Feature","geometry":null},{"properties":{"city":"Sparks","freight":2.5,"geo_score":0.0,"id":"adzlg81kohlh","geo_precision":"unmatched","state":"NV"},"type":"Feature","geometry":null},{"properties":{"city":"North Las Vegas","freight":2.5,"geo_score":0.0,"id":"adzlg83j4jsv","geo_precision":"unmatched","state":"NV"},"type":"Feature","geometry":null},{"properties":{"city":"Portland","freight":2.0,"geo_score":0.0,"id":"adzlg7y5ygld","geo_precision":"unmatched","state":"OR"},"type":"Feature","geometry":null},{"properties":{"city":"Park City","freight":2.0,"geo_score":0.0,"id":"adzlg856fb2h","geo_precision":"unmatched","state":"UT"},"type":"Feature","geometry":null},{"properties":{"city":"Salt Lake City","freight":2.0,"geo_score":0.0,"id":"adzlg8btojqd","geo_precision":"unmatched","state":"UT"},"type":"Feature","geometry":null},{"properties":{"city":"Seattle","freight":2.5,"geo_score":0.0,"id":"adzlg89tf6nq","geo_precision":"unmatched","state":"WA"},"type":"Feature","geometry":null},{"properties":{"city":"Kirkland","freight":2.5,"geo_score":0.0,"id":"adzlg81cgts5","geo_precision":"unmatched","state":"WA"},"type":"Feature","geometry":null},{"properties":{"city":"Laramie","freight":2.0,"geo_score":0.0,"id":"adzlg87jxsgz","geo_precision":"unmatched","state":"WY"},"type":"Feature","geometry":null},{"properties":{"city":"Laramie","freight":2.0,"geo_score":0.0,"id":"adzlg7xlkswc","geo_precision":"unmatched","state":"WY"},"type":"Feature","geometry":null}],"is_temporal":false,"author":{"url":"","metadata":null,"contact_name":null,"contact_address":null,"source":null,"contact_phone":null},"source":"","pagination":{"sort":null,"start":0,"total":104,"limit":1000000},"state":"complete","tags":"","published":"2014-08-16T17:47:12-04:00","id":352834}