{"type":"FeatureCollection","data_type":"Dataset","url_type":null,"permissions":[{"permissions":{"download":true,"view":true},"group_id":"everyone"}],"classification":null,"title":"final public CNG LNG stations","count":610,"stream_id":352836,"contributor":{"url":"http://geocommons.com/users/15886","name":"BBWart"},"data_attributes":null,"calculation_params":null,"icon_link":null,"link":"http://geocommons.com/overlays/352836.json","extent":[-149.916,26.1306,-70.2013,61.1779],"geometry_types":["point"],"unique_name":null,"name":"final public CNG LNG stations","feature_count":610,"description":"","next_feature":null,"is_raster":false,"short_classification":"Y","stats":{"latitude":{"max":61.177864,"variance":17.6707652743059,"mean":37.4949701874918,"stdev":4.20366093712444,"min":26.13065,"median":36.7624671},"longitude":{"max":-70.201253,"variance":268.066244098539,"mean":-99.4503651788526,"stdev":16.3727286699114,"min":-149.916369,"median":-97.4589952},"plus4":{"max":9998,"variance":5238996.09970779,"mean":4111.23295454545,"stdev":2288.88534000893,"min":70,"median":3672}},"features":[{"properties":{"city":"Fort Lauderdale","zip":"33311","latitude":26.13065,"fuel type code":"CNG","street address":"650 NW 27th Ave","plus4":8656,"longitude":-80.175803,"id":"adzljla706w5","state":"FL"},"type":"Feature","geometry":{"type":"Point","coordinates":[-80.175803,26.13065]}},{"properties":{"city":"Pompano Beach","zip":"33069","latitude":26.235255,"fuel type code":"CNG","street address":"1126 Hammondville Rd","plus4":null,"longitude":-80.139089,"id":"adzljlli1wh1","state":"FL"},"type":"Feature","geometry":{"type":"Point","coordinates":[-80.139089,26.235255]}},{"properties":{"city":"Pompano Beach","zip":"33073","latitude":26.277163,"fuel type code":"CNG","street address":"3831 Powerline Rd","plus4":null,"longitude":-80.154363,"id":"adzljlc47ad6","state":"FL"},"type":"Feature","geometry":{"type":"Point","coordinates":[-80.154363,26.277163]}},{"properties":{"city":"Laredo","zip":"78041","latitude":27.5500029,"fuel type code":"CNG","street address":"5710 Daugherty Ave","plus4":null,"longitude":-99.4721526,"id":"adzljle4qu1d","state":"TX"},"type":"Feature","geometry":{"type":"Point","coordinates":[-99.4721526,27.5500029]}},{"properties":{"city":"Corpus Christi","zip":"78415","latitude":27.7301673,"fuel type code":"CNG","street address":"2525 Hygeia St","plus4":null,"longitude":-97.4263829,"id":"adzljl7vk6dn","state":"TX"},"type":"Feature","geometry":{"type":"Point","coordinates":[-97.4263829,27.7301673]}},{"properties":{"city":"Corpus Christi","zip":"78415","latitude":27.750055,"fuel type code":"CNG","street address":"4225 S Port Ave","plus4":5311,"longitude":-97.421115,"id":"adzljles34j4","state":"TX"},"type":"Feature","geometry":{"type":"Point","coordinates":[-97.421115,27.750055]}},{"properties":{"city":"Clearwater","zip":"33765","latitude":27.975825,"fuel type code":"CNG","street address":"1020 N Hercules Ave","plus4":null,"longitude":-82.7546121,"id":"adzljllz233w","state":"FL"},"type":"Feature","geometry":{"type":"Point","coordinates":[-82.7546121,27.975825]}},{"properties":{"city":"Tampa","zip":"33607","latitude":27.99152,"fuel type code":"CNG","street address":"4750 W South Ave","plus4":null,"longitude":-82.5234,"id":"adzljlezte4w","state":"FL"},"type":"Feature","geometry":{"type":"Point","coordinates":[-82.5234,27.99152]}},{"properties":{"city":"Houston","zip":"77034","latitude":29.619267,"fuel type code":"CNG","street address":"6000 Debbielou Gardens Dr","plus4":null,"longitude":-95.190183,"id":"adzljlgo2hcs","state":"TX"},"type":"Feature","geometry":{"type":"Point","coordinates":[-95.190183,29.619267]}},{"properties":{"city":"Baytown","zip":"77521","latitude":29.7355,"fuel type code":"LNG","street address":"1876 East Fwy","plus4":null,"longitude":-94.9774,"id":"adzljllkyqcs","state":"TX"},"type":"Feature","geometry":{"type":"Point","coordinates":[-94.9774,29.7355]}},{"properties":{"city":"Houston","zip":"77056","latitude":29.744353,"fuel type code":"CNG","street address":"2109 McCue Rd","plus4":null,"longitude":-95.46424,"id":"adzljlldk672","state":"TX"},"type":"Feature","geometry":{"type":"Point","coordinates":[-95.46424,29.744353]}},{"properties":{"city":"Houston","zip":"77007","latitude":29.77916,"fuel type code":"CNG","street address":"7721A Washington Ave","plus4":1037,"longitude":-95.4339,"id":"adzljli2cm95","state":"TX"},"type":"Feature","geometry":{"type":"Point","coordinates":[-95.4339,29.77916]}},{"properties":{"city":"Houston","zip":"77029","latitude":29.78726,"fuel type code":"CNG","street address":"227 McCarty Rd","plus4":1137,"longitude":-95.2801,"id":"adzljl98wt71","state":"TX"},"type":"Feature","geometry":{"type":"Point","coordinates":[-95.2801,29.78726]}},{"properties":{"city":"Houston","zip":"77090","latitude":29.87635,"fuel type code":"LNG","street address":"15919 N Freeway","plus4":null,"longitude":-95.5628,"id":"adzljlnjt5kn","state":"TX"},"type":"Feature","geometry":{"type":"Point","coordinates":[-95.5628,29.87635]}},{"properties":{"city":"Houston","zip":"77032","latitude":29.94365,"fuel type code":"CNG","street address":"15701 International Plaza Dr","plus4":null,"longitude":-95.3273,"id":"adzljlkijnfn","state":"TX"},"type":"Feature","geometry":{"type":"Point","coordinates":[-95.3273,29.94365]}},{"properties":{"city":"Kenner","zip":"70062","latitude":29.9822851,"fuel type code":"CNG","street address":"1017 Airline Dr","plus4":null,"longitude":-90.2570131,"id":"adzljlnbcyij","state":"LA"},"type":"Feature","geometry":{"type":"Point","coordinates":[-90.2570131,29.9822851]}},{"properties":{"city":"Houston","zip":"77090","latitude":29.998734,"fuel type code":"LNG","street address":"15919 N Fwy","plus4":null,"longitude":-95.426977,"id":"adzljlbm44nf","state":"TX"},"type":"Feature","geometry":{"type":"Point","coordinates":[-95.426977,29.998734]}},{"properties":{"city":"Beaumont","zip":"77701","latitude":30.07719,"fuel type code":"CNG","street address":"550 Milam Dr","plus4":null,"longitude":-94.0959,"id":"adzljlhkj57g","state":"TX"},"type":"Feature","geometry":{"type":"Point","coordinates":[-94.0959,30.07719]}},{"properties":{"city":"Lafayette","zip":"70505","latitude":30.1803055,"fuel type code":"CNG","street address":"515 E Verot School Rd","plus4":null,"longitude":-91.997083,"id":"adzljlj6791q","state":"LA"},"type":"Feature","geometry":{"type":"Point","coordinates":[-91.997083,30.1803055]}},{"properties":{"city":"Lafayette","zip":"70501","latitude":30.209862,"fuel type code":"CNG","street address":"1515 E University Ave","plus4":null,"longitude":-92.0023779,"id":"adzljl8e1xf7","state":"LA"},"type":"Feature","geometry":{"type":"Point","coordinates":[-92.0023779,30.209862]}},{"properties":{"city":"Austin","zip":"78744","latitude":30.21329,"fuel type code":"CNG","street address":"2514 Business Center Dr","plus4":null,"longitude":-97.7379,"id":"adzljllkxcxu","state":"TX"},"type":"Feature","geometry":{"type":"Point","coordinates":[-97.7379,30.21329]}},{"properties":{"city":"Austin","zip":"78719","latitude":30.21361,"fuel type code":"CNG","street address":"3100 1/2 Spirit of Texas Dr","plus4":null,"longitude":-97.6651,"id":"adzljlfc4ifg","state":"TX"},"type":"Feature","geometry":{"type":"Point","coordinates":[-97.6651,30.21361]}},{"properties":{"city":"Conroe","zip":"77301","latitude":30.2880845,"fuel type code":"CNG","street address":"2749 Loop 336 E","plus4":null,"longitude":-95.4227229,"id":"adzljl96h5wh","state":"TX"},"type":"Feature","geometry":{"type":"Point","coordinates":[-95.4227229,30.2880845]}},{"properties":{"city":"Tallahassee","zip":"32304","latitude":30.4376,"fuel type code":"CNG","street address":"440 Capital Circle SW","plus4":null,"longitude":-84.3546,"id":"adzljlhlxh38","state":"FL"},"type":"Feature","geometry":{"type":"Point","coordinates":[-84.3546,30.4376]}},{"properties":{"city":"Baton Rouge","zip":"70805","latitude":30.45071,"fuel type code":"CNG","street address":"4637 Florida Blvd","plus4":4024,"longitude":-91.1426,"id":"adzljlaki9oo","state":"LA"},"type":"Feature","geometry":{"type":"Point","coordinates":[-91.1426,30.45071]}},{"properties":{"city":"Baton Rouge","zip":"70815","latitude":30.47163,"fuel type code":"CNG","street address":"8968 S Choctaw Dr","plus4":null,"longitude":-91.0887,"id":"adzljlkbvb1g","state":"LA"},"type":"Feature","geometry":{"type":"Point","coordinates":[-91.0887,30.47163]}},{"properties":{"city":"Pensacola","zip":"32526","latitude":30.47711,"fuel type code":"CNG","street address":"6722 Pine Forest Rd","plus4":null,"longitude":-87.3068,"id":"adzljlncx8if","state":"FL"},"type":"Feature","geometry":{"type":"Point","coordinates":[-87.3068,30.47711]}},{"properties":{"city":"Milton","zip":"32570","latitude":30.632594,"fuel type code":"CNG","street address":"6738 Dixon St","plus4":null,"longitude":-87.040998,"id":"adzljlk4hwqe","state":"FL"},"type":"Feature","geometry":{"type":"Point","coordinates":[-87.040998,30.632594]}},{"properties":{"city":"Bryan","zip":"77807","latitude":30.7223978,"fuel type code":"CNG","street address":"2890 N Harvey Mitchell Pkwy","plus4":null,"longitude":-96.4273347,"id":"adzljlbxycsq","state":"TX"},"type":"Feature","geometry":{"type":"Point","coordinates":[-96.4273347,30.7223978]}},{"properties":{"city":"Alexandria","zip":"71309","latitude":31.345192,"fuel type code":"CNG","street address":"6016 Old Boyce Hwy","plus4":null,"longitude":-92.519025,"id":"adzljlah03uu","state":"LA"},"type":"Feature","geometry":{"type":"Point","coordinates":[-92.519025,31.345192]}},{"properties":{"city":"Evergreen","zip":"36401","latitude":31.440434,"fuel type code":"CNG","street address":"831 Liberty Hill Dr","plus4":null,"longitude":-86.953518,"id":"adzljlkprwlp","state":"AL"},"type":"Feature","geometry":{"type":"Point","coordinates":[-86.953518,31.440434]}},{"properties":{"city":"Midland","zip":"79703","latitude":31.9627,"fuel type code":"CNG","street address":"4915 W Industrial Blvd","plus4":null,"longitude":-102.134,"id":"adzljlb5cblg","state":"TX"},"type":"Feature","geometry":{"type":"Point","coordinates":[-102.134,31.9627]}},{"properties":{"city":"Midland","zip":"79702","latitude":31.9824546,"fuel type code":"CNG","street address":"3200 E State Highway 158","plus4":null,"longitude":-102.0375306,"id":"adzljlfpo5xl","state":"TX"},"type":"Feature","geometry":{"type":"Point","coordinates":[-102.0375306,31.9824546]}},{"properties":{"city":"Coushatta","zip":"71019","latitude":32.01562,"fuel type code":"CNG","street address":"1392 Highway 84 E","plus4":null,"longitude":-93.3165,"id":"adzljl77t8wm","state":"LA"},"type":"Feature","geometry":{"type":"Point","coordinates":[-93.3165,32.01562]}},{"properties":{"city":"Mansfield","zip":"71052","latitude":32.0283507,"fuel type code":"CNG","street address":"796 Washington Ave","plus4":null,"longitude":-93.7156662,"id":"adzljlgkqfh9","state":"LA"},"type":"Feature","geometry":{"type":"Point","coordinates":[-93.7156662,32.0283507]}},{"properties":{"city":"Midland","zip":"79705","latitude":32.042664,"fuel type code":"CNG","street address":"4508 N Big Spring St","plus4":null,"longitude":-102.084597,"id":"adzljl839pfk","state":"TX"},"type":"Feature","geometry":{"type":"Point","coordinates":[-102.084597,32.042664]}},{"properties":{"city":"Tucson","zip":"85374","latitude":32.123063,"fuel type code":"CNG","street address":"3034 E Corona","plus4":null,"longitude":-110.927472,"id":"adzljl8n4w3k","state":"AZ"},"type":"Feature","geometry":{"type":"Point","coordinates":[-110.927472,32.123063]}},{"properties":{"city":"Tucson","zip":"85714","latitude":32.17803,"fuel type code":"CNG","street address":"705 E Ajo Way","plus4":null,"longitude":-110.96,"id":"adzljlacgp7v","state":"AZ"},"type":"Feature","geometry":{"type":"Point","coordinates":[-110.96,32.17803]}},{"properties":{"city":"Frierson","zip":"71027","latitude":32.21401,"fuel type code":"LNG","street address":"6797 Highway 175","plus4":null,"longitude":-93.7058,"id":"adzljll7hb5a","state":"LA"},"type":"Feature","geometry":{"type":"Point","coordinates":[-93.7058,32.21401]}},{"properties":{"city":"Frierson","zip":"71027","latitude":32.21405,"fuel type code":"CNG","street address":"6797 Highway 175","plus4":null,"longitude":-93.7058,"id":"adzljlixxabp","state":"LA"},"type":"Feature","geometry":{"type":"Point","coordinates":[-93.7058,32.21405]}},{"properties":{"city":"Tucson","zip":"85719","latitude":32.214438,"fuel type code":"CNG","street address":"1744 E Winsett St","plus4":null,"longitude":-110.94581,"id":"adzljl8c7syi","state":"AZ"},"type":"Feature","geometry":{"type":"Point","coordinates":[-110.94581,32.214438]}},{"properties":{"city":"Andrews","zip":"79714","latitude":32.3059331,"fuel type code":"CNG","street address":"2101 SW Mustang Dr","plus4":null,"longitude":-102.5442911,"id":"adzljlj5i7m4","state":"TX"},"type":"Feature","geometry":{"type":"Point","coordinates":[-102.5442911,32.3059331]}},{"properties":{"city":"Flowood","zip":"39232","latitude":32.35072,"fuel type code":"CNG","street address":"5495 Lakeland Dr","plus4":null,"longitude":-90.0303,"id":"adzljlexhgb7","state":"MS"},"type":"Feature","geometry":{"type":"Point","coordinates":[-90.0303,32.35072]}},{"properties":{"city":"Shreveport","zip":"71129","latitude":32.4452737,"fuel type code":"CNG","street address":"6828 Pines Rd","plus4":null,"longitude":-93.8625156,"id":"adzljli7haqb","state":"LA"},"type":"Feature","geometry":{"type":"Point","coordinates":[-93.8625156,32.4452737]}},{"properties":{"city":"Bossier City","zip":"71112","latitude":32.4682699,"fuel type code":"CNG","street address":"4530 Barksdale Blvd","plus4":null,"longitude":-93.66937,"id":"adzljlhp6vcz","state":"LA"},"type":"Feature","geometry":{"type":"Point","coordinates":[-93.66937,32.4682699]}},{"properties":{"city":"Shreveport","zip":"71103","latitude":32.479998,"fuel type code":"CNG","street address":"1731 Kings Hwy","plus4":null,"longitude":-93.766015,"id":"adzljl935ldo","state":"LA"},"type":"Feature","geometry":{"type":"Point","coordinates":[-93.766015,32.479998]}},{"properties":{"city":"Bossier City","zip":"71111","latitude":32.528438,"fuel type code":"CNG","street address":"2810 E Texas St","plus4":null,"longitude":-93.7097699,"id":"adzljlmg1m2o","state":"LA"},"type":"Feature","geometry":{"type":"Point","coordinates":[-93.7097699,32.528438]}},{"properties":{"city":"San Diego","zip":"92154","latitude":32.569265,"fuel type code":"LNG","street address":"1497 Piper Ranch Rd","plus4":null,"longitude":-116.952466,"id":"adzljlg864on","state":"CA"},"type":"Feature","geometry":{"type":"Point","coordinates":[-116.952466,32.569265]}},{"properties":{"city":"Chula Vista","zip":"91911","latitude":32.59793,"fuel type code":"CNG","street address":"1800 Maxwell Rd","plus4":null,"longitude":-117.019,"id":"adzljlk3p3g4","state":"CA"},"type":"Feature","geometry":{"type":"Point","coordinates":[-117.019,32.59793]}},{"properties":{"city":"Chula Vista","zip":"91910","latitude":32.6319314,"fuel type code":"CNG","street address":"84 East J St","plus4":6199,"longitude":-117.0582237,"id":"adzljll7irwv","state":"CA"},"type":"Feature","geometry":{"type":"Point","coordinates":[-117.0582237,32.6319314]}},{"properties":{"city":"Dallas","zip":"75241","latitude":32.65615,"fuel type code":"LNG","street address":"7425 Bonnie View Rd","plus4":null,"longitude":-96.750747,"id":"adzljlg11vs1","state":"TX"},"type":"Feature","geometry":{"type":"Point","coordinates":[-96.750747,32.65615]}},{"properties":{"city":"Dallas","zip":"75211","latitude":32.72442,"fuel type code":"CNG","street address":"2005 Cockrell Hill Rd","plus4":8405,"longitude":-96.8939,"id":"adzljlcaxntd","state":"TX"},"type":"Feature","geometry":{"type":"Point","coordinates":[-96.8939,32.72442]}},{"properties":{"city":"San Diego","zip":"92101","latitude":32.729871,"fuel type code":"CNG","street address":"2521 Pacific Hwy","plus4":null,"longitude":-117.173583,"id":"adzljlbhlmbn","state":"CA"},"type":"Feature","geometry":{"type":"Point","coordinates":[-117.173583,32.729871]}},{"properties":{"city":"San Diego","zip":"92101","latitude":32.739694,"fuel type code":"CNG","street address":"3535 India St","plus4":null,"longitude":-117.17785,"id":"adzljlcnznfr","state":"CA"},"type":"Feature","geometry":{"type":"Point","coordinates":[-117.17785,32.739694]}},{"properties":{"city":"Arlington","zip":"76011","latitude":32.74199,"fuel type code":"CNG","street address":"1731 E Division St","plus4":null,"longitude":-97.0842,"id":"adzljlgm8e64","state":"TX"},"type":"Feature","geometry":{"type":"Point","coordinates":[-97.0842,32.74199]}},{"properties":{"city":"Dallas","zip":"75215","latitude":32.75401,"fuel type code":"CNG","street address":"3701 S Lamar St","plus4":3687,"longitude":-96.7731,"id":"adzljlfqnuty","state":"TX"},"type":"Feature","geometry":{"type":"Point","coordinates":[-96.7731,32.75401]}},{"properties":{"city":"Dallas","zip":"75207","latitude":32.776194,"fuel type code":"CNG","street address":"801 S Riverfront","plus4":null,"longitude":-96.813944,"id":"adzljl93vii8","state":"TX"},"type":"Feature","geometry":{"type":"Point","coordinates":[-96.813944,32.776194]}},{"properties":{"city":"Dallas","zip":"75207","latitude":32.77751,"fuel type code":"CNG","street address":"100 N Riverfront Blvd","plus4":null,"longitude":-96.8131,"id":"adzljlm92jtk","state":"TX"},"type":"Feature","geometry":{"type":"Point","coordinates":[-96.8131,32.77751]}},{"properties":{"city":"Dallas","zip":"75226","latitude":32.78096,"fuel type code":"CNG","street address":"1616 Baylor St","plus4":null,"longitude":-96.7755,"id":"adzljln0u0ij","state":"TX"},"type":"Feature","geometry":{"type":"Point","coordinates":[-96.7755,32.78096]}},{"properties":{"city":"El Centro","zip":"92243","latitude":32.7949145,"fuel type code":"CNG","street address":"155 W Commercial Ave","plus4":2547,"longitude":-115.5478446,"id":"adzljlj4xm8v","state":"CA"},"type":"Feature","geometry":{"type":"Point","coordinates":[-115.5478446,32.7949145]}},{"properties":{"city":"Dallas","zip":"75247","latitude":32.8081622,"fuel type code":"CNG","street address":"4600 Irving Blvd","plus4":null,"longitude":-96.8973192,"id":"adzljlavu2md","state":"TX"},"type":"Feature","geometry":{"type":"Point","coordinates":[-96.8973192,32.8081622]}},{"properties":{"city":"Dallas","zip":"75247","latitude":32.8081622,"fuel type code":"LNG","street address":"4600 Irving Blvd","plus4":null,"longitude":-96.8973192,"id":"adzljlclfmnt","state":"TX"},"type":"Feature","geometry":{"type":"Point","coordinates":[-96.8973192,32.8081622]}},{"properties":{"city":"Irving","zip":"75061","latitude":32.81788,"fuel type code":"CNG","street address":"128 N Briery Rd","plus4":6326,"longitude":-96.9887,"id":"adzljlcxnq0n","state":"TX"},"type":"Feature","geometry":{"type":"Point","coordinates":[-96.9887,32.81788]}},{"properties":{"city":"Fort Worth","zip":"76161","latitude":32.82451,"fuel type code":"CNG","street address":"4600 Mark IV Pkwy","plus4":9998,"longitude":-97.3211,"id":"adzljlbtxql7","state":"TX"},"type":"Feature","geometry":{"type":"Point","coordinates":[-97.3211,32.82451]}},{"properties":{"city":"San Diego","zip":"92123","latitude":32.8335426,"fuel type code":"CNG","street address":"5488 Overland Ave","plus4":1205,"longitude":-117.1309719,"id":"adzljljfq530","state":"CA"},"type":"Feature","geometry":{"type":"Point","coordinates":[-117.1309719,32.8335426]}},{"properties":{"city":"Dallas","zip":"75235","latitude":32.83925,"fuel type code":"CNG","street address":"8000 Denton Dr","plus4":null,"longitude":-96.8533,"id":"adzljlergio5","state":"TX"},"type":"Feature","geometry":{"type":"Point","coordinates":[-96.8533,32.83925]}},{"properties":{"city":"Dallas","zip":"75218","latitude":32.84212,"fuel type code":"CNG","street address":"10325 Garland Rd","plus4":null,"longitude":-96.692969,"id":"adzljla7curf","state":"TX"},"type":"Feature","geometry":{"type":"Point","coordinates":[-96.692969,32.84212]}},{"properties":{"city":"Irving","zip":"75261","latitude":32.85365,"fuel type code":"CNG","street address":"2425 Rental Car Rd","plus4":null,"longitude":-97.035,"id":"adzljlah3xme","state":"TX"},"type":"Feature","geometry":{"type":"Point","coordinates":[-97.035,32.85365]}},{"properties":{"city":"Dallas","zip":"75220","latitude":32.85534,"fuel type code":"CNG","street address":"9811 Harry Hines Blvd","plus4":null,"longitude":-96.8799,"id":"adzljl7zmcmp","state":"TX"},"type":"Feature","geometry":{"type":"Point","coordinates":[-96.8799,32.85534]}},{"properties":{"city":"Irving","zip":"75261","latitude":32.876733,"fuel type code":"CNG","street address":"2424 5E Employee Rd","plus4":null,"longitude":-97.039256,"id":"adzljlaacjm8","state":"TX"},"type":"Feature","geometry":{"type":"Point","coordinates":[-97.039256,32.876733]}},{"properties":{"city":"San Diego","zip":"92121","latitude":32.8777027,"fuel type code":"CNG","street address":"6875 Consolidated Way","plus4":2602,"longitude":-117.1678449,"id":"adzljlfcd7zx","state":"CA"},"type":"Feature","geometry":{"type":"Point","coordinates":[-117.1678449,32.8777027]}},{"properties":{"city":"Garland","zip":"75042","latitude":32.89726,"fuel type code":"CNG","street address":"3526 Security St","plus4":7626,"longitude":-96.6838,"id":"adzljl8d33gr","state":"TX"},"type":"Feature","geometry":{"type":"Point","coordinates":[-96.6838,32.89726]}},{"properties":{"city":"Irving","zip":"75063","latitude":32.91089,"fuel type code":"CNG","street address":"7640 Esters Blvd","plus4":null,"longitude":-97.0063,"id":"adzljlclz88j","state":"TX"},"type":"Feature","geometry":{"type":"Point","coordinates":[-97.0063,32.91089]}},{"properties":{"city":"Sandersville","zip":"31082","latitude":32.959928,"fuel type code":"CNG","street address":"211 Triple V Cir","plus4":null,"longitude":-82.812369,"id":"adzljlamei42","state":"GA"},"type":"Feature","geometry":{"type":"Point","coordinates":[-82.812369,32.959928]}},{"properties":{"city":"Carlsbad","zip":"92008","latitude":33.1336625,"fuel type code":"CNG","street address":"602 Cannon Rd","plus4":4302,"longitude":-117.3320798,"id":"adzljldfba8r","state":"CA"},"type":"Feature","geometry":{"type":"Point","coordinates":[-117.3320798,33.1336625]}},{"properties":{"city":"Tuscaloosa","zip":"35405","latitude":33.16177,"fuel type code":"CNG","street address":"5220 Metro Park Dr","plus4":null,"longitude":-87.5568,"id":"adzljl7n3e85","state":"AL"},"type":"Feature","geometry":{"type":"Point","coordinates":[-87.5568,33.16177]}},{"properties":{"city":"Mesa","zip":"85212","latitude":33.342023,"fuel type code":"CNG","street address":"4040 S 80th St","plus4":null,"longitude":-111.663908,"id":"adzljlhyfumh","state":"AZ"},"type":"Feature","geometry":{"type":"Point","coordinates":[-111.663908,33.342023]}},{"properties":{"city":"Phoenix","zip":"85034","latitude":33.435582,"fuel type code":"CNG","street address":"2425 E Buckeye Rd","plus4":null,"longitude":-112.032864,"id":"adzljlcz0e18","state":"AZ"},"type":"Feature","geometry":{"type":"Point","coordinates":[-112.032864,33.435582]}},{"properties":{"city":"Phoenix","zip":"85034","latitude":33.437284,"fuel type code":"CNG","street address":"4202 E Sky Harbor Blvd","plus4":4921,"longitude":-111.987205,"id":"adzljllm9kr0","state":"AZ"},"type":"Feature","geometry":{"type":"Point","coordinates":[-111.987205,33.437284]}},{"properties":{"city":"Phoenix","zip":"85007","latitude":33.445755,"fuel type code":"CNG","street address":"1501 W Madison St","plus4":3207,"longitude":-112.091726,"id":"adzljlbtjsc8","state":"AZ"},"type":"Feature","geometry":{"type":"Point","coordinates":[-112.091726,33.445755]}},{"properties":{"city":"Phoenix","zip":"85043","latitude":33.46037,"fuel type code":"LNG","street address":"6700 W Latham","plus4":null,"longitude":-112.205,"id":"adzljl9bv66p","state":"AZ"},"type":"Feature","geometry":{"type":"Point","coordinates":[-112.205,33.46037]}},{"properties":{"city":"Temecula","zip":"92590","latitude":33.505146,"fuel type code":"CNG","street address":"27985 Diaz Rd","plus4":null,"longitude":-117.159346,"id":"adzljlfvd38w","state":"CA"},"type":"Feature","geometry":{"type":"Point","coordinates":[-117.159346,33.505146]}},{"properties":{"city":"Temecula","zip":"92590","latitude":33.505146,"fuel type code":"LNG","street address":"27985 Diaz Rd","plus4":null,"longitude":-117.159346,"id":"adzljlcr73zm","state":"CA"},"type":"Feature","geometry":{"type":"Point","coordinates":[-117.159346,33.505146]}},{"properties":{"city":"San Juan Capistrano","zip":"92675","latitude":33.520375,"fuel type code":"CNG","street address":"26571 Junipero Serra Rd","plus4":null,"longitude":-117.667327,"id":"adzljldsv7ob","state":"CA"},"type":"Feature","geometry":{"type":"Point","coordinates":[-117.667327,33.520375]}},{"properties":{"city":"Birmingham","zip":"35202","latitude":33.52875,"fuel type code":"CNG","street address":"3105 8th Ave N","plus4":null,"longitude":-86.7953,"id":"adzljlcdkfbb","state":"AL"},"type":"Feature","geometry":{"type":"Point","coordinates":[-86.7953,33.52875]}},{"properties":{"city":"San Juan Capistrano","zip":"92677","latitude":33.54745,"fuel type code":"CNG","street address":"28662 Camino Capistrano","plus4":null,"longitude":-117.67385,"id":"adzljl7f1l43","state":"CA"},"type":"Feature","geometry":{"type":"Point","coordinates":[-117.67385,33.54745]}},{"properties":{"city":"Birmingham","zip":"35207","latitude":33.5600129,"fuel type code":"LNG","street address":"224 Daniel Payne Dr","plus4":null,"longitude":-86.8397079,"id":"adzljlmp0ayh","state":"AL"},"type":"Feature","geometry":{"type":"Point","coordinates":[-86.8397079,33.5600129]}},{"properties":{"city":"Pell City","zip":"35125","latitude":33.60108,"fuel type code":"CNG","street address":"714 Industrial Park Dr","plus4":8002,"longitude":-86.2608,"id":"adzljlmxwnla","state":"AL"},"type":"Feature","geometry":{"type":"Point","coordinates":[-86.2608,33.60108]}},{"properties":{"city":"Phoenix","zip":"85029","latitude":33.601294,"fuel type code":"CNG","street address":"12641 N 39th Ave","plus4":null,"longitude":-112.141489,"id":"adzljlnag3m1","state":"AZ"},"type":"Feature","geometry":{"type":"Point","coordinates":[-112.141489,33.601294]}},{"properties":{"city":"Newport Beach","zip":"92663","latitude":33.632034,"fuel type code":"CNG","street address":"592 Superior Ave","plus4":null,"longitude":-117.92754,"id":"adzljlngo0cr","state":"CA"},"type":"Feature","geometry":{"type":"Point","coordinates":[-117.92754,33.632034]}},{"properties":{"city":"College Park","zip":"30337","latitude":33.632322,"fuel type code":"CNG","street address":"4555 Edison Dr","plus4":null,"longitude":-84.465897,"id":"adzljl8gavpm","state":"GA"},"type":"Feature","geometry":{"type":"Point","coordinates":[-84.465897,33.632322]}},{"properties":{"city":"Ellenwood","zip":"30294","latitude":33.65382,"fuel type code":"CNG","street address":"4203 Clevemont Rd","plus4":null,"longitude":-84.2557,"id":"adzljlkm3dis","state":"GA"},"type":"Feature","geometry":{"type":"Point","coordinates":[-84.2557,33.65382]}},{"properties":{"city":"Trussville","zip":"35173","latitude":33.65672,"fuel type code":"CNG","street address":"5347 Deerfoot Pkwy","plus4":null,"longitude":-86.5749,"id":"adzljlesoam9","state":"AL"},"type":"Feature","geometry":{"type":"Point","coordinates":[-86.5749,33.65672]}},{"properties":{"city":"Irvine","zip":"92618","latitude":33.675556,"fuel type code":"CNG","street address":"6427 Oak Canyon Rd","plus4":5202,"longitude":-117.764881,"id":"adzljlfas7lf","state":"CA"},"type":"Feature","geometry":{"type":"Point","coordinates":[-117.764881,33.675556]}},{"properties":{"city":"Fountain Valley","zip":"92708","latitude":33.693799,"fuel type code":"CNG","street address":"10844 Ellis Ave","plus4":7018,"longitude":-117.93665,"id":"adzljlgk9e7z","state":"CA"},"type":"Feature","geometry":{"type":"Point","coordinates":[-117.93665,33.693799]}},{"properties":{"city":"East Point","zip":"30344","latitude":33.694489,"fuel type code":"CNG","street address":"2192 Sylvan Rd","plus4":null,"longitude":-84.418012,"id":"adzljljs77e6","state":"GA"},"type":"Feature","geometry":{"type":"Point","coordinates":[-84.418012,33.694489]}},{"properties":{"city":"Santa Ana","zip":"92707","latitude":33.703865,"fuel type code":"CNG","street address":"3210 S Maple Ave","plus4":null,"longitude":-117.863761,"id":"adzljlg3oj2v","state":"CA"},"type":"Feature","geometry":{"type":"Point","coordinates":[-117.863761,33.703865]}},{"properties":{"city":"Indio","zip":"92201","latitude":33.7075839,"fuel type code":"CNG","street address":"83255 Highway 111","plus4":5647,"longitude":-116.2426723,"id":"adzljlkcf8q4","state":"CA"},"type":"Feature","geometry":{"type":"Point","coordinates":[-116.2426723,33.7075839]}},{"properties":{"city":"Lithonia","zip":"30058","latitude":33.712794,"fuel type code":"CNG","street address":"2490 Lithonia Industrial Blvd","plus4":null,"longitude":-84.125795,"id":"adzljl7kgacq","state":"GA"},"type":"Feature","geometry":{"type":"Point","coordinates":[-84.125795,33.712794]}},{"properties":{"city":"Huntington Beach","zip":"92647","latitude":33.71319,"fuel type code":"CNG","street address":"17121 Nichols St","plus4":null,"longitude":-117.996,"id":"adzljl81chc1","state":"CA"},"type":"Feature","geometry":{"type":"Point","coordinates":[-117.996,33.71319]}},{"properties":{"city":"Santa Ana","zip":"92705","latitude":33.7246409,"fuel type code":"CNG","street address":"1719 S Santa Fe St","plus4":null,"longitude":-117.8533879,"id":"adzljle3hnik","state":"CA"},"type":"Feature","geometry":{"type":"Point","coordinates":[-117.8533879,33.7246409]}},{"properties":{"city":"Thackerville","zip":"73459","latitude":33.735064,"fuel type code":"CNG","street address":"22983 Brownsprings Rd","plus4":null,"longitude":-97.143939,"id":"adzljla7ydxg","state":"OK"},"type":"Feature","geometry":{"type":"Point","coordinates":[-97.143939,33.735064]}},{"properties":{"city":"Hemet","zip":"92545","latitude":33.735948,"fuel type code":"CNG","street address":"700 Scaramella Cir","plus4":null,"longitude":-117.011173,"id":"adzljl86hox2","state":"CA"},"type":"Feature","geometry":{"type":"Point","coordinates":[-117.011173,33.735948]}},{"properties":{"city":"Palm Desert","zip":"92260","latitude":33.744481,"fuel type code":"CNG","street address":"41575 Eclectic St","plus4":1968,"longitude":-116.359946,"id":"adzljlmzskkc","state":"CA"},"type":"Feature","geometry":{"type":"Point","coordinates":[-116.359946,33.744481]}},{"properties":{"city":"Atlanta","zip":"30303","latitude":33.746059,"fuel type code":"CNG","street address":"340 Whitehall St SW","plus4":3718,"longitude":-84.398865,"id":"adzljlccbqcv","state":"GA"},"type":"Feature","geometry":{"type":"Point","coordinates":[-84.398865,33.746059]}},{"properties":{"city":"San Pedro","zip":"90731","latitude":33.7582189,"fuel type code":"CNG","street address":"755 W Capitol Dr","plus4":1226,"longitude":-118.294021,"id":"adzljllcs11t","state":"CA"},"type":"Feature","geometry":{"type":"Point","coordinates":[-118.294021,33.7582189]}},{"properties":{"city":"Long Beach","zip":"90822","latitude":33.768447,"fuel type code":"CNG","street address":"100 Magnolia Ave","plus4":null,"longitude":-118.197824,"id":"adzljlmjeenc","state":"CA"},"type":"Feature","geometry":{"type":"Point","coordinates":[-118.197824,33.768447]}},{"properties":{"city":"Seal Beach","zip":"90740","latitude":33.773534,"fuel type code":"CNG","street address":"3101 Beverly Manor Dr","plus4":2526,"longitude":-118.077463,"id":"adzljla278lf","state":"CA"},"type":"Feature","geometry":{"type":"Point","coordinates":[-118.077463,33.773534]}},{"properties":{"city":"Garden Grove","zip":"92843","latitude":33.774782,"fuel type code":"CNG","street address":"12931 Garden Grove Blvd","plus4":null,"longitude":-117.906598,"id":"adzljlgtvp3d","state":"CA"},"type":"Feature","geometry":{"type":"Point","coordinates":[-117.906598,33.774782]}},{"properties":{"city":"Garden Grove","zip":"92841","latitude":33.7790944,"fuel type code":"CNG","street address":"12698 Industry St","plus4":3918,"longitude":-118.008104,"id":"adzljlcczpcl","state":"CA"},"type":"Feature","geometry":{"type":"Point","coordinates":[-118.008104,33.7790944]}},{"properties":{"city":"Long Beach","zip":"90813","latitude":33.78311,"fuel type code":"CNG","street address":"3400 E I St","plus4":null,"longitude":-118.222,"id":"adzljliaz6jk","state":"CA"},"type":"Feature","geometry":{"type":"Point","coordinates":[-118.222,33.78311]}},{"properties":{"city":"Long Beach","zip":"90813","latitude":33.78311,"fuel type code":"LNG","street address":"3400 E I St","plus4":null,"longitude":-118.222,"id":"adzljlgyvj04","state":"CA"},"type":"Feature","geometry":{"type":"Point","coordinates":[-118.222,33.78311]}},{"properties":{"city":"Long Beach","zip":"90805","latitude":33.7844,"fuel type code":"LNG","street address":"1234 Cowles St","plus4":null,"longitude":-118.208,"id":"adzljl7h0vqc","state":"CA"},"type":"Feature","geometry":{"type":"Point","coordinates":[-118.208,33.7844]}},{"properties":{"city":"Cathedral City","zip":"92234","latitude":33.786462,"fuel type code":"CNG","street address":"36001 Date Palm Dr","plus4":null,"longitude":-116.45864,"id":"adzljliailx7","state":"CA"},"type":"Feature","geometry":{"type":"Point","coordinates":[-116.45864,33.786462]}},{"properties":{"city":"Perris","zip":"92570","latitude":33.79367,"fuel type code":"CNG","street address":"300 W Metz Rd","plus4":null,"longitude":-117.234,"id":"adzljlb6p3n8","state":"CA"},"type":"Feature","geometry":{"type":"Point","coordinates":[-117.234,33.79367]}},{"properties":{"city":"Anaheim","zip":"92802","latitude":33.795941,"fuel type code":"CNG","street address":"2100 S Harbor Blvd","plus4":null,"longitude":-117.914656,"id":"adzljlco56ya","state":"CA"},"type":"Feature","geometry":{"type":"Point","coordinates":[-117.914656,33.795941]}},{"properties":{"city":"Anaheim","zip":"92806","latitude":33.80086,"fuel type code":"CNG","street address":"1919 S State College Blvd","plus4":6114,"longitude":-117.89,"id":"adzljlkl5ck3","state":"CA"},"type":"Feature","geometry":{"type":"Point","coordinates":[-117.89,33.80086]}},{"properties":{"city":"Orange","zip":"92865","latitude":33.80376,"fuel type code":"CNG","street address":"2023 W Collins Ave","plus4":null,"longitude":-117.875,"id":"adzljleeca74","state":"CA"},"type":"Feature","geometry":{"type":"Point","coordinates":[-117.875,33.80376]}},{"properties":{"city":"Long Beach","zip":"90806","latitude":33.80515,"fuel type code":"LNG","street address":"2600 Temple Ave","plus4":null,"longitude":-118.159,"id":"adzljlndd6fb","state":"CA"},"type":"Feature","geometry":{"type":"Point","coordinates":[-118.159,33.80515]}},{"properties":{"city":"Carson","zip":"90745","latitude":33.807401,"fuel type code":"CNG","street address":"23924 Figueroa St","plus4":null,"longitude":-118.28404,"id":"adzljle00828","state":"CA"},"type":"Feature","geometry":{"type":"Point","coordinates":[-118.28404,33.807401]}},{"properties":{"city":"Long Beach","zip":"90806","latitude":33.810964,"fuel type code":"CNG","street address":"2400 E Spring St","plus4":null,"longitude":-118.163013,"id":"adzljl8tutgp","state":"CA"},"type":"Feature","geometry":{"type":"Point","coordinates":[-118.163013,33.810964]}},{"properties":{"city":"Thousand Palms","zip":"92276","latitude":33.8153387,"fuel type code":"CNG","street address":"32505 Harry Oliver Tr","plus4":3501,"longitude":-116.3942685,"id":"adzljlmh2vgo","state":"CA"},"type":"Feature","geometry":{"type":"Point","coordinates":[-116.3942685,33.8153387]}},{"properties":{"city":"Palm Springs","zip":"92262","latitude":33.819242,"fuel type code":"CNG","street address":"3400 E Tahquitz Canyon Way","plus4":6966,"longitude":-116.509117,"id":"adzljlg7q67u","state":"CA"},"type":"Feature","geometry":{"type":"Point","coordinates":[-116.509117,33.819242]}},{"properties":{"city":"Carson","zip":"90810","latitude":33.83207,"fuel type code":"LNG","street address":"2045 Carson St","plus4":null,"longitude":-118.235469,"id":"adzljlmzbaod","state":"CA"},"type":"Feature","geometry":{"type":"Point","coordinates":[-118.235469,33.83207]}},{"properties":{"city":"Tucker","zip":"30084","latitude":33.836213,"fuel type code":"CNG","street address":"1833 Tucker Industrial Rd","plus4":null,"longitude":-84.202982,"id":"adzljl8g2e99","state":"GA"},"type":"Feature","geometry":{"type":"Point","coordinates":[-84.202982,33.836213]}},{"properties":{"city":"Torrance","zip":"90503","latitude":33.846788,"fuel type code":"CNG","street address":"20350 Madrona Ave","plus4":null,"longitude":-118.344743,"id":"adzljlftvk3g","state":"CA"},"type":"Feature","geometry":{"type":"Point","coordinates":[-118.344743,33.846788]}},{"properties":{"city":"Placentia","zip":"92870","latitude":33.86304,"fuel type code":"CNG","street address":"2999 E La Jolla St","plus4":null,"longitude":-117.865,"id":"adzljlb2p5hp","state":"CA"},"type":"Feature","geometry":{"type":"Point","coordinates":[-117.865,33.86304]}},{"properties":{"city":"Moreno Valley","zip":"92551","latitude":33.86373,"fuel type code":"CNG","street address":"17700 Indian Ave","plus4":null,"longitude":-117.232,"id":"adzljll37ccf","state":"CA"},"type":"Feature","geometry":{"type":"Point","coordinates":[-117.232,33.86373]}},{"properties":{"city":"Fullerton","zip":"92833","latitude":33.869787,"fuel type code":"CNG","street address":"1600 W Commonwealth Ave","plus4":null,"longitude":-117.952097,"id":"adzljlnd7ose","state":"CA"},"type":"Feature","geometry":{"type":"Point","coordinates":[-117.952097,33.869787]}},{"properties":{"city":"Chamblee","zip":"30341","latitude":33.87179,"fuel type code":"CNG","street address":"4420 Buford Hwy","plus4":null,"longitude":-84.2975,"id":"adzljl8bfdx5","state":"GA"},"type":"Feature","geometry":{"type":"Point","coordinates":[-84.2975,33.87179]}},{"properties":{"city":"Corona","zip":"92880","latitude":33.8864719,"fuel type code":"CNG","street address":"470 N Cota St","plus4":null,"longitude":-117.5716371,"id":"adzljlmjm1xf","state":"CA"},"type":"Feature","geometry":{"type":"Point","coordinates":[-117.5716371,33.8864719]}},{"properties":{"city":"Bellflower","zip":"90706","latitude":33.8945491,"fuel type code":"CNG","street address":"15330 Woodruff Ave","plus4":4010,"longitude":-118.1168731,"id":"adzljlbcrjqg","state":"CA"},"type":"Feature","geometry":{"type":"Point","coordinates":[-118.1168731,33.8945491]}},{"properties":{"city":"Compton","zip":"90221","latitude":33.8996925,"fuel type code":"CNG","street address":"1471 E Elm St","plus4":2253,"longitude":-118.2072812,"id":"adzljllkou0k","state":"CA"},"type":"Feature","geometry":{"type":"Point","coordinates":[-118.2072812,33.8996925]}},{"properties":{"city":"Banning","zip":"92220","latitude":33.9217465,"fuel type code":"CNG","street address":"176 E Lincoln St","plus4":4962,"longitude":-116.8745151,"id":"adzljlb293ld","state":"CA"},"type":"Feature","geometry":{"type":"Point","coordinates":[-116.8745151,33.9217465]}},{"properties":{"city":"Riverside","zip":"92504","latitude":33.9229036,"fuel type code":"CNG","street address":"8095 Lincoln Ave","plus4":null,"longitude":-117.4106858,"id":"adzljlfnv6d4","state":"CA"},"type":"Feature","geometry":{"type":"Point","coordinates":[-117.4106858,33.9229036]}},{"properties":{"city":"Downey","zip":"90241","latitude":33.932732,"fuel type code":"CNG","street address":"9240 E Firestone Blvd","plus4":5504,"longitude":-118.1184288,"id":"adzljldj7nr0","state":"CA"},"type":"Feature","geometry":{"type":"Point","coordinates":[-118.1184288,33.932732]}},{"properties":{"city":"Los Angeles","zip":"90045","latitude":33.94165802,"fuel type code":"CNG","street address":"10400 Aviation Blvd","plus4":5906,"longitude":-118.3780136,"id":"adzljledaoyx","state":"CA"},"type":"Feature","geometry":{"type":"Point","coordinates":[-118.3780136,33.94165802]}},{"properties":{"city":"Desert Hot Springs","zip":"92240","latitude":33.94317,"fuel type code":"CNG","street address":"14501 Park Ln","plus4":null,"longitude":-116.498,"id":"adzljlep7z5e","state":"CA"},"type":"Feature","geometry":{"type":"Point","coordinates":[-116.498,33.94317]}},{"properties":{"city":"Moreno Valley","zip":"92557","latitude":33.944493,"fuel type code":"CNG","street address":"12125 Day St","plus4":null,"longitude":-117.280349,"id":"adzljlhxq17l","state":"CA"},"type":"Feature","geometry":{"type":"Point","coordinates":[-117.280349,33.944493]}},{"properties":{"city":"Los Angeles","zip":"90045","latitude":33.95125,"fuel type code":"CNG","street address":"9225 Aviation Blvd","plus4":null,"longitude":-118.378006,"id":"adzljl8r1lj0","state":"CA"},"type":"Feature","geometry":{"type":"Point","coordinates":[-118.378006,33.95125]}},{"properties":{"city":"Beaumont","zip":"92223","latitude":33.9542894,"fuel type code":"CNG","street address":"1001 Cougar Way","plus4":null,"longitude":-116.9677827,"id":"adzljlgog0jb","state":"CA"},"type":"Feature","geometry":{"type":"Point","coordinates":[-116.9677827,33.9542894]}},{"properties":{"city":"Whittier","zip":"90602","latitude":33.95486,"fuel type code":"CNG","street address":"13200 Mulberry Dr","plus4":null,"longitude":-118.045,"id":"adzljlfwla1c","state":"CA"},"type":"Feature","geometry":{"type":"Point","coordinates":[-118.045,33.95486]}},{"properties":{"city":"Pico Rivera","zip":"90660","latitude":33.9680289,"fuel type code":"CNG","street address":"8101 S Rosemead Blvd","plus4":5100,"longitude":-118.106616,"id":"adzljljfmwlk","state":"CA"},"type":"Feature","geometry":{"type":"Point","coordinates":[-118.106616,33.9680289]}},{"properties":{"city":"Riverside","zip":"92507","latitude":33.9715233,"fuel type code":"CNG","street address":"3077 Cottage St","plus4":5534,"longitude":-117.3717959,"id":"adzljlim1q30","state":"CA"},"type":"Feature","geometry":{"type":"Point","coordinates":[-117.3717959,33.9715233]}},{"properties":{"city":"Diamond Bar","zip":"91765","latitude":34.00211,"fuel type code":"CNG","street address":"21865 E Copley Dr","plus4":4182,"longitude":-117.829,"id":"adzljl7czdxr","state":"CA"},"type":"Feature","geometry":{"type":"Point","coordinates":[-117.829,34.00211]}},{"properties":{"city":"Rowland Heights","zip":"91748","latitude":34.00341,"fuel type code":"CNG","street address":"1037 Hatcher St","plus4":null,"longitude":-117.925,"id":"adzljli8y9fw","state":"CA"},"type":"Feature","geometry":{"type":"Point","coordinates":[-117.925,34.00341]}},{"properties":{"city":"Riverside","zip":"92509","latitude":34.023199,"fuel type code":"LNG","street address":"1830 Agua Mansa Rd","plus4":null,"longitude":-117.380669,"id":"adzljlfk3tbl","state":"CA"},"type":"Feature","geometry":{"type":"Point","coordinates":[-117.380669,34.023199]}},{"properties":{"city":"Riverside","zip":"92509","latitude":34.023199,"fuel type code":"CNG","street address":"1830 Agua Mansa Rd","plus4":null,"longitude":-117.380669,"id":"adzljl840p6q","state":"CA"},"type":"Feature","geometry":{"type":"Point","coordinates":[-117.380669,34.023199]}},{"properties":{"city":"Whittier","zip":"90601","latitude":34.02413,"fuel type code":"CNG","street address":"2800 Workman Mill Rd","plus4":null,"longitude":-118.033024,"id":"adzljllud6lf","state":"CA"},"type":"Feature","geometry":{"type":"Point","coordinates":[-118.033024,34.02413]}},{"properties":{"city":"Whittier","zip":"90601","latitude":34.02413,"fuel type code":"LNG","street address":"2800 Workman Mill Rd","plus4":null,"longitude":-118.033024,"id":"adzljlbos0z1","state":"CA"},"type":"Feature","geometry":{"type":"Point","coordinates":[-118.033024,34.02413]}},{"properties":{"city":"Industry","zip":"91746","latitude":34.0296906,"fuel type code":"CNG","street address":"13130 Crossroads Pkwy S","plus4":null,"longitude":-118.0120304,"id":"adzljle7434a","state":"CA"},"type":"Feature","geometry":{"type":"Point","coordinates":[-118.0120304,34.0296906]}},{"properties":{"city":"Industry","zip":"91746","latitude":34.0296906,"fuel type code":"LNG","street address":"13130 Crossroads Pkwy S","plus4":null,"longitude":-118.0120304,"id":"adzljllni338","state":"CA"},"type":"Feature","geometry":{"type":"Point","coordinates":[-118.0120304,34.0296906]}},{"properties":{"city":"Santa Monica","zip":"90404","latitude":34.031049,"fuel type code":"CNG","street address":"1701 Stewart St","plus4":4021,"longitude":-118.466894,"id":"adzljlcomybs","state":"CA"},"type":"Feature","geometry":{"type":"Point","coordinates":[-118.466894,34.031049]}},{"properties":{"city":"Ontario","zip":"91761","latitude":34.0355996,"fuel type code":"LNG","street address":"1735 S Turner Ave","plus4":3672,"longitude":-117.5846418,"id":"adzljl8ofudv","state":"CA"},"type":"Feature","geometry":{"type":"Point","coordinates":[-117.5846418,34.0355996]}},{"properties":{"city":"Ontario","zip":"91761","latitude":34.0355996,"fuel type code":"CNG","street address":"1735 S Turner Ave","plus4":null,"longitude":-117.5846418,"id":"adzljldnkotf","state":"CA"},"type":"Feature","geometry":{"type":"Point","coordinates":[-117.5846418,34.0355996]}},{"properties":{"city":"Ontario","zip":"91761","latitude":34.04707,"fuel type code":"CNG","street address":"1440 S Cucamonga St","plus4":null,"longitude":-117.634,"id":"adzljlk1rk39","state":"CA"},"type":"Feature","geometry":{"type":"Point","coordinates":[-117.634,34.04707]}},{"properties":{"city":"Socorro","zip":"87801","latitude":34.04919,"fuel type code":"CNG","street address":"3000 Old US Highway 85","plus4":null,"longitude":-106.892,"id":"adzljlh4202w","state":"NM"},"type":"Feature","geometry":{"type":"Point","coordinates":[-106.892,34.04919]}},{"properties":{"city":"Pomona","zip":"91766","latitude":34.059287,"fuel type code":"CNG","street address":"1670 E 1st St","plus4":null,"longitude":-117.722129,"id":"adzljlfi5pj2","state":"CA"},"type":"Feature","geometry":{"type":"Point","coordinates":[-117.722129,34.059287]}},{"properties":{"city":"Los Angeles","zip":"90035","latitude":34.059388,"fuel type code":"CNG","street address":"1004 S La Cienega Blvd","plus4":null,"longitude":-118.375858,"id":"adzljlif2fx1","state":"CA"},"type":"Feature","geometry":{"type":"Point","coordinates":[-118.375858,34.059388]}},{"properties":{"city":"Los Angeles","zip":"90012","latitude":34.060172,"fuel type code":"CNG","street address":"1055 N Alameda St","plus4":null,"longitude":-118.236898,"id":"adzljllpjyl2","state":"CA"},"type":"Feature","geometry":{"type":"Point","coordinates":[-118.236898,34.060172]}},{"properties":{"city":"Ontario","zip":"91761","latitude":34.060911,"fuel type code":"CNG","street address":"3350 John Bangs Dr","plus4":null,"longitude":-117.578862,"id":"adzljlbwep02","state":"CA"},"type":"Feature","geometry":{"type":"Point","coordinates":[-117.578862,34.060911]}},{"properties":{"city":"Los Angeles","zip":"90095","latitude":34.067611,"fuel type code":"CNG","street address":"741 Charles Young Dr","plus4":null,"longitude":-118.447872,"id":"adzljlfkpfd8","state":"CA"},"type":"Feature","geometry":{"type":"Point","coordinates":[-118.447872,34.067611]}},{"properties":{"city":"Covina","zip":"91723","latitude":34.091246,"fuel type code":"CNG","street address":"534 N Barranca Ave","plus4":1227,"longitude":-117.8813285,"id":"adzljlialtaa","state":"CA"},"type":"Feature","geometry":{"type":"Point","coordinates":[-117.8813285,34.091246]}},{"properties":{"city":"San Bernardino","zip":"92408","latitude":34.0983474,"fuel type code":"CNG","street address":"187 S Pershing Ave","plus4":null,"longitude":-117.2884819,"id":"adzljl9xg31c","state":"CA"},"type":"Feature","geometry":{"type":"Point","coordinates":[-117.2884819,34.0983474]}},{"properties":{"city":"Arcadia","zip":"91706","latitude":34.105711,"fuel type code":"CNG","street address":"5640 Peck Rd","plus4":null,"longitude":-118.007122,"id":"adzljln5218v","state":"CA"},"type":"Feature","geometry":{"type":"Point","coordinates":[-118.007122,34.105711]}},{"properties":{"city":"Yucca Valley","zip":"92284","latitude":34.117016,"fuel type code":"CNG","street address":"7485 Kickapoo Trail","plus4":3133,"longitude":-116.457548,"id":"adzljlgojaz8","state":"CA"},"type":"Feature","geometry":{"type":"Point","coordinates":[-116.457548,34.117016]}},{"properties":{"city":"Glendale","zip":"91204","latitude":34.123589,"fuel type code":"CNG","street address":"1761 Gardena Ave","plus4":null,"longitude":-118.258046,"id":"adzljlknsxa2","state":"CA"},"type":"Feature","geometry":{"type":"Point","coordinates":[-118.258046,34.123589]}},{"properties":{"city":"Azusa","zip":"91702","latitude":34.13858,"fuel type code":"CNG","street address":"950 N Todd Ave","plus4":null,"longitude":-117.923815,"id":"adzljlkn597c","state":"CA"},"type":"Feature","geometry":{"type":"Point","coordinates":[-117.923815,34.13858]}},{"properties":{"city":"Pasadena","zip":"91107","latitude":34.149944,"fuel type code":"CNG","street address":"3530 E Foothill Blvd","plus4":null,"longitude":-118.077452,"id":"adzljllr159w","state":"CA"},"type":"Feature","geometry":{"type":"Point","coordinates":[-118.077452,34.149944]}},{"properties":{"city":"Burbank","zip":"91502","latitude":34.182974,"fuel type code":"CNG","street address":"810 N Lake St","plus4":null,"longitude":-118.319506,"id":"adzljl7fx6uu","state":"CA"},"type":"Feature","geometry":{"type":"Point","coordinates":[-118.319506,34.182974]}},{"properties":{"city":"Oxnard","zip":"93030","latitude":34.1916277,"fuel type code":"CNG","street address":"1650 Patton Ct","plus4":7326,"longitude":-119.1611581,"id":"adzljl9rbjck","state":"CA"},"type":"Feature","geometry":{"type":"Point","coordinates":[-119.1611581,34.1916277]}},{"properties":{"city":"Ardmore","zip":"73401","latitude":34.2022008,"fuel type code":"CNG","street address":"1995 Veterans Blvd","plus4":9516,"longitude":-97.1529304,"id":"adzljl7se0yt","state":"OK"},"type":"Feature","geometry":{"type":"Point","coordinates":[-97.1529304,34.2022008]}},{"properties":{"city":"Thousand Oaks","zip":"91320","latitude":34.20632,"fuel type code":"CNG","street address":"1993 Rancho Conejo Blvd","plus4":1425,"longitude":-118.936,"id":"adzljlaunq2i","state":"CA"},"type":"Feature","geometry":{"type":"Point","coordinates":[-118.936,34.20632]}},{"properties":{"city":"Van Nuys","zip":"91406","latitude":34.2084297,"fuel type code":"CNG","street address":"16645 Saticoy St","plus4":2837,"longitude":-118.4941828,"id":"adzljlnl8hxh","state":"CA"},"type":"Feature","geometry":{"type":"Point","coordinates":[-118.4941828,34.2084297]}},{"properties":{"city":"Canoga Park","zip":"91303","latitude":34.210621,"fuel type code":"CNG","street address":"7711 Canoga Ave","plus4":null,"longitude":-118.59773,"id":"adzljles1xb5","state":"CA"},"type":"Feature","geometry":{"type":"Point","coordinates":[-118.59773,34.210621]}},{"properties":{"city":"San Fernando","zip":"91340","latitude":34.2837,"fuel type code":"CNG","street address":"120 N Macneil St","plus4":null,"longitude":-118.439,"id":"adzljlgr5qd2","state":"CA"},"type":"Feature","geometry":{"type":"Point","coordinates":[-118.439,34.2837]}},{"properties":{"city":"Frederick","zip":"73542","latitude":34.3849653,"fuel type code":"CNG","street address":"507 S Main St","plus4":6801,"longitude":-99.0169837,"id":"adzljle3tffv","state":"OK"},"type":"Feature","geometry":{"type":"Point","coordinates":[-99.0169837,34.3849653]}},{"properties":{"city":"Santa Barbara","zip":"93103","latitude":34.4215863,"fuel type code":"CNG","street address":"219 N Quarantina St","plus4":3251,"longitude":-119.6839537,"id":"adzljlmrmj4q","state":"CA"},"type":"Feature","geometry":{"type":"Point","coordinates":[-119.6839537,34.4215863]}},{"properties":{"city":"Santa Clarita","zip":"91355","latitude":34.448811,"fuel type code":"CNG","street address":"28273 Alta Vista Ave","plus4":null,"longitude":-118.575108,"id":"adzljllndcfe","state":"CA"},"type":"Feature","geometry":{"type":"Point","coordinates":[-118.575108,34.448811]}},{"properties":{"city":"Duncan","zip":"73533","latitude":34.498598,"fuel type code":"CNG","street address":"7301 N Highway 81","plus4":null,"longitude":-97.968797,"id":"adzljlbxdqf6","state":"OK"},"type":"Feature","geometry":{"type":"Point","coordinates":[-97.968797,34.498598]}},{"properties":{"city":"Victorville","zip":"92393","latitude":34.5104577,"fuel type code":"CNG","street address":"14201 McArt Rd","plus4":null,"longitude":-117.3323604,"id":"adzljlm2nt85","state":"CA"},"type":"Feature","geometry":{"type":"Point","coordinates":[-117.3323604,34.5104577]}},{"properties":{"city":"Victorville","zip":"92392","latitude":34.5392092,"fuel type code":"CNG","street address":"16690 D St","plus4":null,"longitude":-117.2964992,"id":"adzljlko445b","state":"CA"},"type":"Feature","geometry":{"type":"Point","coordinates":[-117.2964992,34.5392092]}},{"properties":{"city":"Palmdale","zip":"93551","latitude":34.59326,"fuel type code":"CNG","street address":"455 Auto Vista Dr","plus4":null,"longitude":-118.138,"id":"adzljllhknfm","state":"CA"},"type":"Feature","geometry":{"type":"Point","coordinates":[-118.138,34.59326]}},{"properties":{"city":"Altus","zip":"73521","latitude":34.64416,"fuel type code":"CNG","street address":"619 N Main St","plus4":null,"longitude":-99.3342,"id":"adzljlivtuv5","state":"OK"},"type":"Feature","geometry":{"type":"Point","coordinates":[-99.3342,34.64416]}},{"properties":{"city":"Lancaster","zip":"93534","latitude":34.64942,"fuel type code":"CNG","street address":"670 7th St W","plus4":7117,"longitude":-118.143,"id":"adzljljtqhh8","state":"CA"},"type":"Feature","geometry":{"type":"Point","coordinates":[-118.143,34.64942]}},{"properties":{"city":"Pauls Valley","zip":"73075","latitude":34.7046042,"fuel type code":"CNG","street address":"1701 W Airline Rd","plus4":3416,"longitude":-97.2484811,"id":"adzljlcz83g0","state":"OK"},"type":"Feature","geometry":{"type":"Point","coordinates":[-97.2484811,34.7046042]}},{"properties":{"city":"Pauls Valley","zip":"73075","latitude":34.70462,"fuel type code":"CNG","street address":"1601 W Airline Rd","plus4":null,"longitude":-97.2485,"id":"adzljldvrua4","state":"OK"},"type":"Feature","geometry":{"type":"Point","coordinates":[-97.2485,34.70462]}},{"properties":{"city":"Lawton","zip":"73538","latitude":34.71366,"fuel type code":"CNG","street address":"24169 Highway 49","plus4":null,"longitude":-98.4017,"id":"adzljlc85n2e","state":"OK"},"type":"Feature","geometry":{"type":"Point","coordinates":[-98.4017,34.71366]}},{"properties":{"city":"North Little Rock","zip":"72114","latitude":34.7683884,"fuel type code":"CNG","street address":"320 Curtis Sykes Dr","plus4":null,"longitude":-92.2697479,"id":"adzljl9fm1el","state":"AR"},"type":"Feature","geometry":{"type":"Point","coordinates":[-92.2697479,34.7683884]}},{"properties":{"city":"Ada","zip":"74820","latitude":34.7737046,"fuel type code":"CNG","street address":"201 Latta Rd","plus4":null,"longitude":-96.6968838,"id":"adzljlhfb9yi","state":"OK"},"type":"Feature","geometry":{"type":"Point","coordinates":[-96.6968838,34.7737046]}},{"properties":{"city":"Lindsay","zip":"73052","latitude":34.82795,"fuel type code":"CNG","street address":"1407 SE 4th St","plus4":null,"longitude":-97.5984,"id":"adzljl7ua62l","state":"OK"},"type":"Feature","geometry":{"type":"Point","coordinates":[-97.5984,34.82795]}},{"properties":{"city":"Greenville","zip":"29607","latitude":34.82922,"fuel type code":"CNG","street address":"100 Woodruff Industrial Ln","plus4":3433,"longitude":-82.309,"id":"adzljldo2315","state":"SC"},"type":"Feature","geometry":{"type":"Point","coordinates":[-82.309,34.82922]}},{"properties":{"city":"Barstow","zip":"92311","latitude":34.886448,"fuel type code":"CNG","street address":"100 N Sandstone Ct","plus4":null,"longitude":-117.079417,"id":"adzljlbn8zv7","state":"CA"},"type":"Feature","geometry":{"type":"Point","coordinates":[-117.079417,34.886448]}},{"properties":{"city":"Barstow","zip":"92311","latitude":34.886448,"fuel type code":"LNG","street address":"100 N Sandstone Ct","plus4":null,"longitude":-117.079417,"id":"adzljlgqkstp","state":"CA"},"type":"Feature","geometry":{"type":"Point","coordinates":[-117.079417,34.886448]}},{"properties":{"city":"Wilburton","zip":"74578","latitude":34.89879,"fuel type code":"CNG","street address":"1605 Highway 2 S","plus4":null,"longitude":-95.323,"id":"adzljl8lx5h2","state":"OK"},"type":"Feature","geometry":{"type":"Point","coordinates":[-95.323,34.89879]}},{"properties":{"city":"Rock Hill","zip":"29730","latitude":34.92142,"fuel type code":"CNG","street address":"757 S Anderson Rd","plus4":null,"longitude":-80.9928,"id":"adzljldiay78","state":"SC"},"type":"Feature","geometry":{"type":"Point","coordinates":[-80.9928,34.92142]}},{"properties":{"city":"Rock Hill","zip":"29730","latitude":34.93586,"fuel type code":"CNG","street address":"975 W Main St","plus4":null,"longitude":-81.0424,"id":"adzljllivgtu","state":"SC"},"type":"Feature","geometry":{"type":"Point","coordinates":[-81.0424,34.93586]}},{"properties":{"city":"Fayatteville","zip":"28306","latitude":35.026178,"fuel type code":"CNG","street address":"1069 Wilkes Rd","plus4":null,"longitude":-78.867459,"id":"adzljlmlddp2","state":"NC"},"type":"Feature","geometry":{"type":"Point","coordinates":[-78.867459,35.026178]}},{"properties":{"city":"Chickasha","zip":"73018","latitude":35.0373,"fuel type code":"CNG","street address":"1326 S 4th St","plus4":null,"longitude":-97.9372,"id":"adzljlhhpo6o","state":"OK"},"type":"Feature","geometry":{"type":"Point","coordinates":[-97.9372,35.0373]}},{"properties":{"city":"Albuquerque","zip":"87106","latitude":35.049344,"fuel type code":"CNG","street address":"2200 Sunport Blvd SE","plus4":null,"longitude":-106.620964,"id":"adzljli8caud","state":"NM"},"type":"Feature","geometry":{"type":"Point","coordinates":[-106.620964,35.049344]}},{"properties":{"city":"Anadarko","zip":"73005","latitude":35.0723662,"fuel type code":"CNG","street address":"1700 E Central","plus4":null,"longitude":-98.2160689,"id":"adzljlepxi0y","state":"OK"},"type":"Feature","geometry":{"type":"Point","coordinates":[-98.2160689,35.0723662]}},{"properties":{"city":"Albuquerque","zip":"87131","latitude":35.09092,"fuel type code":"CNG","street address":"1140 University Blvd NE","plus4":null,"longitude":-106.625,"id":"adzljlc2rzzu","state":"NM"},"type":"Feature","geometry":{"type":"Point","coordinates":[-106.625,35.09092]}},{"properties":{"city":"California City","zip":"93505","latitude":35.10182,"fuel type code":"CNG","street address":"7800 Moss Ave","plus4":null,"longitude":-117.994,"id":"adzljl7bhh09","state":"CA"},"type":"Feature","geometry":{"type":"Point","coordinates":[-117.994,35.10182]}},{"properties":{"city":"Norman","zip":"73072","latitude":35.1822618,"fuel type code":"CNG","street address":"5317 SE 44th St","plus4":null,"longitude":-97.5213157,"id":"adzljl7j0ra1","state":"OK"},"type":"Feature","geometry":{"type":"Point","coordinates":[-97.5213157,35.1822618]}},{"properties":{"city":"Charlotte","zip":"28217","latitude":35.18361,"fuel type code":"CNG","street address":"112 Verbena St","plus4":null,"longitude":-80.8798,"id":"adzljlacaw7c","state":"NC"},"type":"Feature","geometry":{"type":"Point","coordinates":[-80.8798,35.18361]}},{"properties":{"city":"Norman","zip":"73069","latitude":35.2256691,"fuel type code":"CNG","street address":"605 N Berry Rd","plus4":7541,"longitude":-97.4589952,"id":"adzljlm2b88r","state":"OK"},"type":"Feature","geometry":{"type":"Point","coordinates":[-97.4589952,35.2256691]}},{"properties":{"city":"Norman","zip":"73019","latitude":35.2463885,"fuel type code":"CNG","street address":"2351 Goddard Ave","plus4":null,"longitude":-97.4616686,"id":"adzljlgdmovc","state":"OK"},"type":"Feature","geometry":{"type":"Point","coordinates":[-97.4616686,35.2463885]}},{"properties":{"city":"Gastonia","zip":"28056","latitude":35.25171,"fuel type code":"CNG","street address":"800 Gaston Rd","plus4":9486,"longitude":-81.0947,"id":"adzljld1hvuf","state":"NC"},"type":"Feature","geometry":{"type":"Point","coordinates":[-81.0947,35.25171]}},{"properties":{"city":"San Luis Obispo","zip":"93401","latitude":35.2542,"fuel type code":"CNG","street address":"75 Prado Rd","plus4":7314,"longitude":-120.671,"id":"adzljlh8zqec","state":"CA"},"type":"Feature","geometry":{"type":"Point","coordinates":[-120.671,35.2542]}},{"properties":{"city":"Hendersonville","zip":"28792","latitude":35.31595,"fuel type code":"CNG","street address":"320 Williams St","plus4":null,"longitude":-82.4534,"id":"adzljllt333v","state":"NC"},"type":"Feature","geometry":{"type":"Point","coordinates":[-82.4534,35.31595]}},{"properties":{"city":"Bakersfield","zip":"93313","latitude":35.31762,"fuel type code":"CNG","street address":"4101 Wible Rd","plus4":2621,"longitude":-119.039,"id":"adzljljo94ul","state":"CA"},"type":"Feature","geometry":{"type":"Point","coordinates":[-119.039,35.31762]}},{"properties":{"city":"Moore","zip":"73160","latitude":35.3208934,"fuel type code":"CNG","street address":"1919 S Eastern Ave","plus4":null,"longitude":-97.4767455,"id":"adzljlmn7tx2","state":"OK"},"type":"Feature","geometry":{"type":"Point","coordinates":[-97.4767455,35.3208934]}},{"properties":{"city":"Arkoma","zip":"74901","latitude":35.3214,"fuel type code":"CNG","street address":"4419 Main St","plus4":null,"longitude":-94.4414,"id":"adzljlfgunt0","state":"OK"},"type":"Feature","geometry":{"type":"Point","coordinates":[-94.4414,35.3214]}},{"properties":{"city":"Dudley","zip":"28333","latitude":35.3286244,"fuel type code":"CNG","street address":"250 Five Points Rd","plus4":null,"longitude":-78.036081,"id":"adzljlmg0tpz","state":"NC"},"type":"Feature","geometry":{"type":"Point","coordinates":[-78.036081,35.3286244]}},{"properties":{"city":"Shawnee","zip":"74801","latitude":35.346159,"fuel type code":"CNG","street address":"1444 N Kickapoo St","plus4":4826,"longitude":-96.9299337,"id":"adzljlfwsh3i","state":"OK"},"type":"Feature","geometry":{"type":"Point","coordinates":[-96.9299337,35.346159]}},{"properties":{"city":"Bakersfield","zip":"93307","latitude":35.3481282,"fuel type code":"CNG","street address":"705 S Union Ave","plus4":null,"longitude":-119.0029298,"id":"adzljl89ik7e","state":"CA"},"type":"Feature","geometry":{"type":"Point","coordinates":[-119.0029298,35.3481282]}},{"properties":{"city":"Fort Smith","zip":"72903","latitude":35.3628559,"fuel type code":"CNG","street address":"2100 S Waldron Rd","plus4":null,"longitude":-94.3728829,"id":"adzljlgr4g9d","state":"AR"},"type":"Feature","geometry":{"type":"Point","coordinates":[-94.3728829,35.3628559]}},{"properties":{"city":"Oklahoma City","zip":"73159","latitude":35.37763,"fuel type code":"CNG","street address":"3233 SW 89th St","plus4":null,"longitude":-97.5738,"id":"adzljlk427ab","state":"OK"},"type":"Feature","geometry":{"type":"Point","coordinates":[-97.5738,35.37763]}},{"properties":{"city":"Damascus","zip":"72039","latitude":35.385825,"fuel type code":"CNG","street address":"16038 Highway 65 S","plus4":null,"longitude":-92.389369,"id":"adzljlmznn4r","state":"AR"},"type":"Feature","geometry":{"type":"Point","coordinates":[-92.389369,35.385825]}},{"properties":{"city":"Mustang","zip":"73064","latitude":35.3916647,"fuel type code":"CNG","street address":"680 E Highway 152","plus4":null,"longitude":-97.7117062,"id":"adzljlc9qcts","state":"OK"},"type":"Feature","geometry":{"type":"Point","coordinates":[-97.7117062,35.3916647]}},{"properties":{"city":"Elk City","zip":"73644","latitude":35.4056588,"fuel type code":"CNG","street address":"515 S Main St","plus4":null,"longitude":-99.4052835,"id":"adzljljgdcd2","state":"OK"},"type":"Feature","geometry":{"type":"Point","coordinates":[-99.4052835,35.4056588]}},{"properties":{"city":"Oklahoma City","zip":"73159","latitude":35.406035,"fuel type code":"CNG","street address":"4424 Amelia Earhart Dr","plus4":null,"longitude":-97.600483,"id":"adzljlgfy4a3","state":"OK"},"type":"Feature","geometry":{"type":"Point","coordinates":[-97.600483,35.406035]}},{"properties":{"city":"Oklahoma City","zip":"73129","latitude":35.4062293,"fuel type code":"CNG","street address":"412 SE 59th St","plus4":5640,"longitude":-97.5027158,"id":"adzljldufrth","state":"OK"},"type":"Feature","geometry":{"type":"Point","coordinates":[-97.5027158,35.4062293]}},{"properties":{"city":"Elk City","zip":"73644","latitude":35.407717,"fuel type code":"CNG","street address":"20207 E 1110 County Rd","plus4":null,"longitude":-99.3803,"id":"adzljlijeiqx","state":"OK"},"type":"Feature","geometry":{"type":"Point","coordinates":[-99.3803,35.407717]}},{"properties":{"city":"Okemah","zip":"74859","latitude":35.420886,"fuel type code":"CNG","street address":"102 W Coplin St","plus4":null,"longitude":-96.300164,"id":"adzljliap4mr","state":"OK"},"type":"Feature","geometry":{"type":"Point","coordinates":[-96.300164,35.420886]}},{"properties":{"city":"Del City","zip":"73115","latitude":35.43509,"fuel type code":"CNG","street address":"5500 SE 29th St","plus4":null,"longitude":-97.4238,"id":"adzljlmkogu4","state":"OK"},"type":"Feature","geometry":{"type":"Point","coordinates":[-97.4238,35.43509]}},{"properties":{"city":"Arden","zip":"28704","latitude":35.44759,"fuel type code":"CNG","street address":"2618 Hendersonville Rd","plus4":null,"longitude":-82.5077,"id":"adzljlhfh2fn","state":"NC"},"type":"Feature","geometry":{"type":"Point","coordinates":[-82.5077,35.44759]}},{"properties":{"city":"Oklahoma City","zip":"73128","latitude":35.4579,"fuel type code":"CNG","street address":"800 S Morgan Rd","plus4":null,"longitude":-97.6884,"id":"adzljlahntcz","state":"OK"},"type":"Feature","geometry":{"type":"Point","coordinates":[-97.6884,35.4579]}},{"properties":{"city":"Oklahoma City","zip":"73127","latitude":35.46372,"fuel type code":"CNG","street address":"5900 W Reno","plus4":null,"longitude":-97.6195,"id":"adzljlisroo2","state":"OK"},"type":"Feature","geometry":{"type":"Point","coordinates":[-97.6195,35.46372]}},{"properties":{"city":"El Reno","zip":"73036","latitude":35.46413,"fuel type code":"CNG","street address":"3401 S Radio Rd","plus4":null,"longitude":-97.619,"id":"adzljlj2w2p7","state":"OK"},"type":"Feature","geometry":{"type":"Point","coordinates":[-97.619,35.46413]}},{"properties":{"city":"Oklahoma City","zip":"73107","latitude":35.4645493,"fuel type code":"CNG","street address":"3701 W Reno Ave","plus4":null,"longitude":-97.5832783,"id":"adzljlh1a5xn","state":"OK"},"type":"Feature","geometry":{"type":"Point","coordinates":[-97.5832783,35.4645493]}},{"properties":{"city":"Clinton","zip":"73601","latitude":35.4796843,"fuel type code":"CNG","street address":"500 W Commerce","plus4":null,"longitude":-98.9796868,"id":"adzljlciurse","state":"OK"},"type":"Feature","geometry":{"type":"Point","coordinates":[-98.9796868,35.4796843]}},{"properties":{"city":"Clinton","zip":"73601","latitude":35.490456,"fuel type code":"CNG","street address":"1709 S Highway 183","plus4":null,"longitude":-98.9676889,"id":"adzljla2vzxs","state":"OK"},"type":"Feature","geometry":{"type":"Point","coordinates":[-98.9676889,35.490456]}},{"properties":{"city":"Oklahoma City","zip":"73103","latitude":35.49341,"fuel type code":"CNG","street address":"1 NW 23rd St","plus4":null,"longitude":-97.5116,"id":"adzljlh7ww3c","state":"OK"},"type":"Feature","geometry":{"type":"Point","coordinates":[-97.5116,35.49341]}},{"properties":{"city":"Oklahoma City","zip":"73118","latitude":35.52113,"fuel type code":"CNG","street address":"4920 N Western Ave","plus4":null,"longitude":-97.5294,"id":"adzljll6d88y","state":"OK"},"type":"Feature","geometry":{"type":"Point","coordinates":[-97.5294,35.52113]}},{"properties":{"city":"Weatherford","zip":"73096","latitude":35.52274,"fuel type code":"CNG","street address":"2020 Eagle Rd","plus4":null,"longitude":-98.6925,"id":"adzljljjk3dk","state":"OK"},"type":"Feature","geometry":{"type":"Point","coordinates":[-98.6925,35.52274]}},{"properties":{"city":"Weatherford","zip":"73096","latitude":35.5429578,"fuel type code":"CNG","street address":"1501 N Airport Rd","plus4":null,"longitude":-98.658725,"id":"adzljlhmo294","state":"OK"},"type":"Feature","geometry":{"type":"Point","coordinates":[-98.658725,35.5429578]}},{"properties":{"city":"Asheville","zip":"28801","latitude":35.58816,"fuel type code":"CNG","street address":"45 McCormick Pl","plus4":null,"longitude":-82.5509,"id":"adzljlj0uzj6","state":"NC"},"type":"Feature","geometry":{"type":"Point","coordinates":[-82.5509,35.58816]}},{"properties":{"city":"Oklahoma City","zip":"73131","latitude":35.59392,"fuel type code":"CNG","street address":"12225 N I-35 Service Rd","plus4":null,"longitude":-97.4365,"id":"adzljljzxxyx","state":"OK"},"type":"Feature","geometry":{"type":"Point","coordinates":[-97.4365,35.59392]}},{"properties":{"city":"Wasco","zip":"93280","latitude":35.59687,"fuel type code":"CNG","street address":"501 North F St","plus4":null,"longitude":-119.334,"id":"adzljlndm8ek","state":"CA"},"type":"Feature","geometry":{"type":"Point","coordinates":[-119.334,35.59687]}},{"properties":{"city":"Okmulgee","zip":"74447","latitude":35.6070953,"fuel type code":"CNG","street address":"2018 S Wood Dr","plus4":6849,"longitude":-95.961793,"id":"adzljljfig40","state":"OK"},"type":"Feature","geometry":{"type":"Point","coordinates":[-95.961793,35.6070953]}},{"properties":{"city":"Oklahoma City","zip":"73120","latitude":35.60866,"fuel type code":"CNG","street address":"3330 W Memorial Rd","plus4":null,"longitude":-97.5766,"id":"adzljlchmn5t","state":"OK"},"type":"Feature","geometry":{"type":"Point","coordinates":[-97.5766,35.60866]}},{"properties":{"city":"Edmond","zip":"73013","latitude":35.6375746,"fuel type code":"CNG","street address":"16401 N Rockwell Ave","plus4":8987,"longitude":-97.6385596,"id":"adzljll4szo9","state":"OK"},"type":"Feature","geometry":{"type":"Point","coordinates":[-97.6385596,35.6375746]}},{"properties":{"city":"Edmond","zip":"73034","latitude":35.64619,"fuel type code":"CNG","street address":"800 S Broadway","plus4":null,"longitude":-97.482,"id":"adzljlhulgt8","state":"OK"},"type":"Feature","geometry":{"type":"Point","coordinates":[-97.482,35.64619]}},{"properties":{"city":"Santa Fe","zip":"87507","latitude":35.65783,"fuel type code":"CNG","street address":"2931 Rufina St","plus4":2928,"longitude":-105.993,"id":"adzljl86qpoc","state":"NM"},"type":"Feature","geometry":{"type":"Point","coordinates":[-105.993,35.65783]}},{"properties":{"city":"Davenport","zip":"74026","latitude":35.7127286,"fuel type code":"CNG","street address":"1028 N Preston","plus4":null,"longitude":-96.7663459,"id":"adzljlmeypiz","state":"OK"},"type":"Feature","geometry":{"type":"Point","coordinates":[-96.7663459,35.7127286]}},{"properties":{"city":"Hickory","zip":"28601","latitude":35.73964,"fuel type code":"CNG","street address":"1441 9th Ave NE","plus4":4103,"longitude":-81.3099,"id":"adzljlcy8tz0","state":"NC"},"type":"Feature","geometry":{"type":"Point","coordinates":[-81.3099,35.73964]}},{"properties":{"city":"Muskogee","zip":"74401","latitude":35.7404957,"fuel type code":"CNG","street address":"2616 W Border St","plus4":5757,"longitude":-95.3961093,"id":"adzljl9epzim","state":"OK"},"type":"Feature","geometry":{"type":"Point","coordinates":[-95.3961093,35.7404957]}},{"properties":{"city":"Delano","zip":"93215","latitude":35.74993,"fuel type code":"CNG","street address":"725 S Lexington St","plus4":3617,"longitude":-119.241,"id":"adzljlmljdl2","state":"CA"},"type":"Feature","geometry":{"type":"Point","coordinates":[-119.241,35.74993]}},{"properties":{"city":"Stroud","zip":"74079","latitude":35.751853,"fuel type code":"CNG","street address":"179 Turner Tpk","plus4":null,"longitude":-96.689631,"id":"adzljl7y0pcu","state":"OK"},"type":"Feature","geometry":{"type":"Point","coordinates":[-96.689631,35.751853]}},{"properties":{"city":"Raleigh","zip":"27610","latitude":35.782015,"fuel type code":"CNG","street address":"4211 Global St","plus4":null,"longitude":-78.5629979,"id":"adzljl8wdnrc","state":"NC"},"type":"Feature","geometry":{"type":"Point","coordinates":[-78.5629979,35.782015]}},{"properties":{"city":"Raleigh","zip":"27610","latitude":35.79486,"fuel type code":"CNG","street address":"4120 New Bern Ave","plus4":null,"longitude":-78.5663,"id":"adzljlbr3nmh","state":"NC"},"type":"Feature","geometry":{"type":"Point","coordinates":[-78.5663,35.79486]}},{"properties":{"city":"Lexington","zip":"27292","latitude":35.83071,"fuel type code":"CNG","street address":"925 N Main St","plus4":null,"longitude":-80.2428,"id":"adzljlh8xu7z","state":"NC"},"type":"Feature","geometry":{"type":"Point","coordinates":[-80.2428,35.83071]}},{"properties":{"city":"Stilwell","zip":"74960","latitude":35.841767,"fuel type code":"CNG","street address":"Rural Route 6","plus4":null,"longitude":-94.632369,"id":"adzljlegxj9q","state":"OK"},"type":"Feature","geometry":{"type":"Point","coordinates":[-94.632369,35.841767]}},{"properties":{"city":"Guthrie","zip":"73044","latitude":35.8587723,"fuel type code":"CNG","street address":"205 Sigma Pl","plus4":6017,"longitude":-97.4255069,"id":"adzljlcz1pe7","state":"OK"},"type":"Feature","geometry":{"type":"Point","coordinates":[-97.4255069,35.8587723]}},{"properties":{"city":"Kingfisher","zip":"73750","latitude":35.85979,"fuel type code":"CNG","street address":"203 S Main","plus4":null,"longitude":-97.9327,"id":"adzljl7usdsh","state":"OK"},"type":"Feature","geometry":{"type":"Point","coordinates":[-97.9327,35.85979]}},{"properties":{"city":"Raleigh","zip":"27616","latitude":35.86086,"fuel type code":"CNG","street address":"2712 Discovery Dr","plus4":null,"longitude":-78.5943,"id":"adzljlf4mbr6","state":"NC"},"type":"Feature","geometry":{"type":"Point","coordinates":[-78.5943,35.86086]}},{"properties":{"city":"Guthrie","zip":"73538","latitude":35.8783093,"fuel type code":"CNG","street address":"2530 E Noble Ave","plus4":null,"longitude":-97.3981316,"id":"adzljlgm7xi3","state":"OK"},"type":"Feature","geometry":{"type":"Point","coordinates":[-97.3981316,35.8783093]}},{"properties":{"city":"Tahlequah","zip":"74464","latitude":35.891778,"fuel type code":"CNG","street address":"17699 S Muskogee Ave","plus4":null,"longitude":-94.977075,"id":"adzljlfl2o73","state":"OK"},"type":"Feature","geometry":{"type":"Point","coordinates":[-94.977075,35.891778]}},{"properties":{"city":"High Point","zip":"27263","latitude":35.92376,"fuel type code":"CNG","street address":"2623 Uwharrie Rd","plus4":null,"longitude":-80.0077,"id":"adzljle0f4qf","state":"NC"},"type":"Feature","geometry":{"type":"Point","coordinates":[-80.0077,35.92376]}},{"properties":{"city":"Tahlequah","zip":"74464","latitude":35.924947,"fuel type code":"CNG","street address":"853 N Woodard Ave","plus4":null,"longitude":-95.000656,"id":"adzljlfnv89j","state":"OK"},"type":"Feature","geometry":{"type":"Point","coordinates":[-95.000656,35.924947]}},{"properties":{"city":"Sapulpa","zip":"74066","latitude":35.9936936,"fuel type code":"CNG","street address":"410 S Hawthorn","plus4":5604,"longitude":-96.1277724,"id":"adzljldzociu","state":"OK"},"type":"Feature","geometry":{"type":"Point","coordinates":[-96.1277724,35.9936936]}},{"properties":{"city":"Broken Arrow","zip":"74012","latitude":36.0230553,"fuel type code":"CNG","street address":"2421 S 1st Pl","plus4":8006,"longitude":-95.7878643,"id":"adzljlmyo3ny","state":"OK"},"type":"Feature","geometry":{"type":"Point","coordinates":[-95.7878643,36.0230553]}},{"properties":{"city":"Greensboro","zip":"27406","latitude":36.025072,"fuel type code":"CNG","street address":"2611 Greengate Dr","plus4":null,"longitude":-79.796413,"id":"adzljl7wh8ew","state":"NC"},"type":"Feature","geometry":{"type":"Point","coordinates":[-79.796413,36.025072]}},{"properties":{"city":"Tulsa","zip":"74132","latitude":36.0626277,"fuel type code":"CNG","street address":"7002 S Union Ave","plus4":null,"longitude":-96.0117767,"id":"adzljlk0nutt","state":"OK"},"type":"Feature","geometry":{"type":"Point","coordinates":[-96.0117767,36.0626277]}},{"properties":{"city":"Las Vegas","zip":"89119","latitude":36.06266,"fuel type code":"LNG","street address":"6980 Gilespie St","plus4":null,"longitude":-115.163,"id":"adzljll1gt7j","state":"NV"},"type":"Feature","geometry":{"type":"Point","coordinates":[-115.163,36.06266]}},{"properties":{"city":"Henderson","zip":"89015","latitude":36.063591,"fuel type code":"CNG","street address":"709 W Sunset Rd","plus4":2601,"longitude":-115.022969,"id":"adzljlb6cy9y","state":"NV"},"type":"Feature","geometry":{"type":"Point","coordinates":[-115.022969,36.063591]}},{"properties":{"city":"Porterville","zip":"93257","latitude":36.07588,"fuel type code":"CNG","street address":"555 N Prospect St","plus4":null,"longitude":-119.044,"id":"adzljligc0ur","state":"CA"},"type":"Feature","geometry":{"type":"Point","coordinates":[-119.044,36.07588]}},{"properties":{"city":"Tulsa","zip":"74135","latitude":36.0898018,"fuel type code":"CNG","street address":"5011 S Vandalia Ave","plus4":null,"longitude":-95.9244528,"id":"adzljlh244el","state":"OK"},"type":"Feature","geometry":{"type":"Point","coordinates":[-95.9244528,36.0898018]}},{"properties":{"city":"Tulsa","zip":"74146","latitude":36.0937,"fuel type code":"CNG","street address":"4809 S 101 East Ave","plus4":null,"longitude":-95.8637,"id":"adzljl8lk4ib","state":"OK"},"type":"Feature","geometry":{"type":"Point","coordinates":[-95.8637,36.0937]}},{"properties":{"city":"Winston-Salem","zip":"27101","latitude":36.09384,"fuel type code":"CNG","street address":"2300 Lowery St","plus4":null,"longitude":-80.2092,"id":"adzljlbnqles","state":"NC"},"type":"Feature","geometry":{"type":"Point","coordinates":[-80.2092,36.09384]}},{"properties":{"city":"Las Vegas","zip":"89102","latitude":36.099349,"fuel type code":"CNG","street address":"4990 Paradise Rd","plus4":null,"longitude":-115.149025,"id":"adzljlkw98tb","state":"NV"},"type":"Feature","geometry":{"type":"Point","coordinates":[-115.149025,36.099349]}},{"properties":{"city":"Wartburg","zip":"37887","latitude":36.103369,"fuel type code":"CNG","street address":"1106 Knoxville Hwy","plus4":null,"longitude":-84.586117,"id":"adzljla24uvw","state":"TN"},"type":"Feature","geometry":{"type":"Point","coordinates":[-84.586117,36.103369]}},{"properties":{"city":"Stillwater","zip":"74074","latitude":36.10665,"fuel type code":"CNG","street address":"1402 S Perkins Rd","plus4":null,"longitude":-97.0518,"id":"adzljlnlvzyh","state":"OK"},"type":"Feature","geometry":{"type":"Point","coordinates":[-97.0518,36.10665]}},{"properties":{"city":"Las Vegas","zip":"89109","latitude":36.122907,"fuel type code":"CNG","street address":"3683 Industrial Rd","plus4":null,"longitude":-115.179315,"id":"adzljljvtn8r","state":"NV"},"type":"Feature","geometry":{"type":"Point","coordinates":[-115.179315,36.122907]}},{"properties":{"city":"Tulsa","zip":"74107","latitude":36.13037,"fuel type code":"CNG","street address":"420 W 23rd St","plus4":null,"longitude":-95.995,"id":"adzljligd2ku","state":"OK"},"type":"Feature","geometry":{"type":"Point","coordinates":[-95.995,36.13037]}},{"properties":{"city":"Tulsa","zip":"74112","latitude":36.138765,"fuel type code":"CNG","street address":"5848 E 15th St","plus4":6412,"longitude":-95.9112899,"id":"adzljlfmazai","state":"OK"},"type":"Feature","geometry":{"type":"Point","coordinates":[-95.9112899,36.138765]}},{"properties":{"city":"Stillwater","zip":"74078","latitude":36.144343,"fuel type code":"CNG","street address":"1323 W Lakeview Dr","plus4":null,"longitude":-97.086949,"id":"adzljlcrml1p","state":"OK"},"type":"Feature","geometry":{"type":"Point","coordinates":[-97.086949,36.144343]}},{"properties":{"city":"Nashville","zip":"37214","latitude":36.14537,"fuel type code":"CNG","street address":"83 Century Blvd","plus4":null,"longitude":-86.6805,"id":"adzljlk85u22","state":"TN"},"type":"Feature","geometry":{"type":"Point","coordinates":[-86.6805,36.14537]}},{"properties":{"city":"Stillwater","zip":"74075","latitude":36.157233,"fuel type code":"CNG","street address":"3424 N Perkins Rd","plus4":null,"longitude":-97.052225,"id":"adzljlmo4ou2","state":"OK"},"type":"Feature","geometry":{"type":"Point","coordinates":[-97.052225,36.157233]}},{"properties":{"city":"Tulare","zip":"93274","latitude":36.168941,"fuel type code":"CNG","street address":"3989 S K St","plus4":7189,"longitude":-119.336803,"id":"adzljljnz1ic","state":"CA"},"type":"Feature","geometry":{"type":"Point","coordinates":[-119.336803,36.168941]}},{"properties":{"city":"Tulare","zip":"93274","latitude":36.168941,"fuel type code":"LNG","street address":"3989 S K St","plus4":7189,"longitude":-119.336803,"id":"adzljlmq7f25","state":"CA"},"type":"Feature","geometry":{"type":"Point","coordinates":[-119.336803,36.168941]}},{"properties":{"city":"Las Vegas","zip":"89106","latitude":36.180229,"fuel type code":"CNG","street address":"300 W Bonanza Rd","plus4":3225,"longitude":-115.143369,"id":"adzljlepwmx2","state":"NV"},"type":"Feature","geometry":{"type":"Point","coordinates":[-115.143369,36.180229]}},{"properties":{"city":"Las Vegas","zip":"89128","latitude":36.214646,"fuel type code":"CNG","street address":"2950 Ronemus Dr","plus4":7826,"longitude":-115.257149,"id":"adzljljxd6s8","state":"NV"},"type":"Feature","geometry":{"type":"Point","coordinates":[-115.257149,36.214646]}},{"properties":{"city":"North Las Vegas","zip":"89030","latitude":36.220403,"fuel type code":"CNG","street address":"3333 Losee Rd","plus4":3303,"longitude":-115.125585,"id":"adzljla9d3me","state":"NV"},"type":"Feature","geometry":{"type":"Point","coordinates":[-115.125585,36.220403]}},{"properties":{"city":"Tulsa","zip":"74117","latitude":36.249583,"fuel type code":"CNG","street address":"4821 E 66th St N","plus4":null,"longitude":-95.922592,"id":"adzljlmzloke","state":"OK"},"type":"Feature","geometry":{"type":"Point","coordinates":[-95.922592,36.249583]}},{"properties":{"city":"Fairview","zip":"73737","latitude":36.261003,"fuel type code":"CNG","street address":"120 Cedar Springs Rd","plus4":null,"longitude":-98.489097,"id":"adzljlgyg7kc","state":"OK"},"type":"Feature","geometry":{"type":"Point","coordinates":[-98.489097,36.261003]}},{"properties":{"city":"Owasso","zip":"74055","latitude":36.264896,"fuel type code":"CNG","street address":"101 S Main St","plus4":null,"longitude":-95.854698,"id":"adzljl8kq11x","state":"OK"},"type":"Feature","geometry":{"type":"Point","coordinates":[-95.854698,36.264896]}},{"properties":{"city":"Lemoore","zip":"93245","latitude":36.2837338,"fuel type code":"CNG","street address":"857 Iona Ave","plus4":null,"longitude":-119.7936211,"id":"adzljlj19m25","state":"CA"},"type":"Feature","geometry":{"type":"Point","coordinates":[-119.7936211,36.2837338]}},{"properties":{"city":"Exeter","zip":"93221","latitude":36.2899558,"fuel type code":"CNG","street address":"350 W Firebaugh Ave","plus4":null,"longitude":-119.1428114,"id":"adzljlivm8wa","state":"CA"},"type":"Feature","geometry":{"type":"Point","coordinates":[-119.1428114,36.2899558]}},{"properties":{"city":"Claremore","zip":"74017","latitude":36.2929375,"fuel type code":"CNG","street address":"1449 SW Country Club Rd","plus4":7121,"longitude":-95.6264761,"id":"adzljlizunza","state":"OK"},"type":"Feature","geometry":{"type":"Point","coordinates":[-95.6264761,36.2929375]}},{"properties":{"city":"Visalia","zip":"93292","latitude":36.3346,"fuel type code":"CNG","street address":"439 N Cain St","plus4":null,"longitude":-119.274,"id":"adzljlfkj1xv","state":"CA"},"type":"Feature","geometry":{"type":"Point","coordinates":[-119.274,36.3346]}},{"properties":{"city":"Visalia","zip":"93291","latitude":36.34192,"fuel type code":"CNG","street address":"2425 W Houston Ave","plus4":null,"longitude":-119.314,"id":"adzljlc28vy1","state":"CA"},"type":"Feature","geometry":{"type":"Point","coordinates":[-119.314,36.34192]}},{"properties":{"city":"Enid","zip":"73701","latitude":36.39014,"fuel type code":"CNG","street address":"1005 E Owen K Garriot","plus4":null,"longitude":-97.8626,"id":"adzljlmpfcix","state":"OK"},"type":"Feature","geometry":{"type":"Point","coordinates":[-97.8626,36.39014]}},{"properties":{"city":"Enid","zip":"73703","latitude":36.393239,"fuel type code":"CNG","street address":"421 S Garland Rd","plus4":3344,"longitude":-97.942047,"id":"adzljlgyzrpo","state":"OK"},"type":"Feature","geometry":{"type":"Point","coordinates":[-97.942047,36.393239]}},{"properties":{"city":"Huntsville","zip":"37756","latitude":36.411596,"fuel type code":"CNG","street address":"591 E Monticello Pike","plus4":null,"longitude":-84.524446,"id":"adzljllzsqa6","state":"TN"},"type":"Feature","geometry":{"type":"Point","coordinates":[-84.524446,36.411596]}},{"properties":{"city":"Woodward","zip":"73801","latitude":36.4335277,"fuel type code":"CNG","street address":"3710 Oklahoma Ave","plus4":null,"longitude":-99.4289593,"id":"adzljldeia38","state":"OK"},"type":"Feature","geometry":{"type":"Point","coordinates":[-99.4289593,36.4335277]}},{"properties":{"city":"Caruthers","zip":"93609","latitude":36.4936126,"fuel type code":"LNG","street address":"16644 S Elm Ave","plus4":null,"longitude":-119.7911401,"id":"adzljlhfesjo","state":"CA"},"type":"Feature","geometry":{"type":"Point","coordinates":[-119.7911401,36.4936126]}},{"properties":{"city":"Caruthers","zip":"93609","latitude":36.4936126,"fuel type code":"CNG","street address":"16644 S Elm Ave","plus4":null,"longitude":-119.7911401,"id":"adzljlkpbl94","state":"CA"},"type":"Feature","geometry":{"type":"Point","coordinates":[-119.7911401,36.4936126]}},{"properties":{"city":"Waynoka","zip":"73860","latitude":36.59442,"fuel type code":"CNG","street address":"32744 State Highway 45","plus4":null,"longitude":-98.8634,"id":"adzljlfzojfv","state":"OK"},"type":"Feature","geometry":{"type":"Point","coordinates":[-98.8634,36.59442]}},{"properties":{"city":"Reedley","zip":"93654","latitude":36.60417,"fuel type code":"CNG","street address":"675 W Manning Ave","plus4":2498,"longitude":-119.455,"id":"adzljldc752r","state":"CA"},"type":"Feature","geometry":{"type":"Point","coordinates":[-119.455,36.60417]}},{"properties":{"city":"Salinas","zip":"93901","latitude":36.67226,"fuel type code":"CNG","street address":"390 Griffin St","plus4":4304,"longitude":-121.641,"id":"adzljlejyo4g","state":"CA"},"type":"Feature","geometry":{"type":"Point","coordinates":[-121.641,36.67226]}},{"properties":{"city":"Guymon","zip":"73942","latitude":36.67833,"fuel type code":"CNG","street address":"102 SE 2nd St","plus4":null,"longitude":-101.481,"id":"adzljlg190cl","state":"OK"},"type":"Feature","geometry":{"type":"Point","coordinates":[-101.481,36.67833]}},{"properties":{"city":"Fresno","zip":"93702","latitude":36.72132,"fuel type code":"CNG","street address":"3754 E California Ave","plus4":null,"longitude":-119.761,"id":"adzljln7wkop","state":"CA"},"type":"Feature","geometry":{"type":"Point","coordinates":[-119.761,36.72132]}},{"properties":{"city":"Ponca City","zip":"74601","latitude":36.7303295,"fuel type code":"CNG","street address":"2205 N Ash St","plus4":1108,"longitude":-97.0937441,"id":"adzljljvptqu","state":"OK"},"type":"Feature","geometry":{"type":"Point","coordinates":[-97.0937441,36.7303295]}},{"properties":{"city":"Bartlesville","zip":"74005","latitude":36.7624671,"fuel type code":"CNG","street address":"3601 NE Indiana St","plus4":null,"longitude":-95.9388965,"id":"adzljlg3spfs","state":"OK"},"type":"Feature","geometry":{"type":"Point","coordinates":[-95.9388965,36.7624671]}},{"properties":{"city":"Norfolk","zip":"23502","latitude":36.86626,"fuel type code":"CNG","street address":"1184 Lance Rd","plus4":null,"longitude":-76.2165,"id":"adzljlh1fvyu","state":"VA"},"type":"Feature","geometry":{"type":"Point","coordinates":[-76.2165,36.86626]}},{"properties":{"city":"Miami","zip":"74354","latitude":36.8747176,"fuel type code":"CNG","street address":"11 S Treaty Rd","plus4":5327,"longitude":-94.8417816,"id":"adzljlhf0dnf","state":"OK"},"type":"Feature","geometry":{"type":"Point","coordinates":[-94.8417816,36.8747176]}},{"properties":{"city":"Norfolk","zip":"23511","latitude":36.94178,"fuel type code":"CNG","street address":"Mall Dr","plus4":null,"longitude":-76.311697,"id":"adzljlaa6fss","state":"VA"},"type":"Feature","geometry":{"type":"Point","coordinates":[-76.311697,36.94178]}},{"properties":{"city":"Santa Cruz","zip":"95062","latitude":36.96927,"fuel type code":"CNG","street address":"615 7th Ave","plus4":2795,"longitude":-121.999,"id":"adzljli0bile","state":"CA"},"type":"Feature","geometry":{"type":"Point","coordinates":[-121.999,36.96927]}},{"properties":{"city":"Los Banos","zip":"93635","latitude":37.05865,"fuel type code":"CNG","street address":"940 I St","plus4":null,"longitude":-120.843,"id":"adzljlmq08qw","state":"CA"},"type":"Feature","geometry":{"type":"Point","coordinates":[-120.843,37.05865]}},{"properties":{"city":"Saint George","zip":"84770","latitude":37.08159,"fuel type code":"CNG","street address":"334 E Riverside Dr","plus4":null,"longitude":-113.577,"id":"adzljlerlmlp","state":"UT"},"type":"Feature","geometry":{"type":"Point","coordinates":[-113.577,37.08159]}},{"properties":{"city":"Newport News","zip":"23606","latitude":37.08302,"fuel type code":"CNG","street address":"746 Diligence Dr","plus4":4290,"longitude":-76.4631,"id":"adzljlh9u1hx","state":"VA"},"type":"Feature","geometry":{"type":"Point","coordinates":[-76.4631,37.08302]}},{"properties":{"city":"Princeton","zip":"42445","latitude":37.10444,"fuel type code":"CNG","street address":"10129 US Highway 62 W","plus4":null,"longitude":-87.9901,"id":"adzljlby8a3z","state":"KY"},"type":"Feature","geometry":{"type":"Point","coordinates":[-87.9901,37.10444]}},{"properties":{"city":"Somerset","zip":"42503","latitude":37.1058252,"fuel type code":"CNG","street address":"244 Chappells Dairy Rd","plus4":null,"longitude":-84.6286519,"id":"adzljlkvwv9c","state":"KY"},"type":"Feature","geometry":{"type":"Point","coordinates":[-84.6286519,37.1058252]}},{"properties":{"city":"Saint George","zip":"84770","latitude":37.11021,"fuel type code":"CNG","street address":"915 E Saint George Blvd","plus4":3039,"longitude":-113.564,"id":"adzljl9e3vgi","state":"UT"},"type":"Feature","geometry":{"type":"Point","coordinates":[-113.564,37.11021]}},{"properties":{"city":"Washington City","zip":"84780","latitude":37.11393,"fuel type code":"CNG","street address":"1302 Washington Dam Rd","plus4":null,"longitude":-113.479,"id":"adzljlflfrwg","state":"UT"},"type":"Feature","geometry":{"type":"Point","coordinates":[-113.479,37.11393]}},{"properties":{"city":"Hurricane","zip":"84737","latitude":37.16095,"fuel type code":"CNG","street address":"41 N 6300 W","plus4":null,"longitude":-113.436,"id":"adzljlczmkxm","state":"UT"},"type":"Feature","geometry":{"type":"Point","coordinates":[-113.436,37.16095]}},{"properties":{"city":"Hurricane","zip":"84737","latitude":37.1628021,"fuel type code":"LNG","street address":"230 Old Highway 91","plus4":null,"longitude":-113.4343306,"id":"adzljlhpvkfy","state":"UT"},"type":"Feature","geometry":{"type":"Point","coordinates":[-113.4343306,37.1628021]}},{"properties":{"city":"Springfield","zip":"65802","latitude":37.2142957,"fuel type code":"CNG","street address":"1111 W Chestnut Expy","plus4":null,"longitude":-93.3064023,"id":"adzljl8fg57c","state":"MO"},"type":"Feature","geometry":{"type":"Point","coordinates":[-93.3064023,37.2142957]}},{"properties":{"city":"San Jose","zip":"95125","latitude":37.29664,"fuel type code":"CNG","street address":"2222 Unified Way","plus4":2060,"longitude":-121.873,"id":"adzljlkeuprv","state":"CA"},"type":"Feature","geometry":{"type":"Point","coordinates":[-121.873,37.29664]}},{"properties":{"city":"Merced","zip":"95348","latitude":37.29992,"fuel type code":"CNG","street address":"624 W 15th St","plus4":null,"longitude":-120.487,"id":"adzljlfkenyu","state":"CA"},"type":"Feature","geometry":{"type":"Point","coordinates":[-120.487,37.29992]}},{"properties":{"city":"San Jose","zip":"95126","latitude":37.33408,"fuel type code":"CNG","street address":"308 Stockton Ave","plus4":2764,"longitude":-121.906,"id":"adzljlcl6qgt","state":"CA"},"type":"Feature","geometry":{"type":"Point","coordinates":[-121.906,37.33408]}},{"properties":{"city":"Cupertino","zip":"95014","latitude":37.33589,"fuel type code":"CNG","street address":"10900 N Blaney Ave","plus4":599,"longitude":-122.023,"id":"adzljlgqcv2m","state":"CA"},"type":"Feature","geometry":{"type":"Point","coordinates":[-122.023,37.33589]}},{"properties":{"city":"San Jose","zip":"95110","latitude":37.36744,"fuel type code":"CNG","street address":"2151 Airport Blvd","plus4":null,"longitude":-121.933,"id":"adzljll2ag7o","state":"CA"},"type":"Feature","geometry":{"type":"Point","coordinates":[-121.933,37.36744]}},{"properties":{"city":"Santa Clara","zip":"95054","latitude":37.38179,"fuel type code":"CNG","street address":"3351 Thomas Rd","plus4":null,"longitude":-121.958,"id":"adzljlib9g5q","state":"CA"},"type":"Feature","geometry":{"type":"Point","coordinates":[-121.958,37.38179]}},{"properties":{"city":"San Carlos","zip":"94002","latitude":37.52092,"fuel type code":"CNG","street address":"275 Industrial Way","plus4":4067,"longitude":-122.266,"id":"adzljlgojqkq","state":"CA"},"type":"Feature","geometry":{"type":"Point","coordinates":[-122.266,37.52092]}},{"properties":{"city":"Richmond","zip":"23224","latitude":37.5225859,"fuel type code":"CNG","street address":"211 Maury St","plus4":null,"longitude":-77.433474,"id":"adzljldzdim6","state":"VA"},"type":"Feature","geometry":{"type":"Point","coordinates":[-77.433474,37.5225859]}},{"properties":{"city":"San Francisco","zip":"94128","latitude":37.61606,"fuel type code":"CNG","street address":"Bayshore Hwy","plus4":null,"longitude":-122.384,"id":"adzljlhejvvl","state":"CA"},"type":"Feature","geometry":{"type":"Point","coordinates":[-122.384,37.61606]}},{"properties":{"city":"San Francisco","zip":"94128","latitude":37.63239,"fuel type code":"CNG","street address":"790 N McDonnell Rd","plus4":null,"longitude":-122.399068,"id":"adzljlb8v4t0","state":"CA"},"type":"Feature","geometry":{"type":"Point","coordinates":[-122.399068,37.63239]}},{"properties":{"city":"Hayward","zip":"94545","latitude":37.64234,"fuel type code":"CNG","street address":"24300 Clawiter Rd","plus4":2200,"longitude":-122.118,"id":"adzljlkkgsqm","state":"CA"},"type":"Feature","geometry":{"type":"Point","coordinates":[-122.118,37.64234]}},{"properties":{"city":"Cedar City","zip":"84720","latitude":37.66465,"fuel type code":"CNG","street address":"734 S Main St","plus4":3572,"longitude":-113.067,"id":"adzljlbbkk2g","state":"UT"},"type":"Feature","geometry":{"type":"Point","coordinates":[-113.067,37.66465]}},{"properties":{"city":"Ripon","zip":"95366","latitude":37.730484,"fuel type code":"CNG","street address":"339 Doak Blvd","plus4":null,"longitude":-121.126881,"id":"adzljl9ve8t7","state":"CA"},"type":"Feature","geometry":{"type":"Point","coordinates":[-121.126881,37.730484]}},{"properties":{"city":"Oakland","zip":"94621","latitude":37.746211,"fuel type code":"CNG","street address":"7855 Earhart Rd","plus4":null,"longitude":-122.188413,"id":"adzljlh1xe64","state":"CA"},"type":"Feature","geometry":{"type":"Point","coordinates":[-122.188413,37.746211]}},{"properties":{"city":"Oakland","zip":"94621","latitude":37.746211,"fuel type code":"CNG","street address":"8515 San Leandro St","plus4":null,"longitude":-122.188413,"id":"adzljlj6ftfo","state":"CA"},"type":"Feature","geometry":{"type":"Point","coordinates":[-122.188413,37.746211]}},{"properties":{"city":"San Francisco","zip":"94107","latitude":37.751347,"fuel type code":"CNG","street address":"1200 Mississippi St","plus4":null,"longitude":-122.39527,"id":"adzljla80uw0","state":"CA"},"type":"Feature","geometry":{"type":"Point","coordinates":[-122.39527,37.751347]}},{"properties":{"city":"San Francisco","zip":"94107","latitude":37.755584,"fuel type code":"CNG","street address":"2690 3rd St","plus4":null,"longitude":-122.388208,"id":"adzljlem6im7","state":"CA"},"type":"Feature","geometry":{"type":"Point","coordinates":[-122.388208,37.755584]}},{"properties":{"city":"San Francisco","zip":"94110","latitude":37.76053,"fuel type code":"CNG","street address":"536 Treat Ave","plus4":2014,"longitude":-122.414,"id":"adzljlc5xmc9","state":"CA"},"type":"Feature","geometry":{"type":"Point","coordinates":[-122.414,37.76053]}},{"properties":{"city":"San Ramon","zip":"94583","latitude":37.77303,"fuel type code":"CNG","street address":"4500 Norris Canyon Rd","plus4":1369,"longitude":-121.969,"id":"adzljlhj7oqk","state":"CA"},"type":"Feature","geometry":{"type":"Point","coordinates":[-121.969,37.77303]}},{"properties":{"city":"San Francisco","zip":"94105","latitude":37.78741,"fuel type code":"CNG","street address":"425 Folsom St","plus4":2605,"longitude":-122.394,"id":"adzljl8z543u","state":"CA"},"type":"Feature","geometry":{"type":"Point","coordinates":[-122.394,37.78741]}},{"properties":{"city":"Oakland","zip":"94607","latitude":37.798972,"fuel type code":"CNG","street address":"205 Brush St","plus4":null,"longitude":-122.283854,"id":"adzljlkgrq70","state":"CA"},"type":"Feature","geometry":{"type":"Point","coordinates":[-122.283854,37.798972]}},{"properties":{"city":"Berkeley","zip":"94710","latitude":37.88102,"fuel type code":"CNG","street address":"1101 2nd St","plus4":null,"longitude":-122.307,"id":"adzljll157e7","state":"CA"},"type":"Feature","geometry":{"type":"Point","coordinates":[-122.307,37.88102]}},{"properties":{"city":"Richmond","zip":"94804","latitude":37.91644,"fuel type code":"CNG","street address":"1100 S 27th St","plus4":4571,"longitude":-122.344,"id":"adzljlexwshb","state":"CA"},"type":"Feature","geometry":{"type":"Point","coordinates":[-122.344,37.91644]}},{"properties":{"city":"San Rafael","zip":"94901","latitude":37.95124,"fuel type code":"CNG","street address":"1220 Andersen Dr","plus4":5332,"longitude":-122.5,"id":"adzljlhgfxkx","state":"CA"},"type":"Feature","geometry":{"type":"Point","coordinates":[-122.5,37.95124]}},{"properties":{"city":"Concord","zip":"94518","latitude":37.95615,"fuel type code":"CNG","street address":"1030 Detroit Ave","plus4":2487,"longitude":-122.029,"id":"adzljlcb26rx","state":"CA"},"type":"Feature","geometry":{"type":"Point","coordinates":[-122.029,37.95615]}},{"properties":{"city":"Evansville","zip":"47711","latitude":37.97741,"fuel type code":"CNG","street address":"1 N Main St","plus4":null,"longitude":-87.564,"id":"adzljlhp0slj","state":"IN"},"type":"Feature","geometry":{"type":"Point","coordinates":[-87.564,37.97741]}},{"properties":{"city":"Concord","zip":"94520","latitude":37.98213,"fuel type code":"CNG","street address":"2352 Bisso Ln","plus4":4821,"longitude":-122.046,"id":"adzljleju634","state":"CA"},"type":"Feature","geometry":{"type":"Point","coordinates":[-122.046,37.98213]}},{"properties":{"city":"Stockton","zip":"95204","latitude":37.99111,"fuel type code":"CNG","street address":"4040 West Ln","plus4":2436,"longitude":-121.284,"id":"adzljlin11x4","state":"CA"},"type":"Feature","geometry":{"type":"Point","coordinates":[-121.284,37.99111]}},{"properties":{"city":"Louisville","zip":"40219","latitude":38.1404552,"fuel type code":"CNG","street address":"7501 Grade Ln","plus4":null,"longitude":-85.7379697,"id":"adzljlcakgus","state":"KY"},"type":"Feature","geometry":{"type":"Point","coordinates":[-85.7379697,38.1404552]}},{"properties":{"city":"Circleville","zip":"84723","latitude":38.16452,"fuel type code":"CNG","street address":"351 W 400 S","plus4":null,"longitude":-112.263,"id":"adzljlffhhsv","state":"UT"},"type":"Feature","geometry":{"type":"Point","coordinates":[-112.263,38.16452]}},{"properties":{"city":"Beaver","zip":"84713","latitude":38.249617,"fuel type code":"LNG","street address":"665 W 1820 N","plus4":null,"longitude":-112.652356,"id":"adzljljff0el","state":"UT"},"type":"Feature","geometry":{"type":"Point","coordinates":[-112.652356,38.249617]}},{"properties":{"city":"Vacaville","zip":"95687","latitude":38.35079,"fuel type code":"CNG","street address":"158 Peabody Rd","plus4":4729,"longitude":-121.978,"id":"adzljl9ig71o","state":"CA"},"type":"Feature","geometry":{"type":"Point","coordinates":[-121.978,38.35079]}},{"properties":{"city":"Sellersburg","zip":"47172","latitude":38.37339,"fuel type code":"CNG","street address":"7507 Highway 31 E","plus4":null,"longitude":-85.7468,"id":"adzljln1yr58","state":"IN"},"type":"Feature","geometry":{"type":"Point","coordinates":[-85.7468,38.37339]}},{"properties":{"city":"Elk Grove","zip":"95624","latitude":38.38145065,"fuel type code":"CNG","street address":"9050 Elkmont Dr","plus4":null,"longitude":-121.364357,"id":"adzljlmgaoi8","state":"CA"},"type":"Feature","geometry":{"type":"Point","coordinates":[-121.364357,38.38145065]}},{"properties":{"city":"Santa Rosa","zip":"95401","latitude":38.42863,"fuel type code":"CNG","street address":"3965 Occidental Rd","plus4":5898,"longitude":-122.767,"id":"adzljlbka86k","state":"CA"},"type":"Feature","geometry":{"type":"Point","coordinates":[-122.767,38.42863]}},{"properties":{"city":"Sacramento","zip":"95826","latitude":38.52613,"fuel type code":"CNG","street address":"5555 Florin-Perkins Rd","plus4":4870,"longitude":-121.389,"id":"adzljl9udo65","state":"CA"},"type":"Feature","geometry":{"type":"Point","coordinates":[-121.389,38.52613]}},{"properties":{"city":"Moab","zip":"84532","latitude":38.53635,"fuel type code":"CNG","street address":"2450 S Highway 191","plus4":null,"longitude":-109.511,"id":"adzljl7tv9ol","state":"UT"},"type":"Feature","geometry":{"type":"Point","coordinates":[-109.511,38.53635]}},{"properties":{"city":"Davis","zip":"95616","latitude":38.54611,"fuel type code":"CNG","street address":"316 L St","plus4":4299,"longitude":-121.734,"id":"adzljlly5hi9","state":"CA"},"type":"Feature","geometry":{"type":"Point","coordinates":[-121.734,38.54611]}},{"properties":{"city":"Saint Louis","zip":"63119","latitude":38.598614,"fuel type code":"CNG","street address":"4118 Shrewsbury Ave","plus4":2115,"longitude":-90.323459,"id":"adzljle6kbgp","state":"MO"},"type":"Feature","geometry":{"type":"Point","coordinates":[-90.323459,38.598614]}},{"properties":{"city":"Woodland","zip":"95776","latitude":38.67848,"fuel type code":"CNG","street address":"350 Industrial Way","plus4":null,"longitude":-121.753,"id":"adzljla71ouz","state":"CA"},"type":"Feature","geometry":{"type":"Point","coordinates":[-121.753,38.67848]}},{"properties":{"city":"Fort Carson","zip":"80902","latitude":38.753882,"fuel type code":"CNG","street address":"Harr Ave &amp; Chiles Ave","plus4":5098,"longitude":-104.797307,"id":"adzljlirj61w","state":"CO"},"type":"Feature","geometry":{"type":"Point","coordinates":[-104.797307,38.753882]}},{"properties":{"city":"Richfield","zip":"84701","latitude":38.78411,"fuel type code":"CNG","street address":"1375 N Main St","plus4":1861,"longitude":-112.084,"id":"adzljllrroes","state":"UT"},"type":"Feature","geometry":{"type":"Point","coordinates":[-112.084,38.78411]}},{"properties":{"city":"Auburn","zip":"95603","latitude":38.88889,"fuel type code":"CNG","street address":"333 Sacramento St","plus4":5568,"longitude":-121.074,"id":"adzljlc1o843","state":"CA"},"type":"Feature","geometry":{"type":"Point","coordinates":[-121.074,38.88889]}},{"properties":{"city":"South Lake Tahoe","zip":"96150","latitude":38.89097,"fuel type code":"CNG","street address":"1901 Airport Rd","plus4":3602,"longitude":-119.999,"id":"adzljldnmx9b","state":"CA"},"type":"Feature","geometry":{"type":"Point","coordinates":[-119.999,38.89097]}},{"properties":{"city":"Fillmore","zip":"84631","latitude":38.95042,"fuel type code":"CNG","street address":"1060 S Highway 99","plus4":null,"longitude":-112.344,"id":"adzljligu394","state":"UT"},"type":"Feature","geometry":{"type":"Point","coordinates":[-112.344,38.95042]}},{"properties":{"city":"Overland Park","zip":"66214","latitude":38.96605,"fuel type code":"CNG","street address":"11401 W 89th St","plus4":1705,"longitude":-94.7169,"id":"adzljldg82k8","state":"KS"},"type":"Feature","geometry":{"type":"Point","coordinates":[-94.7169,38.96605]}},{"properties":{"city":"Topeka","zip":"66603","latitude":39.05875,"fuel type code":"CNG","street address":"200 E 1st Ave","plus4":null,"longitude":-95.6679,"id":"adzljl9ps5qu","state":"KS"},"type":"Feature","geometry":{"type":"Point","coordinates":[-95.6679,39.05875]}},{"properties":{"city":"Grand Junction","zip":"81501","latitude":39.07051,"fuel type code":"CNG","street address":"2553 Riverside Pkwy","plus4":null,"longitude":-108.579,"id":"adzljlgu7ya3","state":"CO"},"type":"Feature","geometry":{"type":"Point","coordinates":[-108.579,39.07051]}},{"properties":{"city":"Gaithersburg","zip":"20855","latitude":39.1238577,"fuel type code":"CNG","street address":"16640 Crabbs Branch Way","plus4":2221,"longitude":-77.1623808,"id":"adzljln9as3n","state":"MD"},"type":"Feature","geometry":{"type":"Point","coordinates":[-77.1623808,39.1238577]}},{"properties":{"city":"Marysville","zip":"95901","latitude":39.14303,"fuel type code":"CNG","street address":"18 7th St","plus4":null,"longitude":-121.584,"id":"adzljllkfnk9","state":"CA"},"type":"Feature","geometry":{"type":"Point","coordinates":[-121.584,39.14303]}},{"properties":{"city":"Dover","zip":"19904","latitude":39.15556,"fuel type code":"CNG","street address":"350 S Queen St","plus4":3552,"longitude":-75.5289,"id":"adzljldh4kim","state":"DE"},"type":"Feature","geometry":{"type":"Point","coordinates":[-75.5289,39.15556]}},{"properties":{"city":"Baltimore","zip":"21240","latitude":39.1872,"fuel type code":"CNG","street address":"131 Aaronson Dr","plus4":755,"longitude":-76.6559,"id":"adzljlbgmtlz","state":"MD"},"type":"Feature","geometry":{"type":"Point","coordinates":[-76.6559,39.1872]}},{"properties":{"city":"Grass Valley","zip":"95945","latitude":39.19964,"fuel type code":"CNG","street address":"W McKnight Way","plus4":9613,"longitude":-121.061,"id":"adzljle5osde","state":"CA"},"type":"Feature","geometry":{"type":"Point","coordinates":[-121.061,39.19964]}},{"properties":{"city":"Curtis Bay","zip":"21226","latitude":39.232397,"fuel type code":"CNG","street address":"3545 Fairfield Rd","plus4":null,"longitude":-76.572608,"id":"adzljl7au02z","state":"MD"},"type":"Feature","geometry":{"type":"Point","coordinates":[-76.572608,39.232397]}},{"properties":{"city":"Scipio","zip":"84656","latitude":39.25537,"fuel type code":"CNG","street address":"810 N 800 W","plus4":null,"longitude":-112.117,"id":"adzljl7uteut","state":"UT"},"type":"Feature","geometry":{"type":"Point","coordinates":[-112.117,39.25537]}},{"properties":{"city":"Egg Harbor Township","zip":"8401","latitude":39.35315,"fuel type code":"CNG","street address":"5016 Wellington Ave","plus4":null,"longitude":-74.4771,"id":"adzljlhl05on","state":"NJ"},"type":"Feature","geometry":{"type":"Point","coordinates":[-74.4771,39.35315]}},{"properties":{"city":"Castle Rock","zip":"80109","latitude":39.406906,"fuel type code":"CNG","street address":"3103 N Industrial Way","plus4":2803,"longitude":-104.871667,"id":"adzljlfx1gdk","state":"CO"},"type":"Feature","geometry":{"type":"Point","coordinates":[-104.871667,39.406906]}},{"properties":{"city":"Egg Harbor Township","zip":"8234","latitude":39.419449,"fuel type code":"CNG","street address":"6700 Delilah Rd","plus4":null,"longitude":-74.538122,"id":"adzljle0mzdo","state":"NJ"},"type":"Feature","geometry":{"type":"Point","coordinates":[-74.538122,39.419449]}},{"properties":{"city":"Rifle","zip":"81650","latitude":39.52973,"fuel type code":"CNG","street address":"101 Railroad Ave","plus4":2215,"longitude":-107.783,"id":"adzljlg2etu7","state":"CO"},"type":"Feature","geometry":{"type":"Point","coordinates":[-107.783,39.52973]}},{"properties":{"city":"Price","zip":"84501","latitude":39.58698,"fuel type code":"CNG","street address":"850 S Carbon Ave","plus4":4366,"longitude":-110.813,"id":"adzljleearyz","state":"UT"},"type":"Feature","geometry":{"type":"Point","coordinates":[-110.813,39.58698]}},{"properties":{"city":"Denver","zip":"80222","latitude":39.67644,"fuel type code":"CNG","street address":"2210 S Colorado Blvd","plus4":4914,"longitude":-104.94,"id":"adzljlbxd11k","state":"CO"},"type":"Feature","geometry":{"type":"Point","coordinates":[-104.94,39.67644]}},{"properties":{"city":"Glassboro","zip":"8028","latitude":39.69743,"fuel type code":"CNG","street address":"142 S Main St","plus4":null,"longitude":-75.1119,"id":"adzljle75ye6","state":"NJ"},"type":"Feature","geometry":{"type":"Point","coordinates":[-75.1119,39.69743]}},{"properties":{"city":"Chico","zip":"95928","latitude":39.70839,"fuel type code":"CNG","street address":"11239 Midway","plus4":8219,"longitude":-121.809,"id":"adzljlby9lmj","state":"CA"},"type":"Feature","geometry":{"type":"Point","coordinates":[-121.809,39.70839]}},{"properties":{"city":"Denver","zip":"80223","latitude":39.72202,"fuel type code":"CNG","street address":"1123 W 3rd Ave","plus4":1351,"longitude":-105.003,"id":"adzljlkkw6fg","state":"CO"},"type":"Feature","geometry":{"type":"Point","coordinates":[-105.003,39.72202]}},{"properties":{"city":"Denver","zip":"80204","latitude":39.73233,"fuel type code":"CNG","street address":"1001 Broadway St","plus4":2707,"longitude":-104.988,"id":"adzljlc8vs84","state":"CO"},"type":"Feature","geometry":{"type":"Point","coordinates":[-104.988,39.73233]}},{"properties":{"city":"Indianapolis","zip":"46225","latitude":39.73633,"fuel type code":"CNG","street address":"111 W Raymond St","plus4":1937,"longitude":-86.161,"id":"adzljlb4ieti","state":"IN"},"type":"Feature","geometry":{"type":"Point","coordinates":[-86.161,39.73633]}},{"properties":{"city":"Aurora","zip":"80011","latitude":39.76786,"fuel type code":"CNG","street address":"3751 Fraser St","plus4":1205,"longitude":-104.813,"id":"adzljlc191a6","state":"CO"},"type":"Feature","geometry":{"type":"Point","coordinates":[-104.813,39.76786]}},{"properties":{"city":"Indianapolis","zip":"46202","latitude":39.79769,"fuel type code":"CNG","street address":"2150 Dr Martin Luther King Jr St","plus4":null,"longitude":-86.1725,"id":"adzljllzue1o","state":"IN"},"type":"Feature","geometry":{"type":"Point","coordinates":[-86.1725,39.79769]}},{"properties":{"city":"Arvada","zip":"80003","latitude":39.80344,"fuel type code":"CNG","street address":"5901 Sheridan Blvd","plus4":5719,"longitude":-105.053,"id":"adzljln6sj03","state":"CO"},"type":"Feature","geometry":{"type":"Point","coordinates":[-105.053,39.80344]}},{"properties":{"city":"Indianapolis","zip":"46254","latitude":39.83404,"fuel type code":"CNG","street address":"4355 Lafayette Blvd","plus4":null,"longitude":-86.2508,"id":"adzljlf4tmdh","state":"IN"},"type":"Feature","geometry":{"type":"Point","coordinates":[-86.2508,39.83404]}},{"properties":{"city":"Denver","zip":"80249","latitude":39.8381,"fuel type code":"CNG","street address":"22800 E 78th Ave","plus4":6385,"longitude":-104.709,"id":"adzljle9xn27","state":"CO"},"type":"Feature","geometry":{"type":"Point","coordinates":[-104.709,39.8381]}},{"properties":{"city":"Eddystone","zip":"19022","latitude":39.8638603,"fuel type code":"CNG","street address":"1510 Chester Pike","plus4":1338,"longitude":-75.3370423,"id":"adzljlan5xso","state":"PA"},"type":"Feature","geometry":{"type":"Point","coordinates":[-75.3370423,39.8638603]}},{"properties":{"city":"Philadelphia","zip":"19113","latitude":39.872606,"fuel type code":"CNG","street address":"1 Scott Way","plus4":null,"longitude":-75.260831,"id":"adzljlm5jor9","state":"PA"},"type":"Feature","geometry":{"type":"Point","coordinates":[-75.260831,39.872606]}},{"properties":{"city":"Zanesville","zip":"43701","latitude":39.8727634,"fuel type code":"CNG","street address":"6400 Maysville Pk","plus4":null,"longitude":-82.1015581,"id":"adzljli13gbj","state":"OH"},"type":"Feature","geometry":{"type":"Point","coordinates":[-82.1015581,39.8727634]}},{"properties":{"city":"Concordville","zip":"19342","latitude":39.88187,"fuel type code":"CNG","street address":"1130 Baltimore Pike","plus4":null,"longitude":-75.5425,"id":"adzljlesps2x","state":"PA"},"type":"Feature","geometry":{"type":"Point","coordinates":[-75.5425,39.88187]}},{"properties":{"city":"Columbus","zip":"43223","latitude":39.9027514,"fuel type code":"CNG","street address":"2506 Jackson Pk","plus4":null,"longitude":-83.0249955,"id":"adzljllg49ls","state":"OH"},"type":"Feature","geometry":{"type":"Point","coordinates":[-83.0249955,39.9027514]}},{"properties":{"city":"Camden","zip":"8104","latitude":39.9141814,"fuel type code":"CNG","street address":"1001 Fairview St","plus4":2621,"longitude":-75.1075644,"id":"adzljliueueg","state":"NJ"},"type":"Feature","geometry":{"type":"Point","coordinates":[-75.1075644,39.9141814]}},{"properties":{"city":"Columbus","zip":"43232","latitude":39.9266246,"fuel type code":"CNG","street address":"2727 Brice Rd","plus4":null,"longitude":-82.8314328,"id":"adzljllhl0u8","state":"OH"},"type":"Feature","geometry":{"type":"Point","coordinates":[-82.8314328,39.9266246]}},{"properties":{"city":"Columbus","zip":"43232","latitude":39.92936,"fuel type code":"CNG","street address":"4211 Groves Rd","plus4":null,"longitude":-82.8856,"id":"adzljlk8ctkg","state":"OH"},"type":"Feature","geometry":{"type":"Point","coordinates":[-82.8856,39.92936]}},{"properties":{"city":"Columbus","zip":"43207","latitude":39.9336106,"fuel type code":"CNG","street address":"1751 Alum Creek Dr","plus4":null,"longitude":-82.9422075,"id":"adzljl7x8sla","state":"OH"},"type":"Feature","geometry":{"type":"Point","coordinates":[-82.9422075,39.9336106]}},{"properties":{"city":"Coatesville","zip":"19320","latitude":39.993845,"fuel type code":"CNG","street address":"175 N Caln Rd","plus4":null,"longitude":-75.785742,"id":"adzljlfmr3ed","state":"PA"},"type":"Feature","geometry":{"type":"Point","coordinates":[-75.785742,39.993845]}},{"properties":{"city":"Boulder","zip":"80303","latitude":39.99972,"fuel type code":"CNG","street address":"2990 Baseline Rd","plus4":2314,"longitude":-105.253,"id":"adzljlj5gui5","state":"CO"},"type":"Feature","geometry":{"type":"Point","coordinates":[-105.253,39.99972]}},{"properties":{"city":"Brighton","zip":"80601","latitude":40.00699,"fuel type code":"CNG","street address":"12466 Weld County Rd 2-1/4","plus4":null,"longitude":-104.8,"id":"adzljl8otga9","state":"CO"},"type":"Feature","geometry":{"type":"Point","coordinates":[-104.8,40.00699]}},{"properties":{"city":"Newark","zip":"43055","latitude":40.058031,"fuel type code":"CNG","street address":"600 W Church St","plus4":null,"longitude":-82.423622,"id":"adzljl9fdxz4","state":"OH"},"type":"Feature","geometry":{"type":"Point","coordinates":[-82.423622,40.058031]}},{"properties":{"city":"Berwyn","zip":"19312","latitude":40.0592201,"fuel type code":"CNG","street address":"1050 Swedesford Rd","plus4":1080,"longitude":-75.4620838,"id":"adzljlefabjy","state":"PA"},"type":"Feature","geometry":{"type":"Point","coordinates":[-75.4620838,40.0592201]}},{"properties":{"city":"Crawfordsville","zip":"47933","latitude":40.0753,"fuel type code":"CNG","street address":"2501 Lafayette Blvd","plus4":null,"longitude":-86.9056,"id":"adzljlltp07j","state":"IN"},"type":"Feature","geometry":{"type":"Point","coordinates":[-86.9056,40.0753]}},{"properties":{"city":"King of Prussia","zip":"19406","latitude":40.0854,"fuel type code":"CNG","street address":"113 N Gulph Rd","plus4":null,"longitude":-75.3905,"id":"adzljldgmrhw","state":"PA"},"type":"Feature","geometry":{"type":"Point","coordinates":[-75.3905,40.0854]}},{"properties":{"city":"Dublin","zip":"43016","latitude":40.093209,"fuel type code":"CNG","street address":"6351 Shier-Rings Rd","plus4":null,"longitude":-83.16221,"id":"adzljlb72dm1","state":"OH"},"type":"Feature","geometry":{"type":"Point","coordinates":[-83.16221,40.093209]}},{"properties":{"city":"Plymouth Meeting","zip":"19462","latitude":40.0965976,"fuel type code":"CNG","street address":"680 Ridge Pike","plus4":1945,"longitude":-75.2969173,"id":"adzljlbads8f","state":"PA"},"type":"Feature","geometry":{"type":"Point","coordinates":[-75.2969173,40.0965976]}},{"properties":{"city":"Fort Lupton","zip":"80621","latitude":40.11612,"fuel type code":"CNG","street address":"7984 US Highway 85","plus4":null,"longitude":-104.811,"id":"adzljlkhdg4d","state":"CO"},"type":"Feature","geometry":{"type":"Point","coordinates":[-104.811,40.11612]}},{"properties":{"city":"Myton","zip":"84052","latitude":40.116719,"fuel type code":"LNG","street address":"8190 S Pariette Rd","plus4":null,"longitude":-109.925873,"id":"adzljlmhi9k2","state":"UT"},"type":"Feature","geometry":{"type":"Point","coordinates":[-109.925873,40.116719]}},{"properties":{"city":"Myton","zip":"84052","latitude":40.116719,"fuel type code":"CNG","street address":"8190 S Pariette Rd","plus4":null,"longitude":-109.925873,"id":"adzljlg39gz1","state":"UT"},"type":"Feature","geometry":{"type":"Point","coordinates":[-109.925873,40.116719]}},{"properties":{"city":"Bristol","zip":"19007","latitude":40.121981,"fuel type code":"CNG","street address":"1224 Hayes Blvd","plus4":null,"longitude":-74.8564544,"id":"adzljl9iikuo","state":"PA"},"type":"Feature","geometry":{"type":"Point","coordinates":[-74.8564544,40.121981]}},{"properties":{"city":"Phoenixville","zip":"19460","latitude":40.125557,"fuel type code":"CNG","street address":"1101 W Bridge St","plus4":4270,"longitude":-75.536833,"id":"adzljl7xjpoc","state":"PA"},"type":"Feature","geometry":{"type":"Point","coordinates":[-75.536833,40.125557]}},{"properties":{"city":"Firestone","zip":"80504","latitude":40.16198,"fuel type code":"CNG","street address":"11099 E I-25 Frontage Rd","plus4":null,"longitude":-104.977,"id":"adzljllj3kxx","state":"CO"},"type":"Feature","geometry":{"type":"Point","coordinates":[-104.977,40.16198]}},{"properties":{"city":"Fairless Hills","zip":"19030","latitude":40.17983,"fuel type code":"CNG","street address":"451 Tyburn Rd","plus4":null,"longitude":-74.8045,"id":"adzljlexndvq","state":"PA"},"type":"Feature","geometry":{"type":"Point","coordinates":[-74.8045,40.17983]}},{"properties":{"city":"Springville","zip":"84663","latitude":40.18735,"fuel type code":"CNG","street address":"1460 N 1750 W","plus4":null,"longitude":-111.642,"id":"adzljlaztlw8","state":"UT"},"type":"Feature","geometry":{"type":"Point","coordinates":[-111.642,40.18735]}},{"properties":{"city":"Washington","zip":"15301","latitude":40.208069,"fuel type code":"CNG","street address":"200 Rangos Ln","plus4":null,"longitude":-80.273161,"id":"adzljl95dc9f","state":"PA"},"type":"Feature","geometry":{"type":"Point","coordinates":[-80.273161,40.208069]}},{"properties":{"city":"Frankfort","zip":"46041","latitude":40.265069,"fuel type code":"CNG","street address":"1490 S County Rd 700 W","plus4":null,"longitude":-86.637969,"id":"adzljll7t2u1","state":"IN"},"type":"Feature","geometry":{"type":"Point","coordinates":[-86.637969,40.265069]}},{"properties":{"city":"Coshocton","zip":"43812","latitude":40.2783736,"fuel type code":"CNG","street address":"501 N 3rd St","plus4":null,"longitude":-81.8668433,"id":"adzljllsl8md","state":"OH"},"type":"Feature","geometry":{"type":"Point","coordinates":[-81.8668433,40.2783736]}},{"properties":{"city":"Orem","zip":"84057","latitude":40.30743,"fuel type code":"CNG","street address":"490 N 1500 W","plus4":null,"longitude":-111.731,"id":"adzljll0x1ef","state":"UT"},"type":"Feature","geometry":{"type":"Point","coordinates":[-111.731,40.30743]}},{"properties":{"city":"Lindon","zip":"84042","latitude":40.35168,"fuel type code":"CNG","street address":"490 E State St","plus4":null,"longitude":-111.732,"id":"adzljld3mcmy","state":"UT"},"type":"Feature","geometry":{"type":"Point","coordinates":[-111.732,40.35168]}},{"properties":{"city":"Lehi","zip":"84043","latitude":40.38981,"fuel type code":"CNG","street address":"160 N 850 E","plus4":null,"longitude":-111.835,"id":"adzljljvau90","state":"UT"},"type":"Feature","geometry":{"type":"Point","coordinates":[-111.835,40.38981]}},{"properties":{"city":"Kersey","zip":"80644","latitude":40.3923,"fuel type code":"CNG","street address":"103 Hill St","plus4":null,"longitude":-104.565,"id":"adzljl8asmc4","state":"CO"},"type":"Feature","geometry":{"type":"Point","coordinates":[-104.565,40.3923]}},{"properties":{"city":"Greeley","zip":"80631","latitude":40.41301,"fuel type code":"CNG","street address":"1607 2nd Ave","plus4":null,"longitude":-104.68,"id":"adzljlj3j49s","state":"CO"},"type":"Feature","geometry":{"type":"Point","coordinates":[-104.68,40.41301]}},{"properties":{"city":"Naples","zip":"84078","latitude":40.43372,"fuel type code":"CNG","street address":"1521 S 1500 E","plus4":null,"longitude":-109.5,"id":"adzljla73d00","state":"UT"},"type":"Feature","geometry":{"type":"Point","coordinates":[-109.5,40.43372]}},{"properties":{"city":"Pittsburgh","zip":"15205","latitude":40.45351,"fuel type code":"CNG","street address":"755 Beechnut Dr","plus4":null,"longitude":-80.0854,"id":"adzljlh807rt","state":"PA"},"type":"Feature","geometry":{"type":"Point","coordinates":[-80.0854,40.45351]}},{"properties":{"city":"Pittsburgh","zip":"15222","latitude":40.4590619,"fuel type code":"CNG","street address":"2926 Smallman St","plus4":null,"longitude":-79.9742286,"id":"adzljlhmgzwz","state":"PA"},"type":"Feature","geometry":{"type":"Point","coordinates":[-79.9742286,40.4590619]}},{"properties":{"city":"Heber","zip":"84032","latitude":40.49319,"fuel type code":"CNG","street address":"1175 S Main St","plus4":2439,"longitude":-111.412,"id":"adzljlebszak","state":"UT"},"type":"Feature","geometry":{"type":"Point","coordinates":[-111.412,40.49319]}},{"properties":{"city":"Salt Lake City","zip":"84070","latitude":40.58317,"fuel type code":"CNG","street address":"200 E 9300 S","plus4":null,"longitude":-111.884,"id":"adzljlea6xhm","state":"UT"},"type":"Feature","geometry":{"type":"Point","coordinates":[-111.884,40.58317]}},{"properties":{"city":"Sandy","zip":"84070","latitude":40.58361,"fuel type code":"CNG","street address":"9150 S 500 W","plus4":null,"longitude":-111.906,"id":"adzljlefyb3a","state":"UT"},"type":"Feature","geometry":{"type":"Point","coordinates":[-111.906,40.58361]}},{"properties":{"city":"West Jordan","zip":"84088","latitude":40.5940355,"fuel type code":"CNG","street address":"8652 S 4000 W","plus4":null,"longitude":-111.9864147,"id":"adzljle1zidv","state":"UT"},"type":"Feature","geometry":{"type":"Point","coordinates":[-111.9864147,40.5940355]}},{"properties":{"city":"West Jordan","zip":"84088","latitude":40.60723,"fuel type code":"CNG","street address":"7953 S Airport Rd","plus4":null,"longitude":-111.996,"id":"adzljlgcxvwg","state":"UT"},"type":"Feature","geometry":{"type":"Point","coordinates":[-111.996,40.60723]}},{"properties":{"city":"Staten Island","zip":"10303","latitude":40.624617,"fuel type code":"CNG","street address":"200 Gulf Ave","plus4":1439,"longitude":-74.179494,"id":"adzljlkolpss","state":"NY"},"type":"Feature","geometry":{"type":"Point","coordinates":[-74.179494,40.624617]}},{"properties":{"city":"Brooklyn","zip":"11236","latitude":40.645196,"fuel type code":"CNG","street address":"8424 Ditmas Ave","plus4":1599,"longitude":-73.917927,"id":"adzljlm5r3to","state":"NY"},"type":"Feature","geometry":{"type":"Point","coordinates":[-73.917927,40.645196]}},{"properties":{"city":"Queens","zip":"11201","latitude":40.645397,"fuel type code":"CNG","street address":"John F Kennedy Airport","plus4":null,"longitude":-73.786717,"id":"adzljlid8wg7","state":"NY"},"type":"Feature","geometry":{"type":"Point","coordinates":[-73.786717,40.645397]}},{"properties":{"city":"Hewlett","zip":"11557","latitude":40.6458246,"fuel type code":"CNG","street address":"455 Mill Rd","plus4":1294,"longitude":-73.7056448,"id":"adzljlit715u","state":"NY"},"type":"Feature","geometry":{"type":"Point","coordinates":[-73.7056448,40.6458246]}},{"properties":{"city":"Park City","zip":"84060","latitude":40.66242,"fuel type code":"CNG","street address":"2010 N Park Ave","plus4":null,"longitude":-111.512,"id":"adzljlf9r1fx","state":"UT"},"type":"Feature","geometry":{"type":"Point","coordinates":[-111.512,40.66242]}},{"properties":{"city":"Murray","zip":"84123","latitude":40.67098,"fuel type code":"CNG","street address":"4646 S 500 W","plus4":null,"longitude":-111.906,"id":"adzljlhzmrwt","state":"UT"},"type":"Feature","geometry":{"type":"Point","coordinates":[-111.906,40.67098]}},{"properties":{"city":"Salt Lake City","zip":"84123","latitude":40.67122,"fuel type code":"CNG","street address":"4600 S Redwood Rd","plus4":null,"longitude":-111.941,"id":"adzljlkbo4f3","state":"UT"},"type":"Feature","geometry":{"type":"Point","coordinates":[-111.941,40.67122]}},{"properties":{"city":"Salt Lake City","zip":"84119","latitude":40.67241,"fuel type code":"CNG","street address":"4501 S 2700 W","plus4":5977,"longitude":-111.958,"id":"adzljlbmd38d","state":"UT"},"type":"Feature","geometry":{"type":"Point","coordinates":[-111.958,40.67241]}},{"properties":{"city":"Newark","zip":"7114","latitude":40.691831,"fuel type code":"CNG","street address":"100 Lindbergh Rd","plus4":null,"longitude":-74.184861,"id":"adzljldvyoj2","state":"NJ"},"type":"Feature","geometry":{"type":"Point","coordinates":[-74.184861,40.691831]}},{"properties":{"city":"Peoria","zip":"61604","latitude":40.70205,"fuel type code":"CNG","street address":"1113 N Swords Ave","plus4":null,"longitude":-89.6419,"id":"adzljlihrlx1","state":"IL"},"type":"Feature","geometry":{"type":"Point","coordinates":[-89.6419,40.70205]}},{"properties":{"city":"West Valley City","zip":"84119","latitude":40.71225,"fuel type code":"CNG","street address":"3000 Parkway Blvd","plus4":1274,"longitude":-111.961,"id":"adzljle5m179","state":"UT"},"type":"Feature","geometry":{"type":"Point","coordinates":[-111.961,40.71225]}},{"properties":{"city":"Brooklyn","zip":"11211","latitude":40.7180695,"fuel type code":"CNG","street address":"287 Maspeth Ave","plus4":1788,"longitude":-73.9315166,"id":"adzljl7lfab1","state":"NY"},"type":"Feature","geometry":{"type":"Point","coordinates":[-73.9315166,40.7180695]}},{"properties":{"city":"Salt Lake City","zip":"84104","latitude":40.72719,"fuel type code":"CNG","street address":"2025 S 900 W","plus4":null,"longitude":-111.916598,"id":"adzljli7r0h6","state":"UT"},"type":"Feature","geometry":{"type":"Point","coordinates":[-111.916598,40.72719]}},{"properties":{"city":"Salt Lake City","zip":"84104","latitude":40.72719,"fuel type code":"LNG","street address":"2025 S 900 W","plus4":null,"longitude":-111.916598,"id":"adzljld09vix","state":"UT"},"type":"Feature","geometry":{"type":"Point","coordinates":[-111.916598,40.72719]}},{"properties":{"city":"Salt Lake City","zip":"84104","latitude":40.73941,"fuel type code":"CNG","street address":"4285 W 1385 S","plus4":null,"longitude":-111.992,"id":"adzljldbz83j","state":"UT"},"type":"Feature","geometry":{"type":"Point","coordinates":[-111.992,40.73941]}},{"properties":{"city":"Salt Lake City","zip":"84104","latitude":40.739972,"fuel type code":"LNG","street address":"1881 California Ave","plus4":null,"longitude":-111.943631,"id":"adzljlcz50cw","state":"UT"},"type":"Feature","geometry":{"type":"Point","coordinates":[-111.943631,40.739972]}},{"properties":{"city":"Clearfield","zip":"84105","latitude":40.7402923,"fuel type code":"CNG","street address":"1350 E 700 S","plus4":null,"longitude":-111.8712443,"id":"adzljleenfkg","state":"UT"},"type":"Feature","geometry":{"type":"Point","coordinates":[-111.8712443,40.7402923]}},{"properties":{"city":"State College","zip":"16801","latitude":40.75944,"fuel type code":"CNG","street address":"3180 College Ave","plus4":null,"longitude":-77.8769,"id":"adzljl8kaxbq","state":"PA"},"type":"Feature","geometry":{"type":"Point","coordinates":[-77.8769,40.75944]}},{"properties":{"city":"Lincoln","zip":"68512","latitude":40.75954,"fuel type code":"CNG","street address":"1600 Windhoek Dr","plus4":null,"longitude":-96.6979,"id":"adzljlfpmfvr","state":"NE"},"type":"Feature","geometry":{"type":"Point","coordinates":[-96.6979,40.75954]}},{"properties":{"city":"Salt Lake City","zip":"84102","latitude":40.76152,"fuel type code":"CNG","street address":"425 S 1778 E","plus4":null,"longitude":-111.838,"id":"adzljlgs3iy9","state":"UT"},"type":"Feature","geometry":{"type":"Point","coordinates":[-111.838,40.76152]}},{"properties":{"city":"Salt Lake City","zip":"84104","latitude":40.76499,"fuel type code":"CNG","street address":"1150 W 200 S","plus4":1804,"longitude":-111.924,"id":"adzljlgqvan6","state":"UT"},"type":"Feature","geometry":{"type":"Point","coordinates":[-111.924,40.76499]}},{"properties":{"city":"Hicksville","zip":"11801","latitude":40.76616,"fuel type code":"CNG","street address":"175 E Old Country Rd","plus4":4257,"longitude":-73.512375,"id":"adzljll76nf4","state":"NY"},"type":"Feature","geometry":{"type":"Point","coordinates":[-73.512375,40.76616]}},{"properties":{"city":"Queens","zip":"11354","latitude":40.767802,"fuel type code":"CNG","street address":"124-15 31st Ave","plus4":null,"longitude":-73.845956,"id":"adzljlbz4cdt","state":"NY"},"type":"Feature","geometry":{"type":"Point","coordinates":[-73.845956,40.767802]}},{"properties":{"city":"Flushing","zip":"11371","latitude":40.774739,"fuel type code":"CNG","street address":"Grand Central Pkwy","plus4":null,"longitude":-73.872372,"id":"adzljlf81w38","state":"NY"},"type":"Feature","geometry":{"type":"Point","coordinates":[-73.872372,40.774739]}},{"properties":{"city":"Salt Lake City","zip":"84116","latitude":40.77812,"fuel type code":"CNG","street address":"600 N 3700 W","plus4":null,"longitude":-111.98,"id":"adzljle1p4sk","state":"UT"},"type":"Feature","geometry":{"type":"Point","coordinates":[-111.98,40.77812]}},{"properties":{"city":"Canton","zip":"44707","latitude":40.78073,"fuel type code":"CNG","street address":"1600 Gateway Blvd SE","plus4":null,"longitude":-81.3681,"id":"adzljl7z8cuv","state":"OH"},"type":"Feature","geometry":{"type":"Point","coordinates":[-81.3681,40.78073]}},{"properties":{"city":"Brentwood","zip":"11717","latitude":40.784165,"fuel type code":"CNG","street address":"1650 Islip Ave","plus4":5294,"longitude":-73.219242,"id":"adzljll953in","state":"NY"},"type":"Feature","geometry":{"type":"Point","coordinates":[-73.219242,40.784165]}},{"properties":{"city":"Syosset","zip":"11791","latitude":40.7975414,"fuel type code":"CNG","street address":"500 Robbins Ln","plus4":null,"longitude":-73.5152895,"id":"adzljlb6oclo","state":"NY"},"type":"Feature","geometry":{"type":"Point","coordinates":[-73.5152895,40.7975414]}},{"properties":{"city":"Yaphank","zip":"11713","latitude":40.8052419,"fuel type code":"CNG","street address":"350 Horseblock Rd","plus4":null,"longitude":-72.9377488,"id":"adzljlj6sfym","state":"NY"},"type":"Feature","geometry":{"type":"Point","coordinates":[-72.9377488,40.8052419]}},{"properties":{"city":"Commack","zip":"11725","latitude":40.80572,"fuel type code":"CNG","street address":"97 Crooked Hill Rd","plus4":null,"longitude":-73.2883,"id":"adzljlm4wx7w","state":"NY"},"type":"Feature","geometry":{"type":"Point","coordinates":[-73.2883,40.80572]}},{"properties":{"city":"Hauppauge","zip":"11788","latitude":40.822358,"fuel type code":"CNG","street address":"250 Veterans Memorial Hwy","plus4":null,"longitude":-73.208081,"id":"adzljla09hr2","state":"NY"},"type":"Feature","geometry":{"type":"Point","coordinates":[-73.208081,40.822358]}},{"properties":{"city":"Westhampton Beach","zip":"11978","latitude":40.8303795,"fuel type code":"CNG","street address":"124 Old Riverhead Rd","plus4":null,"longitude":-72.6468027,"id":"adzljlklur9b","state":"NY"},"type":"Feature","geometry":{"type":"Point","coordinates":[-72.6468027,40.8303795]}},{"properties":{"city":"Bronx","zip":"10462","latitude":40.8437,"fuel type code":"CNG","street address":"1615 Bronxdale Ave","plus4":3301,"longitude":-73.857686,"id":"adzljl7jplaf","state":"NY"},"type":"Feature","geometry":{"type":"Point","coordinates":[-73.857686,40.8437]}},{"properties":{"city":"Lincoln","zip":"68524","latitude":40.84754,"fuel type code":"CNG","street address":"3520 NW 36th St","plus4":null,"longitude":-96.7722,"id":"adzljlevvbeq","state":"NE"},"type":"Feature","geometry":{"type":"Point","coordinates":[-96.7722,40.84754]}},{"properties":{"city":"Orrville","zip":"44667","latitude":40.8566,"fuel type code":"CNG","street address":"1381 Dairy Ln","plus4":null,"longitude":-81.7714,"id":"adzljli9dgf3","state":"OH"},"type":"Feature","geometry":{"type":"Point","coordinates":[-81.7714,40.8566]}},{"properties":{"city":"Seldon","zip":"11784","latitude":40.8679541,"fuel type code":"CNG","street address":"25 N Bicycle Path","plus4":null,"longitude":-73.0341954,"id":"adzljlkm04t6","state":"NY"},"type":"Feature","geometry":{"type":"Point","coordinates":[-73.0341954,40.8679541]}},{"properties":{"city":"Kings Park","zip":"11754","latitude":40.8695407,"fuel type code":"CNG","street address":"85 Old Northport Rd","plus4":null,"longitude":-73.2628541,"id":"adzljljkuyow","state":"NY"},"type":"Feature","geometry":{"type":"Point","coordinates":[-73.2628541,40.8695407]}},{"properties":{"city":"Woods Cross","zip":"84087","latitude":40.88393,"fuel type code":"CNG","street address":"527 S 700 W","plus4":null,"longitude":-111.899,"id":"adzljlad2oy8","state":"UT"},"type":"Feature","geometry":{"type":"Point","coordinates":[-111.899,40.88393]}},{"properties":{"city":"Punxsutawney","zip":"15767","latitude":40.919381,"fuel type code":"CNG","street address":"601 S Main St Ext","plus4":null,"longitude":-78.983944,"id":"adzljldjmb1n","state":"PA"},"type":"Feature","geometry":{"type":"Point","coordinates":[-78.983944,40.919381]}},{"properties":{"city":"Riverhead","zip":"11901","latitude":40.940179,"fuel type code":"CNG","street address":"117 Doctors Path","plus4":1715,"longitude":-72.65268,"id":"adzljliotjuf","state":"NY"},"type":"Feature","geometry":{"type":"Point","coordinates":[-72.65268,40.940179]}},{"properties":{"city":"Rye","zip":"10580","latitude":40.9793043,"fuel type code":"CNG","street address":"178 Theodore Fremd Ave","plus4":2896,"longitude":-73.6916723,"id":"adzljlakn9if","state":"NY"},"type":"Feature","geometry":{"type":"Point","coordinates":[-73.6916723,40.9793043]}},{"properties":{"city":"Coolspring","zip":"15730","latitude":41.000556,"fuel type code":"CNG","street address":"5363 Route 36","plus4":null,"longitude":-79.057778,"id":"adzljlfcjina","state":"PA"},"type":"Feature","geometry":{"type":"Point","coordinates":[-79.057778,41.000556]}},{"properties":{"city":"Fair Oaks","zip":"47943","latitude":41.00993,"fuel type code":"CNG","street address":"856 N 600 E","plus4":null,"longitude":-87.2761,"id":"adzljl7zphxu","state":"IN"},"type":"Feature","geometry":{"type":"Point","coordinates":[-87.2761,41.00993]}},{"properties":{"city":"Seville","zip":"44273","latitude":41.02946,"fuel type code":"LNG","street address":"8924 Lake Rd","plus4":null,"longitude":-81.9066,"id":"adzljlb53tp8","state":"OH"},"type":"Feature","geometry":{"type":"Point","coordinates":[-81.9066,41.02946]}},{"properties":{"city":"Kaysville","zip":"84037","latitude":41.035831,"fuel type code":"CNG","street address":"530 W Old Mill Ln","plus4":null,"longitude":-111.949041,"id":"adzljl7s3pqu","state":"UT"},"type":"Feature","geometry":{"type":"Point","coordinates":[-111.949041,41.035831]}},{"properties":{"city":"Rimersburg","zip":"16248","latitude":41.0753525,"fuel type code":"CNG","street address":"10588 Route 68 N","plus4":null,"longitude":-79.4829284,"id":"adzljlmk1vuk","state":"PA"},"type":"Feature","geometry":{"type":"Point","coordinates":[-79.4829284,41.0753525]}},{"properties":{"city":"Valhalla","zip":"10595","latitude":41.0823168,"fuel type code":"CNG","street address":"1 Dana Rd","plus4":null,"longitude":-73.8133383,"id":"adzljl81gunb","state":"NY"},"type":"Feature","geometry":{"type":"Point","coordinates":[-73.8133383,41.0823168]}},{"properties":{"city":"Cheyenne","zip":"82001","latitude":41.134377,"fuel type code":"CNG","street address":"1301 W 24th St","plus4":2601,"longitude":-104.833166,"id":"adzljlf75uc4","state":"WY"},"type":"Feature","geometry":{"type":"Point","coordinates":[-104.833166,41.134377]}},{"properties":{"city":"Bridgeport","zip":"6605","latitude":41.1644695,"fuel type code":"LNG","street address":"555 Wordin Ave","plus4":null,"longitude":-73.2070015,"id":"adzljllni62c","state":"CT"},"type":"Feature","geometry":{"type":"Point","coordinates":[-73.2070015,41.1644695]}},{"properties":{"city":"Bridgeport","zip":"6605","latitude":41.1644695,"fuel type code":"CNG","street address":"555 Wordin Ave","plus4":null,"longitude":-73.2070015,"id":"adzljlgi47ix","state":"CT"},"type":"Feature","geometry":{"type":"Point","coordinates":[-73.2070015,41.1644695]}},{"properties":{"city":"Ogden","zip":"84403","latitude":41.176906,"fuel type code":"CNG","street address":"4760 Old Post Rd","plus4":null,"longitude":-111.947761,"id":"adzljlmmrz1o","state":"UT"},"type":"Feature","geometry":{"type":"Point","coordinates":[-111.947761,41.176906]}},{"properties":{"city":"Omaha","zip":"68117","latitude":41.21282,"fuel type code":"CNG","street address":"5318 L St","plus4":null,"longitude":-95.997,"id":"adzljlfq7y4l","state":"NE"},"type":"Feature","geometry":{"type":"Point","coordinates":[-95.997,41.21282]}},{"properties":{"city":"Ogden","zip":"84401","latitude":41.22828,"fuel type code":"CNG","street address":"2105 S 1100 W","plus4":278,"longitude":-112.006,"id":"adzljlcfzm0q","state":"UT"},"type":"Feature","geometry":{"type":"Point","coordinates":[-112.006,41.22828]}},{"properties":{"city":"Ogden","zip":"84401","latitude":41.22923,"fuel type code":"CNG","street address":"1172 W 2100 S","plus4":null,"longitude":-112.008,"id":"adzljlfaiqt7","state":"UT"},"type":"Feature","geometry":{"type":"Point","coordinates":[-112.008,41.22923]}},{"properties":{"city":"Omaha","zip":"68106","latitude":41.23508,"fuel type code":"CNG","street address":"2615 S 64th Ave","plus4":null,"longitude":-96.0124,"id":"adzljlc6ebrh","state":"NE"},"type":"Feature","geometry":{"type":"Point","coordinates":[-96.0124,41.23508]}},{"properties":{"city":"Evanston","zip":"82930","latitude":41.26168,"fuel type code":"CNG","street address":"38 Allegiance Cir","plus4":null,"longitude":-110.992,"id":"adzljlehybdn","state":"WY"},"type":"Feature","geometry":{"type":"Point","coordinates":[-110.992,41.26168]}},{"properties":{"city":"West Haven","zip":"6516","latitude":41.290778,"fuel type code":"CNG","street address":"65 Industry Dr","plus4":null,"longitude":-72.984796,"id":"adzljln17fbx","state":"CT"},"type":"Feature","geometry":{"type":"Point","coordinates":[-72.984796,41.290778]}},{"properties":{"city":"Brook Park","zip":"44142","latitude":41.403106,"fuel type code":"CNG","street address":"18899 Snow Rd","plus4":null,"longitude":-81.830147,"id":"adzljlkv1hv5","state":"OH"},"type":"Feature","geometry":{"type":"Point","coordinates":[-81.830147,41.403106]}},{"properties":{"city":"Brigham City","zip":"84302","latitude":41.48634,"fuel type code":"CNG","street address":"1674 W 1100 S","plus4":null,"longitude":-112.043,"id":"adzljl8njz62","state":"UT"},"type":"Feature","geometry":{"type":"Point","coordinates":[-112.043,41.48634]}},{"properties":{"city":"Cleveland","zip":"44103","latitude":41.5101,"fuel type code":"CNG","street address":"1798 E 55th St","plus4":null,"longitude":-81.652,"id":"adzljl9rmh3w","state":"OH"},"type":"Feature","geometry":{"type":"Point","coordinates":[-81.652,41.5101]}},{"properties":{"city":"Norwich","zip":"6360","latitude":41.5275847,"fuel type code":"CNG","street address":"157 N Main St","plus4":4711,"longitude":-72.0641056,"id":"adzljlkbp6uk","state":"CT"},"type":"Feature","geometry":{"type":"Point","coordinates":[-72.0641056,41.5275847]}},{"properties":{"city":"Rock Springs","zip":"82901","latitude":41.57811,"fuel type code":"CNG","street address":"1401 New Hampshire St","plus4":7271,"longitude":-109.204,"id":"adzljlfdrhmv","state":"WY"},"type":"Feature","geometry":{"type":"Point","coordinates":[-109.204,41.57811]}},{"properties":{"city":"Rock Springs","zip":"82901","latitude":41.613419,"fuel type code":"CNG","street address":"1640 Elk St","plus4":null,"longitude":-109.230014,"id":"adzljlfwgo72","state":"WY"},"type":"Feature","geometry":{"type":"Point","coordinates":[-109.230014,41.613419]}},{"properties":{"city":"Grimes","zip":"50111","latitude":41.659057,"fuel type code":"CNG","street address":"1905 SE 37th St","plus4":null,"longitude":-93.773918,"id":"adzljlbkxwgu","state":"IA"},"type":"Feature","geometry":{"type":"Point","coordinates":[-93.773918,41.659057]}},{"properties":{"city":"South Yarmouth","zip":"2664","latitude":41.688787,"fuel type code":"CNG","street address":"127 Whites Path","plus4":1228,"longitude":-70.201253,"id":"adzljlgfgwyk","state":"MA"},"type":"Feature","geometry":{"type":"Point","coordinates":[-70.201253,41.688787]}},{"properties":{"city":"Poughkeepsie","zip":"12603","latitude":41.6965085,"fuel type code":"CNG","street address":"4 Burnett Blvd","plus4":null,"longitude":-73.888482,"id":"adzljlfxhrmh","state":"NY"},"type":"Feature","geometry":{"type":"Point","coordinates":[-73.888482,41.6965085]}},{"properties":{"city":"Tremonton","zip":"84337","latitude":41.7107821,"fuel type code":"CNG","street address":"2267 W Main St","plus4":null,"longitude":-112.1995043,"id":"adzljlajjh2o","state":"UT"},"type":"Feature","geometry":{"type":"Point","coordinates":[-112.1995043,41.7107821]}},{"properties":{"city":"Warwick","zip":"2886","latitude":41.7259,"fuel type code":"CNG","street address":"2000 Post Rd","plus4":null,"longitude":-71.4359,"id":"adzljlg43tz3","state":"RI"},"type":"Feature","geometry":{"type":"Point","coordinates":[-71.4359,41.7259]}},{"properties":{"city":"Logan","zip":"84321","latitude":41.73565,"fuel type code":"CNG","street address":"1050 W 200 N","plus4":null,"longitude":-111.861,"id":"adzljl7eqzom","state":"UT"},"type":"Feature","geometry":{"type":"Point","coordinates":[-111.861,41.73565]}},{"properties":{"city":"Hartford","zip":"6114","latitude":41.7368759,"fuel type code":"CNG","street address":"131 Brainard Rd","plus4":1604,"longitude":-72.6598269,"id":"adzljl8zcd8i","state":"CT"},"type":"Feature","geometry":{"type":"Point","coordinates":[-72.6598269,41.7368759]}},{"properties":{"city":"Hartford","zip":"6114","latitude":41.742085,"fuel type code":"CNG","street address":"33 Maxim Rd","plus4":null,"longitude":-72.658875,"id":"adzljlgjo4t1","state":"CT"},"type":"Feature","geometry":{"type":"Point","coordinates":[-72.658875,41.742085]}},{"properties":{"city":"Logan","zip":"84321","latitude":41.74756,"fuel type code":"CNG","street address":"1400 E 900 N","plus4":3606,"longitude":-111.799,"id":"adzljli453a4","state":"UT"},"type":"Feature","geometry":{"type":"Point","coordinates":[-111.799,41.74756]}},{"properties":{"city":"Towanda","zip":"18848","latitude":41.787772,"fuel type code":"CNG","street address":"474 Reuter Blvd","plus4":null,"longitude":-76.454233,"id":"adzljln5qosq","state":"PA"},"type":"Feature","geometry":{"type":"Point","coordinates":[-76.454233,41.787772]}},{"properties":{"city":"Providence","zip":"2903","latitude":41.795367,"fuel type code":"CNG","street address":"670 Allens Ave","plus4":4612,"longitude":-71.397758,"id":"adzljlb753cx","state":"RI"},"type":"Feature","geometry":{"type":"Point","coordinates":[-71.397758,41.795367]}},{"properties":{"city":"Bloomfield","zip":"6002","latitude":41.8104846,"fuel type code":"CNG","street address":"86 Granby St","plus4":null,"longitude":-72.7085084,"id":"adzljlambz0q","state":"CT"},"type":"Feature","geometry":{"type":"Point","coordinates":[-72.7085084,41.8104846]}},{"properties":{"city":"Cicero","zip":"60804","latitude":41.8221403,"fuel type code":"CNG","street address":"5050 W Pershing Rd","plus4":null,"longitude":-87.7486788,"id":"adzljldh01cm","state":"IL"},"type":"Feature","geometry":{"type":"Point","coordinates":[-87.7486788,41.8221403]}},{"properties":{"city":"Chicago","zip":"60616","latitude":41.868414,"fuel type code":"CNG","street address":"540 W Grenshaw","plus4":null,"longitude":-87.641917,"id":"adzljll94fxn","state":"IL"},"type":"Feature","geometry":{"type":"Point","coordinates":[-87.641917,41.868414]}},{"properties":{"city":"Adrian","zip":"49221","latitude":41.8999666,"fuel type code":"CNG","street address":"117 N Winter St","plus4":2042,"longitude":-84.0374774,"id":"adzljlfbm9ag","state":"MI"},"type":"Feature","geometry":{"type":"Point","coordinates":[-84.0374774,41.8999666]}},{"properties":{"city":"Chicago","zip":"60642","latitude":41.90238,"fuel type code":"CNG","street address":"1241 W Division St","plus4":null,"longitude":-87.6588,"id":"adzljlktcnrg","state":"IL"},"type":"Feature","geometry":{"type":"Point","coordinates":[-87.6588,41.90238]}},{"properties":{"city":"Middleborough","zip":"2346","latitude":41.902772,"fuel type code":"CNG","street address":"44 Harding St","plus4":null,"longitude":-70.968072,"id":"adzljl8t2owc","state":"MA"},"type":"Feature","geometry":{"type":"Point","coordinates":[-70.968072,41.902772]}},{"properties":{"city":"Windsor Locks","zip":"6096","latitude":41.920173,"fuel type code":"CNG","street address":"80 Ella Grasso Tpk","plus4":null,"longitude":-72.671484,"id":"adzljliuewsm","state":"CT"},"type":"Feature","geometry":{"type":"Point","coordinates":[-72.671484,41.920173]}},{"properties":{"city":"Chicago","zip":"60618","latitude":41.93754,"fuel type code":"CNG","street address":"3145 N Western Ave","plus4":null,"longitude":-87.688,"id":"adzljlmmdo62","state":"IL"},"type":"Feature","geometry":{"type":"Point","coordinates":[-87.688,41.93754]}},{"properties":{"city":"Cumberland","zip":"2864","latitude":41.9403814,"fuel type code":"CNG","street address":"1595 Mendon Rd","plus4":4884,"longitude":-71.4330944,"id":"adzljlec0oqp","state":"RI"},"type":"Feature","geometry":{"type":"Point","coordinates":[-71.4330944,41.9403814]}},{"properties":{"city":"Des Plaines","zip":"60018","latitude":42.01995,"fuel type code":"CNG","street address":"1700 S Mount Prospect Rd","plus4":null,"longitude":-87.9224,"id":"adzljljze6i2","state":"IL"},"type":"Feature","geometry":{"type":"Point","coordinates":[-87.9224,42.01995]}},{"properties":{"city":"Binghamton","zip":"13904","latitude":42.1028889,"fuel type code":"CNG","street address":"112 Barlow Rd","plus4":null,"longitude":-75.837234,"id":"adzljll18fzn","state":"NY"},"type":"Feature","geometry":{"type":"Point","coordinates":[-75.837234,42.1028889]}},{"properties":{"city":"Walpole","zip":"2081","latitude":42.139911,"fuel type code":"CNG","street address":"533 High Plain St","plus4":null,"longitude":-71.21695,"id":"adzljllupm7k","state":"MA"},"type":"Feature","geometry":{"type":"Point","coordinates":[-71.21695,42.139911]}},{"properties":{"city":"Taylor","zip":"48180","latitude":42.198929,"fuel type code":"CNG","street address":"14640 Pardee Rd","plus4":null,"longitude":-83.258787,"id":"adzljl8a28an","state":"MI"},"type":"Feature","geometry":{"type":"Point","coordinates":[-83.258787,42.198929]}},{"properties":{"city":"Rockford","zip":"61102","latitude":42.22437,"fuel type code":"CNG","street address":"550 Southrock Dr","plus4":null,"longitude":-89.1091,"id":"adzljlloez2o","state":"IL"},"type":"Feature","geometry":{"type":"Point","coordinates":[-89.1091,42.22437]}},{"properties":{"city":"Ypsilanti","zip":"48197","latitude":42.233344,"fuel type code":"CNG","street address":"3825 Carpenter Rd","plus4":9625,"longitude":-83.677327,"id":"adzljlbnylr5","state":"MI"},"type":"Feature","geometry":{"type":"Point","coordinates":[-83.677327,42.233344]}},{"properties":{"city":"Ann Arbor","zip":"48103","latitude":42.23982,"fuel type code":"CNG","street address":"3145 Ann Arbor-Saline Rd","plus4":9742,"longitude":-83.766816,"id":"adzljldwqse7","state":"MI"},"type":"Feature","geometry":{"type":"Point","coordinates":[-83.766816,42.23982]}},{"properties":{"city":"Worcester","zip":"1605","latitude":42.275883,"fuel type code":"CNG","street address":"25 N Lake Ave","plus4":null,"longitude":-71.760138,"id":"adzljlhatho1","state":"MA"},"type":"Feature","geometry":{"type":"Point","coordinates":[-71.760138,42.275883]}},{"properties":{"city":"West Roxbury","zip":"2132","latitude":42.2788899,"fuel type code":"CNG","street address":"201 Rivermoor St","plus4":null,"longitude":-71.180333,"id":"adzljlcdu3c1","state":"MA"},"type":"Feature","geometry":{"type":"Point","coordinates":[-71.180333,42.2788899]}},{"properties":{"city":"Ann Arbor","zip":"48104","latitude":42.288346,"fuel type code":"CNG","street address":"117 W Summit St","plus4":null,"longitude":-83.7464789,"id":"adzljlkh61nd","state":"MI"},"type":"Feature","geometry":{"type":"Point","coordinates":[-83.7464789,42.288346]}},{"properties":{"city":"Melvindale","zip":"48122","latitude":42.2917824,"fuel type code":"CNG","street address":"3751 Greenfield Rd","plus4":null,"longitude":-83.1763718,"id":"adzljlas8477","state":"MI"},"type":"Feature","geometry":{"type":"Point","coordinates":[-83.1763718,42.2917824]}},{"properties":{"city":"Medford","zip":"97501","latitude":42.324075,"fuel type code":"CNG","street address":"808 W Main St","plus4":2927,"longitude":-122.880537,"id":"adzljld5f7vw","state":"OR"},"type":"Feature","geometry":{"type":"Point","coordinates":[-122.880537,42.324075]}},{"properties":{"city":"Newton","zip":"2459","latitude":42.330231,"fuel type code":"CNG","street address":"Route 128 S","plus4":null,"longitude":-71.254708,"id":"adzljlaefhm4","state":"MA"},"type":"Feature","geometry":{"type":"Point","coordinates":[-71.254708,42.330231]}},{"properties":{"city":"Westfield","zip":"14787","latitude":42.3404506,"fuel type code":"CNG","street address":"8246 Route 5","plus4":null,"longitude":-79.5958487,"id":"adzljlb2qrfv","state":"NY"},"type":"Feature","geometry":{"type":"Point","coordinates":[-79.5958487,42.3404506]}},{"properties":{"city":"Detroit","zip":"48201","latitude":42.341747,"fuel type code":"CNG","street address":"3200 Hobson St","plus4":2995,"longitude":-83.068211,"id":"adzljlg3t35p","state":"MI"},"type":"Feature","geometry":{"type":"Point","coordinates":[-83.068211,42.341747]}},{"properties":{"city":"Medford","zip":"97504","latitude":42.3637023,"fuel type code":"CNG","street address":"3200 Crater Lake Ave","plus4":null,"longitude":-122.855604,"id":"adzljlgrcbj9","state":"OR"},"type":"Feature","geometry":{"type":"Point","coordinates":[-122.855604,42.3637023]}},{"properties":{"city":"East Boston","zip":"2128","latitude":42.3697665,"fuel type code":"CNG","street address":"81 N Service Rd","plus4":2026,"longitude":-71.0256212,"id":"adzljla4c5g4","state":"MA"},"type":"Feature","geometry":{"type":"Point","coordinates":[-71.0256212,42.3697665]}},{"properties":{"city":"Detroit","zip":"48227","latitude":42.392497,"fuel type code":"CNG","street address":"14270 Schaefer St","plus4":3668,"longitude":-83.176053,"id":"adzljl9dalhp","state":"MI"},"type":"Feature","geometry":{"type":"Point","coordinates":[-83.176053,42.392497]}},{"properties":{"city":"Everett","zip":"2149","latitude":42.393191,"fuel type code":"CNG","street address":"14 Rover St","plus4":5514,"longitude":-71.0643939,"id":"adzljllhf5pc","state":"MA"},"type":"Feature","geometry":{"type":"Point","coordinates":[-71.0643939,42.393191]}},{"properties":{"city":"Detroit","zip":"48234","latitude":42.408116,"fuel type code":"CNG","street address":"11043 French Rd","plus4":4076,"longitude":-83.009952,"id":"adzljl9177hu","state":"MI"},"type":"Feature","geometry":{"type":"Point","coordinates":[-83.009952,42.408116]}},{"properties":{"city":"Lexington","zip":"2421","latitude":42.439992,"fuel type code":"CNG","street address":"Route 128 N","plus4":null,"longitude":-71.257781,"id":"adzljln935vc","state":"MA"},"type":"Feature","geometry":{"type":"Point","coordinates":[-71.257781,42.439992]}},{"properties":{"city":"Stoneham","zip":"2180","latitude":42.4582183,"fuel type code":"CNG","street address":"164 Pond St","plus4":null,"longitude":-71.0878514,"id":"adzljl7qk07w","state":"MA"},"type":"Feature","geometry":{"type":"Point","coordinates":[-71.0878514,42.4582183]}},{"properties":{"city":"Sheridan","zip":"14135","latitude":42.4912,"fuel type code":"CNG","street address":"11363 Center Rd","plus4":null,"longitude":-79.237,"id":"adzljlf0ky0z","state":"NY"},"type":"Feature","geometry":{"type":"Point","coordinates":[-79.237,42.4912]}},{"properties":{"city":"Tewksbury","zip":"1876","latitude":42.628372,"fuel type code":"CNG","street address":"20 Main St","plus4":null,"longitude":-71.2734538,"id":"adzljlhi43qz","state":"MA"},"type":"Feature","geometry":{"type":"Point","coordinates":[-71.2734538,42.628372]}},{"properties":{"city":"Albany","zip":"12202","latitude":42.635536,"fuel type code":"CNG","street address":"McCarty Ave &amp; Hoffman Ave","plus4":null,"longitude":-73.777047,"id":"adzljl8pw6s6","state":"NY"},"type":"Feature","geometry":{"type":"Point","coordinates":[-73.777047,42.635536]}},{"properties":{"city":"Kenosha","zip":"53403","latitude":42.6677892,"fuel type code":"CNG","street address":"201 1st St","plus4":null,"longitude":-87.8092056,"id":"adzljlizmm8u","state":"WI"},"type":"Feature","geometry":{"type":"Point","coordinates":[-87.8092056,42.6677892]}},{"properties":{"city":"Albany","zip":"12204","latitude":42.6691953,"fuel type code":"CNG","street address":"1125 Broadway","plus4":null,"longitude":-73.7399119,"id":"adzljl8gqc7c","state":"NY"},"type":"Feature","geometry":{"type":"Point","coordinates":[-73.7399119,42.6691953]}},{"properties":{"city":"Jerome","zip":"83338","latitude":42.697356,"fuel type code":"LNG","street address":"2703 S Lincoln Ave","plus4":null,"longitude":-114.5185508,"id":"adzljlhqpe01","state":"ID"},"type":"Feature","geometry":{"type":"Point","coordinates":[-114.5185508,42.697356]}},{"properties":{"city":"Sturtevant","zip":"53177","latitude":42.72317,"fuel type code":"CNG","street address":"943 SE Frontage Rd","plus4":null,"longitude":-87.9512,"id":"adzljli8ah3q","state":"WI"},"type":"Feature","geometry":{"type":"Point","coordinates":[-87.9512,42.72317]}},{"properties":{"city":"Sturtevant","zip":"53177","latitude":42.7252563,"fuel type code":"CNG","street address":"717 S Sylvania Ave","plus4":null,"longitude":-87.9557308,"id":"adzljlixko11","state":"WI"},"type":"Feature","geometry":{"type":"Point","coordinates":[-87.9557308,42.7252563]}},{"properties":{"city":"Afton","zip":"83110","latitude":42.72742,"fuel type code":"CNG","street address":"44 W 3rd Ave","plus4":null,"longitude":-110.934,"id":"adzljle8xjem","state":"WY"},"type":"Feature","geometry":{"type":"Point","coordinates":[-110.934,42.72742]}},{"properties":{"city":"Nashua","zip":"3062","latitude":42.748922,"fuel type code":"CNG","street address":"11 Riverside St","plus4":null,"longitude":-71.497919,"id":"adzljlkahcms","state":"NH"},"type":"Feature","geometry":{"type":"Point","coordinates":[-71.497919,42.748922]}},{"properties":{"city":"Rotterdam","zip":"12303","latitude":42.7832079,"fuel type code":"CNG","street address":"3008 Chrisler Ave","plus4":null,"longitude":-73.929135,"id":"adzljl8gb4hk","state":"NY"},"type":"Feature","geometry":{"type":"Point","coordinates":[-73.929135,42.7832079]}},{"properties":{"city":"West Seneca","zip":"14224","latitude":42.844172,"fuel type code":"CNG","street address":"100 Ransier Dr","plus4":null,"longitude":-78.74579,"id":"adzljlcjpws4","state":"NY"},"type":"Feature","geometry":{"type":"Point","coordinates":[-78.74579,42.844172]}},{"properties":{"city":"Buffalo","zip":"14210","latitude":42.8614458,"fuel type code":"CNG","street address":"365 Mineral Springs Rd","plus4":null,"longitude":-78.8004268,"id":"adzljl8l4kr2","state":"NY"},"type":"Feature","geometry":{"type":"Point","coordinates":[-78.8004268,42.8614458]}},{"properties":{"city":"Pinedale","zip":"82941","latitude":42.8666061,"fuel type code":"CNG","street address":"10095 Highway 191","plus4":null,"longitude":-109.8902869,"id":"adzljlju17b0","state":"WY"},"type":"Feature","geometry":{"type":"Point","coordinates":[-109.8902869,42.8666061]}},{"properties":{"city":"Wyoming","zip":"49548","latitude":42.881889,"fuel type code":"CNG","street address":"500 44th St SW","plus4":null,"longitude":-85.676462,"id":"adzljlasr9nb","state":"MI"},"type":"Feature","geometry":{"type":"Point","coordinates":[-85.676462,42.881889]}},{"properties":{"city":"Milwaukee","zip":"53132","latitude":42.917262,"fuel type code":"CNG","street address":"4800 W Rawson Ave","plus4":8707,"longitude":-87.976379,"id":"adzljl81i4c1","state":"WI"},"type":"Feature","geometry":{"type":"Point","coordinates":[-87.976379,42.917262]}},{"properties":{"city":"Cudahy","zip":"53110","latitude":42.9301,"fuel type code":"CNG","street address":"2400 E College Ave","plus4":2805,"longitude":-87.88,"id":"adzljlmcssoj","state":"WI"},"type":"Feature","geometry":{"type":"Point","coordinates":[-87.88,42.9301]}},{"properties":{"city":"Milwaukee","zip":"53207","latitude":42.9358,"fuel type code":"CNG","street address":"5979 S Howell Ave","plus4":null,"longitude":-87.9103,"id":"adzljle3fjfh","state":"WI"},"type":"Feature","geometry":{"type":"Point","coordinates":[-87.9103,42.9358]}},{"properties":{"city":"Grand Rapids","zip":"49504","latitude":42.9578603,"fuel type code":"CNG","street address":"231 Bartlett St SW","plus4":4001,"longitude":-85.6742241,"id":"adzljljmhclo","state":"MI"},"type":"Feature","geometry":{"type":"Point","coordinates":[-85.6742241,42.9578603]}},{"properties":{"city":"Port Huron","zip":"48060","latitude":42.9775162,"fuel type code":"CNG","street address":"2021 Lapeer Ave","plus4":null,"longitude":-82.4484523,"id":"adzljlj06ntm","state":"MI"},"type":"Feature","geometry":{"type":"Point","coordinates":[-82.4484523,42.9775162]}},{"properties":{"city":"Waukesha","zip":"53186","latitude":42.9820769,"fuel type code":"CNG","street address":"1830 S West Ave","plus4":7400,"longitude":-88.2382219,"id":"adzljlbriokc","state":"WI"},"type":"Feature","geometry":{"type":"Point","coordinates":[-88.2382219,42.9820769]}},{"properties":{"city":"Milwaukee","zip":"53215","latitude":42.999843,"fuel type code":"CNG","street address":"2425 S 35th St","plus4":1405,"longitude":-87.959232,"id":"adzljlhciw2v","state":"WI"},"type":"Feature","geometry":{"type":"Point","coordinates":[-87.959232,42.999843]}},{"properties":{"city":"Milwaukee","zip":"53215","latitude":43.00153,"fuel type code":"CNG","street address":"3921 W Lincoln Ave","plus4":null,"longitude":-87.9641,"id":"adzljllw0nxq","state":"WI"},"type":"Feature","geometry":{"type":"Point","coordinates":[-87.9641,43.00153]}},{"properties":{"city":"Rush","zip":"14543","latitude":43.0030471,"fuel type code":"CNG","street address":"1235 Rush-Scottsville Rd","plus4":null,"longitude":-77.6725428,"id":"adzljlcckhog","state":"NY"},"type":"Feature","geometry":{"type":"Point","coordinates":[-77.6725428,43.0030471]}},{"properties":{"city":"Riverton","zip":"82501","latitude":43.01598,"fuel type code":"CNG","street address":"811 S Federal","plus4":null,"longitude":-108.378,"id":"adzljlhijhtb","state":"WY"},"type":"Feature","geometry":{"type":"Point","coordinates":[-108.378,43.01598]}},{"properties":{"city":"Syracuse","zip":"13202","latitude":43.035811,"fuel type code":"CNG","street address":"200 Cortland Ave","plus4":3422,"longitude":-76.15153,"id":"adzljlijxt53","state":"NY"},"type":"Feature","geometry":{"type":"Point","coordinates":[-76.15153,43.035811]}},{"properties":{"city":"Monona","zip":"53713","latitude":43.043003,"fuel type code":"CNG","street address":"2500 Royal Ave","plus4":null,"longitude":-89.353363,"id":"adzljld8ifp1","state":"WI"},"type":"Feature","geometry":{"type":"Point","coordinates":[-89.353363,43.043003]}},{"properties":{"city":"Milwaukee","zip":"53212","latitude":43.05052,"fuel type code":"CNG","street address":"424 W Cherry St","plus4":null,"longitude":-87.9167,"id":"adzljll6q69u","state":"WI"},"type":"Feature","geometry":{"type":"Point","coordinates":[-87.9167,43.05052]}},{"properties":{"city":"Waukesha","zip":"53186","latitude":43.0586,"fuel type code":"CNG","street address":"W229 N2086 Redford Blvd","plus4":null,"longitude":-88.2042,"id":"adzljl8xcmqj","state":"WI"},"type":"Feature","geometry":{"type":"Point","coordinates":[-88.2042,43.0586]}},{"properties":{"city":"Madison","zip":"53703","latitude":43.07867,"fuel type code":"CNG","street address":"645 E Main St","plus4":2912,"longitude":-89.3762,"id":"adzljl7n916o","state":"WI"},"type":"Feature","geometry":{"type":"Point","coordinates":[-89.3762,43.07867]}},{"properties":{"city":"Milwaukee","zip":"53209","latitude":43.09898,"fuel type code":"CNG","street address":"3025 W Ruby Ave","plus4":null,"longitude":-87.9511,"id":"adzljl7v0fnl","state":"WI"},"type":"Feature","geometry":{"type":"Point","coordinates":[-87.9511,43.09898]}},{"properties":{"city":"Niagara Falls","zip":"14304","latitude":43.105566,"fuel type code":"CNG","street address":"6250 Packard Rd","plus4":5904,"longitude":-78.9930119,"id":"adzljlh44wov","state":"NY"},"type":"Feature","geometry":{"type":"Point","coordinates":[-78.9930119,43.105566]}},{"properties":{"city":"Utica","zip":"13501","latitude":43.1111055,"fuel type code":"CNG","street address":"10 Harbor Lock Rd W","plus4":null,"longitude":-75.2161334,"id":"adzljl7xgk8i","state":"NY"},"type":"Feature","geometry":{"type":"Point","coordinates":[-75.2161334,43.1111055]}},{"properties":{"city":"Milwaukee","zip":"53209","latitude":43.1164,"fuel type code":"CNG","street address":"5400 N Green Bay Ave","plus4":5095,"longitude":-87.931676,"id":"adzljlhwzvjk","state":"WI"},"type":"Feature","geometry":{"type":"Point","coordinates":[-87.931676,43.1164]}},{"properties":{"city":"North Syracuse","zip":"13212","latitude":43.1194279,"fuel type code":"CNG","street address":"5430 S Bay Rd","plus4":null,"longitude":-76.1421128,"id":"adzljlf32l79","state":"NY"},"type":"Feature","geometry":{"type":"Point","coordinates":[-76.1421128,43.1194279]}},{"properties":{"city":"North Syracuse","zip":"13212","latitude":43.133934,"fuel type code":"CNG","street address":"7496 Round Pond Rd","plus4":null,"longitude":-76.08708,"id":"adzljldsil5a","state":"NY"},"type":"Feature","geometry":{"type":"Point","coordinates":[-76.08708,43.133934]}},{"properties":{"city":"Muskegon","zip":"49444","latitude":43.2012514,"fuel type code":"CNG","street address":"2277 E Broadway Ave","plus4":2505,"longitude":-86.1879706,"id":"adzljlhml3ee","state":"MI"},"type":"Feature","geometry":{"type":"Point","coordinates":[-86.1879706,43.2012514]}},{"properties":{"city":"Saukville","zip":"53080","latitude":43.381818,"fuel type code":"CNG","street address":"305 W Dekora St","plus4":null,"longitude":-87.946569,"id":"adzljl95ptzt","state":"WI"},"type":"Feature","geometry":{"type":"Point","coordinates":[-87.946569,43.381818]}},{"properties":{"city":"West Bend","zip":"53095","latitude":43.42722,"fuel type code":"CNG","street address":"1610 E Washington St","plus4":null,"longitude":-88.1983,"id":"adzljlh0nwso","state":"WI"},"type":"Feature","geometry":{"type":"Point","coordinates":[-88.1983,43.42722]}},{"properties":{"city":"Boise","zip":"83716","latitude":43.5196434,"fuel type code":"LNG","street address":"9100 S Eiseman Rd","plus4":null,"longitude":-116.1497909,"id":"adzljl90unqp","state":"ID"},"type":"Feature","geometry":{"type":"Point","coordinates":[-116.1497909,43.5196434]}},{"properties":{"city":"Nampa","zip":"83687","latitude":43.593304,"fuel type code":"CNG","street address":"3015 E Comstock Ave","plus4":null,"longitude":-116.534414,"id":"adzljlgwt72i","state":"ID"},"type":"Feature","geometry":{"type":"Point","coordinates":[-116.534414,43.593304]}},{"properties":{"city":"Boise","zip":"83713","latitude":43.609303,"fuel type code":"CNG","street address":"11101 W Executive Dr","plus4":null,"longitude":-116.320022,"id":"adzljl7oxd34","state":"ID"},"type":"Feature","geometry":{"type":"Point","coordinates":[-116.320022,43.609303]}},{"properties":{"city":"Sheboygan","zip":"53083","latitude":43.78997,"fuel type code":"CNG","street address":"4220 County Rd J","plus4":null,"longitude":-87.7631,"id":"adzljlefrepx","state":"WI"},"type":"Feature","geometry":{"type":"Point","coordinates":[-87.7631,43.78997]}},{"properties":{"city":"La Crosse","zip":"54601","latitude":43.80835,"fuel type code":"CNG","street address":"506 Cass St","plus4":null,"longitude":-91.2497,"id":"adzljl9yvmcb","state":"WI"},"type":"Feature","geometry":{"type":"Point","coordinates":[-91.2497,43.80835]}},{"properties":{"city":"La Crosse","zip":"54603","latitude":43.8519994,"fuel type code":"CNG","street address":"2025 Kwik Trip Way","plus4":null,"longitude":-91.2268897,"id":"adzljljeyhu2","state":"WI"},"type":"Feature","geometry":{"type":"Point","coordinates":[-91.2268897,43.8519994]}},{"properties":{"city":"La Crosse","zip":"54603","latitude":43.8519994,"fuel type code":"LNG","street address":"2025 Kwik Trip Way","plus4":null,"longitude":-91.2268897,"id":"adzljld9rc4f","state":"WI"},"type":"Feature","geometry":{"type":"Point","coordinates":[-91.2268897,43.8519994]}},{"properties":{"city":"Oshkosh","zip":"54904","latitude":43.9893,"fuel type code":"CNG","street address":"2400 S Washburn St","plus4":null,"longitude":-88.5859,"id":"adzljlgphtpj","state":"WI"},"type":"Feature","geometry":{"type":"Point","coordinates":[-88.5859,43.9893]}},{"properties":{"city":"Rochester","zip":"55902","latitude":44.05904,"fuel type code":"CNG","street address":"1990 Scott Rd NW","plus4":null,"longitude":-92.7669,"id":"adzljl9nclo9","state":"MN"},"type":"Feature","geometry":{"type":"Point","coordinates":[-92.7669,44.05904]}},{"properties":{"city":"Minnesota City","zip":"55959","latitude":44.07573,"fuel type code":"CNG","street address":"7020 Highway 61 W","plus4":null,"longitude":-91.7305,"id":"adzljlk38mps","state":"MN"},"type":"Feature","geometry":{"type":"Point","coordinates":[-91.7305,44.07573]}},{"properties":{"city":"Owatonna","zip":"55060","latitude":44.13885,"fuel type code":"CNG","street address":"2270 46th St NW","plus4":null,"longitude":-93.2572,"id":"adzljlkpl1ff","state":"MN"},"type":"Feature","geometry":{"type":"Point","coordinates":[-93.2572,44.13885]}},{"properties":{"city":"Appleton","zip":"54914","latitude":44.2596976,"fuel type code":"CNG","street address":"300 S Lynndale Dr","plus4":4517,"longitude":-88.4458484,"id":"adzljl9qvg96","state":"WI"},"type":"Feature","geometry":{"type":"Point","coordinates":[-88.4458484,44.2596976]}},{"properties":{"city":"De Pere","zip":"54115","latitude":44.452956,"fuel type code":"CNG","street address":"1501 W Main Ave","plus4":null,"longitude":-88.093299,"id":"adzljlkjw0zs","state":"WI"},"type":"Feature","geometry":{"type":"Point","coordinates":[-88.093299,44.452956]}},{"properties":{"city":"Burlington","zip":"5401","latitude":44.4614881,"fuel type code":"CNG","street address":"645 Pine St","plus4":null,"longitude":-73.2148785,"id":"adzljlm3u984","state":"VT"},"type":"Feature","geometry":{"type":"Point","coordinates":[-73.2148785,44.4614881]}},{"properties":{"city":"Stratford","zip":"54484","latitude":44.795628,"fuel type code":"CNG","street address":"517 S Weber","plus4":null,"longitude":-90.0791558,"id":"adzljli9swrw","state":"WI"},"type":"Feature","geometry":{"type":"Point","coordinates":[-90.0791558,44.795628]}},{"properties":{"city":"Menomonie","zip":"54751","latitude":44.8694995,"fuel type code":"CNG","street address":"2100 County Rd B","plus4":null,"longitude":-91.9041269,"id":"adzljlbs0zwd","state":"WI"},"type":"Feature","geometry":{"type":"Point","coordinates":[-91.9041269,44.8694995]}},{"properties":{"city":"Minneapolis","zip":"55419","latitude":44.89148,"fuel type code":"CNG","street address":"501 W 61 St","plus4":2299,"longitude":-93.2858,"id":"adzljlca7yxy","state":"MN"},"type":"Feature","geometry":{"type":"Point","coordinates":[-93.2858,44.89148]}},{"properties":{"city":"Wausau","zip":"54401","latitude":44.914159,"fuel type code":"CNG","street address":"4600 Rib Mountain Dr","plus4":null,"longitude":-89.650533,"id":"adzljlh98wop","state":"WI"},"type":"Feature","geometry":{"type":"Point","coordinates":[-89.650533,44.914159]}},{"properties":{"city":"Salem","zip":"97301","latitude":44.922451,"fuel type code":"CNG","street address":"1100 Airport Rd SE","plus4":1204,"longitude":-123.00102,"id":"adzljlc93dj3","state":"OR"},"type":"Feature","geometry":{"type":"Point","coordinates":[-123.00102,44.922451]}},{"properties":{"city":"Marinette","zip":"54143","latitude":45.0852868,"fuel type code":"CNG","street address":"2700 Cleveland Ave","plus4":null,"longitude":-87.6464051,"id":"adzljlgb5s8a","state":"WI"},"type":"Feature","geometry":{"type":"Point","coordinates":[-87.6464051,45.0852868]}},{"properties":{"city":"Blaine","zip":"55449","latitude":45.152304,"fuel type code":"CNG","street address":"10050 Naples St NE","plus4":null,"longitude":-93.186247,"id":"adzljli491zf","state":"MN"},"type":"Feature","geometry":{"type":"Point","coordinates":[-93.186247,45.152304]}},{"properties":{"city":"Billings","zip":"59101","latitude":45.79074,"fuel type code":"CNG","street address":"408 N 18th St","plus4":1441,"longitude":-108.496,"id":"adzljlguv3nh","state":"MT"},"type":"Feature","geometry":{"type":"Point","coordinates":[-108.496,45.79074]}},{"properties":{"city":"Bismarck","zip":"58504","latitude":46.79652,"fuel type code":"CNG","street address":"801 Airport Rd","plus4":6112,"longitude":-100.762,"id":"adzljl8lqv2e","state":"ND"},"type":"Feature","geometry":{"type":"Point","coordinates":[-100.762,46.79652]}},{"properties":{"city":"Dickinson","zip":"58601","latitude":46.87601,"fuel type code":"CNG","street address":"1133 W Broadway St","plus4":5514,"longitude":-102.806,"id":"adzljlfmjtu9","state":"ND"},"type":"Feature","geometry":{"type":"Point","coordinates":[-102.806,46.87601]}},{"properties":{"city":"Glendive","zip":"59330","latitude":47.12938,"fuel type code":"CNG","street address":"2001 N Merrill Ave","plus4":1927,"longitude":-104.694,"id":"adzljl8uby5w","state":"MT"},"type":"Feature","geometry":{"type":"Point","coordinates":[-104.694,47.12938]}},{"properties":{"city":"Lakewood","zip":"98499","latitude":47.1721319,"fuel type code":"CNG","street address":"3898 94th St SW","plus4":70,"longitude":-122.4861896,"id":"adzljligfc61","state":"WA"},"type":"Feature","geometry":{"type":"Point","coordinates":[-122.4861896,47.1721319]}},{"properties":{"city":"Auburn","zip":"98001","latitude":47.31101,"fuel type code":"CNG","street address":"325 C St NW","plus4":null,"longitude":-122.233,"id":"adzljlmrrlte","state":"WA"},"type":"Feature","geometry":{"type":"Point","coordinates":[-122.233,47.31101]}},{"properties":{"city":"SeaTac","zip":"98188","latitude":47.4271287,"fuel type code":"CNG","street address":"19425 28th Ave S","plus4":null,"longitude":-122.2979809,"id":"adzljldxuydv","state":"WA"},"type":"Feature","geometry":{"type":"Point","coordinates":[-122.2979809,47.4271287]}},{"properties":{"city":"Seattle","zip":"98108","latitude":47.5320291,"fuel type code":"CNG","street address":"149 SW Kenyon St","plus4":null,"longitude":-122.3322406,"id":"adzljll8ozxy","state":"WA"},"type":"Feature","geometry":{"type":"Point","coordinates":[-122.3322406,47.5320291]}},{"properties":{"city":"Seattle","zip":"98134","latitude":47.572682,"fuel type code":"CNG","street address":"60 S Spokane St","plus4":null,"longitude":-122.33599,"id":"adzljlmeak6j","state":"WA"},"type":"Feature","geometry":{"type":"Point","coordinates":[-122.33599,47.572682]}},{"properties":{"city":"Bellevue","zip":"98005","latitude":47.581913,"fuel type code":"CNG","street address":"13240 SE 32nd St","plus4":null,"longitude":-122.1623482,"id":"adzljlivkzts","state":"WA"},"type":"Feature","geometry":{"type":"Point","coordinates":[-122.1623482,47.581913]}},{"properties":{"city":"Everett","zip":"92801","latitude":47.9678082,"fuel type code":"CNG","street address":"3729 Smith Ave","plus4":null,"longitude":-122.1968044,"id":"adzljlbc7a2m","state":"WA"},"type":"Feature","geometry":{"type":"Point","coordinates":[-122.1968044,47.9678082]}},{"properties":{"city":"Anchorage","zip":"99517","latitude":61.177864,"fuel type code":"CNG","street address":"1800 W 47th Ave","plus4":3189,"longitude":-149.916369,"id":"adzljlm4460w","state":"AK"},"type":"Feature","geometry":{"type":"Point","coordinates":[-149.916369,61.177864]}}],"is_temporal":false,"author":{"url":"","metadata":"","contact_name":"","contact_address":"","source":"","contact_phone":""},"source":"","pagination":{"sort":null,"start":0,"total":610,"limit":1000000},"state":"complete","tags":"","published":"2014-08-16T17:47:16-04:00","id":352836}