{"type":"FeatureCollection","data_type":"Dataset","url_type":null,"permissions":[{"permissions":{"download":true,"view":true},"group_id":"everyone"},{"permissions":{"download":true,"view":true},"group_id":56815}],"classification":null,"title":"CAS DA List 196-13 MAP EXP-3","count":44,"stream_id":353424,"contributor":{"url":"http://geocommons.com/users/38156","name":"althause"},"data_attributes":null,"calculation_params":null,"icon_link":null,"link":"http://geocommons.com/overlays/353424.json","extent":[-87.5659,38.811,-85.406,40.8719],"geometry_types":["point"],"unique_name":null,"name":"CAS DA List 196-13 MAP EXP-3","feature_count":44,"description":"DDA from HQ, stripped of all but majors and destroyeds. Address entry followed CAS Atlas protocl.","next_feature":null,"is_raster":false,"short_classification":"Y","stats":{"count":{"max":1,"variance":0.0,"mean":1.0,"stdev":0.0,"min":1,"median":1}},"features":[{"properties":{"city":"Elwood","damage classification":"Major","house no.":"700","occupancy type":"Unknown","county":"Madison","dwelling type":"Single Family Dwelling","geo_score":0.545,"zip code":"46036","dwell":"SFD","matched street address":"700 14th St N","street name":"14th St N","count":1,"id":"ae19cmc3kx91","geo_precision":"range","location":"700 14th St N, Elwood, Madison IN","state":"IN"},"type":"Feature","geometry":{"type":"Point","coordinates":[-85.885933,38.97297]}},{"properties":{"city":"Tipton","damage classification":"Major","house no.":"212","occupancy type":"Primary Owner Occupied","county":"Tipton","dwelling type":"Single Family Dwelling","geo_score":0.805,"zip code":"46072","dwell":"SFD","matched street address":"212 2nd St","street name":"2nd ST","count":1,"id":"ae19cmbfs09j","geo_precision":"range","location":"212 2nd St, Tipton, Tipton IN","state":"IN"},"type":"Feature","geometry":{"type":"Point","coordinates":[-86.047745,40.280605]}},{"properties":{"city":"Tipton","damage classification":"Major","house no.":"219","occupancy type":"Primary Owner Occupied","county":"Tipton","dwelling type":"Single Family Dwelling","geo_score":0.805,"zip code":"46072","dwell":"SFD","matched street address":"219 3rd St","street name":"3rd st","count":1,"id":"ae19cm3phbyg","geo_precision":"range","location":"219 3rd St, Tipton, Tipton IN","state":"IN"},"type":"Feature","geometry":{"type":"Point","coordinates":[-86.048751,40.280496]}},{"properties":{"city":"Kokomo","damage classification":"Major","house no.":"214","occupancy type":"Primary Renter Occupied","county":"Howard","dwelling type":"Single Family Dwelling","geo_score":0.506,"zip code":"46901","dwell":"SFD","matched street address":"214 Calumet St","street name":"Calumet","count":1,"id":"ae19cmebvsji","geo_precision":"city","location":"214 Calumet St, Kokomo, Howard IN","state":"IN"},"type":"Feature","geometry":{"type":"Point","coordinates":[-87.37557,39.91615]}},{"properties":{"city":"Kokomo","damage classification":"Major","house no.":"309","occupancy type":"Primary Renter Occupied","county":"Howard","dwelling type":"Single Family Dwelling","geo_score":0.361,"zip code":"46901","dwell":"SFD","matched street address":"309 Carter St E","street name":"Carter E","count":1,"id":"ae19cm7389mv","geo_precision":"street","location":"309 Carter St E, Kokomo, Howard IN","state":"IN"},"type":"Feature","geometry":{"type":"Point","coordinates":[-87.411487,39.091863]}},{"properties":{"city":"Kokomo","damage classification":"Major","house no.":"327","occupancy type":"Primary Owner Occupied","county":"Howard","dwelling type":"Single Family Dwelling","geo_score":0.348,"zip code":"46901","dwell":"SFD","matched street address":"327 Carter StE","street name":"Carter E","count":1,"id":"ae19cm4lzhoo","geo_precision":"street","location":"327 Carter StE, Kokomo, Howard IN","state":"IN"},"type":"Feature","geometry":{"type":"Point","coordinates":[-87.411487,39.091863]}},{"properties":{"city":"Kokomo","damage classification":"Major","house no.":"317 1/2","occupancy type":"Primary Renter Occupied","county":"Howard","dwelling type":"Single Family Dwelling","geo_score":0.261,"zip code":"46901","dwell":"SFD","matched street address":"317 1/2 Carter E","street name":"Carter E","count":1,"id":"ae19cmf9rcwr","geo_precision":"street","location":"317 1/2 Carter E, Kokomo, Howard IN","state":"IN"},"type":"Feature","geometry":{"type":"Point","coordinates":[-87.379252,39.608025]}},{"properties":{"city":"Kokomo","damage classification":"Destroyed","house no.":"1900 1/2","occupancy type":"Primary Renter Occupied","county":"Howard","dwelling type":"Apartment / Multi-Family Unit","geo_score":0.342,"zip code":"46901","dwell":"APT","matched street address":"1900 Carter St E","street name":"Carter St E","count":1,"id":"ae19cmjjsslp","geo_precision":"street","location":"1900 Carter St E, Kokomo, Howard IN","state":"IN"},"type":"Feature","geometry":{"type":"Point","coordinates":[-87.411487,39.091863]}},{"properties":{"city":"Kokomo","damage classification":"Destroyed","house no.":"1215","occupancy type":"Primary Renter Occupied","county":"Howard","dwelling type":"Apartment / Multi-Family Unit","geo_score":0.342,"zip code":"46901","dwell":"APT","matched street address":"1215 Carter St E","street name":"Carter St E","count":1,"id":"ae19cmeopaax","geo_precision":"street","location":"1215 Carter St E, Kokomo, Howard IN","state":"IN"},"type":"Feature","geometry":{"type":"Point","coordinates":[-87.411487,39.091863]}},{"properties":{"city":"Kokomo","damage classification":"Destroyed","house no.":"215","occupancy type":"Primary Renter Occupied","county":"Howard","dwelling type":"Apartment / Multi-Family Unit","geo_score":0.537,"zip code":"46901","dwell":"APT","matched street address":"215 Carter St E","street name":"Carter St E","count":1,"id":"ae19cm5qn8ne","geo_precision":"range","location":"215 Carter St E, Kokomo, Howard IN","state":"IN"},"type":"Feature","geometry":{"type":"Point","coordinates":[-87.411368,39.092953]}},{"properties":{"city":"Kokomo","damage classification":"Destroyed","house no.":"405","occupancy type":"Primary Owner Occupied","county":"Howard","dwelling type":"Single Family Dwelling","geo_score":0.343,"zip code":"46901","dwell":"SFD","matched street address":"405 Carter St E","street name":"Carter St E","count":1,"id":"ae19cmcvp6gd","geo_precision":"street","location":"405 Carter St E, Kokomo, Howard IN","state":"IN"},"type":"Feature","geometry":{"type":"Point","coordinates":[-87.411487,39.091863]}},{"properties":{"city":"Kokomo","damage classification":"Destroyed","house no.":"1416","occupancy type":"Primary Owner Occupied","county":"Howard","dwelling type":"Single Family Dwelling","geo_score":0.342,"zip code":"46901","dwell":"SFD","matched street address":"1416 Carter St E","street name":"Carter St E","count":1,"id":"ae19cm5sxx7h","geo_precision":"street","location":"1416 Carter St E, Kokomo, Howard IN","state":"IN"},"type":"Feature","geometry":{"type":"Point","coordinates":[-87.411487,39.091863]}},{"properties":{"city":"Kokomo","damage classification":"Major","house no.":"309","occupancy type":"Primary Renter Occupied","county":"Howard","dwelling type":"Single Family Dwelling","geo_score":0.361,"zip code":"46901","dwell":"SFD","matched street address":"309 Carter St E","street name":"Carter St E","count":1,"id":"ae19cmj5ql95","geo_precision":"street","location":"309 Carter St E, Kokomo, Howard IN","state":"IN"},"type":"Feature","geometry":{"type":"Point","coordinates":[-87.411487,39.091863]}},{"properties":{"city":"Indianapolis","damage classification":"Major","house no.":"9801","occupancy type":"Primary Renter Occupied","county":"Marion","dwelling type":"Single Family Dwelling","geo_score":0.545,"zip code":"46235","dwell":"SFD","matched street address":"9801 Conway Dr","street name":"Conway","count":1,"id":"ae19cmb0zi2n","geo_precision":"street","location":"9801 Conway Dr, Indianapolis, Marion IN","state":"IN"},"type":"Feature","geometry":{"type":"Point","coordinates":[-86.006256,39.93121]}},{"properties":{"city":"Kokomo","damage classification":"Destroyed","house no.":"217","occupancy type":"Primary Owner Occupied","county":"Howard","dwelling type":"Single Family Dwelling","geo_score":0.35,"zip code":"46901","dwell":"SFD","matched street address":"217 Cooper St S","street name":"Cooper S","count":1,"id":"ae19cm8gyq1x","geo_precision":"street","location":"217 Cooper St S, Kokomo, Howard IN","state":"IN"},"type":"Feature","geometry":{"type":"Point","coordinates":[-87.565895,39.062519]}},{"properties":{"city":"Kokomo","damage classification":"Destroyed","house no.":"214","occupancy type":"Primary Owner Occupied","county":"Howard","dwelling type":"Single Family Dwelling","geo_score":0.35,"zip code":"46901","dwell":"SFD","matched street address":"214 Cooper St S","street name":"Cooper St S","count":1,"id":"ae19cm541e3t","geo_precision":"street","location":"214 Cooper St S, Kokomo, Howard IN","state":"IN"},"type":"Feature","geometry":{"type":"Point","coordinates":[-87.565895,39.062519]}},{"properties":{"city":"Kokomo","damage classification":"Destroyed","house no.":"324","occupancy type":"Primary Renter Occupied","county":"Howard","dwelling type":"Single Family Dwelling","geo_score":0.383,"zip code":"46901","dwell":"SFD","matched street address":"324 Murden St E","street name":"E Murden","count":1,"id":"ae19cmfep5ry","geo_precision":"street","location":"324 Murden St E, Kokomo, Howard IN","state":"IN"},"type":"Feature","geometry":{"type":"Point","coordinates":[-87.409044,39.442032]}},{"properties":{"city":"Kokomo","damage classification":"Major","house no.":"327","occupancy type":"Primary Renter Occupied","county":"Howard","dwelling type":"Single Family Dwelling","geo_score":0.383,"zip code":"46901","dwell":"SFD","matched street address":"327 Murden St E","street name":"E Murden St","count":1,"id":"ae19cm74v095","geo_precision":"street","location":"327 Murden St E, Kokomo, Howard IN","state":"IN"},"type":"Feature","geometry":{"type":"Point","coordinates":[-87.409044,39.442032]}},{"properties":{"city":"Kokomo","damage classification":"Major","house no.":"204","occupancy type":"Primary Renter Occupied","county":"Howard","dwelling type":"Apartment / Multi-Family Unit","geo_score":0.513,"zip code":"46901","dwell":"APT","matched street address":"204 B St E","street name":"E South B ST  Apt  E","count":1,"id":"ae19cmc6cqcq","geo_precision":"street","location":"204 B St E , Kokomo, Howard IN","state":"IN"},"type":"Feature","geometry":{"type":"Point","coordinates":[-87.37158,39.784222]}},{"properties":{"city":"Huntington","damage classification":"Major","house no.":"1375","occupancy type":"Primary Owner Occupied","county":"Huntington","dwelling type":"Single Family Dwelling","geo_score":0.902,"zip code":"46750","dwell":"SFD","matched street address":"1375 Edna St","street name":"Edna","count":1,"id":"ae19cma4y0yh","geo_precision":"range","location":"1375 Edna St, Huntington, Huntington IN","state":"IN"},"type":"Feature","geometry":{"type":"Point","coordinates":[-85.501385,40.870593]}},{"properties":{"city":"Huntington","damage classification":"Major","house no.":"1234","occupancy type":"Primary Owner Occupied","county":"Huntington","dwelling type":"Single Family Dwelling","geo_score":0.902,"zip code":"46750","dwell":"SFD","matched street address":"1234 Green St","street name":"Green","count":1,"id":"ae19cmid9ugo","geo_precision":"range","location":"1234 Green St, Huntington, Huntington IN","state":"IN"},"type":"Feature","geometry":{"type":"Point","coordinates":[-85.497144,40.87194]}},{"properties":{"city":"Kokomo","damage classification":"Major","house no.":"503","occupancy type":"Primary Owner Occupied","county":"Howard","dwelling type":"Single Family Dwelling","geo_score":0.512,"zip code":"46901","dwell":"SFD","matched street address":"503 Indiana Ave S","street name":"Indiana S","count":1,"id":"ae19cmf3q4qr","geo_precision":"range","location":"503 Indiana Ave S, Kokomo, Howard IN","state":"IN"},"type":"Feature","geometry":{"type":"Point","coordinates":[-87.126228,39.52842]}},{"properties":{"city":"Kokomo","damage classification":"Major","house no.":"626","occupancy type":"Primary Renter Occupied","county":"Howard","dwelling type":"Single Family Dwelling","geo_score":0.317,"zip code":"46901","dwell":"SFD","matched street address":"626 Leeds St S","street name":"Leeds S","count":1,"id":"ae19cm4zf54n","geo_precision":"street","location":"626 Leeds St S, Kokomo, Howard IN","state":"IN"},"type":"Feature","geometry":{"type":"Point","coordinates":[-87.351868,39.557148]}},{"properties":{"city":"Kokomo","damage classification":"Destroyed","house no.":"709","occupancy type":"Primary Owner Occupied","county":"Howard","dwelling type":"Single Family Dwelling","geo_score":0.317,"zip code":"46901","dwell":"SFD","matched street address":"709 Leeds St S","street name":"Leeds St","count":1,"id":"ae19cm8ntkwt","geo_precision":"street","location":"709 Leeds St S, Kokomo, Howard IN","state":"IN"},"type":"Feature","geometry":{"type":"Point","coordinates":[-87.351868,39.557148]}},{"properties":{"city":"Kokomo","damage classification":"Major","house no.":"400","occupancy type":"Primary Owner Occupied","county":"Howard","dwelling type":"Single Family Dwelling","geo_score":0.359,"zip code":"46901","dwell":"SFD","matched street address":"400 Main St S","street name":"Main St S","count":1,"id":"ae19cmett3wv","geo_precision":"street","location":"400 Main St S, Kokomo, Howard IN","state":"IN"},"type":"Feature","geometry":{"type":"Point","coordinates":[-87.259209,39.259973]}},{"properties":{"city":"Kokomo","damage classification":"Major","house no.":"330","occupancy type":"Primary Owner Occupied","county":"Howard","dwelling type":"Single Family Dwelling","geo_score":0.359,"zip code":"46901","dwell":"SFD","matched street address":"330 Main St S","street name":"Main St S","count":1,"id":"ae19cmf8vbud","geo_precision":"street","location":"330 Main St S, Kokomo, Howard IN","state":"IN"},"type":"Feature","geometry":{"type":"Point","coordinates":[-87.259209,39.259973]}},{"properties":{"city":"Kokomo","damage classification":"Major","house no.":"420","occupancy type":"Primary Renter Occupied","county":"Howard","dwelling type":"Single Family Dwelling","geo_score":0.359,"zip code":"46901","dwell":"SFD","matched street address":"420 Main St S","street name":"Main St S","count":1,"id":"ae19cm6sp6um","geo_precision":"street","location":"420 Main St S, Kokomo, Howard IN","state":"IN"},"type":"Feature","geometry":{"type":"Point","coordinates":[-87.259209,39.259973]}},{"properties":{"city":"Kokomo","damage classification":"Major","house no.":"228","occupancy type":"Primary Renter Occupied","county":"Howard","dwelling type":"Apartment / Multi-Family Unit","geo_score":0.383,"zip code":"46901","dwell":"APT","matched street address":"228 Murden St E","street name":"Murden E","count":1,"id":"ae19cm4k4wmg","geo_precision":"street","location":"228 Murden St E, Kokomo, Howard IN","state":"IN"},"type":"Feature","geometry":{"type":"Point","coordinates":[-87.409044,39.442032]}},{"properties":{"city":"Kokomo","damage classification":"Destroyed","house no.":"218","occupancy type":"Primary Renter Occupied","county":"Howard","dwelling type":"Single Family Dwelling","geo_score":0.383,"zip code":"46901","dwell":"SFD","matched street address":"218 Murden St E","street name":"Murden St E","count":1,"id":"ae19cmeyllsh","geo_precision":"street","location":"218 Murden St E, Kokomo, Howard IN","state":"IN"},"type":"Feature","geometry":{"type":"Point","coordinates":[-87.409044,39.442032]}},{"properties":{"city":"Anderson","damage classification":"Major","house no.":"425","occupancy type":"Primary Owner Occupied","county":"Madison","dwelling type":"Mobile Home","geo_score":0.415,"zip code":"46017","dwell":"MH","matched street address":"425 N. 500 East, Lot 23","street name":"N. 500 East, Lot 23","count":1,"id":"ae19cm62qdm1","geo_precision":"street","location":"425 N. 500 East, Lot 23, Anderson, Madison IN","state":"IN"},"type":"Feature","geometry":{"type":"Point","coordinates":[-85.40596,38.810984]}},{"properties":{"city":"Kokomo","damage classification":"Destroyed","house no.":"3125","occupancy type":"Primary Owner Occupied","county":"Howard","dwelling type":"Single Family Dwelling","geo_score":0.504,"zip code":"46901","dwell":"SFD","matched street address":"3125 Calumet St S","street name":"S Calumet","count":1,"id":"ae19cmbovmgl","geo_precision":"city","location":"3125 Calumet St S, Kokomo, Howard IN","state":"IN"},"type":"Feature","geometry":{"type":"Point","coordinates":[-87.37557,39.91615]}},{"properties":{"city":"Kokomo","damage classification":"Major","house no.":"531","occupancy type":"Primary Owner Occupied","county":"Howard","dwelling type":"Single Family Dwelling","geo_score":0.541,"zip code":"46901","dwell":"SFD","matched street address":"531 McCann St S","street name":"S McCann","count":1,"id":"ae19cm7khrj9","geo_precision":"range","location":"531 McCann St S, Kokomo, Howard IN","state":"IN"},"type":"Feature","geometry":{"type":"Point","coordinates":[-87.410903,39.445973]}},{"properties":{"city":"Kokomo","damage classification":"Major","house no.":"400","occupancy type":"Primary Renter Occupied","county":"Howard","dwelling type":"Apartment / Multi-Family Unit","geo_score":0.354,"zip code":"46901","dwell":"APT","matched street address":"400 Union St S","street name":"S Union St","count":1,"id":"ae19cm8drmf6","geo_precision":"street","location":"400 Union St S, Kokomo, Howard IN","state":"IN"},"type":"Feature","geometry":{"type":"Point","coordinates":[-87.425263,39.422582]}},{"properties":{"city":"Kokomo","damage classification":"Major","house no.":"427","occupancy type":"Primary Renter Occupied","county":"Howard","dwelling type":"Apartment / Multi-Family Unit","geo_score":0.545,"zip code":"46901","dwell":"APT","matched street address":"427 Washington St S Apt 1","street name":"S Washington St Apt 1","count":1,"id":"ae19cmhuga7f","geo_precision":"range","location":"427 Washington St S Apt 1, Kokomo, Howard IN","state":"IN"},"type":"Feature","geometry":{"type":"Point","coordinates":[-87.11832,39.280346]}},{"properties":{"city":"Kokomo","damage classification":"Major","house no.":"206","occupancy type":"Primary Renter Occupied","county":"Howard","dwelling type":"Apartment / Multi-Family Unit","geo_score":0.35,"zip code":"46901","dwell":"APT","matched street address":"206 Cooper St S","street name":"S. Cooper","count":1,"id":"ae19cmcrhbmn","geo_precision":"street","location":"206 Cooper St S, Kokomo, Howard IN","state":"IN"},"type":"Feature","geometry":{"type":"Point","coordinates":[-87.565895,39.062519]}},{"properties":{"city":"Kokomo","damage classification":"Major","house no.":"724","occupancy type":"Primary Owner Occupied","county":"Howard","dwelling type":"Single Family Dwelling","geo_score":0.504,"zip code":"46901","dwell":"SFD","matched street address":"724 Superior St W","street name":"Superior W","count":1,"id":"ae19cmdhsch8","geo_precision":"city","location":"724 Superior St W, Kokomo, Howard IN","state":"IN"},"type":"Feature","geometry":{"type":"Point","coordinates":[-87.37557,39.91615]}},{"properties":{"city":"Kokomo","damage classification":"Destroyed","house no.":"400","occupancy type":"Primary Renter Occupied","county":"Howard","dwelling type":"Apartment / Multi-Family Unit","geo_score":0.354,"zip code":"46901","dwell":"APT","matched street address":"400 Union St S","street name":"Union St S","count":1,"id":"ae19cmiboy00","geo_precision":"street","location":"400 Union St S, Kokomo, Howard IN","state":"IN"},"type":"Feature","geometry":{"type":"Point","coordinates":[-87.425263,39.422582]}},{"properties":{"city":"Kokomo","damage classification":"Destroyed","house no.":"431","occupancy type":"Primary Renter Occupied","county":"Howard","dwelling type":"Apartment / Multi-Family Unit","geo_score":0.355,"zip code":"46901","dwell":"APT","matched street address":"431 Union St S","street name":"Union St S","count":1,"id":"ae19cm6viy1a","geo_precision":"street","location":"431 Union St S, Kokomo, Howard IN","state":"IN"},"type":"Feature","geometry":{"type":"Point","coordinates":[-87.186466,39.488381]}},{"properties":{"city":"Kokomo","damage classification":"Major","house no.":"413","occupancy type":"Primary Renter Occupied","county":"Howard","dwelling type":"Apartment / Multi-Family Unit","geo_score":0.355,"zip code":"46901","dwell":"APT","matched street address":"413 Union St S","street name":"Union St S","count":1,"id":"ae19cmj3yfsq","geo_precision":"street","location":"413 Union St S, Kokomo, Howard IN","state":"IN"},"type":"Feature","geometry":{"type":"Point","coordinates":[-87.186466,39.488381]}},{"properties":{"city":"Kokomo","damage classification":"Destroyed","house no.":"322","occupancy type":"Primary Renter Occupied","county":"Howard","dwelling type":"Apartment / Multi-Family Unit","geo_score":0.237,"zip code":"46901","dwell":"APT","matched street address":"322 Union St S #2","street name":"Union St S #2","count":1,"id":"ae19cm4x65wc","geo_precision":"street","location":"322 Union St S #2, Kokomo, Howard IN","state":"IN"},"type":"Feature","geometry":{"type":"Point","coordinates":[-87.379252,39.608025]}},{"properties":{"city":"Kokomo","damage classification":"Major","house no.":"401 1/2","occupancy type":"Primary Renter Occupied","county":"Howard","dwelling type":"Apartment / Multi-Family Unit","geo_score":0.261,"zip code":"46901","dwell":"APT","matched street address":"401 1/2 Union St S #2","street name":"Union St S #2","count":1,"id":"ae19cman8c4d","geo_precision":"street","location":"401 1/2 Union St S #2, Kokomo, Howard IN","state":"IN"},"type":"Feature","geometry":{"type":"Point","coordinates":[-87.379252,39.608025]}},{"properties":{"city":"Kokomo","damage classification":"Major","house no.":"9442","occupancy type":"Primary Owner Occupied","county":"Howard","dwelling type":"Single Family Dwelling","geo_score":0.341,"zip code":"46901","dwell":"SFD","matched street address":"9442 Co Rd E 1300 N","street name":"W 1300 N","count":1,"id":"ae19cm9lmtru","geo_precision":"street","location":"9442 Co Rd E 1300 N, Kokomo, Howard IN","state":"IN"},"type":"Feature","geometry":{"type":"Point","coordinates":[-87.436647,39.695107]}},{"properties":{"city":"Kokomo","damage classification":"Major","house no.":"611","occupancy type":"Primary Renter Occupied","county":"Howard","dwelling type":"Single Family Dwelling","geo_score":0.512,"zip code":"46901","dwell":"SFD","matched street address":"611 Wabash Ave S","street name":"Wabash Ave S","count":1,"id":"ae19cmhfzo5h","geo_precision":"range","location":"611 Wabash Ave S, Kokomo, Howard IN","state":"IN"},"type":"Feature","geometry":{"type":"Point","coordinates":[-87.407927,39.46641]}},{"properties":{"city":"Kokomo","damage classification":"Destroyed","house no.":"419","occupancy type":"Primary Renter Occupied","county":"Howard","dwelling type":"Single Family Dwelling","geo_score":0.505,"zip code":"46901","dwell":"SFD","matched street address":"419 Webster St S","street name":"Webster St S","count":1,"id":"ae19cmfgooic","geo_precision":"city","location":"419 Webster St S, Kokomo, Howard IN","state":"IN"},"type":"Feature","geometry":{"type":"Point","coordinates":[-87.37557,39.91615]}}],"is_temporal":false,"author":{"url":"","metadata":"","contact_name":"","contact_address":"","source":"","contact_phone":""},"source":"","pagination":{"sort":null,"start":0,"total":44,"limit":1000000},"state":"complete","tags":"","published":"2014-08-16T18:27:28-04:00","id":353424}