{"type":"FeatureCollection","data_type":"Dataset","url_type":null,"permissions":[{"permissions":{"download":true,"view":true},"group_id":"everyone"}],"classification":null,"title":"OpenGearCityAndStates","count":233,"stream_id":353904,"contributor":{"url":"http://geocommons.com/users/50950","name":"snelson"},"data_attributes":null,"calculation_params":null,"icon_link":null,"link":"http://geocommons.com/overlays/353904.json","extent":[-168.022,24.8598,-70.1913,47.6788],"geometry_types":["point"],"unique_name":null,"name":"OpenGearCityAndStates","feature_count":233,"description":"","next_feature":null,"is_raster":false,"short_classification":"Y","stats":{},"features":[{"properties":{"city":"Boston","geo_score":0.714,"id":"ae230cl0edoh","geo_precision":"city","state":"MA"},"type":"Feature","geometry":{"type":"Point","coordinates":[-71.026964,42.370567]}},{"properties":{"city":"Boston","geo_score":0.714,"id":"ae230cjne88e","geo_precision":"city","state":"MA"},"type":"Feature","geometry":{"type":"Point","coordinates":[-71.026964,42.370567]}},{"properties":{"city":"Troy","geo_score":0.714,"id":"ae230cveig21","geo_precision":"city","state":"MI"},"type":"Feature","geometry":{"type":"Point","coordinates":[-82.89105,43.675016]}},{"properties":{"city":"Cincinnati","geo_score":0.714,"id":"ae230cmkxw1e","geo_precision":"city","state":"OH"},"type":"Feature","geometry":{"type":"Point","coordinates":[-84.53822,39.166759]}},{"properties":{"city":"Houston","geo_score":0.714,"id":"ae230ctow22m","geo_precision":"city","state":"TX"},"type":"Feature","geometry":{"type":"Point","coordinates":[-96.919704,29.845783]}},{"properties":{"city":"West Des Moines","geo_score":0.714,"id":"ae230cx4abwj","geo_precision":"city","state":"IA"},"type":"Feature","geometry":{"type":"Point","coordinates":[-93.572173,41.672687]}},{"properties":{"city":"Portland","geo_score":0.714,"id":"ae230ck9poet","geo_precision":"city","state":"OR"},"type":"Feature","geometry":{"type":"Point","coordinates":[-122.693157,45.498931]}},{"properties":{"city":"Eugene","geo_score":0.714,"id":"ae230ct9zdsk","geo_precision":"city","state":"OR"},"type":"Feature","geometry":{"type":"Point","coordinates":[-123.074193,44.117868]}},{"properties":{"city":"Missoula","geo_score":0.714,"id":"ae230csxu48b","geo_precision":"city","state":"MT"},"type":"Feature","geometry":{"type":"Point","coordinates":[-113.909123,46.853606]}},{"properties":{"city":"Palm Beach","geo_score":0.714,"id":"ae230cr9ufx3","geo_precision":"city","state":"FL"},"type":"Feature","geometry":{"type":"Point","coordinates":[-80.138655,26.823395]}},{"properties":{"city":"St. Louis","geo_score":0.0,"id":"ae230cjslu05","geo_precision":"unmatched","state":"MO"},"type":"Feature","geometry":null},{"properties":{"city":"Philadelphia","geo_score":0.714,"id":"ae230csw5kga","geo_precision":"city","state":"PA"},"type":"Feature","geometry":{"type":"Point","coordinates":[-75.11787,40.001811]}},{"properties":{"city":"Westwood","geo_score":0.714,"id":"ae230csxmvhu","geo_precision":"city","state":"MA"},"type":"Feature","geometry":{"type":"Point","coordinates":[-71.199238,42.220548]}},{"properties":{"city":"Hingham","geo_score":0.0,"id":"ae230cvcvq2i","geo_precision":"unmatched","state":"MA"},"type":"Feature","geometry":null},{"properties":{"city":"Litchfield Park","geo_score":0.714,"id":"ae230cr1wfju","geo_precision":"city","state":"AZ"},"type":"Feature","geometry":{"type":"Point","coordinates":[-112.18717,33.276539]}},{"properties":{"city":"Longmeadow","geo_score":0.714,"id":"ae230cunlo83","geo_precision":"city","state":"MA"},"type":"Feature","geometry":{"type":"Point","coordinates":[-72.567882,42.049194]}},{"properties":{"city":"Bedford","geo_score":0.714,"id":"ae230cujlb5q","geo_precision":"city","state":"NH"},"type":"Feature","geometry":{"type":"Point","coordinates":[-71.535515,42.93743]}},{"properties":{"city":"Kingwood","geo_score":0.714,"id":"ae230cwbx4oi","geo_precision":"city","state":"TX"},"type":"Feature","geometry":{"type":"Point","coordinates":[-95.261044,30.033553]}},{"properties":{"city":"Lexington","geo_score":0.0,"id":"ae230cl55n2q","geo_precision":"unmatched","state":"MA"},"type":"Feature","geometry":null},{"properties":{"city":"Alpharetta","geo_score":0.714,"id":"ae230conkrnn","geo_precision":"city","state":"GA"},"type":"Feature","geometry":{"type":"Point","coordinates":[-83.92379,31.462401]}},{"properties":{"city":"Salem","geo_score":0.714,"id":"ae230chta56v","geo_precision":"city","state":"NH"},"type":"Feature","geometry":{"type":"Point","coordinates":[-71.196195,42.872045]}},{"properties":{"city":"Action","geo_score":0.0,"id":"ae230cir3ame","geo_precision":"unmatched","state":"MA"},"type":"Feature","geometry":null},{"properties":{"city":"Wakefield","geo_score":0.714,"id":"ae230cwus50u","geo_precision":"city","state":"RI"},"type":"Feature","geometry":{"type":"Point","coordinates":[-71.534202,41.443653]}},{"properties":{"city":"Cromwell","geo_score":0.714,"id":"ae230coub6n8","geo_precision":"city","state":"CT"},"type":"Feature","geometry":{"type":"Point","coordinates":[-72.667807,41.608529]}},{"properties":{"city":"Portland","geo_score":0.714,"id":"ae230clej6wy","geo_precision":"city","state":"ME"},"type":"Feature","geometry":{"type":"Point","coordinates":[-70.262393,43.658784]}},{"properties":{"city":"Exeter","geo_score":0.0,"id":"ae230csoiui8","geo_precision":"unmatched","state":"NH"},"type":"Feature","geometry":null},{"properties":{"city":"Londonderry","geo_score":0.714,"id":"ae230cwzzx10","geo_precision":"city","state":"NH"},"type":"Feature","geometry":{"type":"Point","coordinates":[-71.387776,42.8712]}},{"properties":{"city":"Windsor","geo_score":0.714,"id":"ae230cm8ea7v","geo_precision":"city","state":"CT"},"type":"Feature","geometry":{"type":"Point","coordinates":[-72.660245,41.933846]}},{"properties":{"city":"Concord","geo_score":0.714,"id":"ae230chv3tqz","geo_precision":"city","state":"NH"},"type":"Feature","geometry":{"type":"Point","coordinates":[-71.536101,43.230314]}},{"properties":{"city":"Kennebunk","geo_score":0.714,"id":"ae230cluawo1","geo_precision":"city","state":"ME"},"type":"Feature","geometry":{"type":"Point","coordinates":[-70.508663,43.377863]}},{"properties":{"city":"Nashville","geo_score":0.714,"id":"ae230ctyth2z","geo_precision":"city","state":"TN"},"type":"Feature","geometry":{"type":"Point","coordinates":[-86.778098,36.165688]}},{"properties":{"city":"Smithville","geo_score":0.714,"id":"ae230cqlb80k","geo_precision":"city","state":"RI"},"type":"Feature","geometry":{"type":"Point","coordinates":[-71.497804,41.853899]}},{"properties":{"city":"West Lebanon","geo_score":0.714,"id":"ae230cv8byqv","geo_precision":"city","state":"NH"},"type":"Feature","geometry":{"type":"Point","coordinates":[-71.840883,43.967542]}},{"properties":{"city":"Danvers","geo_score":0.714,"id":"ae230ctpah4x","geo_precision":"city","state":"MA"},"type":"Feature","geometry":{"type":"Point","coordinates":[-70.920328,42.548428]}},{"properties":{"city":"East Lansing","geo_score":0.714,"id":"ae230ck38qu4","geo_precision":"city","state":"MI"},"type":"Feature","geometry":{"type":"Point","coordinates":[-84.555535,42.732535]}},{"properties":{"city":"Also Viejo","geo_score":0.714,"id":"ae230cs6mh74","geo_precision":"city","state":"CA"},"type":"Feature","geometry":{"type":"Point","coordinates":[-117.751341,33.603459]}},{"properties":{"city":"Boston","geo_score":0.714,"id":"ae230cxerdf8","geo_precision":"city","state":"MA"},"type":"Feature","geometry":{"type":"Point","coordinates":[-71.026964,42.370567]}},{"properties":{"city":"Wallingford","geo_score":0.714,"id":"ae230cklwz0a","geo_precision":"city","state":"CT"},"type":"Feature","geometry":{"type":"Point","coordinates":[-72.81892,41.449868]}},{"properties":{"city":"Wallingford","geo_score":0.714,"id":"ae230cjvjz2a","geo_precision":"city","state":"CT"},"type":"Feature","geometry":{"type":"Point","coordinates":[-72.81892,41.449868]}},{"properties":{"city":"South Easton","geo_score":0.714,"id":"ae230ci92u11","geo_precision":"city","state":"MA"},"type":"Feature","geometry":{"type":"Point","coordinates":[-71.712013,42.100096]}},{"properties":{"city":"Plyhmouth","geo_score":0.0,"id":"ae230coxgqjm","geo_precision":"unmatched","state":"MA"},"type":"Feature","geometry":null},{"properties":{"city":"Auburn","geo_score":0.714,"id":"ae230cpdxiet","geo_precision":"city","state":"MA"},"type":"Feature","geometry":{"type":"Point","coordinates":[-71.947184,42.184835]}},{"properties":{"city":"Raynham","geo_score":0.714,"id":"ae230ckwa1p0","geo_precision":"city","state":"MA"},"type":"Feature","geometry":{"type":"Point","coordinates":[-71.048941,41.9367]}},{"properties":{"city":"Frisco","geo_score":0.714,"id":"ae230co6if90","geo_precision":"city","state":"TX"},"type":"Feature","geometry":{"type":"Point","coordinates":[-96.542746,30.642421]}},{"properties":{"city":"Castle Rock","geo_score":0.714,"id":"ae230cl65bg2","geo_precision":"city","state":"CO"},"type":"Feature","geometry":{"type":"Point","coordinates":[-108.03241,37.690498]}},{"properties":{"city":"Westborough","geo_score":0.714,"id":"ae230cupaspa","geo_precision":"city","state":"MA"},"type":"Feature","geometry":{"type":"Point","coordinates":[-72.260635,42.175649]}},{"properties":{"city":"Golden","geo_score":0.714,"id":"ae230cqye94i","geo_precision":"city","state":"CO"},"type":"Feature","geometry":{"type":"Point","coordinates":[-104.500735,40.536158]}},{"properties":{"city":"Williston","geo_score":0.714,"id":"ae230cxujrp5","geo_precision":"city","state":"VT"},"type":"Feature","geometry":{"type":"Point","coordinates":[-73.026735,44.430096]}},{"properties":{"city":"Grayslake","geo_score":0.714,"id":"ae230cqst1ua","geo_precision":"city","state":"IL"},"type":"Feature","geometry":{"type":"Point","coordinates":[-88.054502,42.352423]}},{"properties":{"city":"Norwich","geo_score":0.714,"id":"ae230cxwaiko","geo_precision":"city","state":"CT"},"type":"Feature","geometry":{"type":"Point","coordinates":[-71.994757,41.499398]}},{"properties":{"city":"Helena","geo_score":0.714,"id":"ae230cjfup2o","geo_precision":"city","state":"MT"},"type":"Feature","geometry":{"type":"Point","coordinates":[-112.197616,46.70934]}},{"properties":{"city":"Springfield","geo_score":0.714,"id":"ae230ck53cx0","geo_precision":"city","state":"MA"},"type":"Feature","geometry":{"type":"Point","coordinates":[-72.604842,42.170731]}},{"properties":{"city":"Springfield","geo_score":0.714,"id":"ae230cs2ua88","geo_precision":"city","state":"MA"},"type":"Feature","geometry":{"type":"Point","coordinates":[-72.604842,42.170731]}},{"properties":{"city":"Housin","geo_score":0.0,"id":"ae230cmkvgfs","geo_precision":"unmatched","state":"TX"},"type":"Feature","geometry":null},{"properties":{"city":"Osterville","geo_score":0.714,"id":"ae230co4qge0","geo_precision":"city","state":"MA"},"type":"Feature","geometry":{"type":"Point","coordinates":[-70.191269,41.810178]}},{"properties":{"city":"Mitchel Field","geo_score":0.714,"id":"ae230cpeqhs6","geo_precision":"city","state":"NY"},"type":"Feature","geometry":{"type":"Point","coordinates":[-75.334337,43.219792]}},{"properties":{"city":"Minneola","geo_score":0.714,"id":"ae230cuhe5x2","geo_precision":"city","state":"NY"},"type":"Feature","geometry":{"type":"Point","coordinates":[-79.440048,42.175057]}},{"properties":{"city":"Elmsford","geo_score":0.714,"id":"ae230cn4f1m5","geo_precision":"city","state":"NY"},"type":"Feature","geometry":{"type":"Point","coordinates":[-73.836784,41.058732]}},{"properties":{"city":"New York","geo_score":0.714,"id":"ae230criq21q","geo_precision":"city","state":"NY"},"type":"Feature","geometry":{"type":"Point","coordinates":[-74.005973,40.714269]}},{"properties":{"city":"Valle Stream","geo_score":0.714,"id":"ae230cih7yio","geo_precision":"city","state":"NY"},"type":"Feature","geometry":{"type":"Point","coordinates":[-73.697828,40.676052]}},{"properties":{"city":"White Plains","geo_score":0.714,"id":"ae230csiejei","geo_precision":"city","state":"NY"},"type":"Feature","geometry":{"type":"Point","coordinates":[-73.769626,41.031397]}},{"properties":{"city":"Flushing","geo_score":0.714,"id":"ae230clq5xug","geo_precision":"city","state":"NY"},"type":"Feature","geometry":{"type":"Point","coordinates":[-73.817356,40.76538]}},{"properties":{"city":"Manchester","geo_score":0.714,"id":"ae230cvg0nn4","geo_precision":"city","state":"CA"},"type":"Feature","geometry":{"type":"Point","coordinates":[-123.661507,38.950236]}},{"properties":{"city":"Sand Diego","geo_score":0.714,"id":"ae230ct5mde7","geo_precision":"city","state":"CA"},"type":"Feature","geometry":{"type":"Point","coordinates":[-117.174366,32.7211]}},{"properties":{"city":"Peoria","geo_score":0.714,"id":"ae230cq25oo6","geo_precision":"city","state":"IL"},"type":"Feature","geometry":{"type":"Point","coordinates":[-89.589847,40.693137]}},{"properties":{"city":"Duluth","geo_score":0.714,"id":"ae230cmv047h","geo_precision":"city","state":"GA"},"type":"Feature","geometry":{"type":"Point","coordinates":[-84.092267,33.962979]}},{"properties":{"city":"Miller Place","geo_score":0.714,"id":"ae230cidwri9","geo_precision":"city","state":"NY"},"type":"Feature","geometry":{"type":"Point","coordinates":[-72.637078,40.922326]}},{"properties":{"city":"Medford","geo_score":0.714,"id":"ae230cj8ut70","geo_precision":"city","state":"NY"},"type":"Feature","geometry":{"type":"Point","coordinates":[-72.637078,40.922326]}},{"properties":{"city":"Round Rock","geo_score":0.714,"id":"ae230cvxwlp1","geo_precision":"city","state":"TX"},"type":"Feature","geometry":{"type":"Point","coordinates":[-97.635103,30.530497]}},{"properties":{"city":"Port Jefferson","geo_score":0.714,"id":"ae230co9clw0","geo_precision":"city","state":"NY"},"type":"Feature","geometry":{"type":"Point","coordinates":[-74.905417,41.782874]}},{"properties":{"city":"Glendale","geo_score":0.714,"id":"ae230cxc9o4c","geo_precision":"city","state":"AZ"},"type":"Feature","geometry":{"type":"Point","coordinates":[-112.18717,33.276539]}},{"properties":{"city":"Pleasanton","geo_score":0.714,"id":"ae230cnabku5","geo_precision":"city","state":"CA"},"type":"Feature","geometry":{"type":"Point","coordinates":[-120.662985,38.68296]}},{"properties":{"city":"Tallahasse","geo_score":0.714,"id":"ae230cr180v4","geo_precision":"city","state":"FL"},"type":"Feature","geometry":{"type":"Point","coordinates":[-84.203379,30.418514]}},{"properties":{"city":"Leesburg","geo_score":0.714,"id":"ae230cruq67v","geo_precision":"city","state":"VA"},"type":"Feature","geometry":{"type":"Point","coordinates":[-77.605404,39.041987]}},{"properties":{"city":"Phoenix","geo_score":0.0,"id":"ae230cku1r70","geo_precision":"unmatched","state":"AZ"},"type":"Feature","geometry":null},{"properties":{"city":"Vero Beach","geo_score":0.714,"id":"ae230cqbefx6","geo_precision":"city","state":"FL"},"type":"Feature","geometry":{"type":"Point","coordinates":[-80.40294,27.638005]}},{"properties":{"city":"Bala Cynwyd","geo_score":0.714,"id":"ae230chxkqvf","geo_precision":"city","state":"PA"},"type":"Feature","geometry":{"type":"Point","coordinates":[-77.071369,40.473417]}},{"properties":{"city":"Parsippany","geo_score":0.714,"id":"ae230cufpray","geo_precision":"city","state":"NJ"},"type":"Feature","geometry":{"type":"Point","coordinates":[-74.407706,40.852118]}},{"properties":{"city":"Somerset","geo_score":0.714,"id":"ae230cmc2v9t","geo_precision":"city","state":"NJ"},"type":"Feature","geometry":{"type":"Point","coordinates":[-74.523648,40.491002]}},{"properties":{"city":"Lancaster","geo_score":0.714,"id":"ae230cvsyk9c","geo_precision":"city","state":"PA"},"type":"Feature","geometry":{"type":"Point","coordinates":[-76.402184,40.131484]}},{"properties":{"city":"Hunt Valley","geo_score":0.714,"id":"ae230cved672","geo_precision":"city","state":"MD"},"type":"Feature","geometry":{"type":"Point","coordinates":[-76.39135,39.53344]}},{"properties":{"city":"Freehold","geo_score":0.714,"id":"ae230ck197l3","geo_precision":"city","state":"NJ"},"type":"Feature","geometry":{"type":"Point","coordinates":[-74.306284,40.236423]}},{"properties":{"city":"Philadelphia","geo_score":0.714,"id":"ae230cmk3eg0","geo_precision":"city","state":"PA"},"type":"Feature","geometry":{"type":"Point","coordinates":[-75.11787,40.001811]}},{"properties":{"city":"Roseland","geo_score":0.714,"id":"ae230cnt1dkt","geo_precision":"city","state":"NJ"},"type":"Feature","geometry":{"type":"Point","coordinates":[-74.306093,40.820499]}},{"properties":{"city":"Marlton","geo_score":0.714,"id":"ae230cuccycx","geo_precision":"city","state":"NJ"},"type":"Feature","geometry":{"type":"Point","coordinates":[-75.357413,39.664003]}},{"properties":{"city":"Montoursvile","geo_score":0.714,"id":"ae230cpmv9ld","geo_precision":"city","state":"PA"},"type":"Feature","geometry":{"type":"Point","coordinates":[-76.881055,41.307308]}},{"properties":{"city":"Wilmington","geo_score":0.714,"id":"ae230cn7g471","geo_precision":"city","state":"DE"},"type":"Feature","geometry":{"type":"Point","coordinates":[-75.58437,39.68678]}},{"properties":{"city":"Milwaukee","geo_score":0.714,"id":"ae230cllw75k","geo_precision":"city","state":"WI"},"type":"Feature","geometry":{"type":"Point","coordinates":[-87.958409,43.011264]}},{"properties":{"city":"Allentown","geo_score":0.714,"id":"ae230cn1jgu9","geo_precision":"city","state":"PA"},"type":"Feature","geometry":{"type":"Point","coordinates":[-75.470026,40.607497]}},{"properties":{"city":"Baton Rouge","geo_score":0.714,"id":"ae230cmciu38","geo_precision":"city","state":"LA"},"type":"Feature","geometry":{"type":"Point","coordinates":[-92.176237,30.159092]}},{"properties":{"city":"Franklin","geo_score":0.714,"id":"ae230crxntnh","geo_precision":"city","state":"TN"},"type":"Feature","geometry":{"type":"Point","coordinates":[-86.965691,35.890746]}},{"properties":{"city":"Columbia","geo_score":0.714,"id":"ae230cob4g8l","geo_precision":"city","state":"MD"},"type":"Feature","geometry":{"type":"Point","coordinates":[-76.887905,39.206132]}},{"properties":{"city":"Cambridge","geo_score":0.714,"id":"ae230cr7whxc","geo_precision":"city","state":"MA"},"type":"Feature","geometry":{"type":"Point","coordinates":[-71.103663,42.358431]}},{"properties":{"city":"Germantown","geo_score":0.714,"id":"ae230cj3pjdj","geo_precision":"city","state":"MD"},"type":"Feature","geometry":{"type":"Point","coordinates":[-77.282223,39.135512]}},{"properties":{"city":"Pittsburg","geo_score":0.714,"id":"ae230cx49kxk","geo_precision":"city","state":"PA"},"type":"Feature","geometry":{"type":"Point","coordinates":[-80.024817,40.434436]}},{"properties":{"city":"Washington","geo_score":0.714,"id":"ae230chz8kes","geo_precision":"city","state":"DC"},"type":"Feature","geometry":{"type":"Point","coordinates":[-77.036366,38.895112]}},{"properties":{"city":"Philadelphia","geo_score":0.714,"id":"ae230clkmo6g","geo_precision":"city","state":"PA"},"type":"Feature","geometry":{"type":"Point","coordinates":[-75.11787,40.001811]}},{"properties":{"city":"New York","geo_score":0.714,"id":"ae230cvb7xc0","geo_precision":"city","state":"NY"},"type":"Feature","geometry":{"type":"Point","coordinates":[-74.005973,40.714269]}},{"properties":{"city":"Fort Myers","geo_score":0.714,"id":"ae230ciu70cu","geo_precision":"city","state":"FL"},"type":"Feature","geometry":{"type":"Point","coordinates":[-81.863698,26.561465]}},{"properties":{"city":"Fenton","geo_score":0.714,"id":"ae230cotfhyc","geo_precision":"city","state":"MO"},"type":"Feature","geometry":{"type":"Point","coordinates":[-90.46737,38.529903]}},{"properties":{"city":"Fenton","geo_score":0.714,"id":"ae230cueu8xq","geo_precision":"city","state":"MO"},"type":"Feature","geometry":{"type":"Point","coordinates":[-90.46737,38.529903]}},{"properties":{"city":"Ruston","geo_score":0.714,"id":"ae230cn56hzf","geo_precision":"city","state":"LA"},"type":"Feature","geometry":{"type":"Point","coordinates":[-92.639756,32.580553]}},{"properties":{"city":"Mishawaka","geo_score":0.714,"id":"ae230cl2t8iy","geo_precision":"city","state":"IN"},"type":"Feature","geometry":{"type":"Point","coordinates":[-86.287884,41.61536]}},{"properties":{"city":"Greenwood","geo_score":0.714,"id":"ae230cpm7xzv","geo_precision":"city","state":"IN"},"type":"Feature","geometry":{"type":"Point","coordinates":[-86.100454,39.491246]}},{"properties":{"city":"Kansas City","geo_score":0.714,"id":"ae230chqkj86","geo_precision":"city","state":"MO"},"type":"Feature","geometry":{"type":"Point","coordinates":[-94.598583,39.102404]}},{"properties":{"city":"Sterling Heights","geo_score":0.714,"id":"ae230cqtrc9y","geo_precision":"city","state":"MI"},"type":"Feature","geometry":{"type":"Point","coordinates":[-83.068475,42.564395]}},{"properties":{"city":"Kansas City","geo_score":0.714,"id":"ae230ckkk0wi","geo_precision":"city","state":"MO"},"type":"Feature","geometry":{"type":"Point","coordinates":[-94.598583,39.102404]}},{"properties":{"city":"St. Cloud","geo_score":0.714,"id":"ae230csmf5tr","geo_precision":"city","state":"MN"},"type":"Feature","geometry":{"type":"Point","coordinates":[-91.979323,43.894685]}},{"properties":{"city":"Rockford Village","geo_score":0.0,"id":"ae230cj5zxbm","geo_precision":"unmatched","state":"MI"},"type":"Feature","geometry":null},{"properties":{"city":"Cincinnati","geo_score":0.714,"id":"ae230cw4a2u1","geo_precision":"city","state":"OH"},"type":"Feature","geometry":{"type":"Point","coordinates":[-84.53822,39.166759]}},{"properties":{"city":"Farmington","geo_score":0.714,"id":"ae230cw16vd4","geo_precision":"city","state":"MI"},"type":"Feature","geometry":{"type":"Point","coordinates":[-83.385489,42.445035]}},{"properties":{"city":"Chasterfield","geo_score":0.714,"id":"ae230cw6zicw","geo_precision":"city","state":"MO"},"type":"Feature","geometry":{"type":"Point","coordinates":[-90.650024,38.637002]}},{"properties":{"city":"Brookdfield","geo_score":0.0,"id":"ae230cr3z2ya","geo_precision":"unmatched","state":"WI"},"type":"Feature","geometry":null},{"properties":{"city":"Apple Valley","geo_score":0.714,"id":"ae230chfpclr","geo_precision":"city","state":"MN"},"type":"Feature","geometry":{"type":"Point","coordinates":[-93.914797,45.691931]}},{"properties":{"city":"Mahwah","geo_score":0.714,"id":"ae230cr8kx3u","geo_precision":"city","state":"NJ"},"type":"Feature","geometry":{"type":"Point","coordinates":[-74.172766,41.053446]}},{"properties":{"city":"Kansas City","geo_score":0.714,"id":"ae230cwg0sm3","geo_precision":"city","state":"MO"},"type":"Feature","geometry":{"type":"Point","coordinates":[-94.598583,39.102404]}},{"properties":{"city":"Gilbert","geo_score":0.714,"id":"ae230croc0er","geo_precision":"city","state":"AZ"},"type":"Feature","geometry":{"type":"Point","coordinates":[-111.815281,33.335401]}},{"properties":{"city":"Sugar Land","geo_score":0.714,"id":"ae230ckkjgl7","geo_precision":"city","state":"TX"},"type":"Feature","geometry":{"type":"Point","coordinates":[-95.756462,29.525461]}},{"properties":{"city":"Indianapolis","geo_score":0.714,"id":"ae230copbhjt","geo_precision":"city","state":"IN"},"type":"Feature","geometry":{"type":"Point","coordinates":[-86.13216,39.775092]}},{"properties":{"city":"Kentwood","geo_score":0.714,"id":"ae230cnkl69u","geo_precision":"city","state":"MI"},"type":"Feature","geometry":{"type":"Point","coordinates":[-85.644749,42.869473]}},{"properties":{"city":"Elk Grove","geo_score":0.714,"id":"ae230ctejk82","geo_precision":"city","state":"CA"},"type":"Feature","geometry":{"type":"Point","coordinates":[-123.618031,39.076371]}},{"properties":{"city":"Cypress","geo_score":0.714,"id":"ae230cltoo9d","geo_precision":"city","state":"TX"},"type":"Feature","geometry":{"type":"Point","coordinates":[-95.26911,33.044009]}},{"properties":{"city":"Fitchburg","geo_score":0.714,"id":"ae230crr3bq4","geo_precision":"city","state":"WI"},"type":"Feature","geometry":{"type":"Point","coordinates":[-89.469843,42.960832]}},{"properties":{"city":"Torrance","geo_score":0.714,"id":"ae230cnxjqsv","geo_precision":"city","state":"CA"},"type":"Feature","geometry":{"type":"Point","coordinates":[-118.303805,33.835665]}},{"properties":{"city":"Kalamazoo","geo_score":0.714,"id":"ae230cty1qa4","geo_precision":"city","state":"MI"},"type":"Feature","geometry":{"type":"Point","coordinates":[-85.510095,42.261596]}},{"properties":{"city":"Waukesha","geo_score":0.714,"id":"ae230cq90e6s","geo_precision":"city","state":"WI"},"type":"Feature","geometry":{"type":"Point","coordinates":[-88.217715,42.987835]}},{"properties":{"city":"Orlando","geo_score":0.714,"id":"ae230coahy6g","geo_precision":"city","state":"FL"},"type":"Feature","geometry":{"type":"Point","coordinates":[-81.373291,28.545179]}},{"properties":{"city":"Lawrenceville","geo_score":0.714,"id":"ae230cqlual3","geo_precision":"city","state":"GA"},"type":"Feature","geometry":{"type":"Point","coordinates":[-84.103226,33.929464]}},{"properties":{"city":"Columbus","geo_score":0.714,"id":"ae230ct2myce","geo_precision":"city","state":"GA"},"type":"Feature","geometry":{"type":"Point","coordinates":[-84.97823,32.472864]}},{"properties":{"city":"Mandarin","geo_score":0.714,"id":"ae230cqkk5g9","geo_precision":"city","state":"FL"},"type":"Feature","geometry":{"type":"Point","coordinates":[-81.65926,30.160519]}},{"properties":{"city":"Lexington","geo_score":0.0,"id":"ae230cqqnqye","geo_precision":"unmatched","state":"KY"},"type":"Feature","geometry":null},{"properties":{"city":"FT. Lauderdale","geo_score":0.714,"id":"ae230cou1p2k","geo_precision":"city","state":"FL"},"type":"Feature","geometry":{"type":"Point","coordinates":[-80.208381,26.166474]}},{"properties":{"city":"Moorestown","geo_score":0.714,"id":"ae230crxkwd1","geo_precision":"city","state":"NJ"},"type":"Feature","geometry":{"type":"Point","coordinates":[-74.253756,40.425107]}},{"properties":{"city":"Peachtree City","geo_score":0.714,"id":"ae230cmbmw8m","geo_precision":"city","state":"GA"},"type":"Feature","geometry":{"type":"Point","coordinates":[-84.93687,31.593502]}},{"properties":{"city":"Richmond","geo_score":0.714,"id":"ae230cmmi2ss","geo_precision":"city","state":"VA"},"type":"Feature","geometry":{"type":"Point","coordinates":[-76.83774,37.914858]}},{"properties":{"city":"Sarasota","geo_score":0.714,"id":"ae230cxhpta9","geo_precision":"city","state":"FL"},"type":"Feature","geometry":{"type":"Point","coordinates":[-82.537169,27.335023]}},{"properties":{"city":"Ft. Myers","geo_score":0.0,"id":"ae230ckni9m1","geo_precision":"unmatched","state":"FL"},"type":"Feature","geometry":null},{"properties":{"city":"Portland","geo_score":0.714,"id":"ae230cn8d3vm","geo_precision":"city","state":"OR"},"type":"Feature","geometry":{"type":"Point","coordinates":[-122.693157,45.498931]}},{"properties":{"city":"Hunstville","geo_score":0.0,"id":"ae230cl6c8fu","geo_precision":"unmatched","state":"AL"},"type":"Feature","geometry":null},{"properties":{"city":"Birmingham","geo_score":0.714,"id":"ae230ctb9fw5","geo_precision":"city","state":"AL"},"type":"Feature","geometry":{"type":"Point","coordinates":[-86.801904,33.456412]}},{"properties":{"city":"Tampa","geo_score":0.714,"id":"ae230cl2t4fg","geo_precision":"city","state":"FL"},"type":"Feature","geometry":{"type":"Point","coordinates":[-82.582035,27.996097]}},{"properties":{"city":"Marietta","geo_score":0.714,"id":"ae230cnhgsym","geo_precision":"city","state":"GA"},"type":"Feature","geometry":{"type":"Point","coordinates":[-84.557181,33.912473]}},{"properties":{"city":"Lake Mary","geo_score":0.714,"id":"ae230cxfce63","geo_precision":"city","state":"FL"},"type":"Feature","geometry":{"type":"Point","coordinates":[-81.350772,28.7577]}},{"properties":{"city":"Lakeland","geo_score":0.714,"id":"ae230cxabsqe","geo_precision":"city","state":"FL"},"type":"Feature","geometry":{"type":"Point","coordinates":[-81.956122,28.059997]}},{"properties":{"city":"Roswell","geo_score":0.714,"id":"ae230cr9clo6","geo_precision":"city","state":"GA"},"type":"Feature","geometry":{"type":"Point","coordinates":[-84.370475,34.055198]}},{"properties":{"city":"Hendersonville","geo_score":0.714,"id":"ae230chir4jl","geo_precision":"city","state":"TN"},"type":"Feature","geometry":{"type":"Point","coordinates":[-86.612045,36.347551]}},{"properties":{"city":"El Paso","geo_score":0.714,"id":"ae230ci0o9sm","geo_precision":"city","state":"TX"},"type":"Feature","geometry":{"type":"Point","coordinates":[-99.561747,32.342351]}},{"properties":{"city":"Gainesville","geo_score":0.714,"id":"ae230cosbbla","geo_precision":"city","state":"GA"},"type":"Feature","geometry":{"type":"Point","coordinates":[-83.837912,34.334398]}},{"properties":{"city":"Matthews","geo_score":0.0,"id":"ae230cwhxqd8","geo_precision":"unmatched","state":"NC"},"type":"Feature","geometry":null},{"properties":{"city":"Altamonte Springs","geo_score":0.714,"id":"ae230clld63h","geo_precision":"city","state":"FL"},"type":"Feature","geometry":{"type":"Point","coordinates":[-84.327675,30.08076]}},{"properties":{"city":"Richmond Carytown","geo_score":0.714,"id":"ae230cioaazb","geo_precision":"city","state":"VA"},"type":"Feature","geometry":{"type":"Point","coordinates":[-76.83774,37.914858]}},{"properties":{"city":"Suwanee","geo_score":0.714,"id":"ae230conyiau","geo_precision":"city","state":"GA"},"type":"Feature","geometry":{"type":"Point","coordinates":[-84.026171,34.042479]}},{"properties":{"city":"Vancouver","geo_score":0.714,"id":"ae230cquyhho","geo_precision":"city","state":"WA"},"type":"Feature","geometry":{"type":"Point","coordinates":[-122.713366,45.74327]}},{"properties":{"city":"Naschville","geo_score":0.0,"id":"ae230cx2cwqw","geo_precision":"unmatched","state":"TN"},"type":"Feature","geometry":null},{"properties":{"city":"Orlando","geo_score":0.714,"id":"ae230chmwinw","geo_precision":"city","state":"FL"},"type":"Feature","geometry":{"type":"Point","coordinates":[-81.373291,28.545179]}},{"properties":{"city":"Orlando","geo_score":0.714,"id":"ae230ctwjizx","geo_precision":"city","state":"FL"},"type":"Feature","geometry":{"type":"Point","coordinates":[-81.373291,28.545179]}},{"properties":{"city":"Phoenix","geo_score":0.0,"id":"ae230cvp2a5x","geo_precision":"unmatched","state":"AZ"},"type":"Feature","geometry":null},{"properties":{"city":"Lake Norman","geo_score":0.714,"id":"ae230coit7y8","geo_precision":"city","state":"NC"},"type":"Feature","geometry":{"type":"Point","coordinates":[-79.73794,35.162723]}},{"properties":{"city":"West Knoxville","geo_score":0.714,"id":"ae230cwe2b7q","geo_precision":"city","state":"TN"},"type":"Feature","geometry":{"type":"Point","coordinates":[-83.955185,35.97036]}},{"properties":{"city":"Charlotte","geo_score":0.714,"id":"ae230cohp98s","geo_precision":"city","state":"NC"},"type":"Feature","geometry":{"type":"Point","coordinates":[-80.804151,35.26002]}},{"properties":{"city":"Las Vegas","geo_score":0.714,"id":"ae230cm12bo7","geo_precision":"city","state":"NV"},"type":"Feature","geometry":{"type":"Point","coordinates":[-115.10647,36.17372]}},{"properties":{"city":"San Ramon","geo_score":0.714,"id":"ae230cm8hfbr","geo_precision":"city","state":"CA"},"type":"Feature","geometry":{"type":"Point","coordinates":[-116.976549,33.031572]}},{"properties":{"city":"Orange","geo_score":0.714,"id":"ae230clp4suq","geo_precision":"city","state":"CA"},"type":"Feature","geometry":{"type":"Point","coordinates":[-117.853112,33.787795]}},{"properties":{"city":"Fresno","geo_score":0.714,"id":"ae230cn26h6g","geo_precision":"city","state":"CA"},"type":"Feature","geometry":{"type":"Point","coordinates":[-119.801015,36.8411]}},{"properties":{"city":"Richardson","geo_score":0.714,"id":"ae230cxai7wx","geo_precision":"city","state":"TX"},"type":"Feature","geometry":{"type":"Point","coordinates":[-96.726826,32.962811]}},{"properties":{"city":"Chandler","geo_score":0.714,"id":"ae230cm4e4o7","geo_precision":"city","state":"AZ"},"type":"Feature","geometry":{"type":"Point","coordinates":[-111.686171,33.212186]}},{"properties":{"city":"Roseville","geo_score":0.714,"id":"ae230cqvs3q0","geo_precision":"city","state":"CA"},"type":"Feature","geometry":{"type":"Point","coordinates":[-121.25603,38.74073]}},{"properties":{"city":"Columbus","geo_score":0.714,"id":"ae230ckg8mtt","geo_precision":"city","state":"OH"},"type":"Feature","geometry":{"type":"Point","coordinates":[-84.15053,40.97793]}},{"properties":{"city":"Walnut Creek","geo_score":0.714,"id":"ae230ckvufhy","geo_precision":"city","state":"CA"},"type":"Feature","geometry":{"type":"Point","coordinates":[-122.481647,38.517964]}},{"properties":{"city":"Brentwood","geo_score":0.714,"id":"ae230chkv8rj","geo_precision":"city","state":"CA"},"type":"Feature","geometry":{"type":"Point","coordinates":[-118.473969,34.051954]}},{"properties":{"city":"Carlsbad","geo_score":0.714,"id":"ae230cwz2my5","geo_precision":"city","state":"CA"},"type":"Feature","geometry":{"type":"Point","coordinates":[-116.846046,33.016928]}},{"properties":{"city":"Orem","geo_score":0.714,"id":"ae230ciy6dl8","geo_precision":"city","state":"UT"},"type":"Feature","geometry":{"type":"Point","coordinates":[-111.72496,40.311353]}},{"properties":{"city":"Tracy","geo_score":0.714,"id":"ae230cngnfqe","geo_precision":"city","state":"CA"},"type":"Feature","geometry":{"type":"Point","coordinates":[-121.407804,37.688679]}},{"properties":{"city":"West Las","geo_score":0.0,"id":"ae230codfk3i","geo_precision":"unmatched","state":"NV"},"type":"Feature","geometry":null},{"properties":{"city":"Staten Island","geo_score":0.714,"id":"ae230cktqb6s","geo_precision":"city","state":"NY"},"type":"Feature","geometry":{"type":"Point","coordinates":[-77.646948,43.277284]}},{"properties":{"city":"Glendale","geo_score":0.714,"id":"ae230crqmdit","geo_precision":"city","state":"CA"},"type":"Feature","geometry":{"type":"Point","coordinates":[-118.298662,33.786594]}},{"properties":{"city":"Los Angeles","geo_score":0.714,"id":"ae230cs8f8h2","geo_precision":"city","state":"CA"},"type":"Feature","geometry":{"type":"Point","coordinates":[-120.618608,38.052816]}},{"properties":{"city":"Salt Lake City","geo_score":0.714,"id":"ae230crmsbn6","geo_precision":"city","state":"UT"},"type":"Feature","geometry":{"type":"Point","coordinates":[-111.900719,40.756095]}},{"properties":{"city":"Tukwila","geo_score":0.714,"id":"ae230cod7ht6","geo_precision":"city","state":"WA"},"type":"Feature","geometry":{"type":"Point","coordinates":[-122.260956,47.473988]}},{"properties":{"city":"Federal Way","geo_score":0.714,"id":"ae230cphrs0j","geo_precision":"city","state":"WA"},"type":"Feature","geometry":{"type":"Point","coordinates":[-121.803388,47.432251]}},{"properties":{"city":"San Diego","geo_score":0.714,"id":"ae230cirf3t5","geo_precision":"city","state":"CA"},"type":"Feature","geometry":{"type":"Point","coordinates":[-117.174366,32.7211]}},{"properties":{"city":"Honolulu","geo_score":0.714,"id":"ae230cx3h1hk","geo_precision":"city","state":"HI"},"type":"Feature","geometry":{"type":"Point","coordinates":[-168.021815,24.859832]}},{"properties":{"city":"Phoenix","geo_score":0.0,"id":"ae230cn0xi6a","geo_precision":"unmatched","state":"AZ"},"type":"Feature","geometry":null},{"properties":{"city":"Phoenix","geo_score":0.0,"id":"ae230cl74yqi","geo_precision":"unmatched","state":"AZ"},"type":"Feature","geometry":null},{"properties":{"city":"Phoenix","geo_score":0.0,"id":"ae230chtcl2g","geo_precision":"unmatched","state":"AZ"},"type":"Feature","geometry":null},{"properties":{"city":"Houston","geo_score":0.714,"id":"ae230cwa394k","geo_precision":"city","state":"TX"},"type":"Feature","geometry":{"type":"Point","coordinates":[-96.919704,29.845783]}},{"properties":{"city":"Ridgeland","geo_score":0.714,"id":"ae230ctw6yzp","geo_precision":"city","state":"MS"},"type":"Feature","geometry":{"type":"Point","coordinates":[-90.13731,32.436064]}},{"properties":{"city":"Lakewood","geo_score":0.714,"id":"ae230cuslm12","geo_precision":"city","state":"NY"},"type":"Feature","geometry":{"type":"Point","coordinates":[-79.440009,42.12481]}},{"properties":{"city":"Wheatfield","geo_score":0.714,"id":"ae230cqpjket","geo_precision":"city","state":"NY"},"type":"Feature","geometry":{"type":"Point","coordinates":[-74.224314,41.81426]}},{"properties":{"city":"Chenango","geo_score":0.714,"id":"ae230cx90dqq","geo_precision":"city","state":"NY"},"type":"Feature","geometry":{"type":"Point","coordinates":[-75.998535,42.659791]}},{"properties":{"city":"Albany","geo_score":0.714,"id":"ae230cjzgga2","geo_precision":"city","state":"NY"},"type":"Feature","geometry":{"type":"Point","coordinates":[-73.970812,42.614852]}},{"properties":{"city":"Buffalo","geo_score":0.714,"id":"ae230cn8f43s","geo_precision":"city","state":"NY"},"type":"Feature","geometry":{"type":"Point","coordinates":[-78.832706,42.929303]}},{"properties":{"city":"Berwyn","geo_score":0.714,"id":"ae230cshsef3","geo_precision":"city","state":"PA"},"type":"Feature","geometry":{"type":"Point","coordinates":[-76.001602,40.523982]}},{"properties":{"city":"Albany","geo_score":0.714,"id":"ae230clepsm6","geo_precision":"city","state":"NY"},"type":"Feature","geometry":{"type":"Point","coordinates":[-73.970812,42.614852]}},{"properties":{"city":"Redmond","geo_score":0.714,"id":"ae230cm7nynx","geo_precision":"city","state":"WA"},"type":"Feature","geometry":{"type":"Point","coordinates":[-122.121034,47.678756]}},{"properties":{"city":"Redmond","geo_score":0.714,"id":"ae230cw4lm8l","geo_precision":"city","state":"WA"},"type":"Feature","geometry":{"type":"Point","coordinates":[-122.121034,47.678756]}},{"properties":{"city":"Pittsburg","geo_score":0.714,"id":"ae230cuxox7j","geo_precision":"city","state":"PA"},"type":"Feature","geometry":{"type":"Point","coordinates":[-80.024817,40.434436]}},{"properties":{"city":"Robinson","geo_score":0.714,"id":"ae230chfkzcg","geo_precision":"city","state":"PA"},"type":"Feature","geometry":{"type":"Point","coordinates":[-79.12204,40.403698]}},{"properties":{"city":"Dublin","geo_score":0.714,"id":"ae230cwe9mwm","geo_precision":"city","state":"OH"},"type":"Feature","geometry":{"type":"Point","coordinates":[-83.011389,39.969036]}},{"properties":{"city":"Florence","geo_score":0.714,"id":"ae230cty0e9s","geo_precision":"city","state":"KY"},"type":"Feature","geometry":{"type":"Point","coordinates":[-84.747789,38.962372]}},{"properties":{"city":"Aakron","geo_score":0.714,"id":"ae230cwfqxn0","geo_precision":"city","state":"OH"},"type":"Feature","geometry":{"type":"Point","coordinates":[-81.507831,41.012239]}},{"properties":{"city":"Miamisburg","geo_score":0.714,"id":"ae230cv6kozr","geo_precision":"city","state":"OH"},"type":"Feature","geometry":{"type":"Point","coordinates":[-84.27464,39.641658]}},{"properties":{"city":"Kansas City","geo_score":0.714,"id":"ae230cq1tpee","geo_precision":"city","state":"MO"},"type":"Feature","geometry":{"type":"Point","coordinates":[-94.598583,39.102404]}},{"properties":{"city":"Kansas City","geo_score":0.714,"id":"ae230cic6ps9","geo_precision":"city","state":"MO"},"type":"Feature","geometry":{"type":"Point","coordinates":[-94.598583,39.102404]}},{"properties":{"city":"Franklin","geo_score":0.714,"id":"ae230cv6mtqs","geo_precision":"city","state":"MA"},"type":"Feature","geometry":{"type":"Point","coordinates":[-71.016162,42.441763]}},{"properties":{"city":"Roseland","geo_score":0.714,"id":"ae230cqmoa2e","geo_precision":"city","state":"NJ"},"type":"Feature","geometry":{"type":"Point","coordinates":[-74.306093,40.820499]}},{"properties":{"city":"Cleveland","geo_score":0.714,"id":"ae230ck9uune","geo_precision":"city","state":"OH"},"type":"Feature","geometry":{"type":"Point","coordinates":[-81.599648,41.523401]}},{"properties":{"city":"Westerville","geo_score":0.714,"id":"ae230ckg60z5","geo_precision":"city","state":"OH"},"type":"Feature","geometry":{"type":"Point","coordinates":[-82.896457,40.10447]}},{"properties":{"city":"Cumming","geo_score":0.714,"id":"ae230clgbh7u","geo_precision":"city","state":"GA"},"type":"Feature","geometry":{"type":"Point","coordinates":[-84.092588,34.193041]}},{"properties":{"city":"Beaverton","geo_score":0.714,"id":"ae230cjrjt2q","geo_precision":"city","state":"OR"},"type":"Feature","geometry":{"type":"Point","coordinates":[-122.800146,45.496289]}},{"properties":{"city":"Oklahoma City","geo_score":0.714,"id":"ae230cxn061o","geo_precision":"city","state":"OK"},"type":"Feature","geometry":{"type":"Point","coordinates":[-97.562817,35.491608]}},{"properties":{"city":"Woodland Hills","geo_score":0.714,"id":"ae230cm9vve2","geo_precision":"city","state":"CA"},"type":"Feature","geometry":{"type":"Point","coordinates":[-121.397892,39.08337]}},{"properties":{"city":"San Bernandino","geo_score":0.714,"id":"ae230ctzpsml","geo_precision":"city","state":"CA"},"type":"Feature","geometry":{"type":"Point","coordinates":[-117.289765,34.108345]}},{"properties":{"city":"Arlington","geo_score":0.714,"id":"ae230cxfw33d","geo_precision":"city","state":"TX"},"type":"Feature","geometry":{"type":"Point","coordinates":[-97.291484,32.771419]}},{"properties":{"city":"Novi","geo_score":0.714,"id":"ae230cojmsxi","geo_precision":"city","state":"MI"},"type":"Feature","geometry":{"type":"Point","coordinates":[-83.522221,42.468959]}},{"properties":{"city":"Albuquerque","geo_score":0.714,"id":"ae230ckrxjlg","geo_precision":"city","state":"NM"},"type":"Feature","geometry":{"type":"Point","coordinates":[-106.651137,35.084491]}},{"properties":{"city":"Colorado Springs","geo_score":0.714,"id":"ae230cikobre","geo_precision":"city","state":"CO"},"type":"Feature","geometry":{"type":"Point","coordinates":[-104.857828,38.861469]}},{"properties":{"city":"Westminster","geo_score":0.714,"id":"ae230cln1oia","geo_precision":"city","state":"CO"},"type":"Feature","geometry":{"type":"Point","coordinates":[-105.034487,39.872535]}},{"properties":{"city":"Las Colinas","geo_score":0.714,"id":"ae230cqfrghu","geo_precision":"city","state":"TX"},"type":"Feature","geometry":{"type":"Point","coordinates":[-96.241147,29.298532]}},{"properties":{"city":"Raleigh","geo_score":0.714,"id":"ae230cpui3dc","geo_precision":"city","state":"NC"},"type":"Feature","geometry":{"type":"Point","coordinates":[-82.293464,36.034279]}},{"properties":{"city":"Folsom","geo_score":0.714,"id":"ae230crf9tt4","geo_precision":"city","state":"CA"},"type":"Feature","geometry":{"type":"Point","coordinates":[-121.310796,38.594181]}},{"properties":{"city":"Vintage","geo_score":0.0,"id":"ae230cop80la","geo_precision":"unmatched","state":"TX"},"type":"Feature","geometry":null},{"properties":{"city":"Katy","geo_score":0.714,"id":"ae230cli4ja7","geo_precision":"city","state":"TX"},"type":"Feature","geometry":{"type":"Point","coordinates":[-96.671371,31.38323]}},{"properties":{"city":"North San Antonio","geo_score":0.714,"id":"ae230cs13c31","geo_precision":"city","state":"TX"},"type":"Feature","geometry":{"type":"Point","coordinates":[-102.192713,33.770506]}},{"properties":{"city":"The Woodlands","geo_score":0.714,"id":"ae230cln0q7y","geo_precision":"city","state":"TX"},"type":"Feature","geometry":{"type":"Point","coordinates":[-95.489385,30.157994]}},{"properties":{"city":"Denver Tech Center","geo_score":0.714,"id":"ae230ckgxwmc","geo_precision":"city","state":"CO"},"type":"Feature","geometry":{"type":"Point","coordinates":[-106.046711,37.869875]}},{"properties":{"city":"Orlando","geo_score":0.714,"id":"ae230clhyxyf","geo_precision":"city","state":"FL"},"type":"Feature","geometry":{"type":"Point","coordinates":[-81.373291,28.545179]}},{"properties":{"city":"Keen","geo_score":0.714,"id":"ae230cjrt244","geo_precision":"city","state":"NH"},"type":"Feature","geometry":{"type":"Point","coordinates":[-72.248052,42.903656]}},{"properties":{"city":"Indianapolis","geo_score":0.714,"id":"ae230cuf2bma","geo_precision":"city","state":"IN"},"type":"Feature","geometry":{"type":"Point","coordinates":[-86.13216,39.775092]}},{"properties":{"city":"Centennial","geo_score":0.714,"id":"ae230cw5ywoh","geo_precision":"city","state":"CO"},"type":"Feature","geometry":{"type":"Point","coordinates":[-104.876923,39.579155]}},{"properties":{"city":"Houston","geo_score":0.714,"id":"ae230cohlpe6","geo_precision":"city","state":"TX"},"type":"Feature","geometry":{"type":"Point","coordinates":[-96.919704,29.845783]}},{"properties":{"city":"Brooklyn","geo_score":0.714,"id":"ae230ckmn8um","geo_precision":"city","state":"NY"},"type":"Feature","geometry":{"type":"Point","coordinates":[-73.989319,40.694481]}},{"properties":{"city":"Voorhees","geo_score":0.714,"id":"ae230cj7jeni","geo_precision":"city","state":"NJ"},"type":"Feature","geometry":{"type":"Point","coordinates":[-74.965057,39.839156]}}],"is_temporal":false,"author":{"url":"","metadata":"","contact_name":"","contact_address":"","source":"","contact_phone":""},"source":"","pagination":{"sort":null,"start":0,"total":233,"limit":1000000},"state":"complete","tags":"","published":"2014-08-16T19:06:06-04:00","id":353904}