{"type":"FeatureCollection","data_type":"Dataset","url_type":null,"permissions":[{"permissions":{"download":true,"view":true},"group_id":"everyone"}],"classification":null,"title":"MPC refineries","count":7,"stream_id":354634,"contributor":{"url":"http://geocommons.com/users/69711","name":"mhammer341"},"data_attributes":null,"calculation_params":null,"icon_link":null,"link":"http://geocommons.com/overlays/354634.json","extent":[-101.933,30.2324,-82.6498,42.2399],"geometry_types":["point"],"unique_name":null,"name":"MPC refineries","feature_count":7,"description":"","next_feature":null,"is_raster":false,"short_classification":"Y","stats":{"capacity, mbpd":{"max":522,"variance":31791.5714285714,"mean":242.714285714286,"stdev":178.301910894335,"min":80,"median":206}},"features":[{"properties":{"city":"Garyville","geo_score":0.714,"capacity, mbpd":522,"id":"ae599rehktya","geo_precision":"city","state":"Louisiana"},"type":"Feature","geometry":{"type":"Point","coordinates":[-91.104709,30.232366]}},{"properties":{"city":"Catlettsburg","geo_score":0.714,"capacity, mbpd":240,"id":"ae599rf4k1xs","geo_precision":"city","state":"Kentucky"},"type":"Feature","geometry":{"type":"Point","coordinates":[-82.649833,38.349127]}},{"properties":{"city":"Robinson","geo_score":0.714,"capacity, mbpd":206,"id":"ae599rbixq5m","geo_precision":"city","state":"Illinois"},"type":"Feature","geometry":{"type":"Point","coordinates":[-87.751776,39.004559]}},{"properties":{"city":"Detroit","geo_score":0.714,"capacity, mbpd":120,"id":"ae599rl3fhdw","geo_precision":"city","state":"Michigan"},"type":"Feature","geometry":{"type":"Point","coordinates":[-83.150823,42.239933]}},{"properties":{"city":"Canton","geo_score":0.714,"capacity, mbpd":80,"id":"ae599rpxvjjm","geo_precision":"city","state":"Ohio"},"type":"Feature","geometry":{"type":"Point","coordinates":[-83.616923,40.6401]}},{"properties":{"city":"Texas City","geo_score":0.0,"capacity, mbpd":80,"id":"ae599rbgsauz","geo_precision":"unmatched","state":"Texas"},"type":"Feature","geometry":null},{"properties":{"city":"Galveston Bay","geo_score":0.714,"capacity, mbpd":451,"id":"ae599rbeh6c3","geo_precision":"city","state":"Texas"},"type":"Feature","geometry":{"type":"Point","coordinates":[-101.932689,35.265052]}}],"is_temporal":false,"author":{"url":"","metadata":"","contact_name":"","contact_address":"","source":"","contact_phone":""},"source":"","pagination":{"sort":null,"start":0,"total":7,"limit":1000000},"state":"complete","tags":"","published":"2014-08-16T20:09:18-04:00","id":354634}