{"type":"FeatureCollection","data_type":"Dataset","url_type":null,"permissions":[{"permissions":{"download":true,"view":true},"group_id":"everyone"}],"classification":null,"title":"dpc_organizer_map_330","count":190,"stream_id":35493,"contributor":{"url":"http://geocommons.com/users/11204","name":"joegravellese"},"data_attributes":null,"calculation_params":null,"icon_link":null,"link":"http://geocommons.com/overlays/35493.json","extent":[-73.4134,41.4212,-69.96,42.8535],"geometry_types":["point"],"unique_name":null,"name":"dpc_organizer_map_330","feature_count":190,"description":"","next_feature":null,"is_raster":false,"short_classification":"Y","stats":{"latitude":{"max":42.853539,"mean":42.2880080052632,"variance":0.0840945602836984,"stdev":0.289990621027126,"min":41.42125,"median":42.358431},"supporters":{"max":194,"mean":13.3,"variance":422.327513227513,"stdev":20.5506085853318,"min":0,"median":8},"organizers":{"max":194,"mean":4.87894736842105,"variance":233.06992481203,"stdev":15.2666278140272,"min":1,"median":2},"accounts":{"max":74,"mean":4.05291005291005,"variance":41.8056962737814,"stdev":6.46573246228,"min":0,"median":2},"longitude":{"max":-69.96,"mean":-71.4424066421052,"variance":0.474082863723046,"stdev":0.688536755535277,"min":-73.413446,"median":-71.218079}},"features":[{"properties":{"city":"Abington","latitude":42.11749,"supporters":8,"organizers":5,"accounts":4,"longitude":-70.959888,"id":"a62s5p03d1nw","state":"Massachusetts"},"type":"Feature","geometry":{"type":"Point","coordinates":[-70.959888,42.11749]}},{"properties":{"city":"Acton","latitude":42.485,"supporters":12,"organizers":7,"accounts":7,"longitude":-71.433,"id":"a62s5pahfhzj","state":"Massachusetts"},"type":"Feature","geometry":{"type":"Point","coordinates":[-71.433,42.485]}},{"properties":{"city":"Agawam","latitude":42.140549,"supporters":13,"organizers":4,"accounts":5,"longitude":-72.788661,"id":"a62s5palixwz","state":"Massachusetts"},"type":"Feature","geometry":{"type":"Point","coordinates":[-72.788661,42.140549]}},{"properties":{"city":"Alford","latitude":42.235644,"supporters":2,"organizers":2,"accounts":2,"longitude":-73.413446,"id":"a62s5pb28gac","state":"Massachusetts"},"type":"Feature","geometry":{"type":"Point","coordinates":[-73.413446,42.235644]}},{"properties":{"city":"Amesbury","latitude":42.853539,"supporters":9,"organizers":2,"accounts":2,"longitude":-70.948211,"id":"a62s5p4ify28","state":"Massachusetts"},"type":"Feature","geometry":{"type":"Point","coordinates":[-70.948211,42.853539]}},{"properties":{"city":"Amherst","latitude":42.367092,"supporters":11,"organizers":2,"accounts":5,"longitude":-72.464571,"id":"a62s5p9674w1","state":"Massachusetts"},"type":"Feature","geometry":{"type":"Point","coordinates":[-72.464571,42.367092]}},{"properties":{"city":"Andover","latitude":42.647991,"supporters":28,"organizers":7,"accounts":6,"longitude":-71.165685,"id":"a62s5p2214iq","state":"Massachusetts"},"type":"Feature","geometry":{"type":"Point","coordinates":[-71.165685,42.647991]}},{"properties":{"city":"Arlington","latitude":42.417695,"supporters":29,"organizers":7,"accounts":15,"longitude":-71.167083,"id":"a62s5pa0cij4","state":"Massachusetts"},"type":"Feature","geometry":{"type":"Point","coordinates":[-71.167083,42.417695]}},{"properties":{"city":"Ashland","latitude":42.446396,"supporters":9,"organizers":3,"accounts":3,"longitude":-71.459405,"id":"a62s5p68sqrb","state":"Massachusetts"},"type":"Feature","geometry":{"type":"Point","coordinates":[-71.459405,42.446396]}},{"properties":{"city":"Attleboro","latitude":41.938976,"supporters":31,"organizers":4,"accounts":4,"longitude":-71.302297,"id":"a62s5p2s0oww","state":"Massachusetts"},"type":"Feature","geometry":{"type":"Point","coordinates":[-71.302297,41.938976]}},{"properties":{"city":"Auburn","latitude":42.149,"supporters":4,"organizers":3,"accounts":1,"longitude":-71.836,"id":"a62s5p3i8pci","state":"Massachusetts"},"type":"Feature","geometry":{"type":"Point","coordinates":[-71.836,42.149]}},{"properties":{"city":"Barnstable","latitude":41.683443,"supporters":6,"organizers":2,"accounts":2,"longitude":-70.366135,"id":"a62s5oyct2o9","state":"Massachusetts"},"type":"Feature","geometry":{"type":"Point","coordinates":[-70.366135,41.683443]}},{"properties":{"city":"Belchertown","latitude":42.280267,"supporters":6,"organizers":1,"accounts":2,"longitude":-72.402056,"id":"a62s5p3lhrf8","state":"Massachusetts"},"type":"Feature","geometry":{"type":"Point","coordinates":[-72.402056,42.280267]}},{"properties":{"city":"Bellingham","latitude":42.076501,"supporters":1,"organizers":1,"accounts":1,"longitude":-71.470464,"id":"a62s5p1alfjt","state":"Massachusetts"},"type":"Feature","geometry":{"type":"Point","coordinates":[-71.470464,42.076501]}},{"properties":{"city":"Belmont","latitude":42.446396,"supporters":37,"organizers":2,"accounts":2,"longitude":-71.459405,"id":"a62s5p9fo3eg","state":"Massachusetts"},"type":"Feature","geometry":{"type":"Point","coordinates":[-71.459405,42.446396]}},{"properties":{"city":"Beverly","latitude":42.565145,"supporters":17,"organizers":3,"accounts":4,"longitude":-70.853843,"id":"a62s5pabcufe","state":"Massachusetts"},"type":"Feature","geometry":{"type":"Point","coordinates":[-70.853843,42.565145]}},{"properties":{"city":"Billerica","latitude":42.446396,"supporters":14,"organizers":4,"accounts":5,"longitude":-71.459405,"id":"a62s5p46svma","state":"Massachusetts"},"type":"Feature","geometry":{"type":"Point","coordinates":[-71.459405,42.446396]}},{"properties":{"city":"Blackstone","latitude":42.017,"supporters":5,"organizers":1,"accounts":1,"longitude":-71.541,"id":"a62s5p1gj9d7","state":"Massachusetts"},"type":"Feature","geometry":{"type":"Point","coordinates":[-71.541,42.017]}},{"properties":{"city":"Boston","latitude":42.358431,"supporters":0,"organizers":194,"accounts":0,"longitude":-71.059773,"id":"a62s5p09fmvj","state":"Massachusetts"},"type":"Feature","geometry":{"type":"Point","coordinates":[-71.059773,42.358431]}},{"properties":{"city":"Boxborough","latitude":42.446396,"supporters":5,"organizers":2,"accounts":2,"longitude":-71.459405,"id":"a62s5p6jcxvg","state":"Massachusetts"},"type":"Feature","geometry":{"type":"Point","coordinates":[-71.459405,42.446396]}},{"properties":{"city":"Boxford","latitude":42.683256,"supporters":11,"organizers":2,"accounts":2,"longitude":-71.017403,"id":"a62s5ovo9eo3","state":"Massachusetts"},"type":"Feature","geometry":{"type":"Point","coordinates":[-71.017403,42.683256]}},{"properties":{"city":"Boylston","latitude":42.391,"supporters":2,"organizers":1,"accounts":1,"longitude":-71.704,"id":"a62s5p7m0867","state":"Massachusetts"},"type":"Feature","geometry":{"type":"Point","coordinates":[-71.704,42.391]}},{"properties":{"city":"Brewster","latitude":41.76,"supporters":11,"organizers":2,"accounts":4,"longitude":-70.083,"id":"a62s5p69bbpl","state":"Massachusetts"},"type":"Feature","geometry":{"type":"Point","coordinates":[-70.083,41.76]}},{"properties":{"city":"Bridgewater","latitude":41.973741,"supporters":5,"organizers":4,"accounts":4,"longitude":-70.976558,"id":"a62s5p7j7a6j","state":"Massachusetts"},"type":"Feature","geometry":{"type":"Point","coordinates":[-70.976558,41.973741]}},{"properties":{"city":"Brockton","latitude":42.083434,"supporters":24,"organizers":6,"accounts":4,"longitude":-71.018379,"id":"a62s5p8chy2v","state":"Massachusetts"},"type":"Feature","geometry":{"type":"Point","coordinates":[-71.018379,42.083434]}},{"properties":{"city":"Brookline","latitude":42.308198,"supporters":55,"organizers":14,"accounts":22,"longitude":-71.088745,"id":"a62s5p3sosw7","state":"Massachusetts"},"type":"Feature","geometry":{"type":"Point","coordinates":[-71.088745,42.308198]}},{"properties":{"city":"Burlington","latitude":42.504844,"supporters":6,"organizers":1,"accounts":2,"longitude":-71.201539,"id":"a62s5pb9avn8","state":"Massachusetts"},"type":"Feature","geometry":{"type":"Point","coordinates":[-71.201539,42.504844]}},{"properties":{"city":"Cambridge","latitude":42.358431,"supporters":194,"organizers":69,"accounts":74,"longitude":-71.103663,"id":"a62s5p0eys89","state":"Massachusetts"},"type":"Feature","geometry":{"type":"Point","coordinates":[-71.103663,42.358431]}},{"properties":{"city":"Carlisle","latitude":42.446396,"supporters":6,"organizers":3,"accounts":3,"longitude":-71.459405,"id":"a62s5p696nby","state":"Massachusetts"},"type":"Feature","geometry":{"type":"Point","coordinates":[-71.459405,42.446396]}},{"properties":{"city":"Charlestown","latitude":42.382588,"supporters":6,"organizers":3,"accounts":4,"longitude":-71.065287,"id":"a62s5pbelm87","state":"Massachusetts"},"type":"Feature","geometry":{"type":"Point","coordinates":[-71.065287,42.382588]}},{"properties":{"city":"Chatham","latitude":41.68,"supporters":3,"organizers":1,"accounts":1,"longitude":-69.96,"id":"a62s5oxeq8rw","state":"Massachusetts"},"type":"Feature","geometry":{"type":"Point","coordinates":[-69.96,41.68]}},{"properties":{"city":"Chelmsford","latitude":42.5997,"supporters":14,"organizers":5,"accounts":6,"longitude":-71.368,"id":"a62s5p5c4o9k","state":"Massachusetts"},"type":"Feature","geometry":{"type":"Point","coordinates":[-71.368,42.5997]}},{"properties":{"city":"Chelsea","latitude":42.378197,"supporters":7,"organizers":3,"accounts":4,"longitude":-71.038894,"id":"a62s5ox31pb7","state":"Massachusetts"},"type":"Feature","geometry":{"type":"Point","coordinates":[-71.038894,42.378197]}},{"properties":{"city":"Clinton","latitude":42.413972,"supporters":13,"organizers":1,"accounts":0,"longitude":-71.687523,"id":"a62s5p8by58a","state":"Massachusetts"},"type":"Feature","geometry":{"type":"Point","coordinates":[-71.687523,42.413972]}},{"properties":{"city":"Cochituate","latitude":42.23,"supporters":3,"organizers":1,"accounts":2,"longitude":-71.364,"id":"a62s5p9qley3","state":"Massachusetts"},"type":"Feature","geometry":{"type":"Point","coordinates":[-71.364,42.23]}},{"properties":{"city":"Colrain","latitude":42.681539,"supporters":2,"organizers":2,"accounts":2,"longitude":-72.822986,"id":"a62s5owxh9l7","state":"Massachusetts"},"type":"Feature","geometry":{"type":"Point","coordinates":[-72.822986,42.681539]}},{"properties":{"city":"Concord","latitude":42.446396,"supporters":18,"organizers":3,"accounts":5,"longitude":-71.459405,"id":"a62s5oxf2q5h","state":"Massachusetts"},"type":"Feature","geometry":{"type":"Point","coordinates":[-71.459405,42.446396]}},{"properties":{"city":"Dartmouth","latitude":41.616,"supporters":8,"organizers":3,"accounts":3,"longitude":-70.983,"id":"a62s5oylq67u","state":"Massachusetts"},"type":"Feature","geometry":{"type":"Point","coordinates":[-70.983,41.616]}},{"properties":{"city":"Dedham","latitude":42.244733,"supporters":4,"organizers":4,"accounts":4,"longitude":-71.181141,"id":"a62s5pbgqxc7","state":"Massachusetts"},"type":"Feature","geometry":{"type":"Point","coordinates":[-71.181141,42.244733]}},{"properties":{"city":"Douglas","latitude":42.113076,"supporters":2,"organizers":1,"accounts":1,"longitude":-71.891139,"id":"a62s5p8h3rmb","state":"Massachusetts"},"type":"Feature","geometry":{"type":"Point","coordinates":[-71.891139,42.113076]}},{"properties":{"city":"Dracut","latitude":42.446396,"supporters":17,"organizers":2,"accounts":2,"longitude":-71.459405,"id":"a62s5p5yyk8w","state":"Massachusetts"},"type":"Feature","geometry":{"type":"Point","coordinates":[-71.459405,42.446396]}},{"properties":{"city":"Dudley","latitude":42.059189,"supporters":1,"organizers":1,"accounts":1,"longitude":-71.937037,"id":"a62s5p0txh1r","state":"Massachusetts"},"type":"Feature","geometry":{"type":"Point","coordinates":[-71.937037,42.059189]}},{"properties":{"city":"Duxbury","latitude":41.970474,"supporters":9,"organizers":4,"accounts":5,"longitude":-70.701357,"id":"a62s5p7zjvkp","state":"Massachusetts"},"type":"Feature","geometry":{"type":"Point","coordinates":[-70.701357,41.970474]}},{"properties":{"city":"Easthampton","latitude":42.267,"supporters":23,"organizers":5,"accounts":5,"longitude":-72.669,"id":"a62s5p1olars","state":"Massachusetts"},"type":"Feature","geometry":{"type":"Point","coordinates":[-72.669,42.267]}},{"properties":{"city":"Easton","latitude":42.023528,"supporters":2,"organizers":2,"accounts":2,"longitude":-71.132397,"id":"a62s5ovpxvyj","state":"Massachusetts"},"type":"Feature","geometry":{"type":"Point","coordinates":[-71.132397,42.023528]}},{"properties":{"city":"Fairhaven","latitude":41.631672,"supporters":6,"organizers":3,"accounts":2,"longitude":-70.870045,"id":"a62s5p8s4f9o","state":"Massachusetts"},"type":"Feature","geometry":{"type":"Point","coordinates":[-70.870045,41.631672]}},{"properties":{"city":"Fall River","latitude":41.701,"supporters":37,"organizers":5,"accounts":6,"longitude":-71.155,"id":"a62s5ozpbbzl","state":"Massachusetts"},"type":"Feature","geometry":{"type":"Point","coordinates":[-71.155,41.701]}},{"properties":{"city":"Falmouth","latitude":41.614199,"supporters":37,"organizers":3,"accounts":4,"longitude":-70.493263,"id":"a62s5p6pw468","state":"Massachusetts"},"type":"Feature","geometry":{"type":"Point","coordinates":[-70.493263,41.614199]}},{"properties":{"city":"Foxborough","latitude":42.065377,"supporters":9,"organizers":1,"accounts":2,"longitude":-71.247831,"id":"a62s5p58ct39","state":"Massachusetts"},"type":"Feature","geometry":{"type":"Point","coordinates":[-71.247831,42.065377]}},{"properties":{"city":"Framingham","latitude":42.297318,"supporters":38,"organizers":11,"accounts":11,"longitude":-71.437006,"id":"a62s5p5uvjb0","state":"Massachusetts"},"type":"Feature","geometry":{"type":"Point","coordinates":[-71.437006,42.297318]}},{"properties":{"city":"Gardner","latitude":42.582529,"supporters":1,"organizers":1,"accounts":1,"longitude":-72.025884,"id":"a62s5ox87953","state":"Massachusetts"},"type":"Feature","geometry":{"type":"Point","coordinates":[-72.025884,42.582529]}},{"properties":{"city":"Georgetown","latitude":42.72377,"supporters":5,"organizers":2,"accounts":2,"longitude":-70.981298,"id":"a62s5p0wkait","state":"Massachusetts"},"type":"Feature","geometry":{"type":"Point","coordinates":[-70.981298,42.72377]}},{"properties":{"city":"Gloucester","latitude":42.630011,"supporters":10,"organizers":3,"accounts":3,"longitude":-70.694179,"id":"a62s5p894zo9","state":"Massachusetts"},"type":"Feature","geometry":{"type":"Point","coordinates":[-70.694179,42.630011]}},{"properties":{"city":"Grafton","latitude":42.203944,"supporters":4,"organizers":3,"accounts":3,"longitude":-71.682862,"id":"a62s5p18l2yd","state":"Massachusetts"},"type":"Feature","geometry":{"type":"Point","coordinates":[-71.682862,42.203944]}},{"properties":{"city":"Great Barrington","latitude":42.1959,"supporters":9,"organizers":1,"accounts":1,"longitude":-73.3621,"id":"a62s5p6gw4bk","state":"Massachusetts"},"type":"Feature","geometry":{"type":"Point","coordinates":[-73.3621,42.1959]}},{"properties":{"city":"Greenfield","latitude":42.587,"supporters":9,"organizers":2,"accounts":3,"longitude":-72.6,"id":"a62s5pb7o7ry","state":"Massachusetts"},"type":"Feature","geometry":{"type":"Point","coordinates":[-72.6,42.587]}},{"properties":{"city":"Groton","latitude":42.446396,"supporters":11,"organizers":5,"accounts":5,"longitude":-71.459405,"id":"a62s5p8q1rm6","state":"Massachusetts"},"type":"Feature","geometry":{"type":"Point","coordinates":[-71.459405,42.446396]}},{"properties":{"city":"Hamilton","latitude":41.743437,"supporters":2,"organizers":1,"accounts":2,"longitude":-70.711979,"id":"a62s5ov5yzgn","state":"Massachusetts"},"type":"Feature","geometry":{"type":"Point","coordinates":[-70.711979,41.743437]}},{"properties":{"city":"Hampden","latitude":42.067614,"supporters":4,"organizers":2,"accounts":2,"longitude":-72.417507,"id":"a62s5p3v1eig","state":"Massachusetts"},"type":"Feature","geometry":{"type":"Point","coordinates":[-72.417507,42.067614]}},{"properties":{"city":"Hanover","latitude":42.123534,"supporters":2,"organizers":1,"accounts":1,"longitude":-70.851048,"id":"a62s5oyysvc8","state":"Massachusetts"},"type":"Feature","geometry":{"type":"Point","coordinates":[-70.851048,42.123534]}},{"properties":{"city":"Hanson","latitude":42.055701,"supporters":3,"organizers":1,"accounts":1,"longitude":-70.875936,"id":"a62s5p56zta8","state":"Massachusetts"},"type":"Feature","geometry":{"type":"Point","coordinates":[-70.875936,42.055701]}},{"properties":{"city":"Harvard","latitude":42.500187,"supporters":3,"organizers":1,"accounts":1,"longitude":-71.575864,"id":"a62s5p1e5l2x","state":"Massachusetts"},"type":"Feature","geometry":{"type":"Point","coordinates":[-71.575864,42.500187]}},{"properties":{"city":"Haverhill","latitude":42.792639,"supporters":22,"organizers":6,"accounts":8,"longitude":-71.072501,"id":"a62s5p0ttuix","state":"Massachusetts"},"type":"Feature","geometry":{"type":"Point","coordinates":[-71.072501,42.792639]}},{"properties":{"city":"Hingham","latitude":42.212105,"supporters":14,"organizers":1,"accounts":1,"longitude":-70.884989,"id":"a62s5p8ld0oj","state":"Massachusetts"},"type":"Feature","geometry":{"type":"Point","coordinates":[-70.884989,42.212105]}},{"properties":{"city":"Holbrook","latitude":42.144424,"supporters":2,"organizers":1,"accounts":2,"longitude":-71.00289,"id":"a62s5oxgqgps","state":"Massachusetts"},"type":"Feature","geometry":{"type":"Point","coordinates":[-71.00289,42.144424]}},{"properties":{"city":"Holden","latitude":42.336791,"supporters":21,"organizers":5,"accounts":4,"longitude":-71.845316,"id":"a62s5p49dunl","state":"Massachusetts"},"type":"Feature","geometry":{"type":"Point","coordinates":[-71.845316,42.336791]}},{"properties":{"city":"Holliston","latitude":42.446396,"supporters":12,"organizers":4,"accounts":3,"longitude":-71.459405,"id":"a62s5p76ghs8","state":"Massachusetts"},"type":"Feature","geometry":{"type":"Point","coordinates":[-71.459405,42.446396]}},{"properties":{"city":"Holyoke","latitude":42.198291,"supporters":15,"organizers":5,"accounts":6,"longitude":-72.64207,"id":"a62s5pavr9i3","state":"Massachusetts"},"type":"Feature","geometry":{"type":"Point","coordinates":[-72.64207,42.198291]}},{"properties":{"city":"Hudson","latitude":42.446396,"supporters":13,"organizers":1,"accounts":4,"longitude":-71.459405,"id":"a62s5p2q5voj","state":"Massachusetts"},"type":"Feature","geometry":{"type":"Point","coordinates":[-71.459405,42.446396]}},{"properties":{"city":"Hull","latitude":42.2291,"supporters":10,"organizers":4,"accounts":2,"longitude":-70.8367,"id":"a62s5p2q7505","state":"Massachusetts"},"type":"Feature","geometry":{"type":"Point","coordinates":[-70.8367,42.2291]}},{"properties":{"city":"Ipswich","latitude":42.68571,"supporters":9,"organizers":3,"accounts":2,"longitude":-70.864132,"id":"a62s5p95yybs","state":"Massachusetts"},"type":"Feature","geometry":{"type":"Point","coordinates":[-70.864132,42.68571]}},{"properties":{"city":"Lakeville","latitude":41.843757,"supporters":5,"organizers":2,"accounts":2,"longitude":-70.959981,"id":"a62s5paq64zh","state":"Massachusetts"},"type":"Feature","geometry":{"type":"Point","coordinates":[-70.959981,41.843757]}},{"properties":{"city":"Lancaster","latitude":42.427188,"supporters":1,"organizers":1,"accounts":1,"longitude":-71.91177,"id":"a62s5p18ubqm","state":"Massachusetts"},"type":"Feature","geometry":{"type":"Point","coordinates":[-71.91177,42.427188]}},{"properties":{"city":"Lanesborough","latitude":42.517306,"supporters":3,"organizers":1,"accounts":1,"longitude":-73.22816,"id":"a62s5p188qqn","state":"Massachusetts"},"type":"Feature","geometry":{"type":"Point","coordinates":[-73.22816,42.517306]}},{"properties":{"city":"Lawrence","latitude":42.70734,"supporters":16,"organizers":5,"accounts":4,"longitude":-71.161052,"id":"a62s5oz3gex5","state":"Massachusetts"},"type":"Feature","geometry":{"type":"Point","coordinates":[-71.161052,42.70734]}},{"properties":{"city":"Leicester","latitude":42.238192,"supporters":2,"organizers":1,"accounts":1,"longitude":-72.012379,"id":"a62s5owktosz","state":"Massachusetts"},"type":"Feature","geometry":{"type":"Point","coordinates":[-72.012379,42.238192]}},{"properties":{"city":"Leominster","latitude":42.471316,"supporters":4,"organizers":2,"accounts":1,"longitude":-71.837509,"id":"a62s5p35lu0k","state":"Massachusetts"},"type":"Feature","geometry":{"type":"Point","coordinates":[-71.837509,42.471316]}},{"properties":{"city":"Leverett","latitude":42.474681,"supporters":1,"organizers":1,"accounts":1,"longitude":-72.467543,"id":"a62s5p6j3d9o","state":"Massachusetts"},"type":"Feature","geometry":{"type":"Point","coordinates":[-72.467543,42.474681]}},{"properties":{"city":"Lexington","latitude":42.446396,"supporters":21,"organizers":12,"accounts":13,"longitude":-71.459405,"id":"a62s5oxw4zjj","state":"Massachusetts"},"type":"Feature","geometry":{"type":"Point","coordinates":[-71.459405,42.446396]}},{"properties":{"city":"Lincoln","latitude":42.446396,"supporters":10,"organizers":2,"accounts":6,"longitude":-71.459405,"id":"a62s5p8qvwhz","state":"Massachusetts"},"type":"Feature","geometry":{"type":"Point","coordinates":[-71.459405,42.446396]}},{"properties":{"city":"Littleton","latitude":42.446396,"supporters":8,"organizers":2,"accounts":2,"longitude":-71.459405,"id":"a62s5p5c91bj","state":"Massachusetts"},"type":"Feature","geometry":{"type":"Point","coordinates":[-71.459405,42.446396]}},{"properties":{"city":"Longmeadow","latitude":42.049194,"supporters":24,"organizers":6,"accounts":4,"longitude":-72.567882,"id":"a62s5p789u9u","state":"Massachusetts"},"type":"Feature","geometry":{"type":"Point","coordinates":[-72.567882,42.049194]}},{"properties":{"city":"Lowell","latitude":42.633,"supporters":20,"organizers":11,"accounts":16,"longitude":-71.316,"id":"a62s5p3adtxd","state":"Massachusetts"},"type":"Feature","geometry":{"type":"Point","coordinates":[-71.316,42.633]}},{"properties":{"city":"Ludlow","latitude":42.173276,"supporters":10,"organizers":2,"accounts":3,"longitude":-72.627038,"id":"a62s5p2618mc","state":"Massachusetts"},"type":"Feature","geometry":{"type":"Point","coordinates":[-72.627038,42.173276]}},{"properties":{"city":"Lunenburg","latitude":42.583322,"supporters":3,"organizers":1,"accounts":1,"longitude":-71.752266,"id":"a62s5p61716n","state":"Massachusetts"},"type":"Feature","geometry":{"type":"Point","coordinates":[-71.752266,42.583322]}},{"properties":{"city":"Lynn","latitude":42.461246,"supporters":41,"organizers":7,"accounts":8,"longitude":-70.946743,"id":"a62s5pbmwyoo","state":"Massachusetts"},"type":"Feature","geometry":{"type":"Point","coordinates":[-70.946743,42.461246]}},{"properties":{"city":"Malden","latitude":42.436545,"supporters":13,"organizers":7,"accounts":12,"longitude":-71.085396,"id":"a62s5p3yp87f","state":"Massachusetts"},"type":"Feature","geometry":{"type":"Point","coordinates":[-71.085396,42.436545]}},{"properties":{"city":"Manchester","latitude":42.579503,"supporters":5,"organizers":2,"accounts":2,"longitude":-70.755062,"id":"a62s5p6tmrs8","state":"Massachusetts"},"type":"Feature","geometry":{"type":"Point","coordinates":[-70.755062,42.579503]}},{"properties":{"city":"Mansfield","latitude":42.022619,"supporters":6,"organizers":3,"accounts":2,"longitude":-71.218079,"id":"a62s5oxz9px9","state":"Massachusetts"},"type":"Feature","geometry":{"type":"Point","coordinates":[-71.218079,42.022619]}},{"properties":{"city":"Marblehead","latitude":42.500096,"supporters":6,"organizers":1,"accounts":1,"longitude":-70.836991,"id":"a62s5pb1oi3q","state":"Massachusetts"},"type":"Feature","geometry":{"type":"Point","coordinates":[-70.836991,42.500096]}},{"properties":{"city":"Marion","latitude":41.736735,"supporters":5,"organizers":1,"accounts":1,"longitude":-70.754015,"id":"a62s5p15m8b7","state":"Massachusetts"},"type":"Feature","geometry":{"type":"Point","coordinates":[-70.754015,41.736735]}},{"properties":{"city":"Marlborough","latitude":42.716759,"supporters":22,"organizers":3,"accounts":2,"longitude":-70.97311,"id":"a62s5p9m7ezz","state":"Massachusetts"},"type":"Feature","geometry":{"type":"Point","coordinates":[-70.97311,42.716759]}},{"properties":{"city":"Marshfield","latitude":42.116769,"supporters":20,"organizers":3,"accounts":3,"longitude":-70.71615,"id":"a62s5oz3stcm","state":"Massachusetts"},"type":"Feature","geometry":{"type":"Point","coordinates":[-70.71615,42.116769]}},{"properties":{"city":"Mashpee","latitude":41.648,"supporters":2,"organizers":2,"accounts":2,"longitude":-70.481,"id":"a62s5oyi4bn6","state":"Massachusetts"},"type":"Feature","geometry":{"type":"Point","coordinates":[-70.481,41.648]}},{"properties":{"city":"Mattapoisett","latitude":41.664976,"supporters":7,"organizers":5,"accounts":4,"longitude":-70.810856,"id":"a62s5p7iokcw","state":"Massachusetts"},"type":"Feature","geometry":{"type":"Point","coordinates":[-70.810856,41.664976]}},{"properties":{"city":"Maynard","latitude":42.4334,"supporters":9,"organizers":1,"accounts":1,"longitude":-71.4495,"id":"a62s5p1msbbq","state":"Massachusetts"},"type":"Feature","geometry":{"type":"Point","coordinates":[-71.4495,42.4334]}},{"properties":{"city":"Medfield","latitude":42.033434,"supporters":3,"organizers":1,"accounts":2,"longitude":-70.99671,"id":"a62s5ovx0lhu","state":"Massachusetts"},"type":"Feature","geometry":{"type":"Point","coordinates":[-70.99671,42.033434]}},{"properties":{"city":"Medford","latitude":42.412596,"supporters":37,"organizers":4,"accounts":8,"longitude":-71.125331,"id":"a62s5ov7r557","state":"Massachusetts"},"type":"Feature","geometry":{"type":"Point","coordinates":[-71.125331,42.412596]}},{"properties":{"city":"Medway","latitude":42.156282,"supporters":20,"organizers":6,"accounts":4,"longitude":-71.427663,"id":"a62s5pawzb32","state":"Massachusetts"},"type":"Feature","geometry":{"type":"Point","coordinates":[-71.427663,42.156282]}},{"properties":{"city":"Melrose","latitude":42.458995,"supporters":11,"organizers":1,"accounts":3,"longitude":-71.053095,"id":"a62s5ozwgpfv","state":"Massachusetts"},"type":"Feature","geometry":{"type":"Point","coordinates":[-71.053095,42.458995]}},{"properties":{"city":"Merrimac","latitude":42.802441,"supporters":1,"organizers":1,"accounts":1,"longitude":-71.0896,"id":"a62s5pafxlnz","state":"Massachusetts"},"type":"Feature","geometry":{"type":"Point","coordinates":[-71.0896,42.802441]}},{"properties":{"city":"Methuen","latitude":42.73184,"supporters":5,"organizers":3,"accounts":3,"longitude":-71.186915,"id":"a62s5p5tbh1v","state":"Massachusetts"},"type":"Feature","geometry":{"type":"Point","coordinates":[-71.186915,42.73184]}},{"properties":{"city":"Middleton","latitude":42.644942,"supporters":3,"organizers":1,"accounts":1,"longitude":-71.087905,"id":"a62s5oxefzn9","state":"Massachusetts"},"type":"Feature","geometry":{"type":"Point","coordinates":[-71.087905,42.644942]}},{"properties":{"city":"Milford","latitude":42.147087,"supporters":9,"organizers":3,"accounts":4,"longitude":-71.528085,"id":"a62s5oygyzl2","state":"Massachusetts"},"type":"Feature","geometry":{"type":"Point","coordinates":[-71.528085,42.147087]}},{"properties":{"city":"Millis","latitude":42.165249,"supporters":1,"organizers":1,"accounts":1,"longitude":-71.36126,"id":"a62s5oxpxuhy","state":"Massachusetts"},"type":"Feature","geometry":{"type":"Point","coordinates":[-71.36126,42.165249]}},{"properties":{"city":"Milton","latitude":42.436545,"supporters":21,"organizers":12,"accounts":9,"longitude":-71.085396,"id":"a62s5p9eabpy","state":"Massachusetts"},"type":"Feature","geometry":{"type":"Point","coordinates":[-71.085396,42.436545]}},{"properties":{"city":"Monson","latitude":42.095323,"supporters":2,"organizers":1,"accounts":1,"longitude":-72.282063,"id":"a62s5p1myvbi","state":"Massachusetts"},"type":"Feature","geometry":{"type":"Point","coordinates":[-72.282063,42.095323]}},{"properties":{"city":"Monterey","latitude":42.18669,"supporters":4,"organizers":1,"accounts":2,"longitude":-73.206498,"id":"a62s5p7v0pkv","state":"Massachusetts"},"type":"Feature","geometry":{"type":"Point","coordinates":[-73.206498,42.18669]}},{"properties":{"city":"Nahant","latitude":42.427296,"supporters":3,"organizers":2,"accounts":2,"longitude":-70.922442,"id":"a62s5p1vs69u","state":"Massachusetts"},"type":"Feature","geometry":{"type":"Point","coordinates":[-70.922442,42.427296]}},{"properties":{"city":"Natick","latitude":42.446396,"supporters":43,"organizers":9,"accounts":14,"longitude":-71.459405,"id":"a62s5pbnoo36","state":"Massachusetts"},"type":"Feature","geometry":{"type":"Point","coordinates":[-71.459405,42.446396]}},{"properties":{"city":"Needham","latitude":42.180048,"supporters":3,"organizers":2,"accounts":2,"longitude":-71.08923,"id":"a62s5ovn5cho","state":"Massachusetts"},"type":"Feature","geometry":{"type":"Point","coordinates":[-71.08923,42.180048]}},{"properties":{"city":"New Bedford","latitude":41.633416,"supporters":10,"organizers":5,"accounts":2,"longitude":-70.951045,"id":"a62s5pbmnhfl","state":"Massachusetts"},"type":"Feature","geometry":{"type":"Point","coordinates":[-70.951045,41.633416]}},{"properties":{"city":"Newbury","latitude":42.7667,"supporters":8,"organizers":1,"accounts":2,"longitude":-70.84583,"id":"a62s5owcny0a","state":"Massachusetts"},"type":"Feature","geometry":{"type":"Point","coordinates":[-70.84583,42.7667]}},{"properties":{"city":"Newburyport","latitude":42.8125,"supporters":14,"organizers":4,"accounts":6,"longitude":-70.87727,"id":"a62s5oxus8rs","state":"Massachusetts"},"type":"Feature","geometry":{"type":"Point","coordinates":[-70.87727,42.8125]}},{"properties":{"city":"Newton","latitude":42.330653,"supporters":0,"organizers":27,"accounts":null,"longitude":-71.199499,"id":"a62s5p4qjjki","state":"Massachusetts"},"type":"Feature","geometry":{"type":"Point","coordinates":[-71.199499,42.330653]}},{"properties":{"city":"North Andover","latitude":42.706,"supporters":5,"organizers":2,"accounts":3,"longitude":-71.163,"id":"a62s5p5p6icv","state":"Massachusetts"},"type":"Feature","geometry":{"type":"Point","coordinates":[-71.163,42.706]}},{"properties":{"city":"North Attleboro","latitude":41.983333,"supporters":2,"organizers":1,"accounts":1,"longitude":-71.3333,"id":"a62s5p3nx3b4","state":"Massachusetts"},"type":"Feature","geometry":{"type":"Point","coordinates":[-71.3333,41.983333]}},{"properties":{"city":"North Reading","latitude":42.575,"supporters":9,"organizers":2,"accounts":2,"longitude":-71.0792,"id":"a62s5oy8iwxf","state":"Massachusetts"},"type":"Feature","geometry":{"type":"Point","coordinates":[-71.0792,42.575]}},{"properties":{"city":"Northampton","latitude":42.325,"supporters":28,"organizers":7,"accounts":7,"longitude":-72.641,"id":"a62s5p1yc0ps","state":"Massachusetts"},"type":"Feature","geometry":{"type":"Point","coordinates":[-72.641,42.325]}},{"properties":{"city":"Northborough","latitude":42.3195,"supporters":24,"organizers":8,"accounts":10,"longitude":-71.6412,"id":"a62s5p6uyonq","state":"Massachusetts"},"type":"Feature","geometry":{"type":"Point","coordinates":[-71.6412,42.3195]}},{"properties":{"city":"Northbridge","latitude":42.15138,"supporters":12,"organizers":1,"accounts":2,"longitude":-71.65,"id":"a62s5p2u95w0","state":"Massachusetts"},"type":"Feature","geometry":{"type":"Point","coordinates":[-71.65,42.15138]}},{"properties":{"city":"Northfield","latitude":42.522178,"supporters":3,"organizers":1,"accounts":1,"longitude":-72.624164,"id":"a62s5p6c4dmt","state":"Massachusetts"},"type":"Feature","geometry":{"type":"Point","coordinates":[-72.624164,42.522178]}},{"properties":{"city":"Norton","latitude":41.959149,"supporters":1,"organizers":1,"accounts":1,"longitude":-71.180393,"id":"a62s5p25x59d","state":"Massachusetts"},"type":"Feature","geometry":{"type":"Point","coordinates":[-71.180393,41.959149]}},{"properties":{"city":"Norwell","latitude":42.154145,"supporters":16,"organizers":4,"accounts":3,"longitude":-70.823035,"id":"a62s5p49dm54","state":"Massachusetts"},"type":"Feature","geometry":{"type":"Point","coordinates":[-70.823035,42.154145]}},{"properties":{"city":"Norwood","latitude":42.182798,"supporters":2,"organizers":2,"accounts":2,"longitude":-71.196277,"id":"a62s5p9855qn","state":"Massachusetts"},"type":"Feature","geometry":{"type":"Point","coordinates":[-71.196277,42.182798]}},{"properties":{"city":"Orange","latitude":42.578325,"supporters":1,"organizers":1,"accounts":1,"longitude":-72.556589,"id":"a62s5oyredm6","state":"Massachusetts"},"type":"Feature","geometry":{"type":"Point","coordinates":[-72.556589,42.578325]}},{"properties":{"city":"Orleans","latitude":41.7898,"supporters":4,"organizers":1,"accounts":1,"longitude":-69.9897,"id":"a62s5p9f8bvi","state":"Massachusetts"},"type":"Feature","geometry":{"type":"Point","coordinates":[-69.9897,41.7898]}},{"properties":{"city":"Peabody","latitude":42.536996,"supporters":2,"organizers":1,"accounts":1,"longitude":-70.973646,"id":"a62s5p6rh2v4","state":"Massachusetts"},"type":"Feature","geometry":{"type":"Point","coordinates":[-70.973646,42.536996]}},{"properties":{"city":"Pepperell","latitude":42.446396,"supporters":2,"organizers":1,"accounts":1,"longitude":-71.459405,"id":"a62s5p1mlufw","state":"Massachusetts"},"type":"Feature","geometry":{"type":"Point","coordinates":[-71.459405,42.446396]}},{"properties":{"city":"Pittsfield","latitude":42.479475,"supporters":25,"organizers":5,"accounts":8,"longitude":-73.24807,"id":"a62s5p25k6m6","state":"Massachusetts"},"type":"Feature","geometry":{"type":"Point","coordinates":[-73.24807,42.479475]}},{"properties":{"city":"Plymouth","latitude":41.958,"supporters":48,"organizers":1,"accounts":3,"longitude":-70.6672,"id":"a62s5oy0yrc5","state":"Massachusetts"},"type":"Feature","geometry":{"type":"Point","coordinates":[-70.6672,41.958]}},{"properties":{"city":"Princeton","latitude":42.448146,"supporters":8,"organizers":1,"accounts":1,"longitude":-71.924519,"id":"a62s5p6dffj7","state":"Massachusetts"},"type":"Feature","geometry":{"type":"Point","coordinates":[-71.924519,42.448146]}},{"properties":{"city":"Quincy","latitude":42.241799,"supporters":17,"organizers":10,"accounts":13,"longitude":-71.006042,"id":"a62s5p8biilk","state":"Massachusetts"},"type":"Feature","geometry":{"type":"Point","coordinates":[-71.006042,42.241799]}},{"properties":{"city":"Randolph","latitude":42.171467,"supporters":17,"organizers":8,"accounts":9,"longitude":-71.055602,"id":"a62s5p73on6v","state":"Massachusetts"},"type":"Feature","geometry":{"type":"Point","coordinates":[-71.055602,42.171467]}},{"properties":{"city":"Reading","latitude":42.537065,"supporters":10,"organizers":4,"accounts":4,"longitude":-71.107172,"id":"a62s5p5ylhtv","state":"Massachusetts"},"type":"Feature","geometry":{"type":"Point","coordinates":[-71.107172,42.537065]}},{"properties":{"city":"Revere","latitude":42.437,"supporters":14,"organizers":2,"accounts":2,"longitude":-71.003,"id":"a62s5p48219l","state":"Massachusetts"},"type":"Feature","geometry":{"type":"Point","coordinates":[-71.003,42.437]}},{"properties":{"city":"Rutland","latitude":42.383516,"supporters":2,"organizers":1,"accounts":1,"longitude":-71.95463,"id":"a62s5pad9vfb","state":"Massachusetts"},"type":"Feature","geometry":{"type":"Point","coordinates":[-71.95463,42.383516]}},{"properties":{"city":"Salem","latitude":42.5195,"supporters":12,"organizers":6,"accounts":9,"longitude":-70.8967,"id":"a62s5p1p8940","state":"Massachusetts"},"type":"Feature","geometry":{"type":"Point","coordinates":[-70.8967,42.5195]}},{"properties":{"city":"Sandwich","latitude":41.711291,"supporters":23,"organizers":2,"accounts":2,"longitude":-70.477482,"id":"a62s5p42vjnj","state":"Massachusetts"},"type":"Feature","geometry":{"type":"Point","coordinates":[-70.477482,41.711291]}},{"properties":{"city":"Saugus","latitude":42.472112,"supporters":13,"organizers":3,"accounts":3,"longitude":-70.997794,"id":"a62s5p8axyxx","state":"Massachusetts"},"type":"Feature","geometry":{"type":"Point","coordinates":[-70.997794,42.472112]}},{"properties":{"city":"Scituate","latitude":42.2089,"supporters":7,"organizers":2,"accounts":2,"longitude":-70.75,"id":"a62s5p7mxg9p","state":"Massachusetts"},"type":"Feature","geometry":{"type":"Point","coordinates":[-70.75,42.2089]}},{"properties":{"city":"Sharon","latitude":42.105288,"supporters":16,"organizers":3,"accounts":4,"longitude":-71.184785,"id":"a62s5p4dp10y","state":"Massachusetts"},"type":"Feature","geometry":{"type":"Point","coordinates":[-71.184785,42.105288]}},{"properties":{"city":"Shelburne","latitude":42.589807,"supporters":2,"organizers":2,"accounts":2,"longitude":-72.688424,"id":"a62s5paoks8e","state":"Massachusetts"},"type":"Feature","geometry":{"type":"Point","coordinates":[-72.688424,42.589807]}},{"properties":{"city":"Shirley","latitude":42.543,"supporters":7,"organizers":1,"accounts":0,"longitude":-71.65,"id":"a62s5ozrvriu","state":"Massachusetts"},"type":"Feature","geometry":{"type":"Point","coordinates":[-71.65,42.543]}},{"properties":{"city":"Shrewsbury","latitude":42.286992,"supporters":28,"organizers":1,"accounts":1,"longitude":-71.715313,"id":"a62s5p8r2imz","state":"Massachusetts"},"type":"Feature","geometry":{"type":"Point","coordinates":[-71.715313,42.286992]}},{"properties":{"city":"Somerville","latitude":42.38092,"supporters":104,"organizers":26,"accounts":27,"longitude":-71.098896,"id":"a62s5p20rzub","state":"Massachusetts"},"type":"Feature","geometry":{"type":"Point","coordinates":[-71.098896,42.38092]}},{"properties":{"city":"South Hadley","latitude":42.356804,"supporters":7,"organizers":2,"accounts":2,"longitude":-72.576613,"id":"a62s5ov86czn","state":"Massachusetts"},"type":"Feature","geometry":{"type":"Point","coordinates":[-72.576613,42.356804]}},{"properties":{"city":"Southborough","latitude":42.30565,"supporters":10,"organizers":4,"accounts":6,"longitude":-71.524509,"id":"a62s5ozjiqs6","state":"Massachusetts"},"type":"Feature","geometry":{"type":"Point","coordinates":[-71.524509,42.30565]}},{"properties":{"city":"Southwick","latitude":42.066644,"supporters":5,"organizers":4,"accounts":2,"longitude":-72.541205,"id":"a62s5p9kbv1e","state":"Massachusetts"},"type":"Feature","geometry":{"type":"Point","coordinates":[-72.541205,42.066644]}},{"properties":{"city":"Springfield","latitude":42.101483,"supporters":52,"organizers":14,"accounts":17,"longitude":-72.589811,"id":"a62s5pbium1a","state":"Massachusetts"},"type":"Feature","geometry":{"type":"Point","coordinates":[-72.589811,42.101483]}},{"properties":{"city":"Stoneham","latitude":42.474595,"supporters":4,"organizers":2,"accounts":3,"longitude":-71.098146,"id":"a62s5oxrd76s","state":"Massachusetts"},"type":"Feature","geometry":{"type":"Point","coordinates":[-71.098146,42.474595]}},{"properties":{"city":"Stoughton","latitude":42.118416,"supporters":5,"organizers":4,"accounts":3,"longitude":-71.105733,"id":"a62s5oyp8tip","state":"Massachusetts"},"type":"Feature","geometry":{"type":"Point","coordinates":[-71.105733,42.118416]}},{"properties":{"city":"Stow","latitude":42.446396,"supporters":12,"organizers":5,"accounts":2,"longitude":-71.459405,"id":"a62s5p4q0m01","state":"Massachusetts"},"type":"Feature","geometry":{"type":"Point","coordinates":[-71.459405,42.446396]}},{"properties":{"city":"Sudbury","latitude":42.446396,"supporters":18,"organizers":2,"accounts":3,"longitude":-71.459405,"id":"a62s5ovubrvt","state":"Massachusetts"},"type":"Feature","geometry":{"type":"Point","coordinates":[-71.459405,42.446396]}},{"properties":{"city":"Sutton","latitude":42.150095,"supporters":7,"organizers":2,"accounts":2,"longitude":-71.762848,"id":"a62s5ovclys8","state":"Massachusetts"},"type":"Feature","geometry":{"type":"Point","coordinates":[-71.762848,42.150095]}},{"properties":{"city":"Swampscott","latitude":42.471,"supporters":17,"organizers":7,"accounts":7,"longitude":-70.918,"id":"a62s5p1lrf3c","state":"Massachusetts"},"type":"Feature","geometry":{"type":"Point","coordinates":[-70.918,42.471]}},{"properties":{"city":"Taunton","latitude":41.9,"supporters":8,"organizers":2,"accounts":3,"longitude":-71.09,"id":"a62s5p0nc7q9","state":"Massachusetts"},"type":"Feature","geometry":{"type":"Point","coordinates":[-71.09,41.9]}},{"properties":{"city":"Templeton","latitude":42.555059,"supporters":2,"organizers":1,"accounts":2,"longitude":-72.072285,"id":"a62s5p7jmvdo","state":"Massachusetts"},"type":"Feature","geometry":{"type":"Point","coordinates":[-72.072285,42.555059]}},{"properties":{"city":"Tewksbury","latitude":42.446396,"supporters":7,"organizers":3,"accounts":4,"longitude":-71.459405,"id":"a62s5owl9i3n","state":"Massachusetts"},"type":"Feature","geometry":{"type":"Point","coordinates":[-71.459405,42.446396]}},{"properties":{"city":"Topsfield","latitude":42.661793,"supporters":3,"organizers":1,"accounts":2,"longitude":-70.954487,"id":"a62s5p1s15ga","state":"Massachusetts"},"type":"Feature","geometry":{"type":"Point","coordinates":[-70.954487,42.661793]}},{"properties":{"city":"Uxbridge","latitude":42.0774,"supporters":1,"organizers":1,"accounts":1,"longitude":-71.6384,"id":"a62s5oxduuhh","state":"Massachusetts"},"type":"Feature","geometry":{"type":"Point","coordinates":[-71.6384,42.0774]}},{"properties":{"city":"Wakefield","latitude":42.495929,"supporters":13,"organizers":1,"accounts":1,"longitude":-71.07033,"id":"a62s5p7rlrqq","state":"Massachusetts"},"type":"Feature","geometry":{"type":"Point","coordinates":[-71.07033,42.495929]}},{"properties":{"city":"Walpole","latitude":42.148624,"supporters":10,"organizers":4,"accounts":2,"longitude":-71.255533,"id":"a62s5pa5mr1d","state":"Massachusetts"},"type":"Feature","geometry":{"type":"Point","coordinates":[-71.255533,42.148624]}},{"properties":{"city":"Waltham","latitude":42.388938,"supporters":22,"organizers":5,"accounts":8,"longitude":-71.2398,"id":"a62s5p066ecp","state":"Massachusetts"},"type":"Feature","geometry":{"type":"Point","coordinates":[-71.2398,42.388938]}},{"properties":{"city":"Wareham","latitude":41.760216,"supporters":5,"organizers":2,"accounts":3,"longitude":-70.694662,"id":"a62s5p0qen9m","state":"Massachusetts"},"type":"Feature","geometry":{"type":"Point","coordinates":[-70.694662,41.760216]}},{"properties":{"city":"Warren","latitude":42.204027,"supporters":1,"organizers":1,"accounts":1,"longitude":-72.199439,"id":"a62s5p4tpfh0","state":"Massachusetts"},"type":"Feature","geometry":{"type":"Point","coordinates":[-72.199439,42.204027]}},{"properties":{"city":"Washington","latitude":42.36592,"supporters":3,"organizers":2,"accounts":3,"longitude":-73.116214,"id":"a62s5ozbbu7n","state":"Massachusetts"},"type":"Feature","geometry":{"type":"Point","coordinates":[-73.116214,42.36592]}},{"properties":{"city":"Watertown","latitude":42.372596,"supporters":23,"organizers":5,"accounts":5,"longitude":-71.177998,"id":"a62s5p54ajy7","state":"Massachusetts"},"type":"Feature","geometry":{"type":"Point","coordinates":[-71.177998,42.372596]}},{"properties":{"city":"Wayland","latitude":42.446396,"supporters":6,"organizers":4,"accounts":5,"longitude":-71.459405,"id":"a62s5p0sonjg","state":"Massachusetts"},"type":"Feature","geometry":{"type":"Point","coordinates":[-71.459405,42.446396]}},{"properties":{"city":"Webster","latitude":42.243149,"supporters":4,"organizers":1,"accounts":1,"longitude":-71.831461,"id":"a62s5p0xlymt","state":"Massachusetts"},"type":"Feature","geometry":{"type":"Point","coordinates":[-71.831461,42.243149]}},{"properties":{"city":"Wellesley","latitude":42.300596,"supporters":26,"organizers":8,"accounts":10,"longitude":-71.27875,"id":"a62s5oymx3tr","state":"Massachusetts"},"type":"Feature","geometry":{"type":"Point","coordinates":[-71.27875,42.300596]}},{"properties":{"city":"Wenham","latitude":42.597691,"supporters":2,"organizers":1,"accounts":1,"longitude":-70.8732,"id":"a62s5p4ssddk","state":"Massachusetts"},"type":"Feature","geometry":{"type":"Point","coordinates":[-70.8732,42.597691]}},{"properties":{"city":"West Boylston","latitude":42.300037,"supporters":4,"organizers":3,"accounts":2,"longitude":-71.943458,"id":"a62s5p9u7heu","state":"Massachusetts"},"type":"Feature","geometry":{"type":"Point","coordinates":[-71.943458,42.300037]}},{"properties":{"city":"West Bridgewater","latitude":42.0189,"supporters":1,"organizers":1,"accounts":1,"longitude":-71.0083,"id":"a62s5ow5d60g","state":"Massachusetts"},"type":"Feature","geometry":{"type":"Point","coordinates":[-71.0083,42.0189]}},{"properties":{"city":"West Newbury","latitude":42.7917,"supporters":6,"organizers":1,"accounts":1,"longitude":-70.974,"id":"a62s5p3vd1xj","state":"Massachusetts"},"type":"Feature","geometry":{"type":"Point","coordinates":[-70.974,42.7917]}},{"properties":{"city":"West Springfield","latitude":42.101483,"supporters":11,"organizers":1,"accounts":1,"longitude":-72.64,"id":"a62s5oz2wgcl","state":"Massachusetts"},"type":"Feature","geometry":{"type":"Point","coordinates":[-72.64,42.101483]}},{"properties":{"city":"West Tisbury","latitude":41.42125,"supporters":4,"organizers":1,"accounts":1,"longitude":-70.642806,"id":"a62s5p230qot","state":"Massachusetts"},"type":"Feature","geometry":{"type":"Point","coordinates":[-70.642806,41.42125]}},{"properties":{"city":"Westborough","latitude":42.269,"supporters":33,"organizers":8,"accounts":6,"longitude":-71.616,"id":"a62s5p199613","state":"Massachusetts"},"type":"Feature","geometry":{"type":"Point","coordinates":[-71.616,42.269]}},{"properties":{"city":"Westfield","latitude":41.886212,"supporters":9,"organizers":1,"accounts":2,"longitude":-71.135602,"id":"a62s5p7z0ud5","state":"Massachusetts"},"type":"Feature","geometry":{"type":"Point","coordinates":[-71.135602,41.886212]}},{"properties":{"city":"Weston","latitude":42.446396,"supporters":11,"organizers":3,"accounts":2,"longitude":-71.459405,"id":"a62s5p5ub9km","state":"Massachusetts"},"type":"Feature","geometry":{"type":"Point","coordinates":[-71.459405,42.446396]}},{"properties":{"city":"Westport","latitude":41.638992,"supporters":13,"organizers":1,"accounts":1,"longitude":-71.049486,"id":"a62s5oy5r5cy","state":"Massachusetts"},"type":"Feature","geometry":{"type":"Point","coordinates":[-71.049486,41.638992]}},{"properties":{"city":"Weymouth","latitude":42.20794,"supporters":39,"organizers":5,"accounts":4,"longitude":-70.95514,"id":"a62s5p03isjz","state":"Massachusetts"},"type":"Feature","geometry":{"type":"Point","coordinates":[-70.95514,42.20794]}},{"properties":{"city":"Whately","latitude":42.442673,"supporters":1,"organizers":1,"accounts":1,"longitude":-72.652511,"id":"a62s5p5sqp68","state":"Massachusetts"},"type":"Feature","geometry":{"type":"Point","coordinates":[-72.652511,42.442673]}},{"properties":{"city":"Wilbraham","latitude":42.125974,"supporters":2,"organizers":1,"accounts":1,"longitude":-72.489988,"id":"a62s5owiy28c","state":"Massachusetts"},"type":"Feature","geometry":{"type":"Point","coordinates":[-72.489988,42.125974]}},{"properties":{"city":"Williamsburg","latitude":42.413069,"supporters":1,"organizers":1,"accounts":1,"longitude":-72.821653,"id":"a62s5p3x41jl","state":"Massachusetts"},"type":"Feature","geometry":{"type":"Point","coordinates":[-72.821653,42.413069]}},{"properties":{"city":"Williamstown","latitude":42.642075,"supporters":4,"organizers":3,"accounts":4,"longitude":-73.257699,"id":"a62s5p04070d","state":"Massachusetts"},"type":"Feature","geometry":{"type":"Point","coordinates":[-73.257699,42.642075]}},{"properties":{"city":"Winchester","latitude":42.466762,"supporters":33,"organizers":6,"accounts":6,"longitude":-71.125887,"id":"a62s5p3g4p3p","state":"Massachusetts"},"type":"Feature","geometry":{"type":"Point","coordinates":[-71.125887,42.466762]}},{"properties":{"city":"Woburn","latitude":42.488595,"supporters":3,"organizers":2,"accounts":2,"longitude":-71.157271,"id":"a62s5ox5sn9f","state":"Massachusetts"},"type":"Feature","geometry":{"type":"Point","coordinates":[-71.157271,42.488595]}},{"properties":{"city":"Worcester","latitude":42.262593,"supporters":140,"organizers":42,"accounts":21,"longitude":-71.802293,"id":"a62s5ox8cf1g","state":"Massachusetts"},"type":"Feature","geometry":{"type":"Point","coordinates":[-71.802293,42.262593]}},{"properties":{"city":"Yarmouth","latitude":41.705666,"supporters":12,"organizers":3,"accounts":4,"longitude":-70.228631,"id":"a62s5p4jhjtp","state":"Massachusetts"},"type":"Feature","geometry":{"type":"Point","coordinates":[-70.228631,41.705666]}}],"is_temporal":false,"author":{"url":"","metadata":"","contact_name":"","contact_address":"","source":"","contact_phone":""},"source":"","pagination":{"sort":null,"start":0,"total":190,"limit":1000000},"state":"complete","tags":"","published":"2014-08-10T16:13:19-04:00","id":35493}