{"type":"FeatureCollection","data_type":"Dataset","url_type":null,"permissions":[{"permissions":{"download":true,"view":true},"group_id":"everyone"}],"classification":null,"title":"FreshMarketLocations","count":131,"stream_id":355775,"contributor":{"url":"http://geocommons.com/users/69975","name":"sbowen3"},"data_attributes":null,"calculation_params":null,"icon_link":null,"link":"http://geocommons.com/overlays/355775.json","extent":[-121.247,25.6262,-70.9028,43.1751],"geometry_types":["point"],"unique_name":null,"name":"FreshMarketLocations","feature_count":131,"description":"","next_feature":null,"is_raster":false,"short_classification":"Y","stats":{},"features":[{"properties":{"geo_score":0.401,"id":"ae7vy18v3jjc","address":"4700, Highway, 28, Birmingham, AL, 35242","geo_precision":"street"},"type":"Feature","geometry":{"type":"Point","coordinates":[-86.874364,33.504275]}},{"properties":{"geo_score":0.577,"id":"ae7vy0wlo6rr","address":"6900, US, Highway, 90, Suite 2,\rDaphne, AL, 36526","geo_precision":"street"},"type":"Feature","geometry":{"type":"Point","coordinates":[-87.854579,30.655806]}},{"properties":{"geo_score":0.539,"id":"ae7vy18cb055","address":"4800, Whitesburg, Dr.,\rHuntsville, AL, 35802","geo_precision":"street"},"type":"Feature","geometry":{"type":"Point","coordinates":[-86.523066,34.663075]}},{"properties":{"geo_score":0.805,"id":"ae7vy17yfs5r","address":"3940, Airport, Boulevard,\rMobile, AL, 36608","geo_precision":"range"},"type":"Feature","geometry":{"type":"Point","coordinates":[-88.148164,30.676179]}},{"properties":{"geo_score":0.94,"id":"ae7vy180qgrq","address":"1635, Perry Hill Road Montgomery, AL, 36106","geo_precision":"range"},"type":"Feature","geometry":{"type":"Point","coordinates":[-86.243772,32.3541]}},{"properties":{"geo_score":1.0,"id":"ae7vy14t81bd","address":"11525, Cantrell Rd,\rLittle Rock, AR, 72212","geo_precision":"range"},"type":"Feature","geometry":{"type":"Point","coordinates":[-92.396294,34.791258]}},{"properties":{"geo_score":0.512,"id":"ae7vy0w59s64","address":"2203, Promenade Boulevard, Suite 12100,\rRogers, AR, 72758","geo_precision":"street"},"type":"Feature","geometry":{"type":"Point","coordinates":[-94.211531,36.285026]}},{"properties":{"geo_score":0.721,"id":"ae7vy11s64ts","address":"2030 Douglas Blvd.\rRoseville, CA 95661","geo_precision":"range"},"type":"Feature","geometry":{"type":"Point","coordinates":[-121.247151,38.744201]}},{"properties":{"geo_score":0.809,"id":"ae7vy0y556k4","address":"321 West Main Street\rAvon, CT 06001","geo_precision":"range"},"type":"Feature","geometry":{"type":"Point","coordinates":[-72.858763,41.814361]}},{"properties":{"geo_score":0.777,"id":"ae7vy183lswe","address":"605 Post Road East\rWestport, CT 06880","geo_precision":"range"},"type":"Feature","geometry":{"type":"Point","coordinates":[-73.343658,41.138399]}},{"properties":{"geo_score":0.782,"id":"ae7vy1awkyr9","address":"995 N State Road 434\rAltamonte Springs, FL 32714","geo_precision":"range"},"type":"Feature","geometry":{"type":"Point","coordinates":[-81.418951,28.682706]}},{"properties":{"geo_score":0.786,"id":"ae7vy19z75ba","address":"18299 Biscayne Boulevard\rAventura, FL 33160","geo_precision":"range"},"type":"Feature","geometry":{"type":"Point","coordinates":[-80.148361,25.942697]}},{"properties":{"geo_score":0.376,"id":"ae7vy14r07tv","address":"100 W. Camino Real\rBoca Raton, FL 33432","geo_precision":"street"},"type":"Feature","geometry":{"type":"Point","coordinates":[-80.086866,26.86829]}},{"properties":{"geo_score":0.743,"id":"ae7vy1c9rdwg","address":"20409 State Road 7\rBoca Raton West, FL 33498","geo_precision":"range"},"type":"Feature","geometry":{"type":"Point","coordinates":[-80.203553,26.369779]}},{"properties":{"geo_score":0.758,"id":"ae7vy1a20a2p","address":"27251 Bay Landing Drive\rBonita Springs, FL 34135","geo_precision":"range"},"type":"Feature","geometry":{"type":"Point","coordinates":[-81.805413,26.347203]}},{"properties":{"geo_score":0.793,"id":"ae7vy17r1pf4","address":"6701 Manatee Avenue West\rBradenton, FL 34209","geo_precision":"range"},"type":"Feature","geometry":{"type":"Point","coordinates":[-82.629344,27.495891]}},{"properties":{"geo_score":0.824,"id":"ae7vy15s5y23","address":"25961 US Highway 19 N\rClearwater, FL 33763","geo_precision":"range"},"type":"Feature","geometry":{"type":"Point","coordinates":[-82.729813,28.006732]}},{"properties":{"geo_score":0.663,"id":"ae7vy14v67rw","address":"2640 S. Bayshore Drive\rCoconut Grove, FL 33133","geo_precision":"range"},"type":"Feature","geometry":{"type":"Point","coordinates":[-80.233916,25.732333]}},{"properties":{"geo_score":0.751,"id":"ae7vy18gbh37","address":"4633 University Drive\rCoral Springs, FL 33067","geo_precision":"range"},"type":"Feature","geometry":{"type":"Point","coordinates":[-80.249945,26.289658]}},{"properties":{"geo_score":0.602,"id":"ae7vy19l9knk","address":"4495 Commons Dr. West\rDestin, FL 32541","geo_precision":"zip"},"type":"Feature","geometry":{"type":"Point","coordinates":[-86.57345,30.582064]}},{"properties":{"geo_score":0.769,"id":"ae7vy0w65iky","address":"424 North Federal Highway\rFort Lauderdale, FL 33301","geo_precision":"range"},"type":"Feature","geometry":{"type":"Point","coordinates":[-80.137271,26.127584]}},{"properties":{"geo_score":0.599,"id":"ae7vy0yy4ow3","address":"13499 S Cleveland Avenue\rFort Myers, FL 33907","geo_precision":"street"},"type":"Feature","geometry":{"type":"Point","coordinates":[-81.871755,26.551844]}},{"properties":{"geo_score":0.612,"id":"ae7vy15juqb3","address":"4120 Northwest 16th Blvd\rGainesville, FL 32605","geo_precision":"street"},"type":"Feature","geometry":{"type":"Point","coordinates":[-82.369345,29.666759]}},{"properties":{"geo_score":0.776,"id":"ae7vy13l5wev","address":"12795 San Jose Boulevard\rJacksonville, FL 32223","geo_precision":"range"},"type":"Feature","geometry":{"type":"Point","coordinates":[-81.632467,30.136254]}},{"properties":{"geo_score":0.809,"id":"ae7vy19yltn7","address":"13493 Atlantic Blvd.\rJacksonville, FL 32225","geo_precision":"range"},"type":"Feature","geometry":{"type":"Point","coordinates":[-81.440138,30.32308]}},{"properties":{"geo_score":0.881,"id":"ae7vy0ygonyt","address":"8888 SW 136th St.\rMiami, FL 33176","geo_precision":"range"},"type":"Feature","geometry":{"type":"Point","coordinates":[-80.336241,25.643664]}},{"properties":{"geo_score":0.363,"id":"ae7vy1brarto","address":"1800 West Avenue\rMiami Beach, FL 33139","geo_precision":"street"},"type":"Feature","geometry":{"type":"Point","coordinates":[-80.30021,25.62617]}},{"properties":{"geo_score":0.838,"id":"ae7vy193sdpk","address":"4129 Tamiami Trail N\rNaples, FL 34103","geo_precision":"range"},"type":"Feature","geometry":{"type":"Point","coordinates":[-81.800257,26.197449]}},{"properties":{"geo_score":0.801,"id":"ae7vy1bb39o4","address":"5000 Dr. Phillips Boulevard\rOrlando, FL 32819","geo_precision":"range"},"type":"Feature","geometry":{"type":"Point","coordinates":[-81.490941,28.490861]}},{"properties":{"geo_score":0.788,"id":"ae7vy0wlx79x","address":"2200 N. Flamingo Road\rPembroke Pines, FL 33028","geo_precision":"range"},"type":"Feature","geometry":{"type":"Point","coordinates":[-80.31261,26.027099]}},{"properties":{"geo_score":0.819,"id":"ae7vy112jshg","address":"1650 Airport Blvd\rPensacola, FL 32504","geo_precision":"range"},"type":"Feature","geometry":{"type":"Point","coordinates":[-87.207147,30.479446]}},{"properties":{"geo_score":0.41,"id":"ae7vy0wppmx6","address":"840 A1A North Suite 200\rPonte Vedra Beach, FL 32082","geo_precision":"street"},"type":"Feature","geometry":{"type":"Point","coordinates":[-81.31006,29.961983]}},{"properties":{"geo_score":0.672,"id":"ae7vy0yzya9g","address":"5251 University Parkway\rSarasota - University Park, FL 34201","geo_precision":"street"},"type":"Feature","geometry":{"type":"Point","coordinates":[-82.469417,27.411927]}},{"properties":{"geo_score":0.728,"id":"ae7vy17vbup0","address":"2900 4th Street North\rSt. Petersburg, FL 33704","geo_precision":"range"},"type":"Feature","geometry":{"type":"Point","coordinates":[-82.638562,27.799422]}},{"properties":{"geo_score":0.793,"id":"ae7vy13uqz85","address":"2300 SE Ocean Boulevard\rStuart, FL 34996","geo_precision":"range"},"type":"Feature","geometry":{"type":"Point","coordinates":[-80.220905,27.196636]}},{"properties":{"geo_score":0.594,"id":"ae7vy195ekd0","address":"1390 Village Square Blvd.\rTallahassee, FL 32312","geo_precision":"street"},"type":"Feature","geometry":{"type":"Point","coordinates":[-84.247205,30.510218]}},{"properties":{"geo_score":0.856,"id":"ae7vy13n5pst","address":"13147 N Dale Mabry Hwy\rTampa, FL 33618","geo_precision":"range"},"type":"Feature","geometry":{"type":"Point","coordinates":[-82.505813,28.069113]}},{"properties":{"geo_score":0.851,"id":"ae7vy0wzlagg","address":"3722 Henderson Blvd\rTampa, FL 33609","geo_precision":"range"},"type":"Feature","geometry":{"type":"Point","coordinates":[-82.505353,27.934237]}},{"properties":{"geo_score":0.463,"id":"ae7vy15txosg","address":"3740 Wedgewood Ln\rThe Villages, FL 32162","geo_precision":"street"},"type":"Feature","geometry":{"type":"Point","coordinates":[-81.24344,29.545029]}},{"properties":{"geo_score":0.569,"id":"ae7vy10lu1l3","address":"526 21st Street\rVero Beach, FL 32960","geo_precision":"street"},"type":"Feature","geometry":{"type":"Point","coordinates":[-80.40682,27.61838]}},{"properties":{"geo_score":0.628,"id":"ae7vy0z7xfre","address":"10640 Forest Hill Blvd\rWellington, FL 33414","geo_precision":"street"},"type":"Feature","geometry":{"type":"Point","coordinates":[-80.217671,26.651588]}},{"properties":{"geo_score":0.939,"id":"ae7vy1aqwtaw","address":"3005 Old Alabama Road \rAlpharetta, GA 30022","geo_precision":"range"},"type":"Feature","geometry":{"type":"Point","coordinates":[-84.275009,34.020624]}},{"properties":{"geo_score":0.624,"id":"ae7vy11m4mbs","address":"196 Alps Road Unit 50\rAthens, GA 30606","geo_precision":"street"},"type":"Feature","geometry":{"type":"Point","coordinates":[-83.409643,33.949756]}},{"properties":{"geo_score":0.619,"id":"ae7vy1cap8v3","address":"2099 Peachtree Rd NE\rAtlanta, GA 30309","geo_precision":"street"},"type":"Feature","geometry":{"type":"Point","coordinates":[-84.384622,33.780781]}},{"properties":{"geo_score":0.79,"id":"ae7vy0wjvlk9","address":"4405 Roswell Rd. NE\rAtlanta, GA 30342","geo_precision":"range"},"type":"Feature","geometry":{"type":"Point","coordinates":[-84.380666,33.875126]}},{"properties":{"geo_score":0.716,"id":"ae7vy11ubpqo","address":"2701 Washington Road\rAugusta, GA 30909","geo_precision":"range"},"type":"Feature","geometry":{"type":"Point","coordinates":[-82.024598,33.509077]}},{"properties":{"geo_score":0.809,"id":"ae7vy0yrllnf","address":"1591 Bradley Park Drive\rColumbus, GA 31904","geo_precision":"range"},"type":"Feature","geometry":{"type":"Point","coordinates":[-84.971485,32.532024]}},{"properties":{"geo_score":0.836,"id":"ae7vy12gwvna","address":"5515 Chamblee-Dunwoody Rd\rDunwoody, GA 30338","geo_precision":"range"},"type":"Feature","geometry":{"type":"Point","coordinates":[-84.335651,33.948328]}},{"properties":{"geo_score":0.811,"id":"ae7vy0zqj4w5","address":"4357 Forsyth Road\rMacon, GA 31210","geo_precision":"range"},"type":"Feature","geometry":{"type":"Point","coordinates":[-83.699438,32.869137]}},{"properties":{"geo_score":0.636,"id":"ae7vy13k38l9","address":"1205 Johnson Ferry Road\rMarietta, GA 30068","geo_precision":"street"},"type":"Feature","geometry":{"type":"Point","coordinates":[-84.406447,33.945025]}},{"properties":{"geo_score":0.793,"id":"ae7vy14y4stk","address":"100 N. Peachtree Parkway\rPeachtree City, GA 30269","geo_precision":"range"},"type":"Feature","geometry":{"type":"Point","coordinates":[-84.569474,33.40831]}},{"properties":{"geo_score":0.809,"id":"ae7vy15hg9rj","address":"5525 Abercorn Street\rSavannah, GA 31405","geo_precision":"range"},"type":"Feature","geometry":{"type":"Point","coordinates":[-81.109753,32.024373]}},{"properties":{"geo_score":0.86,"id":"ae7vy102tj3i","address":"1500 Peachtree Industrial Blvd.\rSuwanee, GA 30024","geo_precision":"range"},"type":"Feature","geometry":{"type":"Point","coordinates":[-84.101019,34.037328]}},{"properties":{"geo_score":0.508,"id":"ae7vy0zqybcr","address":"6000 Northwest Highway\rCrystal Lake, IL 60014","geo_precision":"street"},"type":"Feature","geometry":{"type":"Point","coordinates":[-88.368885,42.233539]}},{"properties":{"geo_score":0.603,"id":"ae7vy106tk0q","address":"718 Commons Drive\rGeneva, IL 60134","geo_precision":"zip"},"type":"Feature","geometry":{"type":"Point","coordinates":[-88.406165,41.97974]}},{"properties":{"geo_score":0.672,"id":"ae7vy16klgwo","address":"20771 N. Rand Road\rKildeer, IL 60047","geo_precision":"range"},"type":"Feature","geometry":{"type":"Point","coordinates":[-88.111752,42.205013]}},{"properties":{"geo_score":0.8,"id":"ae7vy15q6ajp","address":"850 Western Ave\rLake Forest, IL 60045","geo_precision":"range"},"type":"Feature","geometry":{"type":"Point","coordinates":[-87.840888,42.255225]}},{"properties":{"geo_score":0.793,"id":"ae7vy10rmy6l","address":"200 N. Greenbriar Drive\rNormal, IL 61761","geo_precision":"range"},"type":"Feature","geometry":{"type":"Point","coordinates":[-88.951892,40.513287]}},{"properties":{"geo_score":0.596,"id":"ae7vy1azv448","address":"2601 West Lake Avenue\rPeoria, IL 61615","geo_precision":"street"},"type":"Feature","geometry":{"type":"Point","coordinates":[-89.645225,40.739991]}},{"properties":{"geo_score":0.727,"id":"ae7vy1aimmu5","address":"3232 Lake Avenue Ste 150\rWilmette, IL 60091","geo_precision":"range"},"type":"Feature","geometry":{"type":"Point","coordinates":[-87.755091,42.079572]}},{"properties":{"geo_score":0.61,"id":"ae7vy13xfi6a","address":"2490 East 146th Street\rCarmel, IN 46033","geo_precision":"street"},"type":"Feature","geometry":{"type":"Point","coordinates":[-86.094276,40.000249]}},{"properties":{"geo_score":0.672,"id":"ae7vy193pimb","address":"6401 E. Lloyd Expressway\rEvansville, IN 47715","geo_precision":"street"},"type":"Feature","geometry":{"type":"Point","coordinates":[-87.476367,37.976546]}},{"properties":{"geo_score":0.827,"id":"ae7vy121gy75","address":"6306 W Jefferson Blvd\rFort Wayne, IN 46804","geo_precision":"range"},"type":"Feature","geometry":{"type":"Point","coordinates":[-85.226445,41.055013]}},{"properties":{"geo_score":0.809,"id":"ae7vy1a6rris","address":"5415 N. College Ave.\rIndianapolis, IN 46220","geo_precision":"range"},"type":"Feature","geometry":{"type":"Point","coordinates":[-86.145761,39.851679]}},{"properties":{"geo_score":0.591,"id":"ae7vy1b40wst","address":"1800 N. Rock Road Suite 500\rWichita, KS 67206","geo_precision":"range"},"type":"Feature","geometry":{"type":"Point","coordinates":[-97.440016,37.719069]}},{"properties":{"geo_score":0.826,"id":"ae7vy1cawttg","address":"3387 Tates Creek Rd.\rLexington, KY 40502","geo_precision":"range"},"type":"Feature","geometry":{"type":"Point","coordinates":[-84.495433,37.994078]}},{"properties":{"geo_score":0.805,"id":"ae7vy11uprsy","address":"10480 Shelbyville Road\rLouisville, KY 40223","geo_precision":"range"},"type":"Feature","geometry":{"type":"Point","coordinates":[-85.562983,38.2453]}},{"properties":{"geo_score":0.769,"id":"ae7vy12wbo4f","address":"1805 Rudy Lane\rLouisville, KY 40207","geo_precision":"range"},"type":"Feature","geometry":{"type":"Point","coordinates":[-85.638124,38.278592]}},{"properties":{"geo_score":0.633,"id":"ae7vy18eyiud","address":"10555 Perkins Rd.\rBaton Rouge, LA 70810","geo_precision":"street"},"type":"Feature","geometry":{"type":"Point","coordinates":[-91.021918,30.346044]}},{"properties":{"geo_score":0.835,"id":"ae7vy0zq6bk0","address":"1810 Kaliste Saloom Rd.\rLafayette, LA 70508","geo_precision":"range"},"type":"Feature","geometry":{"type":"Point","coordinates":[-92.030917,30.171775]}},{"properties":{"geo_score":0.373,"id":"ae7vy19blk9q","address":"1816 N. Causeway Boulevard\rMandeville, LA 70471","geo_precision":"street"},"type":"Feature","geometry":{"type":"Point","coordinates":[-90.33809,30.88768]}},{"properties":{"geo_score":0.411,"id":"ae7vy1bsbs5n","address":"3338 St. Charles Avenue\rNew Orleans, LA 70115","geo_precision":"street"},"type":"Feature","geometry":{"type":"Point","coordinates":[-90.107261,29.993723]}},{"properties":{"geo_score":0.616,"id":"ae7vy0xsj53k","address":"11 Essington Drive\rHingham, MA 02043","geo_precision":"zip"},"type":"Feature","geometry":{"type":"Point","coordinates":[-70.902823,42.2376]}},{"properties":{"geo_score":0.666,"id":"ae7vy0wm8gy2","address":"2504 Solomons Island Road\rAnnapolis, MD 21401","geo_precision":"street"},"type":"Feature","geometry":{"type":"Point","coordinates":[-76.542622,38.971976]}},{"properties":{"geo_score":0.432,"id":"ae7vy10ik6ta","address":"2510 Quarry Lake Dr.\rBaltimore, MD 21209","geo_precision":"street"},"type":"Feature","geometry":{"type":"Point","coordinates":[-76.637541,39.335142]}},{"properties":{"geo_score":0.608,"id":"ae7vy1am4aun","address":"1649 Rockville Pike\rRockville, MD 20852","geo_precision":"zip"},"type":"Feature","geometry":{"type":"Point","coordinates":[-77.121096,39.052158]}},{"properties":{"geo_score":0.832,"id":"ae7vy0zi96ro","address":"838 Dulaney Valley Road\rTowson, MD 21204","geo_precision":"range"},"type":"Feature","geometry":{"type":"Point","coordinates":[-76.601752,39.40427]}},{"properties":{"geo_score":0.43,"id":"ae7vy19ua6a5","address":"1000 Highland Colony Parkway\rRidgeland, MS 39157","geo_precision":"street"},"type":"Feature","geometry":{"type":"Point","coordinates":[-90.98924,31.94428]}},{"properties":{"geo_score":0.793,"id":"ae7vy0x3u0uv","address":"944 Merrimon Avenue\rAsheville, NC 28804","geo_precision":"range"},"type":"Feature","geometry":{"type":"Point","coordinates":[-82.554829,35.632323]}},{"properties":{"geo_score":0.659,"id":"ae7vy0yxy64g","address":"3655 SW Cary Pkwy\rCary, NC 27513","geo_precision":"street"},"type":"Feature","geometry":{"type":"Point","coordinates":[-78.830714,35.769929]}},{"properties":{"geo_score":0.5,"id":"ae7vy11jdfo5","address":"1200-A Raleigh Rd.\rChapel Hill, NC 27517","geo_precision":"street"},"type":"Feature","geometry":{"type":"Point","coordinates":[-79.017012,35.926736]}},{"properties":{"geo_score":0.805,"id":"ae7vy0w65aet","address":"4223 Providence Road\rCharlotte, NC 28211","geo_precision":"range"},"type":"Feature","geometry":{"type":"Point","coordinates":[-80.796269,35.156232]}},{"properties":{"geo_score":0.484,"id":"ae7vy1b40axr","address":"7625 Pineville/Matthews Rd\rCharlotte, NC 28226","geo_precision":"street"},"type":"Feature","geometry":{"type":"Point","coordinates":[-80.842902,35.146206]}},{"properties":{"geo_score":0.822,"id":"ae7vy16tnqu6","address":"20623 Torrence Chapel Road\rCornelius, NC 28031","geo_precision":"range"},"type":"Feature","geometry":{"type":"Point","coordinates":[-80.877932,35.483659]}},{"properties":{"geo_score":0.785,"id":"ae7vy13d05rd","address":"3712 Lawndale Drive\rGreensboro, NC 27455","geo_precision":"range"},"type":"Feature","geometry":{"type":"Point","coordinates":[-79.830048,36.119495]}},{"properties":{"geo_score":0.61,"id":"ae7vy0zxof2c","address":"1560 Highwoods Blvd\rGreensboro, NC 27410","geo_precision":"zip"},"type":"Feature","geometry":{"type":"Point","coordinates":[-79.870925,36.119984]}},{"properties":{"geo_score":0.611,"id":"ae7vy1ab79s5","address":"950 Criswell Drive\rGreenville, NC 27834","geo_precision":"zip"},"type":"Feature","geometry":{"type":"Point","coordinates":[-77.381019,35.631003]}},{"properties":{"geo_score":0.78,"id":"ae7vy0zw2dda","address":"223 Greenville Highway\rHendersonville, NC 28792","geo_precision":"range"},"type":"Feature","geometry":{"type":"Point","coordinates":[-82.458779,35.307361]}},{"properties":{"geo_score":0.805,"id":"ae7vy1brn0b3","address":"400 Woodburn Road\rRaleigh, NC 27605","geo_precision":"range"},"type":"Feature","geometry":{"type":"Point","coordinates":[-78.659322,35.790924]}},{"properties":{"geo_score":0.827,"id":"ae7vy1btyxrp","address":"6325 Falls of Neuse Road\rRaleigh, NC 27615","geo_precision":"range"},"type":"Feature","geometry":{"type":"Point","coordinates":[-78.621109,35.868998]}},{"properties":{"geo_score":0.625,"id":"ae7vy192qy3q","address":"155 Beverly Lane\rSouthern Pines, NC 28387","geo_precision":"range"},"type":"Feature","geometry":{"type":"Point","coordinates":[-78.397709,35.014664]}},{"properties":{"geo_score":0.827,"id":"ae7vy18jr7l1","address":"1060 International Dr.\rWilmington, NC 28405","geo_precision":"range"},"type":"Feature","geometry":{"type":"Point","coordinates":[-77.829382,34.241104]}},{"properties":{"geo_score":0.618,"id":"ae7vy0w7cla9","address":"3285 Robinhood Rd\rWinston-Salem, NC 27106","geo_precision":"street"},"type":"Feature","geometry":{"type":"Point","coordinates":[-80.285799,36.113937]}},{"properties":{"geo_score":0.844,"id":"ae7vy169t9ya","address":"79 South River Road, Unit 2\rBedford, NH 03110","geo_precision":"range"},"type":"Feature","geometry":{"type":"Point","coordinates":[-71.479204,42.959424]}},{"properties":{"geo_score":0.834,"id":"ae7vy1c2ct13","address":"32 Chestnut Ridge Road\rMontvale, NJ 07645","geo_precision":"range"},"type":"Feature","geometry":{"type":"Point","coordinates":[-74.069723,41.050308]}},{"properties":{"geo_score":0.819,"id":"ae7vy1229wtr","address":"664 New Loudon Road\rLatham, NY 12110","geo_precision":"range"},"type":"Feature","geometry":{"type":"Point","coordinates":[-73.762409,42.732417]}},{"properties":{"geo_score":0.812,"id":"ae7vy1bi1woh","address":"725 White Plains Road\rScarsdale, NY 10583","geo_precision":"range"},"type":"Feature","geometry":{"type":"Point","coordinates":[-73.807076,40.969806]}},{"properties":{"geo_score":0.787,"id":"ae7vy0xksyjn","address":"3088 Madison Road\rCincinnati, OH 45209","geo_precision":"range"},"type":"Feature","geometry":{"type":"Point","coordinates":[-84.431969,39.152038]}},{"properties":{"geo_score":0.818,"id":"ae7vy0wup8l9","address":"7888 Montgomery Rd\rCincinnati, OH 45236","geo_precision":"range"},"type":"Feature","geometry":{"type":"Point","coordinates":[-84.377159,39.199967]}},{"properties":{"geo_score":0.778,"id":"ae7vy10ejag2","address":"1920 Henderson Road\rColumbus, OH 43220","geo_precision":"range"},"type":"Feature","geometry":{"type":"Point","coordinates":[-83.06811,40.05446]}},{"properties":{"geo_score":0.822,"id":"ae7vy18zulsu","address":"20233 Van Aken Blvd.\rShaker Heights, OH 44122","geo_precision":"range"},"type":"Feature","geometry":{"type":"Point","coordinates":[-81.536479,41.46538]}},{"properties":{"geo_score":0.806,"id":"ae7vy0wcfso6","address":"3315 West Central Avenue\rToledo, OH 43606","geo_precision":"range"},"type":"Feature","geometry":{"type":"Point","coordinates":[-83.627708,41.67722]}},{"properties":{"geo_score":0.501,"id":"ae7vy12utcjx","address":"7720 Voice of America Centre Drive\rWest Chester, OH 45069","geo_precision":"street"},"type":"Feature","geometry":{"type":"Point","coordinates":[-84.357849,39.349047]}},{"properties":{"geo_score":0.799,"id":"ae7vy1beunn6","address":"8015 S. Yale Avenue\rTulsa, OK 74136","geo_precision":"range"},"type":"Feature","geometry":{"type":"Point","coordinates":[-95.922095,36.048125]}},{"properties":{"geo_score":0.538,"id":"ae7vy16iday6","address":"3060 Center Valley Parkway\rCenter Valley, PA 18034","geo_precision":"street"},"type":"Feature","geometry":{"type":"Point","coordinates":[-75.409494,40.540485]}},{"properties":{"geo_score":0.821,"id":"ae7vy111jk1d","address":"925 Baltimore Pike\rGlen Mills, PA 19342","geo_precision":"range"},"type":"Feature","geometry":{"type":"Point","coordinates":[-75.529569,39.885188]}},{"properties":{"geo_score":0.788,"id":"ae7vy155hvb5","address":"100 Welsh Road\rHorsham, PA 19044","geo_precision":"range"},"type":"Feature","geometry":{"type":"Point","coordinates":[-75.145648,40.158423]}},{"properties":{"geo_score":0.616,"id":"ae7vy1a6ri7k","address":"1400 Whiskey Road\rAiken, SC 29801","geo_precision":"street"},"type":"Feature","geometry":{"type":"Point","coordinates":[-81.723227,33.540124]}},{"properties":{"geo_score":0.683,"id":"ae7vy1002fwz","address":"4840 Forest Drive\rColumbia, SC 29206","geo_precision":"range"},"type":"Feature","geometry":{"type":"Point","coordinates":[-80.963801,34.018613]}},{"properties":{"geo_score":0.804,"id":"ae7vy0yap2de","address":"27 South Pleasantburg Drive\rGreenville, SC 29607","geo_precision":"range"},"type":"Feature","geometry":{"type":"Point","coordinates":[-82.363104,34.842506]}},{"properties":{"geo_score":0.808,"id":"ae7vy0w4eae5","address":"890 William Hilton Pkwy\rHilton Head Island, SC 29928","geo_precision":"range"},"type":"Feature","geometry":{"type":"Point","coordinates":[-80.73882,32.169055]}},{"properties":{"geo_score":0.554,"id":"ae7vy1aa0z50","address":"11421-A Ocean Highway\rPawleys Island, SC 29585","geo_precision":"street"},"type":"Feature","geometry":{"type":"Point","coordinates":[-79.117203,33.453021]}},{"properties":{"geo_score":0.576,"id":"ae7vy13rrytm","address":"1200 East Main Street\rSpartanburg, SC 29307","geo_precision":"street"},"type":"Feature","geometry":{"type":"Point","coordinates":[-81.864589,34.982532]}},{"properties":{"geo_score":0.65,"id":"ae7vy10x0rx0","address":"235 Franklin Road\rBrentwood, TN 37027","geo_precision":"street"},"type":"Feature","geometry":{"type":"Point","coordinates":[-86.789611,36.031754]}},{"properties":{"geo_score":0.793,"id":"ae7vy0w2k20q","address":"2288 Gunbarrel Road\rChattanooga, TN 37421","geo_precision":"range"},"type":"Feature","geometry":{"type":"Point","coordinates":[-85.151425,35.037505]}},{"properties":{"geo_score":0.81,"id":"ae7vy145ovd8","address":"11535 Kingston Pike\rFarragut, TN 37934","geo_precision":"range"},"type":"Feature","geometry":{"type":"Point","coordinates":[-84.166379,35.87862]}},{"properties":{"geo_score":0.766,"id":"ae7vy188eq0f","address":"9375 Poplar Ave \rGermantown, TN 38138","geo_precision":"street"},"type":"Feature","geometry":{"type":"Point","coordinates":[-89.753913,35.065483]}},{"properties":{"geo_score":0.629,"id":"ae7vy1aibsn9","address":"421 N. State of Franklin Road\rJohnson City, TN 37601","geo_precision":"street"},"type":"Feature","geometry":{"type":"Point","coordinates":[-82.377223,36.301748]}},{"properties":{"geo_score":0.836,"id":"ae7vy1a6orbu","address":"4475 Kingston Pike\rKnoxville, TN 37919","geo_precision":"range"},"type":"Feature","geometry":{"type":"Point","coordinates":[-83.97759,35.941396]}},{"properties":{"geo_score":0.83,"id":"ae7vy18n1sie","address":"835 S. White Station Road\rMemphis, TN 38117","geo_precision":"range"},"type":"Feature","geometry":{"type":"Point","coordinates":[-89.88999,35.106844]}},{"properties":{"geo_score":0.77,"id":"ae7vy11pif0z","address":"100 Albemarle Square\rCharlottesville, VA 22901","geo_precision":"range"},"type":"Feature","geometry":{"type":"Point","coordinates":[-78.471287,38.082348]}},{"properties":{"geo_score":0.792,"id":"ae7vy0w17d8h","address":"1200 Huguenot Road\rMidlothian, VA 23113","geo_precision":"range"},"type":"Feature","geometry":{"type":"Point","coordinates":[-77.614193,37.511032]}},{"properties":{"geo_score":0.787,"id":"ae7vy1air2jo","address":"12131 Jefferson Avenue\rNewport News, VA 23602","geo_precision":"range"},"type":"Feature","geometry":{"type":"Point","coordinates":[-76.495205,37.106471]}},{"properties":{"geo_score":0.8,"id":"ae7vy1cdhk67","address":"1527 N. Parham Road\rRichmond, VA 23229","geo_precision":"range"},"type":"Feature","geometry":{"type":"Point","coordinates":[-77.564123,37.603192]}},{"properties":{"geo_score":0.797,"id":"ae7vy137uro8","address":"10 N. Nansemond Street\rRichmond, VA 23221","geo_precision":"range"},"type":"Feature","geometry":{"type":"Point","coordinates":[-77.485408,37.557412]}},{"properties":{"geo_score":0.84,"id":"ae7vy1c4iczj","address":"2207 Colonial Ave SW\rRoanoke, VA 24015","geo_precision":"range"},"type":"Feature","geometry":{"type":"Point","coordinates":[-79.957815,37.25379]}},{"properties":{"geo_score":0.834,"id":"ae7vy16f39ia","address":"150 Branch Road SE\rVienna, VA 22180","geo_precision":"range"},"type":"Feature","geometry":{"type":"Point","coordinates":[-77.257881,38.906135]}},{"properties":{"geo_score":0.488,"id":"ae7vy14vp8f8","address":"744 Hilltop North Shopping Ctr\rVirginia Beach, VA 23451","geo_precision":"street"},"type":"Feature","geometry":{"type":"Point","coordinates":[-76.065469,36.911514]}},{"properties":{"geo_score":0.791,"id":"ae7vy1bggons","address":"5231 Monticello Avenue\rWilliamsburg, VA 23188","geo_precision":"range"},"type":"Feature","geometry":{"type":"Point","coordinates":[-76.749353,37.275103]}},{"properties":{"geo_score":0.817,"id":"ae7vy16ysy6z","address":"15895 West Bluemound Rd.\rBrookfield, WI 53005","geo_precision":"range"},"type":"Feature","geometry":{"type":"Point","coordinates":[-88.107472,43.035862]}},{"properties":{"geo_score":0.847,"id":"ae7vy1aya3ea","address":"8705 N. Port Washington Road\rFox Point, WI 53217","geo_precision":"range"},"type":"Feature","geometry":{"type":"Point","coordinates":[-87.912781,43.175124]}}],"is_temporal":false,"author":{"url":"","metadata":"","contact_name":"","contact_address":"","source":"","contact_phone":""},"source":"","pagination":{"sort":null,"start":0,"total":131,"limit":1000000},"state":"complete","tags":"","published":"2013-05-10T16:00:00Z","id":355775}