{"type":"FeatureCollection","data_type":"Dataset","url_type":null,"permissions":[{"permissions":{"download":true,"view":true},"group_id":"everyone"}],"classification":null,"title":"Geo-AllZipwinner_test2","count":98,"stream_id":356903,"contributor":{"url":"http://geocommons.com/users/71929","name":"mhi2323"},"data_attributes":null,"calculation_params":null,"icon_link":null,"link":"http://geocommons.com/overlays/356903.json","extent":[-120.215,25.7867,-71.055,45.0097],"geometry_types":["point"],"unique_name":null,"name":"Geo-AllZipwinner_test2","feature_count":98,"description":"","next_feature":null,"is_raster":false,"short_classification":"Y","stats":{},"features":[{"properties":{"zipcode":"02113","geo_score":0.714,"id":"aeatcxwdbjxb","geo_precision":"zip"},"type":"Feature","geometry":{"type":"Point","coordinates":[-71.055001,42.365398]}},{"properties":{"zipcode":"11205","geo_score":0.714,"id":"aeatcxqc36n6","geo_precision":"zip"},"type":"Feature","geometry":{"type":"Point","coordinates":[-73.936274,40.682507]}},{"properties":{"zipcode":"11215","geo_score":0.714,"id":"aeatcxqnvukj","geo_precision":"zip"},"type":"Feature","geometry":{"type":"Point","coordinates":[-73.985972,40.670103]}},{"properties":{"zipcode":"11231","geo_score":0.714,"id":"aeatcxtkfkga","geo_precision":"zip"},"type":"Feature","geometry":{"type":"Point","coordinates":[-74.009584,40.675103]}},{"properties":{"zipcode":"15220","geo_score":0.714,"id":"aeatcxpoaiqf","geo_precision":"zip"},"type":"Feature","geometry":{"type":"Point","coordinates":[-80.068944,40.414236]}},{"properties":{"zipcode":"18640","geo_score":0.714,"id":"aeatcxruua1p","geo_precision":"zip"},"type":"Feature","geometry":{"type":"Point","coordinates":[-75.810472,41.310914]}},{"properties":{"zipcode":"20005","geo_score":0.714,"id":"aeatcy0gvlbh","geo_precision":"zip"},"type":"Feature","geometry":{"type":"Point","coordinates":[-77.031695,38.904011]}},{"properties":{"zipcode":"20111","geo_score":0.714,"id":"aeatcy12akxj","geo_precision":"zip"},"type":"Feature","geometry":{"type":"Point","coordinates":[-77.469711,38.784004]}},{"properties":{"zipcode":"20151","geo_score":0.714,"id":"aeatcxuu86dy","geo_precision":"zip"},"type":"Feature","geometry":{"type":"Point","coordinates":[-77.44566,38.88668]}},{"properties":{"zipcode":"20151","geo_score":0.714,"id":"aeatcxp96snc","geo_precision":"zip"},"type":"Feature","geometry":{"type":"Point","coordinates":[-77.44566,38.88668]}},{"properties":{"zipcode":"20678","geo_score":0.714,"id":"aeatcxz2zhmx","geo_precision":"zip"},"type":"Feature","geometry":{"type":"Point","coordinates":[-76.621348,38.480679]}},{"properties":{"zipcode":"20794","geo_score":0.714,"id":"aeatcxtoyims","geo_precision":"zip"},"type":"Feature","geometry":{"type":"Point","coordinates":[-76.813394,39.155266]}},{"properties":{"zipcode":"21046","geo_score":0.714,"id":"aeatcxqirsrj","geo_precision":"zip"},"type":"Feature","geometry":{"type":"Point","coordinates":[-76.834945,39.175406]}},{"properties":{"zipcode":"21117","geo_score":0.714,"id":"aeatcxux7zau","geo_precision":"zip"},"type":"Feature","geometry":{"type":"Point","coordinates":[-76.781642,39.443994]}},{"properties":{"zipcode":"21704","geo_score":0.714,"id":"aeatcxzlqbhg","geo_precision":"zip"},"type":"Feature","geometry":{"type":"Point","coordinates":[-77.383229,39.345477]}},{"properties":{"zipcode":"22401","geo_score":0.714,"id":"aeatcxvbfsc9","geo_precision":"zip"},"type":"Feature","geometry":{"type":"Point","coordinates":[-77.434428,38.281795]}},{"properties":{"zipcode":"22408","geo_score":0.714,"id":"aeatcxt6c8gc","geo_precision":"zip"},"type":"Feature","geometry":{"type":"Point","coordinates":[-77.562773,38.233933]}},{"properties":{"zipcode":"22408","geo_score":0.714,"id":"aeatcy2wpx07","geo_precision":"zip"},"type":"Feature","geometry":{"type":"Point","coordinates":[-77.562773,38.233933]}},{"properties":{"zipcode":"22901","geo_score":0.714,"id":"aeatcxpdxij6","geo_precision":"zip"},"type":"Feature","geometry":{"type":"Point","coordinates":[-78.444177,37.991529]}},{"properties":{"zipcode":"22902","geo_score":0.714,"id":"aeatcy27j2qt","geo_precision":"zip"},"type":"Feature","geometry":{"type":"Point","coordinates":[-78.48045,38.026588]}},{"properties":{"zipcode":"22902","geo_score":0.714,"id":"aeatcxy7zctr","geo_precision":"zip"},"type":"Feature","geometry":{"type":"Point","coordinates":[-78.48045,38.026588]}},{"properties":{"zipcode":"23111","geo_score":0.714,"id":"aeatcxpaeint","geo_precision":"zip"},"type":"Feature","geometry":{"type":"Point","coordinates":[-77.349147,37.614312]}},{"properties":{"zipcode":"23168","geo_score":0.714,"id":"aeatcxvnhozx","geo_precision":"zip"},"type":"Feature","geometry":{"type":"Point","coordinates":[-76.835415,37.394138]}},{"properties":{"zipcode":"23225","geo_score":0.714,"id":"aeatcxrrekt0","geo_precision":"zip"},"type":"Feature","geometry":{"type":"Point","coordinates":[-77.500757,37.519396]}},{"properties":{"zipcode":"23225","geo_score":0.714,"id":"aeatcxtsenjo","geo_precision":"zip"},"type":"Feature","geometry":{"type":"Point","coordinates":[-77.500757,37.519396]}},{"properties":{"zipcode":"23225","geo_score":0.714,"id":"aeatcxsfisxu","geo_precision":"zip"},"type":"Feature","geometry":{"type":"Point","coordinates":[-77.500757,37.519396]}},{"properties":{"zipcode":"23228","geo_score":0.714,"id":"aeatcy4izfi3","geo_precision":"zip"},"type":"Feature","geometry":{"type":"Point","coordinates":[-77.490818,37.646812]}},{"properties":{"zipcode":"23228","geo_score":0.714,"id":"aeatcxscz1xo","geo_precision":"zip"},"type":"Feature","geometry":{"type":"Point","coordinates":[-77.490818,37.646812]}},{"properties":{"zipcode":"23228","geo_score":0.714,"id":"aeatcy2w39ya","geo_precision":"zip"},"type":"Feature","geometry":{"type":"Point","coordinates":[-77.490818,37.646812]}},{"properties":{"zipcode":"23230","geo_score":0.714,"id":"aeatcxv7zuaj","geo_precision":"zip"},"type":"Feature","geometry":{"type":"Point","coordinates":[-77.489774,37.585533]}},{"properties":{"zipcode":"23230","geo_score":0.714,"id":"aeatcxplx7n3","geo_precision":"zip"},"type":"Feature","geometry":{"type":"Point","coordinates":[-77.489774,37.585533]}},{"properties":{"zipcode":"23233","geo_score":0.714,"id":"aeatcxvzcgml","geo_precision":"zip"},"type":"Feature","geometry":{"type":"Point","coordinates":[-77.662213,37.577369]}},{"properties":{"zipcode":"23236","geo_score":0.714,"id":"aeatcxti3hx6","geo_precision":"zip"},"type":"Feature","geometry":{"type":"Point","coordinates":[-77.585993,37.474505]}},{"properties":{"zipcode":"23324","geo_score":0.714,"id":"aeatcxqnj8zx","geo_precision":"zip"},"type":"Feature","geometry":{"type":"Point","coordinates":[-76.273934,36.802097]}},{"properties":{"zipcode":"23666","geo_score":0.714,"id":"aeatcxs3wbh1","geo_precision":"zip"},"type":"Feature","geometry":{"type":"Point","coordinates":[-76.371056,37.048757]}},{"properties":{"zipcode":"23666","geo_score":0.714,"id":"aeatcxx7nstv","geo_precision":"zip"},"type":"Feature","geometry":{"type":"Point","coordinates":[-76.371056,37.048757]}},{"properties":{"zipcode":"23834","geo_score":0.714,"id":"aeatcxt43lem","geo_precision":"zip"},"type":"Feature","geometry":{"type":"Point","coordinates":[-77.396989,37.26219]}},{"properties":{"zipcode":"23860","geo_score":0.714,"id":"aeatcxqgr795","geo_precision":"zip"},"type":"Feature","geometry":{"type":"Point","coordinates":[-77.294978,37.283482]}},{"properties":{"zipcode":"23901","geo_score":0.714,"id":"aeatcxrgaa2z","geo_precision":"zip"},"type":"Feature","geometry":{"type":"Point","coordinates":[-78.443051,37.230153]}},{"properties":{"zipcode":"23901","geo_score":0.714,"id":"aeatcy4epvem","geo_precision":"zip"},"type":"Feature","geometry":{"type":"Point","coordinates":[-78.443051,37.230153]}},{"properties":{"zipcode":"23970","geo_score":0.714,"id":"aeatcxv44ifw","geo_precision":"zip"},"type":"Feature","geometry":{"type":"Point","coordinates":[-78.177496,36.679865]}},{"properties":{"zipcode":"24012","geo_score":0.714,"id":"aeatcy39k1ah","geo_precision":"zip"},"type":"Feature","geometry":{"type":"Point","coordinates":[-79.865871,37.32597]}},{"properties":{"zipcode":"24018","geo_score":0.714,"id":"aeatcxors91z","geo_precision":"zip"},"type":"Feature","geometry":{"type":"Point","coordinates":[-80.012816,37.227637]}},{"properties":{"zipcode":"24018","geo_score":0.714,"id":"aeatcxu9whef","geo_precision":"zip"},"type":"Feature","geometry":{"type":"Point","coordinates":[-80.012816,37.227637]}},{"properties":{"zipcode":"24401","geo_score":0.714,"id":"aeatcxzuqk5b","geo_precision":"zip"},"type":"Feature","geometry":{"type":"Point","coordinates":[-79.065116,38.157368]}},{"properties":{"zipcode":"27409","geo_score":0.714,"id":"aeatcxz2iljg","geo_precision":"zip"},"type":"Feature","geometry":{"type":"Point","coordinates":[-79.93439,36.087534]}},{"properties":{"zipcode":"27617","geo_score":0.714,"id":"aeatcxyqhgqb","geo_precision":"zip"},"type":"Feature","geometry":{"type":"Point","coordinates":[-78.751408,35.894056]}},{"properties":{"zipcode":"27870","geo_score":0.714,"id":"aeatcy0ep1rq","geo_precision":"zip"},"type":"Feature","geometry":{"type":"Point","coordinates":[-77.700257,36.410429]}},{"properties":{"zipcode":"27896","geo_score":0.714,"id":"aeatcxvdi18l","geo_precision":"zip"},"type":"Feature","geometry":{"type":"Point","coordinates":[-77.973007,35.771467]}},{"properties":{"zipcode":"28027","geo_score":0.714,"id":"aeatcy2i23gs","geo_precision":"zip"},"type":"Feature","geometry":{"type":"Point","coordinates":[-80.658405,35.410688]}},{"properties":{"zipcode":"28803","geo_score":0.714,"id":"aeatcxu34nu8","geo_precision":"zip"},"type":"Feature","geometry":{"type":"Point","coordinates":[-82.527899,35.491781]}},{"properties":{"zipcode":"29169","geo_score":0.714,"id":"aeatcy0vl93t","geo_precision":"zip"},"type":"Feature","geometry":{"type":"Point","coordinates":[-81.135652,33.910985]}},{"properties":{"zipcode":"29169","geo_score":0.714,"id":"aeatcxou5ehl","geo_precision":"zip"},"type":"Feature","geometry":{"type":"Point","coordinates":[-81.135652,33.910985]}},{"properties":{"zipcode":"32114","geo_score":0.714,"id":"aeatcy0hjsn2","geo_precision":"zip"},"type":"Feature","geometry":{"type":"Point","coordinates":[-81.053368,29.146163]}},{"properties":{"zipcode":"32701","geo_score":0.714,"id":"aeatcxobvra2","geo_precision":"zip"},"type":"Feature","geometry":{"type":"Point","coordinates":[-81.398958,28.661942]}},{"properties":{"zipcode":"33126","geo_score":0.714,"id":"aeatcy2sqmmy","geo_precision":"zip"},"type":"Feature","geometry":{"type":"Point","coordinates":[-80.294302,25.786724]}},{"properties":{"zipcode":"33161","geo_score":0.714,"id":"aeatcy1gqtex","geo_precision":"zip"},"type":"Feature","geometry":{"type":"Point","coordinates":[-80.157824,25.88454]}},{"properties":{"zipcode":"33414","geo_score":0.714,"id":"aeatcxui0ed6","geo_precision":"zip"},"type":"Feature","geometry":{"type":"Point","coordinates":[-80.25144,26.645659]}},{"properties":{"zipcode":"33442","geo_score":0.714,"id":"aeatcy2y1nux","geo_precision":"zip"},"type":"Feature","geometry":{"type":"Point","coordinates":[-80.138516,26.301407]}},{"properties":{"zipcode":"33477","geo_score":0.714,"id":"aeatcxzsghip","geo_precision":"zip"},"type":"Feature","geometry":{"type":"Point","coordinates":[-80.430269,26.645895]}},{"properties":{"zipcode":"33484","geo_score":0.714,"id":"aeatcxwq7wbi","geo_precision":"zip"},"type":"Feature","geometry":{"type":"Point","coordinates":[-80.13473,26.454218]}},{"properties":{"zipcode":"33484","geo_score":0.714,"id":"aeatcxv71otw","geo_precision":"zip"},"type":"Feature","geometry":{"type":"Point","coordinates":[-80.13473,26.454218]}},{"properties":{"zipcode":"33487","geo_score":0.714,"id":"aeatcxz7y3p6","geo_precision":"zip"},"type":"Feature","geometry":{"type":"Point","coordinates":[-80.065598,26.39952]}},{"properties":{"zipcode":"33716","geo_score":0.714,"id":"aeatcxsrg3r0","geo_precision":"zip"},"type":"Feature","geometry":{"type":"Point","coordinates":[-82.692961,27.890727]}},{"properties":{"zipcode":"34232","geo_score":0.714,"id":"aeatcxzsfwdc","geo_precision":"zip"},"type":"Feature","geometry":{"type":"Point","coordinates":[-82.443249,27.203872]}},{"properties":{"zipcode":"36802","geo_score":0.714,"id":"aeatcxtqm71z","geo_precision":"zip"},"type":"Feature","geometry":{"type":"Point","coordinates":[-85.349003,32.578185]}},{"properties":{"zipcode":"37067","geo_score":0.714,"id":"aeatcxv4av21","geo_precision":"zip"},"type":"Feature","geometry":{"type":"Point","coordinates":[-86.765537,35.912072]}},{"properties":{"zipcode":"37076","geo_score":0.714,"id":"aeatcxsdasg1","geo_precision":"zip"},"type":"Feature","geometry":{"type":"Point","coordinates":[-86.633052,36.201444]}},{"properties":{"zipcode":"37211","geo_score":0.714,"id":"aeatcxxnuo56","geo_precision":"zip"},"type":"Feature","geometry":{"type":"Point","coordinates":[-82.758763,36.175103]}},{"properties":{"zipcode":"37932","geo_score":0.714,"id":"aeatcxzh9qzi","geo_precision":"zip"},"type":"Feature","geometry":{"type":"Point","coordinates":[-84.148074,35.933487]}},{"properties":{"zipcode":"40207","geo_score":0.714,"id":"aeatcy1xt4ku","geo_precision":"zip"},"type":"Feature","geometry":{"type":"Point","coordinates":[-85.671628,38.267848]}},{"properties":{"zipcode":"40475","geo_score":0.714,"id":"aeatcxrrntx7","geo_precision":"zip"},"type":"Feature","geometry":{"type":"Point","coordinates":[-84.182707,37.741747]}},{"properties":{"zipcode":"43230","geo_score":0.714,"id":"aeatcxx2huhx","geo_precision":"zip"},"type":"Feature","geometry":{"type":"Point","coordinates":[-82.872611,40.034713]}},{"properties":{"zipcode":"43604","geo_score":0.714,"id":"aeatcxx5flbj","geo_precision":"zip"},"type":"Feature","geometry":{"type":"Point","coordinates":[-83.536833,41.655798]}},{"properties":{"zipcode":"44145","geo_score":0.714,"id":"aeatcxq3hlfl","geo_precision":"zip"},"type":"Feature","geometry":{"type":"Point","coordinates":[-81.921811,41.445145]}},{"properties":{"zipcode":"44313","geo_score":0.714,"id":"aeatcxyrhz73","geo_precision":"zip"},"type":"Feature","geometry":{"type":"Point","coordinates":[-81.47317,41.015056]}},{"properties":{"zipcode":"44420","geo_score":0.714,"id":"aeatcxv1e70p","geo_precision":"zip"},"type":"Feature","geometry":{"type":"Point","coordinates":[-80.7223,41.143947]}},{"properties":{"zipcode":"44515","geo_score":0.714,"id":"aeatcxuvp9jd","geo_precision":"zip"},"type":"Feature","geometry":{"type":"Point","coordinates":[-80.793137,41.09978]}},{"properties":{"zipcode":"48150","geo_score":0.714,"id":"aeatcy1oshca","geo_precision":"zip"},"type":"Feature","geometry":{"type":"Point","coordinates":[-83.371753,42.369351]}},{"properties":{"zipcode":"55113","geo_score":0.714,"id":"aeatcxt6wm41","geo_precision":"zip"},"type":"Feature","geometry":{"type":"Point","coordinates":[-93.166333,44.991632]}},{"properties":{"zipcode":"55427","geo_score":0.714,"id":"aeatcy3cdtxe","geo_precision":"zip"},"type":"Feature","geometry":{"type":"Point","coordinates":[-93.349117,45.009687]}},{"properties":{"zipcode":"60007","geo_score":0.714,"id":"aeatcy4g6y9r","geo_precision":"zip"},"type":"Feature","geometry":{"type":"Point","coordinates":[-87.905866,42.020278]}},{"properties":{"zipcode":"60191","geo_score":0.714,"id":"aeatcy33j3og","geo_precision":"zip"},"type":"Feature","geometry":{"type":"Point","coordinates":[-88.088716,41.839679]}},{"properties":{"zipcode":"60563","geo_score":0.714,"id":"aeatcy3u5yno","geo_precision":"zip"},"type":"Feature","geometry":{"type":"Point","coordinates":[-88.149884,41.782455]}},{"properties":{"zipcode":"62690","geo_score":0.714,"id":"aeatcy3wiec6","geo_precision":"zip"},"type":"Feature","geometry":{"type":"Point","coordinates":[-89.903356,39.480838]}},{"properties":{"zipcode":"75001","geo_score":0.714,"id":"aeatcxwdg9vs","geo_precision":"zip"},"type":"Feature","geometry":{"type":"Point","coordinates":[-96.777626,32.767268]}},{"properties":{"zipcode":"75137","geo_score":0.714,"id":"aeatcxqj2m5y","geo_precision":"zip"},"type":"Feature","geometry":{"type":"Point","coordinates":[-96.777626,32.767268]}},{"properties":{"zipcode":"75234","geo_score":0.714,"id":"aeatcy0imhss","geo_precision":"zip"},"type":"Feature","geometry":{"type":"Point","coordinates":[-96.896115,32.926514]}},{"properties":{"zipcode":"76155","geo_score":0.714,"id":"aeatcy16rdqd","geo_precision":"zip"},"type":"Feature","geometry":{"type":"Point","coordinates":[-97.051969,32.831354]}},{"properties":{"zipcode":"77449","geo_score":0.714,"id":"aeatcy0o040h","geo_precision":"zip"},"type":"Feature","geometry":{"type":"Point","coordinates":[-95.434241,29.83399]}},{"properties":{"zipcode":"77477","geo_score":0.714,"id":"aeatcxp7kg4n","geo_precision":"zip"},"type":"Feature","geometry":{"type":"Point","coordinates":[-95.996865,29.450518]}},{"properties":{"zipcode":"84107","geo_score":0.714,"id":"aeatcxs8umi6","geo_precision":"zip"},"type":"Feature","geometry":{"type":"Point","coordinates":[-111.890414,40.656796]}},{"properties":{"zipcode":"84107","geo_score":0.714,"id":"aeatcy4mnmoc","geo_precision":"zip"},"type":"Feature","geometry":{"type":"Point","coordinates":[-111.890414,40.656796]}},{"properties":{"zipcode":"90019","geo_score":0.714,"id":"aeatcxy0ez1t","geo_precision":"zip"},"type":"Feature","geometry":{"type":"Point","coordinates":[-118.298662,33.786594]}},{"properties":{"zipcode":"90670","geo_score":0.714,"id":"aeatcy1io10l","geo_precision":"zip"},"type":"Feature","geometry":{"type":"Point","coordinates":[-118.063698,33.927063]}},{"properties":{"zipcode":"91301","geo_score":0.714,"id":"aeatcxyijrkh","geo_precision":"zip"},"type":"Feature","geometry":{"type":"Point","coordinates":[-118.298662,33.786594]}},{"properties":{"zipcode":"93117","geo_score":0.714,"id":"aeatcxz0jblo","geo_precision":"zip"},"type":"Feature","geometry":{"type":"Point","coordinates":[-120.214872,34.471656]}},{"properties":{"zipcode":"93725","geo_score":0.714,"id":"aeatcxrr6bvt","geo_precision":"zip"},"type":"Feature","geometry":{"type":"Point","coordinates":[-119.740138,36.566061]}}],"is_temporal":false,"author":{"url":"","metadata":null,"contact_name":null,"contact_address":null,"source":null,"contact_phone":null},"source":"","pagination":{"sort":null,"start":0,"total":98,"limit":1000000},"state":"complete","tags":"","published":"2014-08-16T22:39:22-04:00","id":356903}