{"type":"FeatureCollection","data_type":"Dataset","url_type":null,"permissions":[{"permissions":{"download":true,"view":true},"group_id":"everyone"}],"classification":null,"title":"missinght","count":397,"stream_id":357017,"contributor":{"url":"http://geocommons.com/users/21254","name":"Abresler"},"data_attributes":null,"calculation_params":null,"icon_link":null,"link":"http://geocommons.com/overlays/357017.json","extent":[-150.408,25.3782,-70.0975,60.422],"geometry_types":["point"],"unique_name":null,"name":"missinght","feature_count":397,"description":"","next_feature":null,"is_raster":false,"short_classification":"Y","stats":{},"features":[{"properties":{"city":"Alameda","geo_score":0.714,"id":"aeb9e34zpp2g","geo_precision":"city","state":"CA"},"type":"Feature","geometry":{"type":"Point","coordinates":[-122.264779,37.770563]}},{"properties":{"city":"Moraga","geo_score":0.714,"id":"aeb9e3cn656o","geo_precision":"city","state":"CA"},"type":"Feature","geometry":{"type":"Point","coordinates":[-122.099224,37.838926]}},{"properties":{"city":"Middletown","geo_score":0.714,"id":"aeb9e3fh3fkv","geo_precision":"city","state":"CT"},"type":"Feature","geometry":{"type":"Point","coordinates":[-72.655357,41.550139]}},{"properties":{"city":"Panama City","geo_score":0.714,"id":"aeb9e34qa13l","geo_precision":"city","state":"FL"},"type":"Feature","geometry":{"type":"Point","coordinates":[-85.813624,30.200682]}},{"properties":{"city":"Peoria","geo_score":0.714,"id":"aeb9e3i99wr9","geo_precision":"city","state":"IL"},"type":"Feature","geometry":{"type":"Point","coordinates":[-89.589847,40.693137]}},{"properties":{"city":"Mountain Brook","geo_score":0.714,"id":"aeb9e3f26f3o","geo_precision":"city","state":"AL"},"type":"Feature","geometry":{"type":"Point","coordinates":[-86.752211,33.500938]}},{"properties":{"city":"Freeport","geo_score":0.714,"id":"aeb9e39gyrze","geo_precision":"city","state":"ME"},"type":"Feature","geometry":{"type":"Point","coordinates":[-70.097543,43.864477]}},{"properties":{"city":"Moore","geo_score":0.714,"id":"aeb9e3a6b7mn","geo_precision":"city","state":"SC"},"type":"Feature","geometry":{"type":"Point","coordinates":[-82.02732,34.970097]}},{"properties":{"city":"Beverly Hills","geo_score":0.714,"id":"aeb9e3j5u35x","geo_precision":"city","state":"CA"},"type":"Feature","geometry":{"type":"Point","coordinates":[-118.298662,33.786594]}},{"properties":{"city":"Ft Lauderdale","geo_score":0.714,"id":"aeb9e3j5tboz","geo_precision":"city","state":"FL"},"type":"Feature","geometry":{"type":"Point","coordinates":[-80.208381,26.166474]}},{"properties":{"city":"Coconut Creek","geo_score":0.714,"id":"aeb9e36qi3kc","geo_precision":"city","state":"FL"},"type":"Feature","geometry":{"type":"Point","coordinates":[-80.178935,26.251748]}},{"properties":{"city":"Prattville","geo_score":0.714,"id":"aeb9e3g5w8xx","geo_precision":"city","state":"AL"},"type":"Feature","geometry":{"type":"Point","coordinates":[-86.440879,32.50919]}},{"properties":{"city":"Kenai","geo_score":0.714,"id":"aeb9e3glqwjg","geo_precision":"city","state":"AK"},"type":"Feature","geometry":{"type":"Point","coordinates":[-150.407958,60.422041]}},{"properties":{"city":"Williamston","geo_score":0.714,"id":"aeb9e3ftr6r4","geo_precision":"city","state":"SC"},"type":"Feature","geometry":{"type":"Point","coordinates":[-82.612123,34.553642]}},{"properties":{"city":"Tickfaw","geo_score":0.0,"id":"aeb9e38juie5","geo_precision":"unmatched","state":"LA"},"type":"Feature","geometry":null},{"properties":{"city":"Murfreesboro","geo_score":0.714,"id":"aeb9e3fipoi7","geo_precision":"city","state":"TN"},"type":"Feature","geometry":{"type":"Point","coordinates":[-86.372158,35.762951]}},{"properties":{"city":"Inver Grove Heights","geo_score":0.714,"id":"aeb9e3keejp9","geo_precision":"city","state":"MN"},"type":"Feature","geometry":{"type":"Point","coordinates":[-93.042715,44.848022]}},{"properties":{"city":"Kermit","geo_score":0.714,"id":"aeb9e3gp359p","geo_precision":"city","state":"TX"},"type":"Feature","geometry":{"type":"Point","coordinates":[-103.1135,31.808357]}},{"properties":{"city":"Paramus","geo_score":0.714,"id":"aeb9e35lyhqs","geo_precision":"city","state":"NJ"},"type":"Feature","geometry":{"type":"Point","coordinates":[-74.068964,40.944997]}},{"properties":{"city":"Medford","geo_score":0.714,"id":"aeb9e35jw211","geo_precision":"city","state":"OR"},"type":"Feature","geometry":{"type":"Point","coordinates":[-122.72255,42.482623]}},{"properties":{"city":"Lake Forest","geo_score":0.714,"id":"aeb9e39kxy60","geo_precision":"city","state":"IL"},"type":"Feature","geometry":{"type":"Point","coordinates":[-88.393085,40.754176]}},{"properties":{"city":"Rockwall","geo_score":0.0,"id":"aeb9e3ceuhfn","geo_precision":"unmatched","state":"TX"},"type":"Feature","geometry":null},{"properties":{"city":"Rocky River","geo_score":0.0,"id":"aeb9e39okno6","geo_precision":"unmatched","state":"OH"},"type":"Feature","geometry":null},{"properties":{"city":"Convent","geo_score":0.714,"id":"aeb9e3b6k0j8","geo_precision":"city","state":"LA"},"type":"Feature","geometry":{"type":"Point","coordinates":[-90.858531,30.051774]}},{"properties":{"city":"Ocean Springs","geo_score":0.714,"id":"aeb9e3cas7xp","geo_precision":"city","state":"MS"},"type":"Feature","geometry":{"type":"Point","coordinates":[-89.766465,31.089626]}},{"properties":{"city":"Elburn","geo_score":0.714,"id":"aeb9e3jp63yo","geo_precision":"city","state":"IL"},"type":"Feature","geometry":{"type":"Point","coordinates":[-88.469931,41.834928]}},{"properties":{"city":"Paducah","geo_score":0.714,"id":"aeb9e37azajf","geo_precision":"city","state":"KY"},"type":"Feature","geometry":{"type":"Point","coordinates":[-88.713292,37.031586]}},{"properties":{"city":"Sachse","geo_score":0.714,"id":"aeb9e3j42gc1","geo_precision":"city","state":"TX"},"type":"Feature","geometry":{"type":"Point","coordinates":[-96.59527,32.976233]}},{"properties":{"city":"McFarland","geo_score":0.714,"id":"aeb9e379k01j","geo_precision":"city","state":"WI"},"type":"Feature","geometry":{"type":"Point","coordinates":[-89.363862,43.010519]}},{"properties":{"city":"Rock Island","geo_score":0.714,"id":"aeb9e3dgklwd","geo_precision":"city","state":"IL"},"type":"Feature","geometry":{"type":"Point","coordinates":[-88.188464,42.27179]}},{"properties":{"city":"West Chester","geo_score":0.714,"id":"aeb9e3acwjxn","geo_precision":"city","state":"OH"},"type":"Feature","geometry":{"type":"Point","coordinates":[-81.344278,40.23368]}},{"properties":{"city":"Evansville","geo_score":0.714,"id":"aeb9e37jn9kd","geo_precision":"city","state":"IN"},"type":"Feature","geometry":{"type":"Point","coordinates":[-87.574963,37.997128]}},{"properties":{"city":"Wellborn","geo_score":0.714,"id":"aeb9e35q71h8","geo_precision":"city","state":"FL"},"type":"Feature","geometry":{"type":"Point","coordinates":[-82.857328,30.194651]}},{"properties":{"city":"Utica","geo_score":0.714,"id":"aeb9e3ea64t8","geo_precision":"city","state":"NE"},"type":"Feature","geometry":{"type":"Point","coordinates":[-97.292178,40.938023]}},{"properties":{"city":"Gordo","geo_score":0.714,"id":"aeb9e3h3fwbw","geo_precision":"city","state":"AL"},"type":"Feature","geometry":{"type":"Point","coordinates":[-86.166847,32.011697]}},{"properties":{"city":"Johnson City","geo_score":0.714,"id":"aeb9e3i756z6","geo_precision":"city","state":"TN"},"type":"Feature","geometry":{"type":"Point","coordinates":[-89.195623,35.767296]}},{"properties":{"city":"Mustang","geo_score":0.714,"id":"aeb9e3g8ny55","geo_precision":"city","state":"OK"},"type":"Feature","geometry":{"type":"Point","coordinates":[-97.759874,35.390376]}},{"properties":{"city":"Westchester","geo_score":0.714,"id":"aeb9e3ibqeyq","geo_precision":"city","state":"IL"},"type":"Feature","geometry":{"type":"Point","coordinates":[-87.68732,41.811929]}},{"properties":{"city":"Valencia","geo_score":0.714,"id":"aeb9e38okrvb","geo_precision":"city","state":"CA"},"type":"Feature","geometry":{"type":"Point","coordinates":[-118.298662,33.786594]}},{"properties":{"city":"Edmond","geo_score":0.714,"id":"aeb9e3ixjjrs","geo_precision":"city","state":"OK"},"type":"Feature","geometry":{"type":"Point","coordinates":[-97.499681,35.674777]}},{"properties":{"city":"Abbotsford","geo_score":0.0,"id":"aeb9e3c9dsic","geo_precision":"unmatched","state":"BC"},"type":"Feature","geometry":null},{"properties":{"city":"Sierra Madre","geo_score":0.714,"id":"aeb9e3ihrxyo","geo_precision":"city","state":"CA"},"type":"Feature","geometry":{"type":"Point","coordinates":[-120.182423,36.928286]}},{"properties":{"city":"Cedar Rapids","geo_score":0.714,"id":"aeb9e3acwurn","geo_precision":"city","state":"IA"},"type":"Feature","geometry":{"type":"Point","coordinates":[-91.657578,41.976612]}},{"properties":{"city":"Kerrville","geo_score":0.714,"id":"aeb9e3gcsjes","geo_precision":"city","state":"TX"},"type":"Feature","geometry":{"type":"Point","coordinates":[-95.585498,30.012165]}},{"properties":{"city":"Lunada Bay","geo_score":0.714,"id":"aeb9e36jgsta","geo_precision":"city","state":"CA"},"type":"Feature","geometry":{"type":"Point","coordinates":[-119.241544,38.027423]}},{"properties":{"city":"Orrville","geo_score":0.714,"id":"aeb9e37xi01h","geo_precision":"city","state":"OH"},"type":"Feature","geometry":{"type":"Point","coordinates":[-81.850598,40.788723]}},{"properties":{"city":"Tarboro","geo_score":0.714,"id":"aeb9e3ix1fkr","geo_precision":"city","state":"NC"},"type":"Feature","geometry":{"type":"Point","coordinates":[-77.581631,35.928437]}},{"properties":{"city":"Russellville","geo_score":0.714,"id":"aeb9e3hzv2l2","geo_precision":"city","state":"AL"},"type":"Feature","geometry":{"type":"Point","coordinates":[-87.854726,34.444903]}},{"properties":{"city":"Plain City","geo_score":0.714,"id":"aeb9e3bizbjs","geo_precision":"city","state":"UT"},"type":"Feature","geometry":{"type":"Point","coordinates":[-112.086054,41.297998]}},{"properties":{"city":"Grantville","geo_score":0.714,"id":"aeb9e35bsqap","geo_precision":"city","state":"GA"},"type":"Feature","geometry":{"type":"Point","coordinates":[-84.741266,33.275619]}},{"properties":{"city":"Minot","geo_score":0.714,"id":"aeb9e3j916gk","geo_precision":"city","state":"ND"},"type":"Feature","geometry":{"type":"Point","coordinates":[-102.636569,48.331131]}},{"properties":{"city":"Crowley","geo_score":0.714,"id":"aeb9e3i53vtx","geo_precision":"city","state":"LA"},"type":"Feature","geometry":{"type":"Point","coordinates":[-91.133996,30.869347]}},{"properties":{"city":"Merritt Island","geo_score":0.714,"id":"aeb9e35cyt7h","geo_precision":"city","state":"FL"},"type":"Feature","geometry":{"type":"Point","coordinates":[-80.252552,25.378169]}},{"properties":{"city":"Fort Wayne","geo_score":0.714,"id":"aeb9e37mg6va","geo_precision":"city","state":"IN"},"type":"Feature","geometry":{"type":"Point","coordinates":[-85.12886,41.130604]}},{"properties":{"city":"Cheney","geo_score":0.714,"id":"aeb9e3itry6k","geo_precision":"city","state":"KS"},"type":"Feature","geometry":{"type":"Point","coordinates":[-97.73513,37.633711]}},{"properties":{"city":"Geismar","geo_score":0.714,"id":"aeb9e3f386u0","geo_precision":"city","state":"LA"},"type":"Feature","geometry":{"type":"Point","coordinates":[-90.992636,30.205118]}},{"properties":{"city":"Loomis","geo_score":0.714,"id":"aeb9e3c5hq5g","geo_precision":"city","state":"CA"},"type":"Feature","geometry":{"type":"Point","coordinates":[-116.998102,32.76105]}},{"properties":{"city":"Sorrento","geo_score":0.714,"id":"aeb9e3g1891p","geo_precision":"city","state":"FL"},"type":"Feature","geometry":{"type":"Point","coordinates":[-81.505121,28.831447]}},{"properties":{"city":"Ft. Wayne","geo_score":0.714,"id":"aeb9e3cr3cs7","geo_precision":"city","state":"IN"},"type":"Feature","geometry":{"type":"Point","coordinates":[-85.149971,40.553379]}},{"properties":{"city":"Lynnwood","geo_score":0.714,"id":"aeb9e3j2c0va","geo_precision":"city","state":"WA"},"type":"Feature","geometry":{"type":"Point","coordinates":[-122.285481,47.804869]}},{"properties":{"city":"Darlington","geo_score":0.714,"id":"aeb9e39ascpf","geo_precision":"city","state":"SC"},"type":"Feature","geometry":{"type":"Point","coordinates":[-79.931655,34.317738]}},{"properties":{"city":"Maplewood","geo_score":0.714,"id":"aeb9e3b9qxhj","geo_precision":"city","state":"NJ"},"type":"Feature","geometry":{"type":"Point","coordinates":[-74.266541,40.7291]}},{"properties":{"city":"Dartmouth","geo_score":0.714,"id":"aeb9e3bmm5t8","geo_precision":"city","state":"MA"},"type":"Feature","geometry":{"type":"Point","coordinates":[-71.067062,41.756214]}},{"properties":{"city":"Windermere","geo_score":0.714,"id":"aeb9e3gp1uh1","geo_precision":"city","state":"FL"},"type":"Feature","geometry":{"type":"Point","coordinates":[-81.543979,28.481031]}},{"properties":{"city":"Bloomfield Hills","geo_score":0.714,"id":"aeb9e389b66q","geo_precision":"city","state":"MI"},"type":"Feature","geometry":{"type":"Point","coordinates":[-83.273418,42.575599]}},{"properties":{"city":"Silver Lake","geo_score":0.714,"id":"aeb9e3bqfavp","geo_precision":"city","state":"KS"},"type":"Feature","geometry":{"type":"Point","coordinates":[-95.86381,39.151302]}},{"properties":{"city":"Winston-Salem","geo_score":0.714,"id":"aeb9e38t4sjz","geo_precision":"city","state":"NC"},"type":"Feature","geometry":{"type":"Point","coordinates":[-80.28762,36.101817]}},{"properties":{"city":"Fort Washington","geo_score":0.714,"id":"aeb9e3guds3u","geo_precision":"city","state":"PA"},"type":"Feature","geometry":{"type":"Point","coordinates":[-74.877828,40.284947]}},{"properties":{"city":"Citra","geo_score":0.714,"id":"aeb9e37u9d24","geo_precision":"city","state":"FL"},"type":"Feature","geometry":{"type":"Point","coordinates":[-82.084651,29.411299]}},{"properties":{"city":"Mandeville","geo_score":0.714,"id":"aeb9e3g32yse","geo_precision":"city","state":"LA"},"type":"Feature","geometry":{"type":"Point","coordinates":[-89.977719,30.37706]}},{"properties":{"city":"Monroe","geo_score":0.714,"id":"aeb9e3blkbzn","geo_precision":"city","state":"GA"},"type":"Feature","geometry":{"type":"Point","coordinates":[-83.701264,33.788322]}},{"properties":{"city":"Goose Creek","geo_score":0.714,"id":"aeb9e3efxly4","geo_precision":"city","state":"SC"},"type":"Feature","geometry":{"type":"Point","coordinates":[-81.294081,33.868493]}},{"properties":{"city":"Madison Heights","geo_score":0.714,"id":"aeb9e3i1vvhk","geo_precision":"city","state":"MI"},"type":"Feature","geometry":{"type":"Point","coordinates":[-83.136126,42.505292]}},{"properties":{"city":"Seattle","geo_score":0.714,"id":"aeb9e34rb0tm","geo_precision":"city","state":"WA"},"type":"Feature","geometry":{"type":"Point","coordinates":[-121.803388,47.432251]}},{"properties":{"city":"Land O'Lakes","geo_score":0.714,"id":"aeb9e36iet4l","geo_precision":"city","state":"FL"},"type":"Feature","geometry":{"type":"Point","coordinates":[-82.447595,28.20752]}},{"properties":{"city":"Greensboro","geo_score":0.714,"id":"aeb9e35umxaj","geo_precision":"city","state":"NC"},"type":"Feature","geometry":{"type":"Point","coordinates":[-79.831692,36.055285]}},{"properties":{"city":"Austintown","geo_score":0.714,"id":"aeb9e3h4esy3","geo_precision":"city","state":"OH"},"type":"Feature","geometry":{"type":"Point","coordinates":[-80.764524,41.101725]}},{"properties":{"city":"Smoaks","geo_score":0.714,"id":"aeb9e3imlgid","geo_precision":"city","state":"SC"},"type":"Feature","geometry":{"type":"Point","coordinates":[-80.682465,33.098059]}},{"properties":{"city":"Alexandria","geo_score":0.0,"id":"aeb9e3itsmqu","geo_precision":"unmatched","state":"LA"},"type":"Feature","geometry":null},{"properties":{"city":"New Canaan","geo_score":0.714,"id":"aeb9e3ctmzuc","geo_precision":"city","state":"CT"},"type":"Feature","geometry":{"type":"Point","coordinates":[-73.501267,41.162209]}},{"properties":{"city":"River Forest","geo_score":0.714,"id":"aeb9e3gtadrm","geo_precision":"city","state":"IL"},"type":"Feature","geometry":{"type":"Point","coordinates":[-87.68732,41.811929]}},{"properties":{"city":"Sugar Land","geo_score":0.714,"id":"aeb9e3hz7guh","geo_precision":"city","state":"TX"},"type":"Feature","geometry":{"type":"Point","coordinates":[-95.756462,29.525461]}},{"properties":{"city":"Powell","geo_score":0.714,"id":"aeb9e38wahc6","geo_precision":"city","state":"OH"},"type":"Feature","geometry":{"type":"Point","coordinates":[-83.091235,40.183405]}},{"properties":{"city":"Bettendorf","geo_score":0.714,"id":"aeb9e3b3riit","geo_precision":"city","state":"IA"},"type":"Feature","geometry":{"type":"Point","coordinates":[-90.529138,41.57048]}},{"properties":{"city":"Snellville","geo_score":0.714,"id":"aeb9e38c2ac9","geo_precision":"city","state":"GA"},"type":"Feature","geometry":{"type":"Point","coordinates":[-84.022911,33.817803]}},{"properties":{"city":"Mooresboro","geo_score":0.714,"id":"aeb9e3galpop","geo_precision":"city","state":"NC"},"type":"Feature","geometry":{"type":"Point","coordinates":[-81.700869,35.256702]}},{"properties":{"city":"Oxon Hill","geo_score":0.0,"id":"aeb9e3a24tz2","geo_precision":"unmatched","state":"MD"},"type":"Feature","geometry":null},{"properties":{"city":"Baldwin","geo_score":0.714,"id":"aeb9e3cklgwg","geo_precision":"city","state":"LA"},"type":"Feature","geometry":{"type":"Point","coordinates":[-91.545263,29.846077]}},{"properties":{"city":"Orangeburg","geo_score":0.714,"id":"aeb9e360azog","geo_precision":"city","state":"SC"},"type":"Feature","geometry":{"type":"Point","coordinates":[-80.821825,33.490935]}},{"properties":{"city":"Lancaster","geo_score":0.714,"id":"aeb9e3j31e45","geo_precision":"city","state":"OH"},"type":"Feature","geometry":{"type":"Point","coordinates":[-82.220149,39.498125]}},{"properties":{"city":"Blackshear","geo_score":0.0,"id":"aeb9e34kzb8z","geo_precision":"unmatched","state":"GA"},"type":"Feature","geometry":null},{"properties":{"city":"Niagara Falls","geo_score":0.714,"id":"aeb9e3b6zjvl","geo_precision":"city","state":"NY"},"type":"Feature","geometry":{"type":"Point","coordinates":[-79.009414,43.089805]}},{"properties":{"city":"Folsom","geo_score":0.714,"id":"aeb9e3docs2c","geo_precision":"city","state":"CA"},"type":"Feature","geometry":{"type":"Point","coordinates":[-121.310796,38.594181]}},{"properties":{"city":"Williston","geo_score":0.714,"id":"aeb9e3bdyaa2","geo_precision":"city","state":"ND"},"type":"Feature","geometry":{"type":"Point","coordinates":[-103.649047,48.225729]}},{"properties":{"city":"River Ridge","geo_score":0.714,"id":"aeb9e36wnswz","geo_precision":"city","state":"LA"},"type":"Feature","geometry":{"type":"Point","coordinates":[-90.215632,29.960204]}},{"properties":{"city":"Maryville","geo_score":0.714,"id":"aeb9e3e6dr9z","geo_precision":"city","state":"TN"},"type":"Feature","geometry":{"type":"Point","coordinates":[-84.076895,35.688378]}},{"properties":{"city":"Dillon","geo_score":0.714,"id":"aeb9e36simvp","geo_precision":"city","state":"SC"},"type":"Feature","geometry":{"type":"Point","coordinates":[-79.341359,34.422187]}},{"properties":{"city":"Vandalia","geo_score":0.714,"id":"aeb9e3g38bsb","geo_precision":"city","state":"OH"},"type":"Feature","geometry":{"type":"Point","coordinates":[-84.242243,39.889006]}},{"properties":{"city":"Boynton Beach","geo_score":0.714,"id":"aeb9e3jf8w56","geo_precision":"city","state":"FL"},"type":"Feature","geometry":{"type":"Point","coordinates":[-80.430269,26.645895]}},{"properties":{"city":"Leeds","geo_score":0.714,"id":"aeb9e3kzjakx","geo_precision":"city","state":"AL"},"type":"Feature","geometry":{"type":"Point","coordinates":[-86.584472,33.51828]}},{"properties":{"city":"Brandywine","geo_score":0.714,"id":"aeb9e38v84d0","geo_precision":"city","state":"MD"},"type":"Feature","geometry":{"type":"Point","coordinates":[-76.824293,38.658807]}},{"properties":{"city":"Middletown","geo_score":0.714,"id":"aeb9e34r010n","geo_precision":"city","state":"OH"},"type":"Feature","geometry":{"type":"Point","coordinates":[-83.861594,39.580616]}},{"properties":{"city":"Union City","geo_score":0.714,"id":"aeb9e3dthwkh","geo_precision":"city","state":"NJ"},"type":"Feature","geometry":{"type":"Point","coordinates":[-74.056335,40.758951]}},{"properties":{"city":"Richmond","geo_score":0.714,"id":"aeb9e3kjt9yf","geo_precision":"city","state":"VA"},"type":"Feature","geometry":{"type":"Point","coordinates":[-76.83774,37.914858]}},{"properties":{"city":"Glendale","geo_score":0.714,"id":"aeb9e3kgl1i3","geo_precision":"city","state":"AZ"},"type":"Feature","geometry":{"type":"Point","coordinates":[-112.18717,33.276539]}},{"properties":{"city":"McLean","geo_score":0.714,"id":"aeb9e39g1aqv","geo_precision":"city","state":"VA"},"type":"Feature","geometry":{"type":"Point","coordinates":[-77.18672,38.935202]}},{"properties":{"city":"Greenwood","geo_score":0.714,"id":"aeb9e39rh9kv","geo_precision":"city","state":"ID"},"type":"Feature","geometry":{"type":"Point","coordinates":[-114.049472,42.576578]}},{"properties":{"city":"Orange","geo_score":0.714,"id":"aeb9e3dzdhox","geo_precision":"city","state":"CA"},"type":"Feature","geometry":{"type":"Point","coordinates":[-117.853112,33.787795]}},{"properties":{"city":"Mesquite","geo_score":0.714,"id":"aeb9e3eg5w7f","geo_precision":"city","state":"TX"},"type":"Feature","geometry":{"type":"Point","coordinates":[-96.62315,32.777779]}},{"properties":{"city":"Chapin","geo_score":0.714,"id":"aeb9e3c7ohsv","geo_precision":"city","state":"SC"},"type":"Feature","geometry":{"type":"Point","coordinates":[-81.334355,34.135909]}},{"properties":{"city":"Sparta","geo_score":0.714,"id":"aeb9e3hm5eo3","geo_precision":"city","state":"NJ"},"type":"Feature","geometry":{"type":"Point","coordinates":[-74.718191,41.040597]}},{"properties":{"city":"Euclid","geo_score":0.714,"id":"aeb9e39ctctl","geo_precision":"city","state":"OH"},"type":"Feature","geometry":{"type":"Point","coordinates":[-81.526142,41.566834]}},{"properties":{"city":"Tatum","geo_score":0.714,"id":"aeb9e3czmeap","geo_precision":"city","state":"SC"},"type":"Feature","geometry":{"type":"Point","coordinates":[-79.586895,34.64051]}},{"properties":{"city":"Annandale","geo_score":0.714,"id":"aeb9e3l0yevz","geo_precision":"city","state":"NJ"},"type":"Feature","geometry":{"type":"Point","coordinates":[-74.890685,40.631008]}},{"properties":{"city":"Rockledge","geo_score":0.0,"id":"aeb9e3aanxlb","geo_precision":"unmatched","state":"FL"},"type":"Feature","geometry":null},{"properties":{"city":"Weston","geo_score":0.714,"id":"aeb9e36xuner","geo_precision":"city","state":"FL"},"type":"Feature","geometry":{"type":"Point","coordinates":[-80.399775,26.100365]}},{"properties":{"city":"Rheinfelden","geo_score":0.0,"id":"aeb9e34lynby","geo_precision":"unmatched","state":"CH"},"type":"Feature","geometry":null},{"properties":{"city":"Canton","geo_score":0.714,"id":"aeb9e3agj3b8","geo_precision":"city","state":"OH"},"type":"Feature","geometry":{"type":"Point","coordinates":[-83.616923,40.6401]}},{"properties":{"city":"Steubenville","geo_score":0.714,"id":"aeb9e3kglj7h","geo_precision":"city","state":"OH"},"type":"Feature","geometry":{"type":"Point","coordinates":[-80.746759,40.349541]}},{"properties":{"city":"Mason","geo_score":0.714,"id":"aeb9e36eg0o3","geo_precision":"city","state":"OH"},"type":"Feature","geometry":{"type":"Point","coordinates":[-84.180906,39.397999]}},{"properties":{"city":"Grand Island","geo_score":0.714,"id":"aeb9e3935gvw","geo_precision":"city","state":"NE"},"type":"Feature","geometry":{"type":"Point","coordinates":[-101.7258,40.846046]}},{"properties":{"city":"South Bend","geo_score":0.714,"id":"aeb9e3ffh59t","geo_precision":"city","state":"ID"},"type":"Feature","geometry":{"type":"Point","coordinates":[-111.942455,42.231033]}},{"properties":{"city":"Pomona Park","geo_score":0.714,"id":"aeb9e3kya26n","geo_precision":"city","state":"FL"},"type":"Feature","geometry":{"type":"Point","coordinates":[-81.613183,29.539751]}},{"properties":{"city":"Rayville","geo_score":0.714,"id":"aeb9e399tgim","geo_precision":"city","state":"LA"},"type":"Feature","geometry":{"type":"Point","coordinates":[-91.743314,32.445645]}},{"properties":{"city":"Tuscambia","geo_score":0.714,"id":"aeb9e36eb381","geo_precision":"city","state":"AL"},"type":"Feature","geometry":{"type":"Point","coordinates":[-87.749232,34.66604]}},{"properties":{"city":"Wetumpka","geo_score":0.714,"id":"aeb9e3eub1dd","geo_precision":"city","state":"AL"},"type":"Feature","geometry":{"type":"Point","coordinates":[-86.215304,32.592659]}},{"properties":{"city":"Springfield","geo_score":0.714,"id":"aeb9e3bdx7qh","geo_precision":"city","state":"OH"},"type":"Feature","geometry":{"type":"Point","coordinates":[-84.529111,39.218391]}},{"properties":{"city":"Pinson","geo_score":0.714,"id":"aeb9e37ojvgo","geo_precision":"city","state":"AL"},"type":"Feature","geometry":{"type":"Point","coordinates":[-86.645081,33.72988]}},{"properties":{"city":"Evans","geo_score":0.714,"id":"aeb9e34zmke7","geo_precision":"city","state":"GA"},"type":"Feature","geometry":{"type":"Point","coordinates":[-82.143617,33.551132]}},{"properties":{"city":"Fort Walton Beach","geo_score":0.714,"id":"aeb9e36kiqpa","geo_precision":"city","state":"FL"},"type":"Feature","geometry":{"type":"Point","coordinates":[-81.92122,30.435237]}},{"properties":{"city":"Powder Spring","geo_score":0.714,"id":"aeb9e39hyzpp","geo_precision":"city","state":"GA"},"type":"Feature","geometry":{"type":"Point","coordinates":[-81.629827,31.105786]}},{"properties":{"city":"Monroeville","geo_score":0.714,"id":"aeb9e35m7sn0","geo_precision":"city","state":"AL"},"type":"Feature","geometry":{"type":"Point","coordinates":[-87.314222,31.56713]}},{"properties":{"city":"Picayune","geo_score":0.714,"id":"aeb9e3cl3sde","geo_precision":"city","state":"MS"},"type":"Feature","geometry":{"type":"Point","coordinates":[-89.63128,30.627655]}},{"properties":{"city":"Ellenwood","geo_score":0.714,"id":"aeb9e379z0ec","geo_precision":"city","state":"GA"},"type":"Feature","geometry":{"type":"Point","coordinates":[-84.287978,33.61011]}},{"properties":{"city":"Moundville","geo_score":0.714,"id":"aeb9e35kvh0u","geo_precision":"city","state":"AL"},"type":"Feature","geometry":{"type":"Point","coordinates":[-86.883586,33.136658]}},{"properties":{"city":"Thomasville","geo_score":0.714,"id":"aeb9e39h0u66","geo_precision":"city","state":"AL"},"type":"Feature","geometry":{"type":"Point","coordinates":[-87.769476,31.745135]}},{"properties":{"city":"Blountstown","geo_score":0.714,"id":"aeb9e3c85xfj","geo_precision":"city","state":"FL"},"type":"Feature","geometry":{"type":"Point","coordinates":[-85.046048,30.442582]}},{"properties":{"city":"Florence","geo_score":0.714,"id":"aeb9e3kdg95y","geo_precision":"city","state":"AL"},"type":"Feature","geometry":{"type":"Point","coordinates":[-87.686915,34.869601]}},{"properties":{"city":"Nevada City","geo_score":0.714,"id":"aeb9e372qr1k","geo_precision":"city","state":"CA"},"type":"Feature","geometry":{"type":"Point","coordinates":[-122.540951,38.027654]}},{"properties":{"city":"Lynchburg","geo_score":0.714,"id":"aeb9e3c6o8ac","geo_precision":"city","state":"VA"},"type":"Feature","geometry":{"type":"Point","coordinates":[-79.178326,37.383112]}},{"properties":{"city":"Jupiter","geo_score":0.714,"id":"aeb9e34ou49v","geo_precision":"city","state":"FL"},"type":"Feature","geometry":{"type":"Point","coordinates":[-80.430269,26.645895]}},{"properties":{"city":"Gautier","geo_score":0.714,"id":"aeb9e367y0ux","geo_precision":"city","state":"MS"},"type":"Feature","geometry":{"type":"Point","coordinates":[-88.66487,30.421676]}},{"properties":{"city":"York","geo_score":0.714,"id":"aeb9e3jfl0cw","geo_precision":"city","state":"AL"},"type":"Feature","geometry":{"type":"Point","coordinates":[-88.193305,32.444907]}},{"properties":{"city":"Ashburn","geo_score":0.714,"id":"aeb9e3k2w67s","geo_precision":"city","state":"VA"},"type":"Feature","geometry":{"type":"Point","coordinates":[-77.645224,39.085309]}},{"properties":{"city":"Millbrook","geo_score":0.714,"id":"aeb9e3h2gblv","geo_precision":"city","state":"AL"},"type":"Feature","geometry":{"type":"Point","coordinates":[-86.225602,32.584717]}},{"properties":{"city":"Theodore","geo_score":0.714,"id":"aeb9e354wz20","geo_precision":"city","state":"AL"},"type":"Feature","geometry":{"type":"Point","coordinates":[-88.20225,30.486565]}},{"properties":{"city":"Cockeysville","geo_score":0.714,"id":"aeb9e37mqx2d","geo_precision":"city","state":"MD"},"type":"Feature","geometry":{"type":"Point","coordinates":[-77.0142,39.328104]}},{"properties":{"city":"Madison","geo_score":0.714,"id":"aeb9e3jw081c","geo_precision":"city","state":"AL"},"type":"Feature","geometry":{"type":"Point","coordinates":[-86.754233,34.651409]}},{"properties":{"city":"Columbiana","geo_score":0.714,"id":"aeb9e36p21lu","geo_precision":"city","state":"AL"},"type":"Feature","geometry":{"type":"Point","coordinates":[-86.554849,33.232849]}},{"properties":{"city":"Asheville","geo_score":0.714,"id":"aeb9e3h89y2n","geo_precision":"city","state":"NC"},"type":"Feature","geometry":{"type":"Point","coordinates":[-82.567281,35.602711]}},{"properties":{"city":"Bridgeport","geo_score":0.714,"id":"aeb9e36ifj0c","geo_precision":"city","state":"AL"},"type":"Feature","geometry":{"type":"Point","coordinates":[-85.803464,34.799983]}},{"properties":{"city":"Satsuma","geo_score":0.714,"id":"aeb9e3g8pj7s","geo_precision":"city","state":"AL"},"type":"Feature","geometry":{"type":"Point","coordinates":[-88.087879,30.585158]}},{"properties":{"city":"Rocky Hill","geo_score":0.0,"id":"aeb9e3hhby3c","geo_precision":"unmatched","state":"CT"},"type":"Feature","geometry":null},{"properties":{"city":"Prichard","geo_score":0.714,"id":"aeb9e36sgify","geo_precision":"city","state":"AL"},"type":"Feature","geometry":{"type":"Point","coordinates":[-88.078889,30.7388]}},{"properties":{"city":"Lambert","geo_score":0.714,"id":"aeb9e3g9gipx","geo_precision":"city","state":"MS"},"type":"Feature","geometry":{"type":"Point","coordinates":[-89.503417,31.100426]}},{"properties":{"city":"Port Sulphur","geo_score":0.714,"id":"aeb9e3ah6h75","geo_precision":"city","state":"LA"},"type":"Feature","geometry":{"type":"Point","coordinates":[-92.989327,32.491542]}},{"properties":{"city":"McDonaugh","geo_score":0.0,"id":"aeb9e3it7jtq","geo_precision":"unmatched","state":"GA"},"type":"Feature","geometry":null},{"properties":{"city":"Harrisonville","geo_score":0.714,"id":"aeb9e3aiwdg9","geo_precision":"city","state":"MO"},"type":"Feature","geometry":{"type":"Point","coordinates":[-94.321556,38.615239]}},{"properties":{"city":"Phenix City","geo_score":0.0,"id":"aeb9e36bt9fr","geo_precision":"unmatched","state":"AL"},"type":"Feature","geometry":null},{"properties":{"city":"Jackson","geo_score":0.0,"id":"aeb9e3g3jmwv","geo_precision":"unmatched","state":"TN"},"type":"Feature","geometry":null},{"properties":{"city":"Panama City Beach","geo_score":0.714,"id":"aeb9e3f4uped","geo_precision":"city","state":"FL"},"type":"Feature","geometry":{"type":"Point","coordinates":[-85.813624,30.200682]}},{"properties":{"city":"Reform","geo_score":0.714,"id":"aeb9e39jox0i","geo_precision":"city","state":"AL"},"type":"Feature","geometry":{"type":"Point","coordinates":[-88.042923,33.314928]}},{"properties":{"city":"Compton","geo_score":0.714,"id":"aeb9e3dc5zvm","geo_precision":"city","state":"CA"},"type":"Feature","geometry":{"type":"Point","coordinates":[-121.111454,39.414386]}},{"properties":{"city":"Kirkwood","geo_score":0.714,"id":"aeb9e36lkt5b","geo_precision":"city","state":"MO"},"type":"Feature","geometry":{"type":"Point","coordinates":[-90.406785,38.583386]}},{"properties":{"city":"Anaheim","geo_score":0.714,"id":"aeb9e3bwhhc8","geo_precision":"city","state":"CA"},"type":"Feature","geometry":{"type":"Point","coordinates":[-117.769442,33.640302]}},{"properties":{"city":"Wamego","geo_score":0.714,"id":"aeb9e3i3skwe","geo_precision":"city","state":"KS"},"type":"Feature","geometry":{"type":"Point","coordinates":[-96.341383,39.298416]}},{"properties":{"city":"St. Helena","geo_score":0.714,"id":"aeb9e3k35nrn","geo_precision":"city","state":"CA"},"type":"Feature","geometry":{"type":"Point","coordinates":[-123.128365,40.773476]}},{"properties":{"city":"Amherst","geo_score":0.714,"id":"aeb9e3eewoyx","geo_precision":"city","state":"NY"},"type":"Feature","geometry":{"type":"Point","coordinates":[-78.799756,42.978391]}},{"properties":{"city":"Scooba","geo_score":0.714,"id":"aeb9e3g69mha","geo_precision":"city","state":"MS"},"type":"Feature","geometry":{"type":"Point","coordinates":[-89.719526,34.029737]}},{"properties":{"city":"Mediapolis","geo_score":0.714,"id":"aeb9e3b8pj16","geo_precision":"city","state":"IA"},"type":"Feature","geometry":{"type":"Point","coordinates":[-91.127994,41.012819]}},{"properties":{"city":"Tavistock","geo_score":0.0,"id":"aeb9e3hvlzk0","geo_precision":"unmatched","state":"UK"},"type":"Feature","geometry":null},{"properties":{"city":"Scott City","geo_score":0.714,"id":"aeb9e3c8v1rh","geo_precision":"city","state":"KS"},"type":"Feature","geometry":{"type":"Point","coordinates":[-96.794453,38.868058]}},{"properties":{"city":"Belleville","geo_score":0.714,"id":"aeb9e39ip2i4","geo_precision":"city","state":"IL"},"type":"Feature","geometry":{"type":"Point","coordinates":[-88.355089,42.320577]}},{"properties":{"city":"Claremore","geo_score":0.714,"id":"aeb9e3jy3br5","geo_precision":"city","state":"OK"},"type":"Feature","geometry":{"type":"Point","coordinates":[-95.604344,36.348616]}},{"properties":{"city":"Sugarland","geo_score":0.714,"id":"aeb9e3amg0ap","geo_precision":"city","state":"TX"},"type":"Feature","geometry":{"type":"Point","coordinates":[-95.756462,29.525461]}},{"properties":{"city":"La Habra","geo_score":0.714,"id":"aeb9e3jd74lh","geo_precision":"city","state":"CA"},"type":"Feature","geometry":{"type":"Point","coordinates":[-117.769442,33.640302]}},{"properties":{"city":"Rialto","geo_score":0.714,"id":"aeb9e3987hra","geo_precision":"city","state":"CA"},"type":"Feature","geometry":{"type":"Point","coordinates":[-115.567483,34.202339]}},{"properties":{"city":"Concord","geo_score":0.714,"id":"aeb9e3jh1722","geo_precision":"city","state":"NC"},"type":"Feature","geometry":{"type":"Point","coordinates":[-79.066402,36.445974]}},{"properties":{"city":"La Quinta","geo_score":0.714,"id":"aeb9e39cgd05","geo_precision":"city","state":"CA"},"type":"Feature","geometry":{"type":"Point","coordinates":[-122.214722,38.850382]}},{"properties":{"city":"Union","geo_score":0.714,"id":"aeb9e3d9z8w4","geo_precision":"city","state":"NC"},"type":"Feature","geometry":{"type":"Point","coordinates":[-77.024127,36.333766]}},{"properties":{"city":"Gibson","geo_score":0.714,"id":"aeb9e3g4eeqz","geo_precision":"city","state":"LA"},"type":"Feature","geometry":{"type":"Point","coordinates":[-90.912489,29.654609]}},{"properties":{"city":"Holliday","geo_score":0.714,"id":"aeb9e3b8ojug","geo_precision":"city","state":"UT"},"type":"Feature","geometry":{"type":"Point","coordinates":[-111.824656,40.668836]}},{"properties":{"city":"Ladson","geo_score":0.714,"id":"aeb9e38a4f75","geo_precision":"city","state":"SC"},"type":"Feature","geometry":{"type":"Point","coordinates":[-80.107174,33.01317]}},{"properties":{"city":"Carthage","geo_score":0.714,"id":"aeb9e371avxc","geo_precision":"city","state":"TX"},"type":"Feature","geometry":{"type":"Point","coordinates":[-94.309189,32.183133]}},{"properties":{"city":"El Paso","geo_score":0.714,"id":"aeb9e3iqbbfp","geo_precision":"city","state":"TX"},"type":"Feature","geometry":{"type":"Point","coordinates":[-99.561747,32.342351]}},{"properties":{"city":"Largo","geo_score":0.714,"id":"aeb9e3fn0515","geo_precision":"city","state":"FL"},"type":"Feature","geometry":{"type":"Point","coordinates":[-82.802668,27.916998]}},{"properties":{"city":"Livonia","geo_score":0.714,"id":"aeb9e38c1bb0","geo_precision":"city","state":"MI"},"type":"Feature","geometry":{"type":"Point","coordinates":[-83.371753,42.369351]}},{"properties":{"city":"Reynoldsburg","geo_score":0.714,"id":"aeb9e35rolbn","geo_precision":"city","state":"OH"},"type":"Feature","geometry":{"type":"Point","coordinates":[-82.802896,39.951513]}},{"properties":{"city":"Templeton","geo_score":0.714,"id":"aeb9e380p0oe","geo_precision":"city","state":"CA"},"type":"Feature","geometry":{"type":"Point","coordinates":[-120.65385,35.517781]}},{"properties":{"city":"Kirtland","geo_score":0.714,"id":"aeb9e3c1xq0s","geo_precision":"city","state":"OH"},"type":"Feature","geometry":{"type":"Point","coordinates":[-80.778301,41.354945]}},{"properties":{"city":"Moorpark","geo_score":0.714,"id":"aeb9e3g8mcxe","geo_precision":"city","state":"CA"},"type":"Feature","geometry":{"type":"Point","coordinates":[-119.1343,34.032383]}},{"properties":{"city":"Oil City","geo_score":0.714,"id":"aeb9e3g07h7m","geo_precision":"city","state":"PA"},"type":"Feature","geometry":{"type":"Point","coordinates":[-77.993057,39.875924]}},{"properties":{"city":"Kechi","geo_score":0.714,"id":"aeb9e36nn9i4","geo_precision":"city","state":"KS"},"type":"Feature","geometry":{"type":"Point","coordinates":[-97.259353,37.810488]}},{"properties":{"city":"Hanahan","geo_score":0.714,"id":"aeb9e34ti3v4","geo_precision":"city","state":"SC"},"type":"Feature","geometry":{"type":"Point","coordinates":[-80.022032,32.918507]}},{"properties":{"city":"Oviedo","geo_score":0.714,"id":"aeb9e3c2na8v","geo_precision":"city","state":"FL"},"type":"Feature","geometry":{"type":"Point","coordinates":[-81.22328,28.744752]}},{"properties":{"city":"Orchard Lake","geo_score":0.714,"id":"aeb9e3hpd9c6","geo_precision":"city","state":"MI"},"type":"Feature","geometry":{"type":"Point","coordinates":[-84.464478,45.556956]}},{"properties":{"city":"West Des Moines","geo_score":0.714,"id":"aeb9e3gtn7xb","geo_precision":"city","state":"IA"},"type":"Feature","geometry":{"type":"Point","coordinates":[-93.572173,41.672687]}},{"properties":{"city":"Aztec","geo_score":0.714,"id":"aeb9e3kjhpuk","geo_precision":"city","state":"NM"},"type":"Feature","geometry":{"type":"Point","coordinates":[-107.818288,36.842198]}},{"properties":{"city":"Jonesboro","geo_score":0.714,"id":"aeb9e3gzxuvo","geo_precision":"city","state":"AR"},"type":"Feature","geometry":{"type":"Point","coordinates":[-90.623071,35.835847]}},{"properties":{"city":"Edgard","geo_score":0.714,"id":"aeb9e3fnm7fv","geo_precision":"city","state":"LA"},"type":"Feature","geometry":{"type":"Point","coordinates":[-90.575432,30.033264]}},{"properties":{"city":"Farmington Hills","geo_score":0.714,"id":"aeb9e3bxd7w6","geo_precision":"city","state":"MI"},"type":"Feature","geometry":{"type":"Point","coordinates":[-83.385489,42.445035]}},{"properties":{"city":"Atwater","geo_score":0.714,"id":"aeb9e3d2ewk7","geo_precision":"city","state":"CA"},"type":"Feature","geometry":{"type":"Point","coordinates":[-120.647347,37.317255]}},{"properties":{"city":"Franklin","geo_score":0.714,"id":"aeb9e3530kod","geo_precision":"city","state":"TN"},"type":"Feature","geometry":{"type":"Point","coordinates":[-86.965691,35.890746]}},{"properties":{"city":"Sterling","geo_score":0.714,"id":"aeb9e36z82ix","geo_precision":"city","state":"IL"},"type":"Feature","geometry":{"type":"Point","coordinates":[-89.745941,41.835669]}},{"properties":{"city":"Hyrum","geo_score":0.714,"id":"aeb9e36qy131","geo_precision":"city","state":"UT"},"type":"Feature","geometry":{"type":"Point","coordinates":[-111.879653,41.717589]}},{"properties":{"city":"Altamont","geo_score":0.714,"id":"aeb9e3jnr57w","geo_precision":"city","state":"KS"},"type":"Feature","geometry":{"type":"Point","coordinates":[-95.360819,37.222616]}},{"properties":{"city":"Minneapolis","geo_score":0.714,"id":"aeb9e370t8f7","geo_precision":"city","state":"MN"},"type":"Feature","geometry":{"type":"Point","coordinates":[-93.273024,44.979265]}},{"properties":{"city":"Hampton","geo_score":0.714,"id":"aeb9e3h3yx8e","geo_precision":"city","state":"GA"},"type":"Feature","geometry":{"type":"Point","coordinates":[-84.273764,33.408112]}},{"properties":{"city":"Lansing","geo_score":0.714,"id":"aeb9e3fxhiua","geo_precision":"city","state":"MI"},"type":"Feature","geometry":{"type":"Point","coordinates":[-84.555535,42.732535]}},{"properties":{"city":"Allenton","geo_score":0.714,"id":"aeb9e3bmmazy","geo_precision":"city","state":"PA"},"type":"Feature","geometry":{"type":"Point","coordinates":[-75.470026,40.607497]}},{"properties":{"city":"Warminster","geo_score":0.714,"id":"aeb9e3ev7lb1","geo_precision":"city","state":"PA"},"type":"Feature","geometry":{"type":"Point","coordinates":[-75.040613,40.208476]}},{"properties":{"city":"Hemet","geo_score":0.714,"id":"aeb9e3bs6m0c","geo_precision":"city","state":"CA"},"type":"Feature","geometry":{"type":"Point","coordinates":[-116.777014,33.651652]}},{"properties":{"city":"Des Moines","geo_score":0.714,"id":"aeb9e3fq1u2w","geo_precision":"city","state":"IA"},"type":"Feature","geometry":{"type":"Point","coordinates":[-93.572173,41.672687]}},{"properties":{"city":"Irvington","geo_score":0.714,"id":"aeb9e3baote4","geo_precision":"city","state":"NJ"},"type":"Feature","geometry":{"type":"Point","coordinates":[-74.23294,40.726231]}},{"properties":{"city":"Gardena","geo_score":0.714,"id":"aeb9e3fwatza","geo_precision":"city","state":"CA"},"type":"Feature","geometry":{"type":"Point","coordinates":[-118.295256,33.888315]}},{"properties":{"city":"Bethesda","geo_score":0.714,"id":"aeb9e3c2hhz6","geo_precision":"city","state":"MD"},"type":"Feature","geometry":{"type":"Point","coordinates":[-77.207617,39.143979]}},{"properties":{"city":"Foster City","geo_score":0.714,"id":"aeb9e3ef128v","geo_precision":"city","state":"CA"},"type":"Feature","geometry":{"type":"Point","coordinates":[-122.271079,37.558547]}},{"properties":{"city":"Brooklyn Park","geo_score":0.714,"id":"aeb9e39c8huw","geo_precision":"city","state":"MN"},"type":"Feature","geometry":{"type":"Point","coordinates":[-93.332728,45.076076]}},{"properties":{"city":"Mineral Wells","geo_score":0.714,"id":"aeb9e36teega","geo_precision":"city","state":"TX"},"type":"Feature","geometry":{"type":"Point","coordinates":[-97.732736,28.424535]}},{"properties":{"city":"Winnfield","geo_score":0.714,"id":"aeb9e34t5ugh","geo_precision":"city","state":"LA"},"type":"Feature","geometry":{"type":"Point","coordinates":[-92.669269,31.914948]}},{"properties":{"city":"Aberdeen","geo_score":0.0,"id":"aeb9e3jl7uj4","geo_precision":"unmatched","state":"UK"},"type":"Feature","geometry":null},{"properties":{"city":"Shelby","geo_score":0.714,"id":"aeb9e35c3q7z","geo_precision":"city","state":"NC"},"type":"Feature","geometry":{"type":"Point","coordinates":[-81.556777,35.312012]}},{"properties":{"city":"Palo Alto","geo_score":0.714,"id":"aeb9e3h1ggs8","geo_precision":"city","state":"CA"},"type":"Feature","geometry":{"type":"Point","coordinates":[-116.846046,33.016928]}},{"properties":{"city":"Parker","geo_score":0.714,"id":"aeb9e3dghool","geo_precision":"city","state":"CO"},"type":"Feature","geometry":{"type":"Point","coordinates":[-104.773313,39.505205]}},{"properties":{"city":"Madisonville","geo_score":0.714,"id":"aeb9e3h13jtb","geo_precision":"city","state":"KY"},"type":"Feature","geometry":{"type":"Point","coordinates":[-87.532576,37.299458]}},{"properties":{"city":"Midland","geo_score":0.714,"id":"aeb9e35p1owd","geo_precision":"city","state":"TX"},"type":"Feature","geometry":{"type":"Point","coordinates":[-102.091276,31.861876]}},{"properties":{"city":"Port Lavaca","geo_score":0.714,"id":"aeb9e3frtk0d","geo_precision":"city","state":"TX"},"type":"Feature","geometry":{"type":"Point","coordinates":[-98.630919,31.477095]}},{"properties":{"city":"Collinsville","geo_score":0.714,"id":"aeb9e3blhjo3","geo_precision":"city","state":"IL"},"type":"Feature","geometry":{"type":"Point","coordinates":[-89.908644,38.733747]}},{"properties":{"city":"Fort Oglethorpe","geo_score":0.714,"id":"aeb9e353ba56","geo_precision":"city","state":"GA"},"type":"Feature","geometry":{"type":"Point","coordinates":[-84.101472,32.327479]}},{"properties":{"city":"Newport Beach","geo_score":0.714,"id":"aeb9e35ehsbf","geo_precision":"city","state":"CA"},"type":"Feature","geometry":{"type":"Point","coordinates":[-117.928947,33.61891]}},{"properties":{"city":"Eden Prarie","geo_score":0.714,"id":"aeb9e3b08u4x","geo_precision":"city","state":"MN"},"type":"Feature","geometry":{"type":"Point","coordinates":[-92.346836,43.602187]}},{"properties":{"city":"Graham","geo_score":0.714,"id":"aeb9e3jraveo","geo_precision":"city","state":"TX"},"type":"Feature","geometry":{"type":"Point","coordinates":[-98.64403,33.092674]}},{"properties":{"city":"Richlands","geo_score":0.714,"id":"aeb9e35brodi","geo_precision":"city","state":"VA"},"type":"Feature","geometry":{"type":"Point","coordinates":[-81.554668,37.186196]}},{"properties":{"city":"Papillion","geo_score":0.714,"id":"aeb9e3d0hzre","geo_precision":"city","state":"NE"},"type":"Feature","geometry":{"type":"Point","coordinates":[-96.060367,41.118594]}},{"properties":{"city":"Statham","geo_score":0.714,"id":"aeb9e36yvvzu","geo_precision":"city","state":"GA"},"type":"Feature","geometry":{"type":"Point","coordinates":[-83.590148,33.980323]}},{"properties":{"city":"South Euclid","geo_score":0.714,"id":"aeb9e3c8dyka","geo_precision":"city","state":"OH"},"type":"Feature","geometry":{"type":"Point","coordinates":[-81.518455,41.523108]}},{"properties":{"city":"Van","geo_score":0.714,"id":"aeb9e3ak09bg","geo_precision":"city","state":"TX"},"type":"Feature","geometry":{"type":"Point","coordinates":[-96.792478,29.3783]}},{"properties":{"city":"Hickory Creek","geo_score":0.714,"id":"aeb9e36pm50b","geo_precision":"city","state":"TX"},"type":"Feature","geometry":{"type":"Point","coordinates":[-96.728043,31.587113]}},{"properties":{"city":"Granbury","geo_score":0.714,"id":"aeb9e3a96kw8","geo_precision":"city","state":"TX"},"type":"Feature","geometry":{"type":"Point","coordinates":[-97.844867,32.435405]}},{"properties":{"city":"Hialeah","geo_score":0.714,"id":"aeb9e3kqkixo","geo_precision":"city","state":"FL"},"type":"Feature","geometry":{"type":"Point","coordinates":[-80.458168,25.558428]}},{"properties":{"city":"Scranton","geo_score":0.714,"id":"aeb9e3ey34f2","geo_precision":"city","state":"SC"},"type":"Feature","geometry":{"type":"Point","coordinates":[-79.769899,33.937275]}},{"properties":{"city":"Sunrise","geo_score":0.714,"id":"aeb9e3582zj8","geo_precision":"city","state":"FL"},"type":"Feature","geometry":{"type":"Point","coordinates":[-80.1131,26.133975]}},{"properties":{"city":"Monroe","geo_score":0.714,"id":"aeb9e3f5efu4","geo_precision":"city","state":"WA"},"type":"Feature","geometry":{"type":"Point","coordinates":[-121.88433,47.863149]}},{"properties":{"city":"West Portsmouth","geo_score":0.714,"id":"aeb9e365qgdx","geo_precision":"city","state":"OH"},"type":"Feature","geometry":{"type":"Point","coordinates":[-81.529843,40.783113]}},{"properties":{"city":"Winter Garden","geo_score":0.714,"id":"aeb9e3ce88y2","geo_precision":"city","state":"FL"},"type":"Feature","geometry":{"type":"Point","coordinates":[-86.279945,30.889628]}},{"properties":{"city":"Manchester","geo_score":0.0,"id":"aeb9e36dn9za","geo_precision":"unmatched","state":"UK"},"type":"Feature","geometry":null},{"properties":{"city":"Hueytown","geo_score":0.714,"id":"aeb9e37t4i72","geo_precision":"city","state":"AL"},"type":"Feature","geometry":{"type":"Point","coordinates":[-86.996661,33.45122]}},{"properties":{"city":"Belton","geo_score":0.714,"id":"aeb9e3ht8dla","geo_precision":"city","state":"TX"},"type":"Feature","geometry":{"type":"Point","coordinates":[-97.823052,26.074244]}},{"properties":{"city":"St. John's","geo_score":0.714,"id":"aeb9e3dmapdu","geo_precision":"city","state":"CA"},"type":"Feature","geometry":{"type":"Point","coordinates":[-120.75384,40.042949]}},{"properties":{"city":"Lithia","geo_score":0.714,"id":"aeb9e3dgsufh","geo_precision":"city","state":"FL"},"type":"Feature","geometry":{"type":"Point","coordinates":[-82.205331,27.893718]}},{"properties":{"city":"Coral Springs","geo_score":0.714,"id":"aeb9e3i43hu6","geo_precision":"city","state":"FL"},"type":"Feature","geometry":{"type":"Point","coordinates":[-84.327675,30.08076]}},{"properties":{"city":"Bartlesville","geo_score":0.714,"id":"aeb9e3c8glzv","geo_precision":"city","state":"OK"},"type":"Feature","geometry":{"type":"Point","coordinates":[-95.970182,36.759485]}},{"properties":{"city":"Grenta","geo_score":0.714,"id":"aeb9e3j1a9dv","geo_precision":"city","state":"NE"},"type":"Feature","geometry":{"type":"Point","coordinates":[-101.7258,40.846046]}},{"properties":{"city":"Cleveland","geo_score":0.714,"id":"aeb9e3k8ch2e","geo_precision":"city","state":"MS"},"type":"Feature","geometry":{"type":"Point","coordinates":[-90.84313,33.847591]}},{"properties":{"city":"O'Fallon","geo_score":0.714,"id":"aeb9e3eba1ka","geo_precision":"city","state":"IL"},"type":"Feature","geometry":{"type":"Point","coordinates":[-89.89568,38.571835]}},{"properties":{"city":"Redford","geo_score":0.714,"id":"aeb9e3k29eoz","geo_precision":"city","state":"MI"},"type":"Feature","geometry":{"type":"Point","coordinates":[-83.282029,42.392286]}},{"properties":{"city":"Novato","geo_score":0.714,"id":"aeb9e3grjs4f","geo_precision":"city","state":"CA"},"type":"Feature","geometry":{"type":"Point","coordinates":[-122.540951,38.027654]}},{"properties":{"city":"Crowley","geo_score":0.714,"id":"aeb9e3g3q75g","geo_precision":"city","state":"TX"},"type":"Feature","geometry":{"type":"Point","coordinates":[-95.520237,32.477364]}},{"properties":{"city":"Gig Harbor","geo_score":0.0,"id":"aeb9e3b2rwzu","geo_precision":"unmatched","state":"WA"},"type":"Feature","geometry":null},{"properties":{"city":"Elmira","geo_score":0.714,"id":"aeb9e39s7q1x","geo_precision":"city","state":"OR"},"type":"Feature","geometry":{"type":"Point","coordinates":[-123.388216,44.097363]}},{"properties":{"city":"Terry","geo_score":0.714,"id":"aeb9e3fworom","geo_precision":"city","state":"MS"},"type":"Feature","geometry":{"type":"Point","coordinates":[-90.607299,33.685766]}},{"properties":{"city":"Mascotte","geo_score":0.714,"id":"aeb9e3ha99hk","geo_precision":"city","state":"FL"},"type":"Feature","geometry":{"type":"Point","coordinates":[-81.894119,28.58299]}},{"properties":{"city":"Forney","geo_score":0.714,"id":"aeb9e3dufbx8","geo_precision":"city","state":"TX"},"type":"Feature","geometry":{"type":"Point","coordinates":[-96.43554,33.253448]}},{"properties":{"city":"Florence","geo_score":0.714,"id":"aeb9e3cdehd0","geo_precision":"city","state":"KY"},"type":"Feature","geometry":{"type":"Point","coordinates":[-84.747789,38.962372]}},{"properties":{"city":"Monmouth","geo_score":0.714,"id":"aeb9e3cy6u9d","geo_precision":"city","state":"OR"},"type":"Feature","geometry":{"type":"Point","coordinates":[-123.326075,44.808768]}},{"properties":{"city":"Texarkana","geo_score":0.0,"id":"aeb9e37xmm5d","geo_precision":"unmatched","state":"TX"},"type":"Feature","geometry":null},{"properties":{"city":"Burtonsville","geo_score":0.714,"id":"aeb9e3h1ps9m","geo_precision":"city","state":"MD"},"type":"Feature","geometry":{"type":"Point","coordinates":[-77.35804,39.392603]}},{"properties":{"city":"Wesley Chapel","geo_score":0.714,"id":"aeb9e3e7bsrp","geo_precision":"city","state":"FL"},"type":"Feature","geometry":{"type":"Point","coordinates":[-85.118253,30.505195]}},{"properties":{"city":"Pasadena","geo_score":0.714,"id":"aeb9e3i5rj00","geo_precision":"city","state":"TX"},"type":"Feature","geometry":{"type":"Point","coordinates":[-95.434241,29.83399]}},{"properties":{"city":"Downers Grove","geo_score":0.714,"id":"aeb9e3gtd1ju","geo_precision":"city","state":"IL"},"type":"Feature","geometry":{"type":"Point","coordinates":[-88.012267,41.796279]}},{"properties":{"city":"Concord Township","geo_score":0.714,"id":"aeb9e3cl8hl6","geo_precision":"city","state":"OH"},"type":"Feature","geometry":{"type":"Point","coordinates":[-82.637945,40.143119]}},{"properties":{"city":"Novi","geo_score":0.714,"id":"aeb9e3fdjm2e","geo_precision":"city","state":"MI"},"type":"Feature","geometry":{"type":"Point","coordinates":[-83.522221,42.468959]}},{"properties":{"city":"Rockford","geo_score":0.0,"id":"aeb9e3b6ful5","geo_precision":"unmatched","state":"IL"},"type":"Feature","geometry":null},{"properties":{"city":"Kansas City","geo_score":0.714,"id":"aeb9e3asqwi1","geo_precision":"city","state":"KS"},"type":"Feature","geometry":{"type":"Point","coordinates":[-94.630384,39.103053]}},{"properties":{"city":"Harrisburg","geo_score":0.714,"id":"aeb9e3h8o9um","geo_precision":"city","state":"PA"},"type":"Feature","geometry":{"type":"Point","coordinates":[-76.869644,40.264589]}},{"properties":{"city":"Woodbridge","geo_score":0.714,"id":"aeb9e3dsmq4g","geo_precision":"city","state":"CT"},"type":"Feature","geometry":{"type":"Point","coordinates":[-73.013981,41.353296]}},{"properties":{"city":"Berkeley Heights","geo_score":0.714,"id":"aeb9e38kp4ot","geo_precision":"city","state":"NJ"},"type":"Feature","geometry":{"type":"Point","coordinates":[-74.182918,39.900119]}},{"properties":{"city":"McKinney","geo_score":0.714,"id":"aeb9e35wkkzv","geo_precision":"city","state":"TX"},"type":"Feature","geometry":{"type":"Point","coordinates":[-95.127718,33.088731]}},{"properties":{"city":"Tatum","geo_score":0.714,"id":"aeb9e3j8ipg3","geo_precision":"city","state":"TX"},"type":"Feature","geometry":{"type":"Point","coordinates":[-94.742539,32.301179]}},{"properties":{"city":"San Pedro","geo_score":0.714,"id":"aeb9e3fsq3eo","geo_precision":"city","state":"CA"},"type":"Feature","geometry":{"type":"Point","coordinates":[-118.253053,33.753088]}},{"properties":{"city":"Wichita Falls","geo_score":0.714,"id":"aeb9e37w5j4c","geo_precision":"city","state":"TX"},"type":"Feature","geometry":{"type":"Point","coordinates":[-97.30361,30.841022]}},{"properties":{"city":"Frisco","geo_score":0.714,"id":"aeb9e3flaikd","geo_precision":"city","state":"TX"},"type":"Feature","geometry":{"type":"Point","coordinates":[-96.542746,30.642421]}},{"properties":{"city":"N. Richland Hills","geo_score":0.714,"id":"aeb9e37npay2","geo_precision":"city","state":"TX"},"type":"Feature","geometry":{"type":"Point","coordinates":[-97.22807,32.815962]}},{"properties":{"city":"Seffner","geo_score":0.714,"id":"aeb9e3e6g0sd","geo_precision":"city","state":"FL"},"type":"Feature","geometry":{"type":"Point","coordinates":[-82.438841,27.871964]}},{"properties":{"city":"Albuquerque","geo_score":0.714,"id":"aeb9e3jmk1kd","geo_precision":"city","state":"NM"},"type":"Feature","geometry":{"type":"Point","coordinates":[-106.651137,35.084491]}},{"properties":{"city":"Odessa","geo_score":0.714,"id":"aeb9e3avscx5","geo_precision":"city","state":"TX"},"type":"Feature","geometry":{"type":"Point","coordinates":[-96.715817,31.409063]}},{"properties":{"city":"Sherman","geo_score":0.714,"id":"aeb9e34qxhzg","geo_precision":"city","state":"TX"},"type":"Feature","geometry":{"type":"Point","coordinates":[-96.659726,33.647425]}},{"properties":{"city":"Covington","geo_score":0.714,"id":"aeb9e3bz7tvh","geo_precision":"city","state":"GA"},"type":"Feature","geometry":{"type":"Point","coordinates":[-83.849622,33.529341]}},{"properties":{"city":"Redding","geo_score":0.714,"id":"aeb9e3eweqhk","geo_precision":"city","state":"PA"},"type":"Feature","geometry":{"type":"Point","coordinates":[-75.940153,40.357242]}},{"properties":{"city":"Murrieta","geo_score":0.714,"id":"aeb9e3d3j5di","geo_precision":"city","state":"CA"},"type":"Feature","geometry":{"type":"Point","coordinates":[-116.861027,33.44204]}},{"properties":{"city":"Colorado Springs","geo_score":0.714,"id":"aeb9e3kyf5y1","geo_precision":"city","state":"CO"},"type":"Feature","geometry":{"type":"Point","coordinates":[-104.857828,38.861469]}},{"properties":{"city":"Upper St. Clair","geo_score":0.714,"id":"aeb9e3ig5zkp","geo_precision":"city","state":"PA"},"type":"Feature","geometry":{"type":"Point","coordinates":[-79.778659,39.850354]}},{"properties":{"city":"Dade City","geo_score":0.714,"id":"aeb9e3cv2m3f","geo_precision":"city","state":"FL"},"type":"Feature","geometry":{"type":"Point","coordinates":[-82.322756,28.36886]}},{"properties":{"city":"Sylvania","geo_score":0.714,"id":"aeb9e39cxsow","geo_precision":"city","state":"OH"},"type":"Feature","geometry":{"type":"Point","coordinates":[-82.242915,41.028371]}},{"properties":{"city":"Jackson","geo_score":0.0,"id":"aeb9e3d7wgog","geo_precision":"unmatched","state":"SC"},"type":"Feature","geometry":null},{"properties":{"city":"Monroe","geo_score":0.714,"id":"aeb9e39tlefo","geo_precision":"city","state":"NC"},"type":"Feature","geometry":{"type":"Point","coordinates":[-80.527827,35.074176]}},{"properties":{"city":"Natchez","geo_score":0.714,"id":"aeb9e3ebk2j1","geo_precision":"city","state":"MS"},"type":"Feature","geometry":{"type":"Point","coordinates":[-91.307025,31.527752]}},{"properties":{"city":"Seaford","geo_score":0.714,"id":"aeb9e3hsa4hl","geo_precision":"city","state":"NY"},"type":"Feature","geometry":{"type":"Point","coordinates":[-73.496169,40.683897]}},{"properties":{"city":"Chatsworth","geo_score":0.714,"id":"aeb9e3c20ftb","geo_precision":"city","state":"CA"},"type":"Feature","geometry":{"type":"Point","coordinates":[-118.637033,34.240837]}},{"properties":{"city":"Scranton","geo_score":0.714,"id":"aeb9e3gl1tjs","geo_precision":"city","state":"PA"},"type":"Feature","geometry":{"type":"Point","coordinates":[-75.637626,41.401881]}},{"properties":{"city":"Tecumseh","geo_score":0.0,"id":"aeb9e3jt1m29","geo_precision":"unmatched","state":"ON"},"type":"Feature","geometry":null},{"properties":{"city":"Mount Airy","geo_score":0.714,"id":"aeb9e3ict40h","geo_precision":"city","state":"NC"},"type":"Feature","geometry":{"type":"Point","coordinates":[-80.665406,36.444303]}},{"properties":{"city":"Hallandale","geo_score":0.714,"id":"aeb9e3ig4uyr","geo_precision":"city","state":"FL"},"type":"Feature","geometry":{"type":"Point","coordinates":[-80.448254,26.145724]}},{"properties":{"city":"Crosby","geo_score":0.714,"id":"aeb9e38d3r09","geo_precision":"city","state":"TX"},"type":"Feature","geometry":{"type":"Point","coordinates":[-95.434241,29.83399]}},{"properties":{"city":"Mentor","geo_score":0.714,"id":"aeb9e3cemm7y","geo_precision":"city","state":"OH"},"type":"Feature","geometry":{"type":"Point","coordinates":[-81.328779,41.679291]}},{"properties":{"city":"Goodlettsville","geo_score":0.714,"id":"aeb9e3jmkhzp","geo_precision":"city","state":"TN"},"type":"Feature","geometry":{"type":"Point","coordinates":[-86.785248,36.186605]}},{"properties":{"city":"Brownsburg","geo_score":0.0,"id":"aeb9e3e2m1aw","geo_precision":"unmatched","state":"ID"},"type":"Feature","geometry":null},{"properties":{"city":"Lindon","geo_score":0.714,"id":"aeb9e3czp5yr","geo_precision":"city","state":"UT"},"type":"Feature","geometry":{"type":"Point","coordinates":[-111.719923,40.340251]}},{"properties":{"city":"Iowa City","geo_score":0.714,"id":"aeb9e3anmh1g","geo_precision":"city","state":"IA"},"type":"Feature","geometry":{"type":"Point","coordinates":[-92.161281,43.198027]}},{"properties":{"city":"Elyria","geo_score":0.714,"id":"aeb9e3bdtpsa","geo_precision":"city","state":"OH"},"type":"Feature","geometry":{"type":"Point","coordinates":[-82.105112,41.371396]}},{"properties":{"city":"Ridgefield","geo_score":0.714,"id":"aeb9e3ei3f6x","geo_precision":"city","state":"CT"},"type":"Feature","geometry":{"type":"Point","coordinates":[-73.494637,41.308201]}},{"properties":{"city":"Blythewood","geo_score":0.714,"id":"aeb9e34rzvo3","geo_precision":"city","state":"SC"},"type":"Feature","geometry":{"type":"Point","coordinates":[-80.918919,34.104758]}},{"properties":{"city":"Pembroke Pines","geo_score":0.714,"id":"aeb9e3jvdj9h","geo_precision":"city","state":"FL"},"type":"Feature","geometry":{"type":"Point","coordinates":[-84.386837,30.021079]}},{"properties":{"city":"Woodland Hills","geo_score":0.714,"id":"aeb9e3a6nlw0","geo_precision":"city","state":"CA"},"type":"Feature","geometry":{"type":"Point","coordinates":[-121.397892,39.08337]}},{"properties":{"city":"Melbourne","geo_score":0.714,"id":"aeb9e3izhrga","geo_precision":"city","state":"FL"},"type":"Feature","geometry":{"type":"Point","coordinates":[-80.666444,28.085294]}},{"properties":{"city":"Petersburg","geo_score":0.714,"id":"aeb9e38j5d5d","geo_precision":"city","state":"VA"},"type":"Feature","geometry":{"type":"Point","coordinates":[-77.401927,37.227928]}},{"properties":{"city":"Clearwater","geo_score":0.714,"id":"aeb9e3kric25","geo_precision":"city","state":"FL"},"type":"Feature","geometry":{"type":"Point","coordinates":[-82.781523,27.978147]}},{"properties":{"city":"Kapsowar","geo_score":0.0,"id":"aeb9e38c13b7","geo_precision":"unmatched","state":"KE"},"type":"Feature","geometry":null},{"properties":{"city":"Durham","geo_score":0.714,"id":"aeb9e37kvmm5","geo_precision":"city","state":"NC"},"type":"Feature","geometry":{"type":"Point","coordinates":[-78.906933,35.981803]}},{"properties":{"city":"Bamberg","geo_score":0.714,"id":"aeb9e3cl7iqw","geo_precision":"city","state":"SC"},"type":"Feature","geometry":{"type":"Point","coordinates":[-80.973559,33.206294]}},{"properties":{"city":"East Orange","geo_score":0.714,"id":"aeb9e37v5eco","geo_precision":"city","state":"NJ"},"type":"Feature","geometry":{"type":"Point","coordinates":[-74.207039,40.77185]}},{"properties":{"city":"Midwest City","geo_score":0.714,"id":"aeb9e3ggn7ck","geo_precision":"city","state":"OK"},"type":"Feature","geometry":{"type":"Point","coordinates":[-97.396702,35.449507]}},{"properties":{"city":"Lago Vista","geo_score":0.714,"id":"aeb9e3bercup","geo_precision":"city","state":"TX"},"type":"Feature","geometry":{"type":"Point","coordinates":[-99.686783,29.865649]}},{"properties":{"city":"Lorain","geo_score":0.714,"id":"aeb9e39natat","geo_precision":"city","state":"OH"},"type":"Feature","geometry":{"type":"Point","coordinates":[-82.166534,41.450991]}},{"properties":{"city":"Ardmore","geo_score":0.714,"id":"aeb9e3grb35o","geo_precision":"city","state":"OK"},"type":"Feature","geometry":{"type":"Point","coordinates":[-97.179214,34.156627]}},{"properties":{"city":"Adel","geo_score":0.714,"id":"aeb9e39x94xt","geo_precision":"city","state":"IA"},"type":"Feature","geometry":{"type":"Point","coordinates":[-94.034515,41.617591]}},{"properties":{"city":"Diamond Bar","geo_score":0.714,"id":"aeb9e3jc6lk5","geo_precision":"city","state":"CA"},"type":"Feature","geometry":{"type":"Point","coordinates":[-118.298662,33.786594]}},{"properties":{"city":"Muldrow","geo_score":0.714,"id":"aeb9e3b8em1s","geo_precision":"city","state":"OK"},"type":"Feature","geometry":{"type":"Point","coordinates":[-94.539715,35.470128]}},{"properties":{"city":"Granite Falls","geo_score":0.714,"id":"aeb9e3i2dz9f","geo_precision":"city","state":"NC"},"type":"Feature","geometry":{"type":"Point","coordinates":[-81.683719,36.219017]}},{"properties":{"city":"Riverdale","geo_score":0.714,"id":"aeb9e3il64t3","geo_precision":"city","state":"GA"},"type":"Feature","geometry":{"type":"Point","coordinates":[-84.397997,33.555536]}},{"properties":{"city":"Yulee","geo_score":0.714,"id":"aeb9e3cmdaqf","geo_precision":"city","state":"FL"},"type":"Feature","geometry":{"type":"Point","coordinates":[-81.590249,30.6233]}},{"properties":{"city":"Puyallup","geo_score":0.714,"id":"aeb9e3kyy4qu","geo_precision":"city","state":"WA"},"type":"Feature","geometry":{"type":"Point","coordinates":[-122.317148,47.212822]}},{"properties":{"city":"Paris","geo_score":0.714,"id":"aeb9e39vcgn7","geo_precision":"city","state":"TN"},"type":"Feature","geometry":{"type":"Point","coordinates":[-88.915061,36.470895]}},{"properties":{"city":"Hallsville","geo_score":0.714,"id":"aeb9e3781a2g","geo_precision":"city","state":"TX"},"type":"Feature","geometry":{"type":"Point","coordinates":[-94.573183,32.526928]}},{"properties":{"city":"Buffalo","geo_score":0.714,"id":"aeb9e3j5vxl5","geo_precision":"city","state":"SD"},"type":"Feature","geometry":{"type":"Point","coordinates":[-103.911719,45.576652]}},{"properties":{"city":"Jasper","geo_score":0.714,"id":"aeb9e3e4j60q","geo_precision":"city","state":"AL"},"type":"Feature","geometry":{"type":"Point","coordinates":[-87.316923,33.796234]}},{"properties":{"city":"Hammonton","geo_score":0.714,"id":"aeb9e3h06gb6","geo_precision":"city","state":"NJ"},"type":"Feature","geometry":{"type":"Point","coordinates":[-74.711081,39.563616]}},{"properties":{"city":"Edwardsville","geo_score":0.714,"id":"aeb9e363hdz8","geo_precision":"city","state":"IL"},"type":"Feature","geometry":{"type":"Point","coordinates":[-89.726242,40.836603]}},{"properties":{"city":"Princeton","geo_score":0.714,"id":"aeb9e3azov39","geo_precision":"city","state":"NJ"},"type":"Feature","geometry":{"type":"Point","coordinates":[-74.64795,40.363882]}},{"properties":{"city":"Versailles","geo_score":0.714,"id":"aeb9e38cx6m8","geo_precision":"city","state":"KY"},"type":"Feature","geometry":{"type":"Point","coordinates":[-84.737666,37.998762]}},{"properties":{"city":"New Smyrna Beach","geo_score":0.714,"id":"aeb9e36pnftq","geo_precision":"city","state":"FL"},"type":"Feature","geometry":{"type":"Point","coordinates":[-81.033705,28.951931]}},{"properties":{"city":"Greenwich","geo_score":0.714,"id":"aeb9e3b2d838","geo_precision":"city","state":"CT"},"type":"Feature","geometry":{"type":"Point","coordinates":[-73.62617,41.042746]}},{"properties":{"city":"Pearl","geo_score":0.714,"id":"aeb9e3fmcs8e","geo_precision":"city","state":"MS"},"type":"Feature","geometry":{"type":"Point","coordinates":[-90.198975,32.002099]}},{"properties":{"city":"Dayton","geo_score":0.714,"id":"aeb9e3772t84","geo_precision":"city","state":"OR"},"type":"Feature","geometry":{"type":"Point","coordinates":[-123.077797,45.187141]}},{"properties":{"city":"Woodbury","geo_score":0.714,"id":"aeb9e3kim47e","geo_precision":"city","state":"MN"},"type":"Feature","geometry":{"type":"Point","coordinates":[-92.95938,44.923855]}},{"properties":{"city":"Mishawaka","geo_score":0.714,"id":"aeb9e386n4mi","geo_precision":"city","state":"IN"},"type":"Feature","geometry":{"type":"Point","coordinates":[-86.287884,41.61536]}},{"properties":{"city":"Henryville","geo_score":0.0,"id":"aeb9e3eegwcn","geo_precision":"unmatched","state":"ID"},"type":"Feature","geometry":null},{"properties":{"city":"Live Oak","geo_score":0.714,"id":"aeb9e3awq6xa","geo_precision":"city","state":"FL"},"type":"Feature","geometry":{"type":"Point","coordinates":[-82.115648,29.252197]}},{"properties":{"city":"Los Alamitos","geo_score":0.714,"id":"aeb9e37vygik","geo_precision":"city","state":"CA"},"type":"Feature","geometry":{"type":"Point","coordinates":[-117.769442,33.640302]}},{"properties":{"city":"London","geo_score":0.0,"id":"aeb9e3ic9pqe","geo_precision":"unmatched","state":"ON"},"type":"Feature","geometry":null},{"properties":{"city":"Lantana","geo_score":0.714,"id":"aeb9e3gixsm2","geo_precision":"city","state":"TX"},"type":"Feature","geometry":{"type":"Point","coordinates":[-97.370824,29.117752]}},{"properties":{"city":"Cleveland","geo_score":0.714,"id":"aeb9e37bbpf2","geo_precision":"city","state":"TX"},"type":"Feature","geometry":{"type":"Point","coordinates":[-94.978471,30.343114]}},{"properties":{"city":"Midlothian","geo_score":0.714,"id":"aeb9e3it4yt4","geo_precision":"city","state":"IL"},"type":"Feature","geometry":{"type":"Point","coordinates":[-87.68732,41.811929]}},{"properties":{"city":"Longview","geo_score":0.714,"id":"aeb9e3eiishm","geo_precision":"city","state":"TX"},"type":"Feature","geometry":{"type":"Point","coordinates":[-94.730285,32.517846]}},{"properties":{"city":"Athens","geo_score":0.714,"id":"aeb9e3cjmg7t","geo_precision":"city","state":"TX"},"type":"Feature","geometry":{"type":"Point","coordinates":[-95.882391,32.188097]}},{"properties":{"city":"Haltom City","geo_score":0.714,"id":"aeb9e39togs7","geo_precision":"city","state":"TX"},"type":"Feature","geometry":{"type":"Point","coordinates":[-97.263393,32.801874]}},{"properties":{"city":"Dover","geo_score":0.714,"id":"aeb9e3cw4mn8","geo_precision":"city","state":"DE"},"type":"Feature","geometry":{"type":"Point","coordinates":[-75.49549,39.156376]}},{"properties":{"city":"Clemmons","geo_score":0.714,"id":"aeb9e3bkvhdg","geo_precision":"city","state":"NC"},"type":"Feature","geometry":{"type":"Point","coordinates":[-80.328298,36.081218]}},{"properties":{"city":"Tyler","geo_score":0.714,"id":"aeb9e3h6kb14","geo_precision":"city","state":"TX"},"type":"Feature","geometry":{"type":"Point","coordinates":[-97.933708,32.400038]}},{"properties":{"city":"Lombard","geo_score":0.714,"id":"aeb9e352y34o","geo_precision":"city","state":"IL"},"type":"Feature","geometry":{"type":"Point","coordinates":[-88.003864,41.869829]}},{"properties":{"city":"Whitinsville","geo_score":0.714,"id":"aeb9e3h5d3tg","geo_precision":"city","state":"MA"},"type":"Feature","geometry":{"type":"Point","coordinates":[-71.899484,42.166554]}},{"properties":{"city":"Montgomery","geo_score":0.714,"id":"aeb9e34rczir","geo_precision":"city","state":"AL"},"type":"Feature","geometry":{"type":"Point","coordinates":[-86.257817,32.356988]}},{"properties":{"city":"North Royalton","geo_score":0.714,"id":"aeb9e374o64w","geo_precision":"city","state":"OH"},"type":"Feature","geometry":{"type":"Point","coordinates":[-82.76656,39.727564]}},{"properties":{"city":"Miami Gardens","geo_score":0.714,"id":"aeb9e3kicycs","geo_precision":"city","state":"FL"},"type":"Feature","geometry":{"type":"Point","coordinates":[-81.698988,30.440794]}},{"properties":{"city":"Vienna","geo_score":0.714,"id":"aeb9e3b1prhz","geo_precision":"city","state":"VA"},"type":"Feature","geometry":{"type":"Point","coordinates":[-77.253749,38.897361]}},{"properties":{"city":"Rowlett","geo_score":0.714,"id":"aeb9e3k2ex8c","geo_precision":"city","state":"TX"},"type":"Feature","geometry":{"type":"Point","coordinates":[-96.534737,32.91747]}},{"properties":{"city":"Hilton Head Island","geo_score":0.714,"id":"aeb9e34oziyt","geo_precision":"city","state":"SC"},"type":"Feature","geometry":{"type":"Point","coordinates":[-81.306209,34.137092]}},{"properties":{"city":"Green Cove Springs","geo_score":0.714,"id":"aeb9e3eeialr","geo_precision":"city","state":"FL"},"type":"Feature","geometry":{"type":"Point","coordinates":[-84.327675,30.08076]}},{"properties":{"city":"Harker Heights","geo_score":0.714,"id":"aeb9e36pj50y","geo_precision":"city","state":"TX"},"type":"Feature","geometry":{"type":"Point","coordinates":[-97.659738,31.08351]}},{"properties":{"city":"Dayton","geo_score":0.714,"id":"aeb9e3an4skq","geo_precision":"city","state":"TX"},"type":"Feature","geometry":{"type":"Point","coordinates":[-94.80927,30.064742]}},{"properties":{"city":"Magnolia","geo_score":0.714,"id":"aeb9e35suu9w","geo_precision":"city","state":"TX"},"type":"Feature","geometry":{"type":"Point","coordinates":[-97.584441,29.708284]}},{"properties":{"city":"Port Allen","geo_score":0.714,"id":"aeb9e3dkkygz","geo_precision":"city","state":"LA"},"type":"Feature","geometry":{"type":"Point","coordinates":[-91.309262,30.494882]}},{"properties":{"city":"Jackson","geo_score":0.0,"id":"aeb9e3dp9tka","geo_precision":"unmatched","state":"GA"},"type":"Feature","geometry":null},{"properties":{"city":"Leesburg","geo_score":0.714,"id":"aeb9e3fz7o3f","geo_precision":"city","state":"FL"},"type":"Feature","geometry":{"type":"Point","coordinates":[-81.888695,28.758895]}},{"properties":{"city":"Hinsdale","geo_score":0.714,"id":"aeb9e34p1kir","geo_precision":"city","state":"IL"},"type":"Feature","geometry":{"type":"Point","coordinates":[-87.966845,41.78213]}},{"properties":{"city":"Opelika","geo_score":0.714,"id":"aeb9e3j3wafz","geo_precision":"city","state":"AL"},"type":"Feature","geometry":{"type":"Point","coordinates":[-85.392878,32.621147]}},{"properties":{"city":"Scarsdale","geo_score":0.714,"id":"aeb9e3alkejx","geo_precision":"city","state":"NY"},"type":"Feature","geometry":{"type":"Point","coordinates":[-73.793188,40.983431]}},{"properties":{"city":"Pinewood","geo_score":0.714,"id":"aeb9e37y44vf","geo_precision":"city","state":"SC"},"type":"Feature","geometry":{"type":"Point","coordinates":[-80.457854,33.756082]}},{"properties":{"city":"Milton","geo_score":0.714,"id":"aeb9e3ejw4pk","geo_precision":"city","state":"FL"},"type":"Feature","geometry":{"type":"Point","coordinates":[-85.29714,29.832708]}},{"properties":{"city":"Williston","geo_score":0.714,"id":"aeb9e39c0rin","geo_precision":"city","state":"SC"},"type":"Feature","geometry":{"type":"Point","coordinates":[-81.376276,33.302264]}},{"properties":{"city":"Evansville","geo_score":0.0,"id":"aeb9e3dfqc4t","geo_precision":"unmatched","state":"ID"},"type":"Feature","geometry":null},{"properties":{"city":"Clayton","geo_score":0.714,"id":"aeb9e3imzuv7","geo_precision":"city","state":"OH"},"type":"Feature","geometry":{"type":"Point","coordinates":[-83.675475,38.743684]}},{"properties":{"city":"Soddy-Daisy","geo_score":0.714,"id":"aeb9e3agwr1c","geo_precision":"city","state":"TN"},"type":"Feature","geometry":{"type":"Point","coordinates":[-85.198979,35.211052]}},{"properties":{"city":"La Vernia","geo_score":0.714,"id":"aeb9e3c5iyrp","geo_precision":"city","state":"TX"},"type":"Feature","geometry":{"type":"Point","coordinates":[-96.43554,33.253448]}},{"properties":{"city":"Waxhaw","geo_score":0.0,"id":"aeb9e3624e54","geo_precision":"unmatched","state":"NC"},"type":"Feature","geometry":null},{"properties":{"city":"Lake in the Hills","geo_score":0.714,"id":"aeb9e3his41u","geo_precision":"city","state":"IL"},"type":"Feature","geometry":{"type":"Point","coordinates":[-88.819501,38.155485]}},{"properties":{"city":"Cordova","geo_score":0.714,"id":"aeb9e39f0dy2","geo_precision":"city","state":"TN"},"type":"Feature","geometry":{"type":"Point","coordinates":[-89.900314,35.104589]}},{"properties":{"city":"Port St. Joe","geo_score":0.714,"id":"aeb9e3iaence","geo_precision":"city","state":"FL"},"type":"Feature","geometry":{"type":"Point","coordinates":[-87.102495,30.88276]}},{"properties":{"city":"Hamilton","geo_score":0.714,"id":"aeb9e3kigumd","geo_precision":"city","state":"NJ"},"type":"Feature","geometry":{"type":"Point","coordinates":[-74.081251,40.207057]}},{"properties":{"city":"Goochland","geo_score":0.714,"id":"aeb9e3j8vau5","geo_precision":"city","state":"VA"},"type":"Feature","geometry":{"type":"Point","coordinates":[-77.995,37.725416]}},{"properties":{"city":"Rockford","geo_score":0.0,"id":"aeb9e3avj0g8","geo_precision":"unmatched","state":"MI"},"type":"Feature","geometry":null},{"properties":{"city":"Colleyville","geo_score":0.714,"id":"aeb9e3636kkp","geo_precision":"city","state":"TX"},"type":"Feature","geometry":{"type":"Point","coordinates":[-94.409362,32.779306]}},{"properties":{"city":"Duncanville","geo_score":0.714,"id":"aeb9e39gd9ah","geo_precision":"city","state":"TX"},"type":"Feature","geometry":{"type":"Point","coordinates":[-96.777626,32.767268]}},{"properties":{"city":"Blairsville","geo_score":0.714,"id":"aeb9e3a2a0rq","geo_precision":"city","state":"GA"},"type":"Feature","geometry":{"type":"Point","coordinates":[-83.967636,34.867512]}},{"properties":{"city":"Plattsmouth","geo_score":0.714,"id":"aeb9e3jodyv7","geo_precision":"city","state":"NE"},"type":"Feature","geometry":{"type":"Point","coordinates":[-96.001244,40.971961]}},{"properties":{"city":"Covington","geo_score":0.714,"id":"aeb9e3h5rdf1","geo_precision":"city","state":"KY"},"type":"Feature","geometry":{"type":"Point","coordinates":[-84.542748,39.05906]}},{"properties":{"city":"Whitehouse","geo_score":0.714,"id":"aeb9e37bccv4","geo_precision":"city","state":"TX"},"type":"Feature","geometry":{"type":"Point","coordinates":[-95.217652,32.219518]}}],"is_temporal":false,"author":{"url":"","metadata":"","contact_name":"","contact_address":"","source":"","contact_phone":""},"source":"","pagination":{"sort":null,"start":0,"total":397,"limit":1000000},"state":"complete","tags":"","published":"2014-08-16T22:48:51-04:00","id":357017}