{"type":"FeatureCollection","data_type":"Dataset","url_type":null,"permissions":[{"permissions":{"download":true,"view":true},"group_id":"everyone"}],"classification":null,"title":"Copy of Open Stores for Christine 5142103","count":616,"stream_id":357070,"contributor":{"url":"http://geocommons.com/users/71562","name":"csuch"},"data_attributes":null,"calculation_params":null,"icon_link":null,"link":"http://geocommons.com/overlays/357070.json","extent":[-122.798,26.3305,-71.0828,48.1524],"geometry_types":["point"],"unique_name":null,"name":"Copy of Open Stores for Christine 5142103","feature_count":616,"description":"","next_feature":null,"is_raster":false,"short_classification":"Y","stats":{},"features":[{"properties":{"city":"Stoney Creek","zip":"27377","store no-":"3087","last name":"Avent","geo_score":0.663,"address 1":"6307-L Burlington Rd","id":"aebczvqr4mp3","geo_precision":"street","state":"NC"},"type":"Feature","geometry":{"type":"Point","coordinates":[-79.608897,36.063094]}},{"properties":{"city":"Tarzana","zip":"91356","store no-":"20019","last name":"Bengston","geo_score":1.0,"address 1":"19458 Ventura Blvd.","id":"aebczvt3k1i8","geo_precision":"range","state":"CA"},"type":"Feature","geometry":{"type":"Point","coordinates":[-118.557744,34.172687]}},{"properties":{"city":"Kingsport","zip":"37664","store no-":"4001A","last name":"Bewley","geo_score":0.571,"address 1":"1127 B - N. Eastman Road","id":"aebczvpvgb3e","geo_precision":"street","state":"TN"},"type":"Feature","geometry":{"type":"Point","coordinates":[-82.538266,36.527188]}},{"properties":{"city":"Cornelius","zip":"28031","store no-":"3081B","last name":"Blake-Ward","geo_score":1.0,"address 1":"20619 Torrence Chapel Road","id":"aebczw24fvaa","geo_precision":"range","state":"NC"},"type":"Feature","geometry":{"type":"Point","coordinates":[-80.877935,35.483691]}},{"properties":{"city":"Charlotte","zip":"28210","store no-":"3018B","last name":"Blake-Ward","geo_score":1.0,"address 1":"10110 Johnston Road","id":"aebczw0zlvwp","geo_precision":"range","state":"NC"},"type":"Feature","geometry":{"type":"Point","coordinates":[-80.858353,35.094125]}},{"properties":{"city":"Boca Raton","zip":"33433","store no-":"13025","last name":"Brodsky","geo_score":1.0,"address 1":"7050 West Palmetto Park Road","id":"aebczvutaspr","geo_precision":"range","state":"FL"},"type":"Feature","geometry":{"type":"Point","coordinates":[-80.154422,26.350248]}},{"properties":{"city":"Charleston","zip":"29412","store no-":"7038","last name":"Brooks","geo_score":1.0,"address 1":"520 Folly Road","id":"aebczvmf63sv","geo_precision":"range","state":"SC"},"type":"Feature","geometry":{"type":"Point","coordinates":[-79.972333,32.754407]}},{"properties":{"city":"Charleston","zip":"29407","store no-":"7013D","last name":"Brooks","geo_score":1.0,"address 1":"65A Sycamore Avenue","id":"aebczvwcbz53","geo_precision":"range","state":"SC"},"type":"Feature","geometry":{"type":"Point","coordinates":[-79.990799,32.788842]}},{"properties":{"city":"Charles Town","zip":"25414","store no-":"26001","last name":"Comer","geo_score":0.672,"address 1":"71-C Jefferson Crossing Way","id":"aebczw2pyc4m","geo_precision":"street","state":"WV"},"type":"Feature","geometry":{"type":"Point","coordinates":[-77.888297,39.329325]}},{"properties":{"city":"Cincinnati","zip":"45236","store no-":"2038","last name":"Copeland","geo_score":1.0,"address 1":"7346 Kenwood Rd.","id":"aebczvwbjstm","geo_precision":"range","state":"OH"},"type":"Feature","geometry":{"type":"Point","coordinates":[-84.380475,39.197192]}},{"properties":{"city":"Asheville","zip":"28806","store no-":"3117","last name":"Dillingham","geo_score":0.537,"address 1":"1341 Parkwood Road","id":"aebczvvhqsmy","geo_precision":"street","state":"NC"},"type":"Feature","geometry":{"type":"Point","coordinates":[-82.584617,35.636026]}},{"properties":{"city":"Asheville","zip":"28803","store no-":"3113","last name":"Dillingham","geo_score":1.0,"address 1":"1550 Hendersonville Road","id":"aebczvn6ljtf","geo_precision":"range","state":"NC"},"type":"Feature","geometry":{"type":"Point","coordinates":[-82.527521,35.514884]}},{"properties":{"city":"Canton","zip":"30114","store no-":"5040A","last name":"Gallimore","geo_score":0.809,"address 1":"149 Reinhardt College Pkwy.","id":"aebczvyjrobh","geo_precision":"street","state":"GA"},"type":"Feature","geometry":{"type":"Point","coordinates":[-84.480955,34.256693]}},{"properties":{"city":"Ft. Myers","zip":"33912","store no-":"13024","last name":"Glynn","geo_score":0.641,"address 1":"6810 Shoppes at Plantation Drive","id":"aebczvwl29nf","geo_precision":"street","state":"FL"},"type":"Feature","geometry":{"type":"Point","coordinates":[-81.811096,26.488018]}},{"properties":{"city":"Westfield","zip":"7090","store no-":"1025","last name":"Greco","geo_score":0.614,"address 1":"144 E. Broad Street","id":"aebczw024iy8","geo_precision":"street","state":"NJ"},"type":"Feature","geometry":{"type":"Point","coordinates":[-74.35009,40.649868]}},{"properties":{"city":"Parsippany","zip":"7054","store no-":"1030","last name":"Hankinson","geo_score":1.0,"address 1":"317 Smith Rd.","id":"aebczw1zcd85","geo_precision":"range","state":"NJ"},"type":"Feature","geometry":{"type":"Point","coordinates":[-74.41116,40.857593]}},{"properties":{"city":"Sumter","zip":"29150","store no-":"7015","last name":"Hanrahan","geo_score":1.0,"address 1":"1222 Alice Drive","id":"aebczvpeggk0","geo_precision":"range","state":"SC"},"type":"Feature","geometry":{"type":"Point","coordinates":[-80.387372,33.951695]}},{"properties":{"city":"Austin","zip":"78749","store no-":"15010","last name":"Hernandez","geo_score":0.594,"address 1":"4404 W. William Cannon","id":"aebczvq76cs4","geo_precision":"street","state":"TX"},"type":"Feature","geometry":{"type":"Point","coordinates":[-97.836954,30.220663]}},{"properties":{"city":"Jamestown","zip":"27282","store no-":"3014B","last name":"Jhingree","geo_score":0.602,"address 1":"4835 W. Wendover Ave.","id":"aebczvzyinb9","geo_precision":"street","state":"NC"},"type":"Feature","geometry":{"type":"Point","coordinates":[-79.919641,36.048656]}},{"properties":{"city":"Irmo","zip":"29063","store no-":"7027","last name":"Johnson","geo_score":0.958,"address 1":"7241 Broad River Road","id":"aebczvsmd4f1","geo_precision":"range","state":"SC"},"type":"Feature","geometry":{"type":"Point","coordinates":[-81.157508,34.094705]}},{"properties":{"city":"Columbia","zip":"29212","store no-":"7042","last name":"Johnson","geo_score":0.364,"address 1":"7001 St. Andrews Road","id":"aebczvtcot1w","geo_precision":"street","state":"SC"},"type":"Feature","geometry":{"type":"Point","coordinates":[-81.033461,34.047616]}},{"properties":{"city":"Madison","zip":"37115","store no-":"4028A","last name":"Kellum","geo_score":1.0,"address 1":"1706 Gallatin Pike N.","id":"aebczw26qsq5","geo_precision":"range","state":"TN"},"type":"Feature","geometry":{"type":"Point","coordinates":[-86.700617,36.294915]}},{"properties":{"city":"Bakersfield","zip":"93308","store no-":"20032","last name":"Knight","geo_score":1.0,"address 1":"4715 Coffee Road","id":"aebczw04pt5i","geo_precision":"range","state":"CA"},"type":"Feature","geometry":{"type":"Point","coordinates":[-119.092146,35.399962]}},{"properties":{"city":"Bakersfield","zip":"93309","store no-":"20059","last name":"Knight","geo_score":0.585,"address 1":"5120 Stockdale Highway","id":"aebczvsp904o","geo_precision":"zip","state":"CA"},"type":"Feature","geometry":{"type":"Point","coordinates":[-118.905173,35.294405]}},{"properties":{"city":"Peachtree City","zip":"30269","store no-":"5029","last name":"Kuhns","geo_score":0.756,"address 1":"2729 Highway 54 West","id":"aebczvmlocqp","geo_precision":"range","state":"GA"},"type":"Feature","geometry":{"type":"Point","coordinates":[-84.594783,33.396804]}},{"properties":{"city":"Newnan","zip":"30265","store no-":"5013A","last name":"Kuhns","geo_score":0.725,"address 1":"90 Glenda Trace","id":"aebczw1x8l6n","geo_precision":"range","state":"GA"},"type":"Feature","geometry":{"type":"Point","coordinates":[-85.019392,33.070412]}},{"properties":{"city":"Las Vegas","zip":"89146","store no-":"17006B","last name":"Mapes","geo_score":0.602,"address 1":"1772 S. Rainbow Blvd.","id":"aebczvrnpd3g","geo_precision":"street","state":"NV"},"type":"Feature","geometry":{"type":"Point","coordinates":[-115.243707,36.159127]}},{"properties":{"city":"Cincinnati","zip":"45247","store no-":"2045A","last name":"Morganroth","geo_score":1.0,"address 1":"5624 Cheviot Road","id":"aebczvvp5zuh","geo_precision":"range","state":"OH"},"type":"Feature","geometry":{"type":"Point","coordinates":[-84.599057,39.192128]}},{"properties":{"city":"Wexford","zip":"15090","store no-":"8004A","last name":"Osselborn","geo_score":1.0,"address 1":"10640 Perry Highway","id":"aebczvnm6rzj","geo_precision":"range","state":"PA"},"type":"Feature","geometry":{"type":"Point","coordinates":[-80.055007,40.619745]}},{"properties":{"city":"Leland","zip":"28451","store no-":"3129","last name":"Owens","geo_score":0.454,"address 1":"2029 Olde Regent Way","id":"aebczvzm1myf","geo_precision":"street","state":"NC"},"type":"Feature","geometry":{"type":"Point","coordinates":[-77.914536,34.166433]}},{"properties":{"city":"Bonney Lake","zip":"98391","store no-":"18007","last name":"Patrick","geo_score":0.548,"address 1":"21180 SR 410 East","id":"aebczvwvt7f7","geo_precision":"street","state":"WA"},"type":"Feature","geometry":{"type":"Point","coordinates":[-122.197728,47.183493]}},{"properties":{"city":"Hendersonville","zip":"37075","store no-":"4015","last name":"Powers","geo_score":1.0,"address 1":"247 West Main Street","id":"aebczvtmr70n","geo_precision":"range","state":"TN"},"type":"Feature","geometry":{"type":"Point","coordinates":[-86.618248,36.305096]}},{"properties":{"city":"Elk Grove Village","zip":"60007","store no-":"27030","last name":"Punukollu","geo_score":1.0,"address 1":"178 Biesterfield Road","id":"aebczvsrtbk1","geo_precision":"range","state":"IL"},"type":"Feature","geometry":{"type":"Point","coordinates":[-88.007434,42.003616]}},{"properties":{"city":"Okatie","zip":"29909","store no-":"7024A","last name":"Raval","geo_score":0.47,"address 1":"101-F Commerce Place West","id":"aebczvrszxpa","geo_precision":"street","state":"SC"},"type":"Feature","geometry":{"type":"Point","coordinates":[-80.625421,32.403464]}},{"properties":{"city":"Cookeville","zip":"38501","store no-":"4026","last name":"Richards","geo_score":1.0,"address 1":"447 South Jefferson Ave.","id":"aebczvxcsicl","geo_precision":"range","state":"TN"},"type":"Feature","geometry":{"type":"Point","coordinates":[-85.500589,36.153772]}},{"properties":{"city":"Conway","zip":"29526","store no-":"7031","last name":"Satterfield","geo_score":1.0,"address 1":"2676 Church Street","id":"aebczvtr2z1k","geo_precision":"range","state":"SC"},"type":"Feature","geometry":{"type":"Point","coordinates":[-79.086111,33.858287]}},{"properties":{"city":"Greenville","zip":"27834","store no-":"3124","last name":"Shepherd","geo_score":0.602,"address 1":"1908 E. Firetower Road","id":"aebczvz23ytq","geo_precision":"street","state":"NC"},"type":"Feature","geometry":{"type":"Point","coordinates":[-77.384588,35.551672]}},{"properties":{"city":"Silverton","zip":"8753","store no-":"1018B","last name":"Smith","geo_score":1.0,"address 1":"1840 Hooper Avenue","id":"aebczvvoyka3","geo_precision":"range","state":"NJ"},"type":"Feature","geometry":{"type":"Point","coordinates":[-74.146566,40.012646]}},{"properties":{"city":"Colonial Heights","zip":"23834","store no-":"6005","last name":"Waldrop","geo_score":0.837,"address 1":"2011 Boulevard","id":"aebczw0faxwp","geo_precision":"range","state":"VA"},"type":"Feature","geometry":{"type":"Point","coordinates":[-77.411374,37.258942]}},{"properties":{"city":"Chesterfield","zip":"23832","store no-":"6020","last name":"Waldrop","geo_score":0.585,"address 1":"7317 Hancock Village Drive","id":"aebczvxqgzzb","geo_precision":"zip","state":"VA"},"type":"Feature","geometry":{"type":"Point","coordinates":[-77.528876,37.430982]}},{"properties":{"city":"Richmond","zip":"23235","store no-":"6001","last name":"Waldrop","geo_score":1.0,"address 1":"2709 Buford Road","id":"aebczw1hye5g","geo_precision":"range","state":"VA"},"type":"Feature","geometry":{"type":"Point","coordinates":[-77.561452,37.535105]}},{"properties":{"city":"Mechanicsville","zip":"23111","store no-":"6017","last name":"Waldrop","geo_score":1.0,"address 1":"7262 Mechanicsville Turnpike","id":"aebczvndsu1c","geo_precision":"range","state":"VA"},"type":"Feature","geometry":{"type":"Point","coordinates":[-77.353725,37.610324]}},{"properties":{"city":"Southlake","zip":"76092","store no-":"15011","last name":"Wegner","geo_score":1.0,"address 1":"410 West Southlake Blvd.","id":"aebczvmxb7kn","geo_precision":"range","state":"TX"},"type":"Feature","geometry":{"type":"Point","coordinates":[-97.155756,32.941138]}},{"properties":{"city":"Columbia","zip":"29209","store no-":"7003","last name":"Wells","geo_score":0.675,"address 1":"4717 Devine Street","id":"aebczvszvziq","geo_precision":"street","state":"SC"},"type":"Feature","geometry":{"type":"Point","coordinates":[-80.961167,33.961318]}},{"properties":{"city":"Gastonia","zip":"28054","store no-":"3057","last name":"Werner","geo_score":0.808,"address 1":"3754 East Franklin Blvd.","id":"aebczvouv6b4","geo_precision":"street","state":"NC"},"type":"Feature","geometry":{"type":"Point","coordinates":[-81.113886,35.257548]}},{"properties":{"city":"Monroe","zip":"30655","store no-":"5034","last name":"White","geo_score":0.683,"address 1":"2120 West Spring St.","id":"aebczvyo7u87","geo_precision":"street","state":"GA"},"type":"Feature","geometry":{"type":"Point","coordinates":[-83.737235,33.791637]}},{"properties":{"city":"Plano","zip":"75024","store no-":"15016","last name":"Zeigler","geo_score":0.805,"address 1":"8100 Dallas Pkwy","id":"aebczw0if3sk","geo_precision":"street","state":"TX"},"type":"Feature","geometry":{"type":"Point","coordinates":[-96.823965,33.077573]}},{"properties":{"city":"Fort Collins","zip":"80528","store no-":"22007","last name":"Ricketts","geo_score":0.669,"address 1":"4709 S Timberline Road","id":"aebczvn9ynhj","geo_precision":"street","state":"CO"},"type":"Feature","geometry":{"type":"Point","coordinates":[-105.039301,40.511243]}},{"properties":{"city":"Altus","zip":"73521","store no-":"23018","last name":"Muldowney","geo_score":0.633,"address 1":"2221 N. Main Street","id":"aebczvzdirtr","geo_precision":"street","state":"OK"},"type":"Feature","geometry":{"type":"Point","coordinates":[-99.331724,34.780508]}},{"properties":{"city":"Lawton","zip":"73505","store no-":"23013","last name":"Muldowney","geo_score":0.922,"address 1":"2504-A  NW Cache Road","id":"aebczvp88fbb","geo_precision":"range","state":"OK"},"type":"Feature","geometry":{"type":"Point","coordinates":[-98.429513,34.623334]}},{"properties":{"city":"Northridge","zip":"91324","store no-":"20026","last name":"Weintraub","geo_score":0.955,"address 1":"19350 C Nordhoff St.","id":"aebczvuy43k2","geo_precision":"range","state":"CA"},"type":"Feature","geometry":{"type":"Point","coordinates":[-118.553891,34.235407]}},{"properties":{"city":"West Hollywood","zip":"90046","store no-":"20041","last name":"Weintraub","geo_score":0.916,"address 1":"7100 Santa Monica Blvd.","id":"aebczw2in35o","geo_precision":"range","state":"CA"},"type":"Feature","geometry":{"type":"Point","coordinates":[-118.345145,34.090699]}},{"properties":{"city":"Heath","zip":"43056","store no-":"2020","last name":"Neu","geo_score":1.0,"address 1":"609 Hebron Road","id":"aebczvvy7w9p","geo_precision":"range","state":"OH"},"type":"Feature","geometry":{"type":"Point","coordinates":[-82.431492,40.036281]}},{"properties":{"city":"Orange","zip":"92867","store no-":"20054","last name":"Castaneda","geo_score":0.604,"address 1":"1545 E. Katella Ave.","id":"aebczvt7tpyl","geo_precision":"street","state":"CA"},"type":"Feature","geometry":{"type":"Point","coordinates":[-117.855897,33.809052]}},{"properties":{"city":"Laguna Woods","zip":"92637","store no-":"20022","last name":"Castaneda","geo_score":0.892,"address 1":"24365-A El Toro Road","id":"aebczvy4kz78","geo_precision":"range","state":"CA"},"type":"Feature","geometry":{"type":"Point","coordinates":[-117.727153,33.609363]}},{"properties":{"city":"Jacksonville","zip":"28546","store no-":"3034","last name":"Duran","geo_score":1.0,"address 1":"301 Western Boulevard","id":"aebczvygfzpy","geo_precision":"range","state":"NC"},"type":"Feature","geometry":{"type":"Point","coordinates":[-77.382194,34.760498]}},{"properties":{"city":"Chicago","zip":"60611","store no-":"27028","last name":"Herter","geo_score":0.619,"address 1":"203 E. Ohio Street","id":"aebczvndgd8m","geo_precision":"street","state":"IL"},"type":"Feature","geometry":{"type":"Point","coordinates":[-87.626747,41.892496]}},{"properties":{"city":"Greensboro","zip":"27408","store no-":"3052B","last name":"Jhingree","geo_score":0.759,"address 1":"2939-B Battleground Avenue","id":"aebczvnh0sgx","geo_precision":"street","state":"NC"},"type":"Feature","geometry":{"type":"Point","coordinates":[-79.81563,36.094429]}},{"properties":{"city":"Greensboro","zip":"27408","store no-":"3025A","last name":"Jhingree","geo_score":1.0,"address 1":"2104 Georgia Street","id":"aebczvodzf9q","geo_precision":"range","state":"NC"},"type":"Feature","geometry":{"type":"Point","coordinates":[-79.786693,36.10263]}},{"properties":{"city":"Chesapeake","zip":"23320","store no-":"6023","last name":"Anderson","geo_score":1.0,"address 1":"733 Eden Way North","id":"aebczw25krdc","geo_precision":"range","state":"VA"},"type":"Feature","geometry":{"type":"Point","coordinates":[-76.240732,36.772221]}},{"properties":{"city":"Norfolk","zip":"23502","store no-":"6022","last name":"Anderson","geo_score":0.602,"address 1":"1211 N. Military Highway","id":"aebczvnt3k5u","geo_precision":"street","state":"VA"},"type":"Feature","geometry":{"type":"Point","coordinates":[-76.210047,36.845737]}},{"properties":{"city":"Virginia Beach","zip":"23452","store no-":"6019","last name":"Anderson","geo_score":1.0,"address 1":"4224 Virginia Beach Blvd.","id":"aebczvwyht50","geo_precision":"range","state":"VA"},"type":"Feature","geometry":{"type":"Point","coordinates":[-76.120952,36.843444]}},{"properties":{"city":"Norfolk","zip":"23517","store no-":"6024","last name":"Anderson","geo_score":0.935,"address 1":"520 West 21st Street","id":"aebczvmapn8t","geo_precision":"range","state":"VA"},"type":"Feature","geometry":{"type":"Point","coordinates":[-76.292918,36.869502]}},{"properties":{"city":"Virginia Beach","zip":"23455","store no-":"6025","last name":"Anderson","geo_score":1.0,"address 1":"5832 Northampton Blvd.","id":"aebczvzdwiyu","geo_precision":"range","state":"VA"},"type":"Feature","geometry":{"type":"Point","coordinates":[-76.187703,36.880825]}},{"properties":{"city":"Virginia Beach","zip":"23455","store no-":"6031","last name":"Anderson","geo_score":1.0,"address 1":"1047 Independence Blvd.","id":"aebczvph1x6j","geo_precision":"range","state":"VA"},"type":"Feature","geometry":{"type":"Point","coordinates":[-76.134594,36.875378]}},{"properties":{"city":"Brick","zip":"8723","store no-":"1029","last name":"Helm","geo_score":0.829,"address 1":"56 Chambers Bridge Road","id":"aebczvqfyzob","geo_precision":"range","state":"NJ"},"type":"Feature","geometry":{"type":"Point","coordinates":[-74.139226,40.059342]}},{"properties":{"city":"Brick","zip":"8723","store no-":"1026","last name":"Helm","geo_score":1.0,"address 1":"602 Mantoloking Road","id":"aebczvuolp8v","geo_precision":"range","state":"NJ"},"type":"Feature","geometry":{"type":"Point","coordinates":[-74.111453,40.046448]}},{"properties":{"city":"Huntsville","zip":"35806","store no-":"12003A","last name":"Chappell","geo_score":0.945,"address 1":"6290 University Dr.","id":"aebczvptqxih","geo_precision":"range","state":"AL"},"type":"Feature","geometry":{"type":"Point","coordinates":[-86.683881,34.746051]}},{"properties":{"city":"Nashville","zip":"37217","store no-":"4009A","last name":"McDonald","geo_score":1.0,"address 1":"2280 Murfreesboro Pike","id":"aebczvvyuaj7","geo_precision":"range","state":"TN"},"type":"Feature","geometry":{"type":"Point","coordinates":[-86.649583,36.088642]}},{"properties":{"city":"Nashville","zip":"37211","store no-":"4025A","last name":"McDonald","geo_score":0.585,"address 1":"5527 Edmonson Pike","id":"aebczvv67ymb","geo_precision":"zip","state":"TN"},"type":"Feature","geometry":{"type":"Point","coordinates":[-82.758763,36.175103]}},{"properties":{"city":"Brentwood","zip":"37027","store no-":"4018B","last name":"McDonald","geo_score":1.0,"address 1":"214 Ward Circle","id":"aebczvykwgc0","geo_precision":"range","state":"TN"},"type":"Feature","geometry":{"type":"Point","coordinates":[-86.802343,36.031863]}},{"properties":{"city":"Nashville","zip":"37203","store no-":"4004B","last name":"McDonald","geo_score":1.0,"address 1":"2311 Elliston Place","id":"aebczvqq5git","geo_precision":"range","state":"TN"},"type":"Feature","geometry":{"type":"Point","coordinates":[-86.806867,36.148797]}},{"properties":{"city":"Smyrna","zip":"37167","store no-":"4036","last name":"McDonald","geo_score":1.0,"address 1":"479 Sam Ridley Parkway West","id":"aebczw2hrkky","geo_precision":"range","state":"TN"},"type":"Feature","geometry":{"type":"Point","coordinates":[-86.53251,35.996027]}},{"properties":{"city":"Franklin","zip":"37064","store no-":"4003B","last name":"McDonald","geo_score":1.0,"address 1":"1010 Murfreesboro Rd.","id":"aebczvsr2euh","geo_precision":"range","state":"TN"},"type":"Feature","geometry":{"type":"Point","coordinates":[-86.838871,35.916427]}},{"properties":{"city":"Bayville","zip":"8721","store no-":"1031A","last name":"Hurley","geo_score":1.0,"address 1":"333 Atlantic City Blvd","id":"aebczw2kj1s6","geo_precision":"range","state":"NJ"},"type":"Feature","geometry":{"type":"Point","coordinates":[-74.160763,39.91991]}},{"properties":{"city":"Manasquan","zip":"8736","store no-":"1011A","last name":"Davenport","geo_score":0.78,"address 1":"2627 Highway 70","id":"aebczvy1wgvp","geo_precision":"range","state":"NJ"},"type":"Feature","geometry":{"type":"Point","coordinates":[-74.074602,40.111448]}},{"properties":{"city":"Mukilteo","zip":"98275","store no-":"18005","last name":"Berry","geo_score":1.0,"address 1":"11815 Mukilteo Speedway","id":"aebczvsxprqy","geo_precision":"range","state":"WA"},"type":"Feature","geometry":{"type":"Point","coordinates":[-122.288276,47.894901]}},{"properties":{"city":"Redmond","zip":"98052","store no-":"18002A","last name":"Berry","geo_score":0.752,"address 1":"15230 NE 24th Street","id":"aebczw2se5w6","geo_precision":"street","state":"WA"},"type":"Feature","geometry":{"type":"Point","coordinates":[-122.139364,47.631527]}},{"properties":{"city":"Shoreline","zip":"98133","store no-":"18004B","last name":"Berry","geo_score":0.614,"address 1":"1289 N. 205th St.","id":"aebczvtavb5e","geo_precision":"street","state":"WA"},"type":"Feature","geometry":{"type":"Point","coordinates":[-122.356209,47.777766]}},{"properties":{"city":"Beaufort","zip":"29906","store no-":"7032A","last name":"Bohnsack","geo_score":1.0,"address 1":"272 Robert Smalls Pkwy","id":"aebczvzcra4c","geo_precision":"range","state":"SC"},"type":"Feature","geometry":{"type":"Point","coordinates":[-80.72547,32.427008]}},{"properties":{"city":"Raleigh","zip":"27604","store no-":"3001A","last name":"Patel","geo_score":0.806,"address 1":"4542 Capital Boulevard","id":"aebczvzkrj4u","geo_precision":"street","state":"NC"},"type":"Feature","geometry":{"type":"Point","coordinates":[-78.580946,35.837251]}},{"properties":{"city":"Tampa","zip":"33629","store no-":"13062","last name":"Quinzi","geo_score":0.598,"address 1":"1155 S. Dale Mabry Hwy","id":"aebczvuqnw7v","geo_precision":"street","state":"FL"},"type":"Feature","geometry":{"type":"Point","coordinates":[-82.505819,27.932928]}},{"properties":{"city":"Niles","zip":"60714","store no-":"27011B","last name":"Sagerstrom","geo_score":0.619,"address 1":"8484 W. Golf Rd","id":"aebczvo762ik","geo_precision":"street","state":"IL"},"type":"Feature","geometry":{"type":"Point","coordinates":[-87.828655,42.054807]}},{"properties":{"city":"Murrells Inlet","zip":"29576","store no-":"7025","last name":"Harrison","geo_score":0.61,"address 1":"4390 Hwy. 17 Bypass","id":"aebczvmlt73q","geo_precision":"street","state":"SC"},"type":"Feature","geometry":{"type":"Point","coordinates":[-79.065629,33.524611]}},{"properties":{"city":"Ashland","zip":"23005","store no-":"6003","last name":"Wilson","geo_score":1.0,"address 1":"708 England Street","id":"aebczvtxo1o6","geo_precision":"range","state":"VA"},"type":"Feature","geometry":{"type":"Point","coordinates":[-77.46976,37.758541]}},{"properties":{"city":"Ashland","zip":"23005","store no-":"6006","last name":"Wilson","geo_score":0.692,"address 1":"10180 Lakeridge Pkwy","id":"aebczw0lxr1q","geo_precision":"street","state":"VA"},"type":"Feature","geometry":{"type":"Point","coordinates":[-77.45589,37.682783]}},{"properties":{"city":"Durham","zip":"27703","store no-":"3098B","last name":"Johnson","geo_score":1.0,"address 1":"2945 South Miami Blvd","id":"aebczvs3vvo0","geo_precision":"range","state":"NC"},"type":"Feature","geometry":{"type":"Point","coordinates":[-78.845794,35.925717]}},{"properties":{"city":"Los Angeles","zip":"90049","store no-":"20069","last name":"Gregory","geo_score":0.805,"address 1":"12003 Wilshire Boulevard","id":"aebczvsjmhrc","geo_precision":"range","state":"CA"},"type":"Feature","geometry":{"type":"Point","coordinates":[-118.467501,34.044178]}},{"properties":{"city":"Pensacola","zip":"32504","store no-":"13004","last name":"Scherl","geo_score":1.0,"address 1":"1620 Airport Blvd","id":"aebczvqnm555","geo_precision":"range","state":"FL"},"type":"Feature","geometry":{"type":"Point","coordinates":[-87.208508,30.480594]}},{"properties":{"city":"Hopkinsville","zip":"42240","store no-":"10010","last name":"Horn","geo_score":0.694,"address 1":"2413 Ft. Campbell Blvd.","id":"aebczvt3es6w","geo_precision":"street","state":"KY"},"type":"Feature","geometry":{"type":"Point","coordinates":[-87.432673,36.817464]}},{"properties":{"city":"Clarksville","zip":"37043","store no-":"4012","last name":"Horn","geo_score":0.951,"address 1":"1960 L Madison Street","id":"aebczvnq6exv","geo_precision":"range","state":"TN"},"type":"Feature","geometry":{"type":"Point","coordinates":[-87.294638,36.513557]}},{"properties":{"city":"Oak Grove","zip":"42262","store no-":"10011","last name":"Horn","geo_score":0.408,"address 1":"16472 Ft. Campbell Blvd.","id":"aebczvvfidfr","geo_precision":"street","state":"KY"},"type":"Feature","geometry":{"type":"Point","coordinates":[-87.432673,36.817464]}},{"properties":{"city":"Clarksville","zip":"37040","store no-":"4039","last name":"Horn","geo_score":1.0,"address 1":"2808 Wilma Rudolph Blvd.","id":"aebczvqw4m6e","geo_precision":"range","state":"TN"},"type":"Feature","geometry":{"type":"Point","coordinates":[-87.292922,36.58917]}},{"properties":{"city":"Franklin","zip":"37067","store no-":"4030A","last name":"Wardrop","geo_score":1.0,"address 1":"2000 Mallory Lane","id":"aebczvwci5e4","geo_precision":"range","state":"TN"},"type":"Feature","geometry":{"type":"Point","coordinates":[-86.81783,35.952121]}},{"properties":{"city":"Franklin","zip":"37067","store no-":"4037","last name":"Wardrop","geo_score":0.52,"address 1":"1175 Meridian Blvd.","id":"aebczvokgcft","geo_precision":"street","state":"TN"},"type":"Feature","geometry":{"type":"Point","coordinates":[-86.886803,35.964588]}},{"properties":{"city":"Nashville","zip":"37204","store no-":"4021","last name":"Ghanem","geo_score":0.829,"address 1":"736 Thompson Lane","id":"aebczvsgu0dc","geo_precision":"street","state":"TN"},"type":"Feature","geometry":{"type":"Point","coordinates":[-86.762921,36.111929]}},{"properties":{"city":"Garner","zip":"27529","store no-":"3093A","last name":"Boyd","geo_score":1.0,"address 1":"106-1 Bratton Drive","id":"aebczvrhjqtu","geo_precision":"range","state":"NC"},"type":"Feature","geometry":{"type":"Point","coordinates":[-78.561842,35.611254]}},{"properties":{"city":"Blacklick","zip":"43004","store no-":"2011C","last name":"Neu","geo_score":0.811,"address 1":"7175 East Broad Street","id":"aebczvw2hs08","geo_precision":"street","state":"OH"},"type":"Feature","geometry":{"type":"Point","coordinates":[-82.80829,39.983326]}},{"properties":{"city":"Highlands Ranch","zip":"80126","store no-":"22009","last name":"Brown","geo_score":0.6,"address 1":"9362 S. Colorado Blvd.","id":"aebczvmo6c9l","geo_precision":"street","state":"CO"},"type":"Feature","geometry":{"type":"Point","coordinates":[-104.941711,39.565826]}},{"properties":{"city":"Savannah","zip":"31406","store no-":"5043","last name":"Delman","geo_score":1.0,"address 1":"7400 Abercorn St.","id":"aebczvrqor4r","geo_precision":"range","state":"GA"},"type":"Feature","geometry":{"type":"Point","coordinates":[-81.114508,32.009828]}},{"properties":{"city":"Savannah","zip":"31410","store no-":"5042","last name":"Delman","geo_score":1.0,"address 1":"111 Jazie Drive","id":"aebczvvsr71s","geo_precision":"range","state":"GA"},"type":"Feature","geometry":{"type":"Point","coordinates":[-81.008533,32.042885]}},{"properties":{"city":"Mt. Pleasant","zip":"29464","store no-":"7002A","last name":"Delman","geo_score":0.972,"address 1":"280D West Coleman Blvd.","id":"aebczvwvk916","geo_precision":"range","state":"SC"},"type":"Feature","geometry":{"type":"Point","coordinates":[-79.89326,32.797475]}},{"properties":{"city":"Mt. Pleasant","zip":"29466","store no-":"7033","last name":"Delman","geo_score":0.554,"address 1":"3010 S. Morgans Point Rd.","id":"aebczvv0sh0j","geo_precision":"street","state":"SC"},"type":"Feature","geometry":{"type":"Point","coordinates":[-79.774831,32.871499]}},{"properties":{"city":"North Charleston","zip":"29420","store no-":"7035","last name":"Delman","geo_score":0.805,"address 1":"8983 University Blvd.","id":"aebczvruht83","geo_precision":"range","state":"SC"},"type":"Feature","geometry":{"type":"Point","coordinates":[-80.061378,32.974919]}},{"properties":{"city":"Greer","zip":"29651","store no-":"7011B","last name":"Bockstahler","geo_score":0.947,"address 1":"1311-A West Wade Hampton Blvd.","id":"aebczvyh627z","geo_precision":"range","state":"SC"},"type":"Feature","geometry":{"type":"Point","coordinates":[-82.185954,34.95139]}},{"properties":{"city":"Wall","zip":"7719","store no-":"1002","last name":"Cancro","geo_score":0.575,"address 1":"1933 Highway 35 &amp; Allaire Road","id":"aebczvtt348p","geo_precision":"street","state":"NJ"},"type":"Feature","geometry":{"type":"Point","coordinates":[-74.0275,40.182074]}},{"properties":{"city":"Grovetown","zip":"30813","store no-":"5045","last name":"Clark","geo_score":0.585,"address 1":"4010 Gateway Blvd.","id":"aebczvn8948v","geo_precision":"zip","state":"GA"},"type":"Feature","geometry":{"type":"Point","coordinates":[-82.213991,33.466721]}},{"properties":{"city":"Columbus","zip":"43221","store no-":"2042","last name":"Cady","geo_score":0.941,"address 1":"1293 West Lane Ave.","id":"aebczvml7bed","geo_precision":"range","state":"OH"},"type":"Feature","geometry":{"type":"Point","coordinates":[-83.041657,40.007034]}},{"properties":{"city":"Charlotte","zip":"28262","store no-":"3027C","last name":"Daniels","geo_score":1.0,"address 1":"9211-12 North Tryon St.","id":"aebczw102rej","geo_precision":"range","state":"NC"},"type":"Feature","geometry":{"type":"Point","coordinates":[-80.742461,35.313361]}},{"properties":{"city":"Louisville","zip":"40241","store no-":"10005","last name":"Thompson","geo_score":0.493,"address 1":"10521 Fischer Park Drive","id":"aebczw0xeqaj","geo_precision":"street","state":"KY"},"type":"Feature","geometry":{"type":"Point","coordinates":[-85.690877,38.174673]}},{"properties":{"city":"Louisville","zip":"40223","store no-":"10002","last name":"Thompson","geo_score":1.0,"address 1":"10266 Shelbyville Road","id":"aebczw1xbdkt","geo_precision":"range","state":"KY"},"type":"Feature","geometry":{"type":"Point","coordinates":[-85.564977,38.245425]}},{"properties":{"city":"Torrance","zip":"90505","store no-":"20055","last name":"Khodaverdian","geo_score":1.0,"address 1":"24631 Crenshaw Blvd.","id":"aebczvqpdyu1","geo_precision":"range","state":"CA"},"type":"Feature","geometry":{"type":"Point","coordinates":[-118.328004,33.802812]}},{"properties":{"city":"Hawthorne","zip":"90250","store no-":"20033","last name":"Khodaverdian","geo_score":1.0,"address 1":"5342 Rosecrans Ave.","id":"aebczvrpftjm","geo_precision":"range","state":"CA"},"type":"Feature","geometry":{"type":"Point","coordinates":[-118.373889,33.901755]}},{"properties":{"city":"West Covina","zip":"91791","store no-":"20063","last name":"Kern","geo_score":0.805,"address 1":"2536 E Workman Ave","id":"aebczvzl4daj","geo_precision":"street","state":"CA"},"type":"Feature","geometry":{"type":"Point","coordinates":[-117.905053,34.075486]}},{"properties":{"city":"Austin","zip":"78726","store no-":"15007","last name":"Cullen","geo_score":0.806,"address 1":"11521 FM 620 North","id":"aebczvu1eoa1","geo_precision":"street","state":"TX"},"type":"Feature","geometry":{"type":"Point","coordinates":[-97.829012,30.45195]}},{"properties":{"city":"Austin","zip":"78748","store no-":"15009","last name":"Cullen","geo_score":0.585,"address 1":"9500 South IH-35,","id":"aebczvoxmc77","geo_precision":"zip","state":"TX"},"type":"Feature","geometry":{"type":"Point","coordinates":[-97.823854,30.16696]}},{"properties":{"city":"Austin","zip":"78759","store no-":"15003","last name":"Cullen","geo_score":1.0,"address 1":"10001 Research Blvd.","id":"aebczvu6q2jp","geo_precision":"range","state":"TX"},"type":"Feature","geometry":{"type":"Point","coordinates":[-97.745598,30.391854]}},{"properties":{"city":"Winston-Salem","zip":"27105","store no-":"3062A","last name":"Hunt","geo_score":1.0,"address 1":"5940 University Parkway","id":"aebczvxaswer","geo_precision":"range","state":"NC"},"type":"Feature","geometry":{"type":"Point","coordinates":[-80.275864,36.186487]}},{"properties":{"city":"Brick","zip":"8724","store no-":"1007D","last name":"Davenport","geo_score":0.854,"address 1":"2085 Route 88","id":"aebczvplzl7o","geo_precision":"range","state":"NJ"},"type":"Feature","geometry":{"type":"Point","coordinates":[-74.104823,40.075732]}},{"properties":{"city":"Lake Wylie","zip":"29710","store no-":"7041","last name":"Ross","geo_score":0.585,"address 1":"604 Nautical Drive","id":"aebczvryyabm","geo_precision":"zip","state":"SC"},"type":"Feature","geometry":{"type":"Point","coordinates":[-81.165152,35.035952]}},{"properties":{"city":"Richardson","zip":"75081","store no-":"15014","last name":"Chaump","geo_score":0.604,"address 1":"700 E. Campbell Rd.","id":"aebczvwnr53k","geo_precision":"street","state":"TX"},"type":"Feature","geometry":{"type":"Point","coordinates":[-96.715424,32.975353]}},{"properties":{"city":"Fort Worth","zip":"76132","store no-":"15023","last name":"Stewart","geo_score":1.0,"address 1":"4833 South Hulen St.","id":"aebczvmrh6wi","geo_precision":"range","state":"TX"},"type":"Feature","geometry":{"type":"Point","coordinates":[-97.396543,32.676521]}},{"properties":{"city":"Hamilton","zip":"8691","store no-":"1024","last name":"Manna","geo_score":0.585,"address 1":"620 Marketplace Blvd.","id":"aebczvmj5sp2","geo_precision":"zip","state":"NJ"},"type":"Feature","geometry":{"type":"Point","coordinates":[-74.593949,40.219738]}},{"properties":{"city":"Murrieta","zip":"92562","store no-":"20067","last name":"Ilic","geo_score":1.0,"address 1":"25359 Madison Avenue","id":"aebczw2nox20","geo_precision":"range","state":"CA"},"type":"Feature","geometry":{"type":"Point","coordinates":[-117.201153,33.558068]}},{"properties":{"city":"Blue Ash","zip":"45241","store no-":"2002B","last name":"Ouimet","geo_score":0.835,"address 1":"4776 Cornell Plaza","id":"aebczvv5j386","geo_precision":"range","state":"OH"},"type":"Feature","geometry":{"type":"Point","coordinates":[-84.378154,39.270666]}},{"properties":{"city":"Florence","zip":"41042","store no-":"10003A","last name":"Ouimet","geo_score":0.619,"address 1":"310 Mt. Zion Road","id":"aebczvzkmwo8","geo_precision":"street","state":"KY"},"type":"Feature","geometry":{"type":"Point","coordinates":[-84.623381,38.990938]}},{"properties":{"city":"Springdale","zip":"45246","store no-":"2004C","last name":"Ouimet","geo_score":1.0,"address 1":"11409 Princeton Pike","id":"aebczvw1pxgj","geo_precision":"range","state":"OH"},"type":"Feature","geometry":{"type":"Point","coordinates":[-84.467135,39.28632]}},{"properties":{"city":"Newport","zip":"41071","store no-":"10001B","last name":"Ouimet","geo_score":0.958,"address 1":"86 B Carothers Rd","id":"aebczw146xpk","geo_precision":"range","state":"KY"},"type":"Feature","geometry":{"type":"Point","coordinates":[-84.483856,39.08385]}},{"properties":{"city":"Cincinnati","zip":"45242","store no-":"2001D","last name":"Ouimet","geo_score":1.0,"address 1":"9525 Kenwood Rd","id":"aebczvzrgb85","geo_precision":"range","state":"OH"},"type":"Feature","geometry":{"type":"Point","coordinates":[-84.377153,39.230829]}},{"properties":{"city":"Huntington Beach","zip":"92648","store no-":"20094","last name":"Ciscel","geo_score":1.0,"address 1":"21004 Beach Blvd.","id":"aebczvxa4slw","geo_precision":"range","state":"CA"},"type":"Feature","geometry":{"type":"Point","coordinates":[-117.988116,33.654075]}},{"properties":{"city":"Westminster","zip":"92685","store no-":"20090","last name":"Ciscel","geo_score":0.683,"address 1":"16470 Beach Blvd.","id":"aebczvz3as57","geo_precision":"street","state":"CA"},"type":"Feature","geometry":{"type":"Point","coordinates":[-117.98909,33.72296]}},{"properties":{"city":"Huntington Beach","zip":"92646","store no-":"20014","last name":"Ciscel","geo_score":1.0,"address 1":"10035 Adams Avenue","id":"aebczw0699d8","geo_precision":"range","state":"CA"},"type":"Feature","geometry":{"type":"Point","coordinates":[-117.951731,33.672418]}},{"properties":{"city":"Irvine","zip":"92606","store no-":"20047","last name":"Ciscel","geo_score":0.948,"address 1":"16525-G Von Karman Avenue","id":"aebczvron9az","geo_precision":"range","state":"CA"},"type":"Feature","geometry":{"type":"Point","coordinates":[-117.838552,33.693424]}},{"properties":{"city":"Huntington Beach","zip":"92647","store no-":"20087","last name":"Ciscel","geo_score":0.805,"address 1":"6041 Bolsa Ave.","id":"aebczvsdl4a6","geo_precision":"range","state":"CA"},"type":"Feature","geometry":{"type":"Point","coordinates":[-118.023183,33.744469]}},{"properties":{"city":"Tampa","zip":"33618","store no-":"13027","last name":"Fanning","geo_score":1.0,"address 1":"14839 North Dale Mabry Highway","id":"aebczvygrqs6","geo_precision":"range","state":"FL"},"type":"Feature","geometry":{"type":"Point","coordinates":[-82.506672,28.077514]}},{"properties":{"city":"Orlando","zip":"32804","store no-":"13053","last name":"Padgett","geo_score":1.0,"address 1":"2100 Edgewater Drive","id":"aebczvuoo1jr","geo_precision":"range","state":"FL"},"type":"Feature","geometry":{"type":"Point","coordinates":[-81.38944,28.571144]}},{"properties":{"city":"Cincinnati","zip":"45238","store no-":"2009A","last name":"Tolliver","geo_score":0.909,"address 1":"5032 Glen Crossing Way","id":"aebczvn355f0","geo_precision":"range","state":"OH"},"type":"Feature","geometry":{"type":"Point","coordinates":[-84.609194,39.131187]}},{"properties":{"city":"Jupiter","zip":"33458","store no-":"13011","last name":"Liptak","geo_score":1.0,"address 1":"6390 West Indiantown Road","id":"aebczvzrewoq","geo_precision":"range","state":"FL"},"type":"Feature","geometry":{"type":"Point","coordinates":[-80.132994,26.934456]}},{"properties":{"city":"Concord","zip":"28025","store no-":"3066A","last name":"Radcliff","geo_score":0.954,"address 1":"300 Copperfield Blvd.","id":"aebczvoqbf93","geo_precision":"range","state":"NC"},"type":"Feature","geometry":{"type":"Point","coordinates":[-80.596886,35.447713]}},{"properties":{"city":"Denver","zip":"28037","store no-":"3122","last name":"Radcliff","geo_score":0.787,"address 1":"7260 Highway 73","id":"aebczvmljwpm","geo_precision":"range","state":"NC"},"type":"Feature","geometry":{"type":"Point","coordinates":[-81.000986,35.448209]}},{"properties":{"city":"Huntersville","zip":"28070-2935","store no-":"3054","last name":"Radcliff","geo_score":0.561,"address 1":"105 C South Statesville Rd.","id":"aebczvqnk92k","geo_precision":"street","state":"NC"},"type":"Feature","geometry":{"type":"Point","coordinates":[-80.843308,35.430969]}},{"properties":{"city":"Chicago","zip":"60657","store no-":"27035","last name":"Do","geo_score":0.604,"address 1":"3152 N. Broadway","id":"aebczvuc5th5","geo_precision":"street","state":"IL"},"type":"Feature","geometry":{"type":"Point","coordinates":[-87.644264,41.934252]}},{"properties":{"city":"Orange Park","zip":"32073","store no-":"13063","last name":"Herring","geo_score":1.0,"address 1":"410 Blanding Blvd.","id":"aebczvvrk0wc","geo_precision":"range","state":"FL"},"type":"Feature","geometry":{"type":"Point","coordinates":[-81.747491,30.163316]}},{"properties":{"city":"Jacksonville","zip":"32205","store no-":"13051","last name":"Herring","geo_score":0.806,"address 1":"4261 Roosevelt Blvd.","id":"aebczvyfyqlj","geo_precision":"street","state":"FL"},"type":"Feature","geometry":{"type":"Point","coordinates":[-81.720025,30.293772]}},{"properties":{"city":"Dallas","zip":"75206","store no-":"15002","last name":"Stewart","geo_score":1.0,"address 1":"5521 Greenville Avenue","id":"aebczvx1rime","geo_precision":"range","state":"TX"},"type":"Feature","geometry":{"type":"Point","coordinates":[-96.769924,32.851295]}},{"properties":{"city":"Irving","zip":"75039","store no-":"15005","last name":"Stewart","geo_score":0.78,"address 1":"6550 North MacArthur Blvd","id":"aebczvzh4ui9","geo_precision":"range","state":"TX"},"type":"Feature","geometry":{"type":"Point","coordinates":[-96.9589,32.90012]}},{"properties":{"city":"Houston","zip":"77005","store no-":"15001A","last name":"Jew","geo_score":1.0,"address 1":"5819 Kirby Drive","id":"aebczvnpuawp","geo_precision":"range","state":"TX"},"type":"Feature","geometry":{"type":"Point","coordinates":[-95.418508,29.720449]}},{"properties":{"city":"Houston","zip":"77049","store no-":"15046","last name":"Gonzalez","geo_score":0.571,"address 1":"5815 E. Sam Houston Parkway","id":"aebczw0il5rk","geo_precision":"street","state":"TX"},"type":"Feature","geometry":{"type":"Point","coordinates":[-95.163732,29.813525]}},{"properties":{"city":"Marietta","zip":"30062","store no-":"5048","last name":"Davis","geo_score":1.0,"address 1":"4400 Roswell Road","id":"aebczvwpt3qh","geo_precision":"range","state":"GA"},"type":"Feature","geometry":{"type":"Point","coordinates":[-84.422407,33.985881]}},{"properties":{"city":"North Charleston","zip":"29406","store no-":"7045","last name":"Delman","geo_score":1.0,"address 1":"7225 Rivers Avenue","id":"aebczvs1vjf9","geo_precision":"range","state":"SC"},"type":"Feature","geometry":{"type":"Point","coordinates":[-80.036928,32.932756]}},{"properties":{"city":"Summerville","zip":"29483","store no-":"7040","last name":"Delman","geo_score":0.68,"address 1":"310 Azalea Square Blvd.","id":"aebczw2eukip","geo_precision":"street","state":"SC"},"type":"Feature","geometry":{"type":"Point","coordinates":[-80.115623,33.000785]}},{"properties":{"city":"Escondido","zip":"92025","store no-":"20071","last name":"Leonard","geo_score":1.0,"address 1":"1829 S Centre City Pkwy","id":"aebczw2i69qh","geo_precision":"range","state":"CA"},"type":"Feature","geometry":{"type":"Point","coordinates":[-117.075593,33.103358]}},{"properties":{"city":"San Marcos","zip":"92078","store no-":"20053","last name":"Leonard","geo_score":0.837,"address 1":"595 Grand Ave.","id":"aebczw2nxore","geo_precision":"street","state":"CA"},"type":"Feature","geometry":{"type":"Point","coordinates":[-117.178041,33.134524]}},{"properties":{"city":"San Diego","zip":"92127","store no-":"20061","last name":"Leonard","geo_score":0.902,"address 1":"15805 Bernardo Center Drive","id":"aebczvp9jypd","geo_precision":"range","state":"CA"},"type":"Feature","geometry":{"type":"Point","coordinates":[-117.090925,33.00564]}},{"properties":{"city":"Poway","zip":"92064","store no-":"20099","last name":"Leonard","geo_score":1.0,"address 1":"12285 Scripps Poway Parkway","id":"aebczvp7d1hn","geo_precision":"range","state":"CA"},"type":"Feature","geometry":{"type":"Point","coordinates":[-117.053583,32.938495]}},{"properties":{"city":"Opelika","zip":"36801","store no-":"12004A","last name":"Decker","geo_score":0.454,"address 1":"2336 Tiger Town Parkway","id":"aebczvvwyomo","geo_precision":"street","state":"AL"},"type":"Feature","geometry":{"type":"Point","coordinates":[-85.814523,32.807622]}},{"properties":{"city":"Destin","zip":"32541","store no-":"13029A","last name":"Decker","geo_score":0.92,"address 1":"817 Harbor Blvd","id":"aebczvu6p9xk","geo_precision":"range","state":"FL"},"type":"Feature","geometry":{"type":"Point","coordinates":[-86.483571,30.412927]}},{"properties":{"city":"North Las Vegas","zip":"89031","store no-":"17007","last name":"Tun","geo_score":0.805,"address 1":"5595 Simmons St.","id":"aebczvo8m53e","geo_precision":"street","state":"NV"},"type":"Feature","geometry":{"type":"Point","coordinates":[-115.180105,36.23943]}},{"properties":{"city":"Atlanta","zip":"30329","store no-":"5018B","last name":"Powell","geo_score":0.945,"address 1":"2470 Briarcliff Rd.","id":"aebczvujoxd4","geo_precision":"range","state":"GA"},"type":"Feature","geometry":{"type":"Point","coordinates":[-84.331711,33.826949]}},{"properties":{"city":"Atlanta","zip":"30341","store no-":"5025","last name":"Liu","geo_score":1.0,"address 1":"3489A Chamblee Tucker Road","id":"aebczw16seuj","geo_precision":"range","state":"GA"},"type":"Feature","geometry":{"type":"Point","coordinates":[-84.248378,33.885525]}},{"properties":{"city":"Fairfax","zip":"22030","store no-":"6028","last name":"Cohen","geo_score":1.0,"address 1":"10394 Willard Way","id":"aebczvov4tzf","geo_precision":"range","state":"VA"},"type":"Feature","geometry":{"type":"Point","coordinates":[-77.304729,38.84746]}},{"properties":{"city":"Goose Creek","zip":"29445","store no-":"7014D","last name":"Brooks","geo_score":0.5,"address 1":"217-A St. James Ave.","id":"aebczvv3ov69","geo_precision":"street","state":"SC"},"type":"Feature","geometry":{"type":"Point","coordinates":[-80.688073,32.906673]}},{"properties":{"city":"Mt. Pleasant","zip":"29464","store no-":"7021A","last name":"Brooks","geo_score":0.972,"address 1":"1909 N Highway 17","id":"aebczvxztro2","geo_precision":"range","state":"SC"},"type":"Feature","geometry":{"type":"Point","coordinates":[-79.825804,32.833458]}},{"properties":{"city":"Charlotte","zip":"28227","store no-":"3048A","last name":"Turovskaya","geo_score":0.597,"address 1":"7309-21 E. Independence Blvd.","id":"aebczvyxyy07","geo_precision":"street","state":"NC"},"type":"Feature","geometry":{"type":"Point","coordinates":[-80.72252,35.145089]}},{"properties":{"city":"Topeka","zip":"66603","store no-":"21002","last name":"Kallman","geo_score":1.0,"address 1":"718 South Kansas Avenue","id":"aebczvvmovzy","geo_precision":"range","state":"KS"},"type":"Feature","geometry":{"type":"Point","coordinates":[-95.674517,39.048814]}},{"properties":{"city":"Mebane","zip":"27302","store no-":"3082B","last name":"Koon","geo_score":0.585,"address 1":"102 Millstead Dr.","id":"aebczw2iabxs","geo_precision":"zip","state":"NC"},"type":"Feature","geometry":{"type":"Point","coordinates":[-79.220017,36.211527]}},{"properties":{"city":"Burlington","zip":"27215","store no-":"3033A","last name":"Koon","geo_score":1.0,"address 1":"2138 South Church Street","id":"aebczw0knjez","geo_precision":"range","state":"NC"},"type":"Feature","geometry":{"type":"Point","coordinates":[-79.467152,36.082367]}},{"properties":{"city":"Dallas","zip":"75240","store no-":"15018","last name":"Stewart","geo_score":0.683,"address 1":"14060 Dallas Parkway","id":"aebczw13qzwd","geo_precision":"street","state":"TX"},"type":"Feature","geometry":{"type":"Point","coordinates":[-96.820951,32.929398]}},{"properties":{"city":"Goleta","zip":"93117","store no-":"20075","last name":"Robinson","geo_score":0.98,"address 1":"7034 Marketplace Dr.","id":"aebczvq1v8d9","geo_precision":"range","state":"CA"},"type":"Feature","geometry":{"type":"Point","coordinates":[-119.873305,34.4289]}},{"properties":{"city":"Camarillo","zip":"93012","store no-":"20010","last name":"Robinson","geo_score":1.0,"address 1":"5800 Santa Rosa Road","id":"aebczvqgfjg2","geo_precision":"range","state":"CA"},"type":"Feature","geometry":{"type":"Point","coordinates":[-118.993288,34.223999]}},{"properties":{"city":"Moorpark","zip":"93021","store no-":"20027","last name":"Robinson","geo_score":0.597,"address 1":"144 W. Los Angeles Ave.","id":"aebczw2cgq1d","geo_precision":"street","state":"CA"},"type":"Feature","geometry":{"type":"Point","coordinates":[-118.801156,34.281211]}},{"properties":{"city":"Hagerstown","zip":"21740","store no-":"28004","last name":"Provost","geo_score":1.0,"address 1":"18015 Garland Groh Blvd.","id":"aebczvwdkmmp","geo_precision":"range","state":"MD"},"type":"Feature","geometry":{"type":"Point","coordinates":[-77.745563,39.660355]}},{"properties":{"city":"Dallas","zip":"75209","store no-":"15017","last name":"Paletti","geo_score":0.857,"address 1":"5301 W. Lovers Lane","id":"aebczvy6zkml","geo_precision":"zip","state":"TX"},"type":"Feature","geometry":{"type":"Point","coordinates":[-96.821668,32.93068]}},{"properties":{"city":"Martinez","zip":"30907","store no-":"5050","last name":"Clark","geo_score":0.98,"address 1":"403 Fury's Ferry Rd.","id":"aebczvsvqh3n","geo_precision":"range","state":"GA"},"type":"Feature","geometry":{"type":"Point","coordinates":[-82.074486,33.529715]}},{"properties":{"city":"Shiloh","zip":"62269","store no-":"27024","last name":"Potter","geo_score":0.749,"address 1":"3284 Green Mount Crossing Dr","id":"aebczvua0f1l","geo_precision":"street","state":"IL"},"type":"Feature","geometry":{"type":"Point","coordinates":[-89.927944,38.572706]}},{"properties":{"city":"Loganville","zip":"30052","store no-":"5003E","last name":"Acosta","geo_score":1.0,"address 1":"4018 Atlanta Highway","id":"aebczvscan8y","geo_precision":"range","state":"GA"},"type":"Feature","geometry":{"type":"Point","coordinates":[-83.911226,33.845994]}},{"properties":{"city":"Suwanee","zip":"30024","store no-":"5028A","last name":"Acosta","geo_score":0.805,"address 1":"3463 Lawrenceville Suwanee Rd.","id":"aebczw2lvfdu","geo_precision":"street","state":"GA"},"type":"Feature","geometry":{"type":"Point","coordinates":[-84.04654,34.028417]}},{"properties":{"city":"Duluth","zip":"30096","store no-":"5032","last name":"Acosta","geo_score":0.902,"address 1":"3780 Old Norcross Rd.","id":"aebczvnja2t7","geo_precision":"range","state":"GA"},"type":"Feature","geometry":{"type":"Point","coordinates":[-84.142545,33.962614]}},{"properties":{"city":"Chapel Hill","zip":"27514","store no-":"3092B","last name":"Farris","geo_score":0.607,"address 1":"245A S. Elliott Road","id":"aebczvx0t67q","geo_precision":"street","state":"NC"},"type":"Feature","geometry":{"type":"Point","coordinates":[-79.028821,35.934522]}},{"properties":{"city":"Morganville","zip":"7751","store no-":"1034","last name":"Schork","geo_score":0.878,"address 1":"450 Union Hill Road","id":"aebczw06sbqg","geo_precision":"street","state":"NJ"},"type":"Feature","geometry":{"type":"Point","coordinates":[-74.30856,40.339123]}},{"properties":{"city":"Mankato","zip":"56001","store no-":"24002","last name":"Bores","geo_score":1.0,"address 1":"1924 Adams Street","id":"aebczw04gr24","geo_precision":"range","state":"MN"},"type":"Feature","geometry":{"type":"Point","coordinates":[-93.946658,44.170424]}},{"properties":{"city":"Oklahoma City","zip":"73128","store no-":"23008A","last name":"Brown","geo_score":0.741,"address 1":"6815 SW 3rd Street","id":"aebczvqqujbh","geo_precision":"street","state":"OK"},"type":"Feature","geometry":{"type":"Point","coordinates":[-97.620725,35.461583]}},{"properties":{"city":"Oklahoma City","zip":"73106","store no-":"23004A","last name":"Brown","geo_score":0.941,"address 1":"1630 NW 23rd Street","id":"aebczw00n1ch","geo_precision":"range","state":"OK"},"type":"Feature","geometry":{"type":"Point","coordinates":[-97.537916,35.493197]}},{"properties":{"city":"Columbia","zip":"29229","store no-":"7034","last name":"Gibbs","geo_score":0.619,"address 1":"136-3 Forum Drive","id":"aebczvxbz95u","geo_precision":"range","state":"SC"},"type":"Feature","geometry":{"type":"Point","coordinates":[-80.886688,34.131424]}},{"properties":{"city":"Raleigh","zip":"27610","store no-":"3031","last name":"Gellenbeck","geo_score":1.0,"address 1":"4121-101 New Bern Avenue","id":"aebczvpalb5g","geo_precision":"range","state":"NC"},"type":"Feature","geometry":{"type":"Point","coordinates":[-78.566332,35.798805]}},{"properties":{"city":"Atlanta","zip":"30319","store no-":"5016","last name":"Kallman","geo_score":0.708,"address 1":"2036 Johnson Ferry Road","id":"aebczw249hq7","geo_precision":"street","state":"GA"},"type":"Feature","geometry":{"type":"Point","coordinates":[-84.350136,33.905775]}},{"properties":{"city":"Los Angeles","zip":"90024","store no-":"20024A","last name":"Lee","geo_score":1.0,"address 1":"1020 Glendon Ave.","id":"aebczvrb98ic","geo_precision":"range","state":"CA"},"type":"Feature","geometry":{"type":"Point","coordinates":[-118.444274,34.061282]}},{"properties":{"city":"Matthews","zip":"28105","store no-":"3020","last name":"Emrich","geo_score":0.329,"address 1":"2332A Matthews Twp. Parkway","id":"aebczvzhoyk3","geo_precision":"street","state":"NC"},"type":"Feature","geometry":{"type":"Point","coordinates":[-82.054471,35.400598]}},{"properties":{"city":"Tustin","zip":"92780","store no-":"20078","last name":"Haget","geo_score":1.0,"address 1":"13681 Newport Ave.","id":"aebczw1ifadj","geo_precision":"range","state":"CA"},"type":"Feature","geometry":{"type":"Point","coordinates":[-117.818295,33.742073]}},{"properties":{"city":"Irvine","zip":"92614","store no-":"20102","last name":"Haget","geo_score":1.0,"address 1":"17917 MacArthur Boulevard","id":"aebczvweprfa","geo_precision":"range","state":"CA"},"type":"Feature","geometry":{"type":"Point","coordinates":[-117.85402,33.687813]}},{"properties":{"city":"Orange","zip":"92868","store no-":"20080","last name":"Haget","geo_score":0.619,"address 1":"763 S. Main Street","id":"aebczvq97ny4","geo_precision":"street","state":"CA"},"type":"Feature","geometry":{"type":"Point","coordinates":[-117.86729,33.786069]}},{"properties":{"city":"Oklahoma City","zip":"73132","store no-":"23012","last name":"Brown","geo_score":1.0,"address 1":"6401 Northwest Expressway","id":"aebczvturc23","geo_precision":"range","state":"OK"},"type":"Feature","geometry":{"type":"Point","coordinates":[-97.631768,35.555003]}},{"properties":{"city":"Norman","zip":"73072","store no-":"23006","last name":"Brown","geo_score":0.6,"address 1":"1204 N. Interstate Dr.","id":"aebczvn1qnyo","geo_precision":"street","state":"OK"},"type":"Feature","geometry":{"type":"Point","coordinates":[-97.487723,35.219364]}},{"properties":{"city":"Moore","zip":"73160","store no-":"23015","last name":"Brown","geo_score":0.941,"address 1":"660 SW 19th Street","id":"aebczvq1c61g","geo_precision":"range","state":"OK"},"type":"Feature","geometry":{"type":"Point","coordinates":[-97.496647,35.319698]}},{"properties":{"city":"Oklahoma City","zip":"73116","store no-":"23009","last name":"Brown","geo_score":1.0,"address 1":"6719 North May Avenue","id":"aebczvpukt83","geo_precision":"range","state":"OK"},"type":"Feature","geometry":{"type":"Point","coordinates":[-97.565759,35.539746]}},{"properties":{"city":"Louisville","zip":"40299","store no-":"10007","last name":"Greenwell","geo_score":1.0,"address 1":"9156 Taylorsville Rd.","id":"aebczw2s34d3","geo_precision":"range","state":"KY"},"type":"Feature","geometry":{"type":"Point","coordinates":[-85.588473,38.213389]}},{"properties":{"city":"Warwick","zip":"2886","store no-":"14002A","last name":"Sullivan","geo_score":1.0,"address 1":"1350 Greenwich Avenue","id":"aebczvrk0be3","geo_precision":"range","state":"RI"},"type":"Feature","geometry":{"type":"Point","coordinates":[-71.460077,41.699331]}},{"properties":{"city":"Delray Beach","zip":"33483","store no-":"13001B","last name":"Bynum","geo_score":1.0,"address 1":"1554 South Federal Highway","id":"aebczvtkft29","geo_precision":"range","state":"FL"},"type":"Feature","geometry":{"type":"Point","coordinates":[-80.067045,26.446878]}},{"properties":{"city":"Eastvale","zip":"91752","store no-":"20084","last name":"Rubalcaba","geo_score":0.902,"address 1":"12569 Limonite Ave","id":"aebczvnvwpsl","geo_precision":"range","state":"CA"},"type":"Feature","geometry":{"type":"Point","coordinates":[-117.550952,33.975308]}},{"properties":{"city":"San Diego","zip":"92110","store no-":"20043","last name":"Brown","geo_score":1.0,"address 1":"3670 Rosecrans St.","id":"aebczvn8ndaa","geo_precision":"range","state":"CA"},"type":"Feature","geometry":{"type":"Point","coordinates":[-117.204471,32.751681]}},{"properties":{"city":"San Diego","zip":"92115","store no-":"20062","last name":"Brown","geo_score":1.0,"address 1":"6083 El Cajon Blvd","id":"aebczvnh18s7","geo_precision":"range","state":"CA"},"type":"Feature","geometry":{"type":"Point","coordinates":[-117.064764,32.762749]}},{"properties":{"city":"San Diego","zip":"92108","store no-":"20035","last name":"Brown","geo_score":1.0,"address 1":"8590 Rio San Diego Drive","id":"aebczvxc5p98","geo_precision":"range","state":"CA"},"type":"Feature","geometry":{"type":"Point","coordinates":[-117.143133,32.775268]}},{"properties":{"city":"San Diego","zip":"92129","store no-":"20086","last name":"Brown","geo_score":0.317,"address 1":"13173 - 6 Black Mountain Rd.","id":"aebczvuykqko","geo_precision":"street","state":"CA"},"type":"Feature","geometry":{"type":"Point","coordinates":[-117.163597,32.773719]}},{"properties":{"city":"San Diego","zip":"92126","store no-":"20040","last name":"Brown","geo_score":0.688,"address 1":"10764 Westview Parkway","id":"aebczvv0k07w","geo_precision":"street","state":"CA"},"type":"Feature","geometry":{"type":"Point","coordinates":[-117.120548,32.917212]}},{"properties":{"city":"Hoover","zip":"35244","store no-":"12007","last name":"Decker","geo_score":0.902,"address 1":"1851 Montgomery Highway","id":"aebczvwafeyp","geo_precision":"range","state":"AL"},"type":"Feature","geometry":{"type":"Point","coordinates":[-86.795117,33.350835]}},{"properties":{"city":"Birmingham","zip":"35235","store no-":"12006","last name":"Decker","geo_score":1.0,"address 1":"1873 Gadsden Highway","id":"aebczvolbbp0","geo_precision":"range","state":"AL"},"type":"Feature","geometry":{"type":"Point","coordinates":[-86.629345,33.60791]}},{"properties":{"city":"Birmingham","zip":"35242","store no-":"12002A","last name":"Decker","geo_score":0.659,"address 1":"4673 Hwy 280 East","id":"aebczvygroxx","geo_precision":"street","state":"AL"},"type":"Feature","geometry":{"type":"Point","coordinates":[-86.664215,33.406515]}},{"properties":{"city":"Lake Forest","zip":"92610","store no-":"20017","last name":"Haget","geo_score":0.805,"address 1":"45 Auto Center Drive","id":"aebczw1vj2w8","geo_precision":"range","state":"CA"},"type":"Feature","geometry":{"type":"Point","coordinates":[-117.723027,33.634636]}},{"properties":{"city":"Mission Viejo","zip":"92692","store no-":"20037","last name":"Haget","geo_score":0.951,"address 1":"25280-C Marguerite Parkway","id":"aebczvzp6w0d","geo_precision":"range","state":"CA"},"type":"Feature","geometry":{"type":"Point","coordinates":[-117.659188,33.594832]}},{"properties":{"city":"Lake Forest","zip":"92630","store no-":"20030","last name":"Haget","geo_score":1.0,"address 1":"23572 El Toro Road","id":"aebczvqrznap","geo_precision":"range","state":"CA"},"type":"Feature","geometry":{"type":"Point","coordinates":[-117.701472,33.619624]}},{"properties":{"city":"Beaverton","zip":"97005","store no-":"32001","last name":"Heikkala","geo_score":1.0,"address 1":"4105 SW 117th Ave","id":"aebczvsm0hpb","geo_precision":"range","state":"OR"},"type":"Feature","geometry":{"type":"Point","coordinates":[-122.797814,45.490776]}},{"properties":{"city":"North Providence","zip":"2904","store no-":"14001A","last name":"Sullivan","geo_score":0.963,"address 1":"1401 Douglas Ave.","id":"aebczvnd263x","geo_precision":"range","state":"RI"},"type":"Feature","geometry":{"type":"Point","coordinates":[-71.454575,41.864357]}},{"properties":{"city":"Springfield","zip":"62704","store no-":"27036","last name":"Rubba","geo_score":0.614,"address 1":"2318 W. Wabash Ave.","id":"aebczvngvlmc","geo_precision":"street","state":"IL"},"type":"Feature","geometry":{"type":"Point","coordinates":[-89.668076,39.765229]}},{"properties":{"city":"Champaign","zip":"61820","store no-":"27038","last name":"Rubba","geo_score":0.614,"address 1":"505 E. Green Street","id":"aebczvub2tay","geo_precision":"street","state":"IL"},"type":"Feature","geometry":{"type":"Point","coordinates":[-88.243467,40.110178]}},{"properties":{"city":"Colorado Springs","zip":"80909","store no-":"22010","last name":"Holliday","geo_score":0.602,"address 1":"737 N. Academy Blvd.","id":"aebczvozoo7c","geo_precision":"street","state":"CO"},"type":"Feature","geometry":{"type":"Point","coordinates":[-104.757425,38.832858]}},{"properties":{"city":"Bolingbrook","zip":"60440","store no-":"27023","last name":"Patel-Manager","geo_score":1.0,"address 1":"214 N Weber Rd","id":"aebczvrz6l7x","geo_precision":"range","state":"IL"},"type":"Feature","geometry":{"type":"Point","coordinates":[-88.124666,41.701398]}},{"properties":{"city":"Glen Ellyn","zip":"60137","store no-":"27033","last name":"Patel-Manager","geo_score":0.602,"address 1":"711 E. Roosevelt Road","id":"aebczw0as72m","geo_precision":"street","state":"IL"},"type":"Feature","geometry":{"type":"Point","coordinates":[-88.078992,41.859207]}},{"properties":{"city":"Oswego","zip":"60543","store no-":"27027","last name":"Patel-Manager","geo_score":1.0,"address 1":"2428 Route 34","id":"aebczvx66ax3","geo_precision":"range","state":"IL"},"type":"Feature","geometry":{"type":"Point","coordinates":[-88.306391,41.704952]}},{"properties":{"city":"Romeoville","zip":"60446","store no-":"27034","last name":"Patel-Manager","geo_score":0.614,"address 1":"412 S. Weber Road","id":"aebczvmbfagd","geo_precision":"street","state":"IL"},"type":"Feature","geometry":{"type":"Point","coordinates":[-88.123904,41.627894]}},{"properties":{"city":"Pickerington","zip":"43147","store no-":"2016A","last name":"Neu","geo_score":1.0,"address 1":"1213  Hill Road North","id":"aebczvvzn3w2","geo_precision":"range","state":"OH"},"type":"Feature","geometry":{"type":"Point","coordinates":[-82.779885,39.914065]}},{"properties":{"city":"Snellville","zip":"30078","store no-":"5030","last name":"Hogan","geo_score":0.806,"address 1":"2050 Highway 124","id":"aebczw16gmwj","geo_precision":"street","state":"GA"},"type":"Feature","geometry":{"type":"Point","coordinates":[-84.020005,33.857566]}},{"properties":{"city":"Centerville","zip":"45459","store no-":"2040A","last name":"Tolliver","geo_score":0.805,"address 1":"6002 Far Hills Avenue","id":"aebczw2kxd27","geo_precision":"street","state":"OH"},"type":"Feature","geometry":{"type":"Point","coordinates":[-84.157767,39.641563]}},{"properties":{"city":"Beavercreek","zip":"45431","store no-":"2049","last name":"Tolliver","geo_score":0.585,"address 1":"3510 Pentagon Boulevard","id":"aebczvvfc113","geo_precision":"zip","state":"OH"},"type":"Feature","geometry":{"type":"Point","coordinates":[-84.10966,39.765892]}},{"properties":{"city":"Atlanta","zip":"30339","store no-":"5023","last name":"Saraj","geo_score":0.709,"address 1":"2014 Powers Ferry Road","id":"aebczw1tu7tw","geo_precision":"street","state":"GA"},"type":"Feature","geometry":{"type":"Point","coordinates":[-84.464695,33.906745]}},{"properties":{"city":"Atlanta","zip":"30318","store no-":"5041","last name":"Saraj","geo_score":0.931,"address 1":"1000 Northside Drive NW","id":"aebczvx7n19c","geo_precision":"range","state":"GA"},"type":"Feature","geometry":{"type":"Point","coordinates":[-84.407548,33.781991]}},{"properties":{"city":"Las Vegas","zip":"89117","store no-":"17012","last name":"Mapes","geo_score":0.597,"address 1":"8780 W. Charleston Blvd.","id":"aebczvtehi4a","geo_precision":"street","state":"NV"},"type":"Feature","geometry":{"type":"Point","coordinates":[-115.243707,36.159127]}},{"properties":{"city":"Las Vegas","zip":"89169","store no-":"17011","last name":"Mapes","geo_score":1.0,"address 1":"3900 Paradise Road","id":"aebczvw24mkn","geo_precision":"range","state":"NV"},"type":"Feature","geometry":{"type":"Point","coordinates":[-115.154731,36.116734]}},{"properties":{"city":"Indianapolis","zip":"46254","store no-":"11005A","last name":"Fleischman","geo_score":0.935,"address 1":"6985 West 38th Street","id":"aebczvst27sc","geo_precision":"range","state":"IN"},"type":"Feature","geometry":{"type":"Point","coordinates":[-86.281118,39.823361]}},{"properties":{"city":"Boone","zip":"28607","store no-":"3112A","last name":"Rummell","geo_score":0.648,"address 1":"119 New Market Center","id":"aebczw2lzxfz","geo_precision":"street","state":"NC"},"type":"Feature","geometry":{"type":"Point","coordinates":[-81.627443,36.214132]}},{"properties":{"city":"Powell","zip":"43065","store no-":"2022A","last name":"Inskeep","geo_score":0.947,"address 1":"3958 Powell Road","id":"aebczvt6spjq","geo_precision":"range","state":"OH"},"type":"Feature","geometry":{"type":"Point","coordinates":[-83.096367,40.158742]}},{"properties":{"city":"Purcellville","zip":"20132","store no-":"6037","last name":"Switaj","geo_score":0.676,"address 1":"150 B Purcellville Gateway Drive","id":"aebczvtij53d","geo_precision":"street","state":"VA"},"type":"Feature","geometry":{"type":"Point","coordinates":[-77.675681,39.221571]}},{"properties":{"city":"Ashburn","zip":"20147","store no-":"6032","last name":"Switaj","geo_score":0.897,"address 1":"20070 Ashbrook Commons Plaza","id":"aebczvnlkbuu","geo_precision":"range","state":"VA"},"type":"Feature","geometry":{"type":"Point","coordinates":[-77.462415,39.058202]}},{"properties":{"city":"Sterling","zip":"20165","store no-":"6026","last name":"Switaj","geo_score":0.824,"address 1":"21031 Tripleseven Road","id":"aebczvqoooid","geo_precision":"street","state":"VA"},"type":"Feature","geometry":{"type":"Point","coordinates":[-77.406255,39.034845]}},{"properties":{"city":"Leesburg","zip":"20176","store no-":"6021","last name":"Switaj","geo_score":0.752,"address 1":"522 Fort Evans Rd.","id":"aebczw0z6ene","geo_precision":"street","state":"VA"},"type":"Feature","geometry":{"type":"Point","coordinates":[-77.524572,39.10312]}},{"properties":{"city":"North Myrtle Beach","zip":"29582","store no-":"7001A","last name":"Saad","geo_score":0.732,"address 1":"4031 Highway 17 South","id":"aebczvv6xlqo","geo_precision":"street","state":"SC"},"type":"Feature","geometry":{"type":"Point","coordinates":[-78.656821,33.847021]}},{"properties":{"city":"Myrtle Beach","zip":"29572","store no-":"7030","last name":"Saad","geo_score":0.625,"address 1":"9713 N. King's Highway (Hwy 17)","id":"aebczvyvhozz","geo_precision":"street","state":"SC"},"type":"Feature","geometry":{"type":"Point","coordinates":[-78.790067,33.764983]}},{"properties":{"city":"West Palm Beach","zip":"33409","store no-":"13002B","last name":"Myers","geo_score":1.0,"address 1":"931 Village Blvd","id":"aebczvzr3lqe","geo_precision":"range","state":"FL"},"type":"Feature","geometry":{"type":"Point","coordinates":[-80.100252,26.714586]}},{"properties":{"city":"Yukon","zip":"73099","store no-":"23007","last name":"Gray","geo_score":0.902,"address 1":"1600 Garth Brooks Blvd.","id":"aebczvmhardi","geo_precision":"range","state":"OK"},"type":"Feature","geometry":{"type":"Point","coordinates":[-97.760292,35.492824]}},{"properties":{"city":"Orlando","zip":"32828","store no-":"13032","last name":"Fischer","geo_score":1.0,"address 1":"12420 Lake Underhill Rd","id":"aebczvntqi8y","geo_precision":"range","state":"FL"},"type":"Feature","geometry":{"type":"Point","coordinates":[-81.198478,28.545223]}},{"properties":{"city":"Concord","zip":"28027","store no-":"3128","last name":"Townsend","geo_score":0.497,"address 1":"6028 Bayfield Parkway","id":"aebczvxnubar","geo_precision":"street","state":"NC"},"type":"Feature","geometry":{"type":"Point","coordinates":[-80.485607,35.378664]}},{"properties":{"city":"Greenville","zip":"29601","store no-":"7007A","last name":"Bockstahler","geo_score":1.0,"address 1":"233 North Main Street","id":"aebczvy2bgh4","geo_precision":"range","state":"SC"},"type":"Feature","geometry":{"type":"Point","coordinates":[-82.397739,34.853525]}},{"properties":{"city":"Saugus","zip":"91350","store no-":"20018","last name":"Youlios","geo_score":1.0,"address 1":"26510 Bouquet Canyon Rd.","id":"aebczvon7s5p","geo_precision":"range","state":"CA"},"type":"Feature","geometry":{"type":"Point","coordinates":[-118.536938,34.427286]}},{"properties":{"city":"La Canada","zip":"91011","store no-":"20044","last name":"Simmons","geo_score":0.946,"address 1":"711 Foothill Blvd.","id":"aebczw0eoqvy","geo_precision":"range","state":"CA"},"type":"Feature","geometry":{"type":"Point","coordinates":[-118.194236,34.201702]}},{"properties":{"city":"Pasadena","zip":"91101","store no-":"20052","last name":"Simmons","geo_score":0.614,"address 1":"122 S. Lake Avenue","id":"aebczvo1x015","geo_precision":"street","state":"CA"},"type":"Feature","geometry":{"type":"Point","coordinates":[-118.132353,34.1459]}},{"properties":{"city":"South Pasadena","zip":"91030","store no-":"20083","last name":"Simmons","geo_score":1.0,"address 1":"462 Fair Oaks Avenue","id":"aebczvvnie0a","geo_precision":"range","state":"CA"},"type":"Feature","geometry":{"type":"Point","coordinates":[-118.150223,34.120291]}},{"properties":{"city":"Altamonte Springs","zip":"32714","store no-":"13036","last name":"Padgett","geo_score":0.317,"address 1":"851 S. State Rd. 434","id":"aebczvo18mqo","geo_precision":"street","state":"FL"},"type":"Feature","geometry":{"type":"Point","coordinates":[-81.279707,28.771144]}},{"properties":{"city":"Spring Hill","zip":"37174","store no-":"4042","last name":"Newton","geo_score":0.493,"address 1":"5018 Spedale Court","id":"aebczvwkceg7","geo_precision":"street","state":"TN"},"type":"Feature","geometry":{"type":"Point","coordinates":[-86.078925,36.102208]}},{"properties":{"city":"Raleigh","zip":"27613","store no-":"3008C","last name":"Johnson","geo_score":1.0,"address 1":"8111 Creedmoor Rd.","id":"aebczvzplbc5","geo_precision":"range","state":"NC"},"type":"Feature","geometry":{"type":"Point","coordinates":[-78.680653,35.89741]}},{"properties":{"city":"Raleigh","zip":"27614","store no-":"3029B","last name":"Johnson","geo_score":0.961,"address 1":"1121-105 Falls River Ave.","id":"aebczvopqldq","geo_precision":"range","state":"NC"},"type":"Feature","geometry":{"type":"Point","coordinates":[-78.587752,35.907616]}},{"properties":{"city":"Howell","zip":"7731","store no-":"1010","last name":"Terry","geo_score":0.679,"address 1":"3950 Route 9 &amp; Aldrich Road","id":"aebczvpvmiax","geo_precision":"street","state":"NJ"},"type":"Feature","geometry":{"type":"Point","coordinates":[-74.255907,40.203294]}},{"properties":{"city":"Rocky Mount","zip":"27804","store no-":"3016A","last name":"Anderson","geo_score":1.0,"address 1":"1469 Hunter Hill Rd.","id":"aebczvwimz73","geo_precision":"range","state":"NC"},"type":"Feature","geometry":{"type":"Point","coordinates":[-77.820768,35.971974]}},{"properties":{"city":"Richardson","zip":"75080","store no-":"15035","last name":"Wuertz","geo_score":0.619,"address 1":"1920 N. Coit Rd.","id":"aebczw136xhp","geo_precision":"street","state":"TX"},"type":"Feature","geometry":{"type":"Point","coordinates":[-96.768988,32.950845]}},{"properties":{"city":"Holly Springs","zip":"30188","store no-":"5038","last name":"O'Donnell","geo_score":0.917,"address 1":"5341 Old Highway 5","id":"aebczvqv5i92","geo_precision":"range","state":"GA"},"type":"Feature","geometry":{"type":"Point","coordinates":[-84.503854,34.139872]}},{"properties":{"city":"Whippany","zip":"7981","store no-":"1023","last name":"Hankinson","geo_score":0.683,"address 1":"831 Route 10 East","id":"aebczvmqeh93","geo_precision":"range","state":"NJ"},"type":"Feature","geometry":{"type":"Point","coordinates":[-74.424338,40.826482]}},{"properties":{"city":"Topeka","zip":"66614","store no-":"21001","last name":"Kallman","geo_score":1.0,"address 1":"2121 SW Wanamaker Rd","id":"aebczvp33thd","geo_precision":"range","state":"KS"},"type":"Feature","geometry":{"type":"Point","coordinates":[-95.762328,39.026541]}},{"properties":{"city":"Port Orange","zip":"32127","store no-":"13041","last name":"Ceide","geo_score":1.0,"address 1":"3843 South Nova Road","id":"aebczw2m3g3b","geo_precision":"range","state":"FL"},"type":"Feature","geometry":{"type":"Point","coordinates":[-81.004222,29.125919]}},{"properties":{"city":"Calabasas","zip":"91302","store no-":"20042","last name":"Sutter","geo_score":1.0,"address 1":"26799 Agoura Rd.","id":"aebczw1u415l","geo_precision":"range","state":"CA"},"type":"Feature","geometry":{"type":"Point","coordinates":[-118.706872,34.139984]}},{"properties":{"city":"Port St. Lucie","zip":"34984","store no-":"13031A","last name":"Rex","geo_score":0.597,"address 1":"262 SW Port St. Lucie Blvd.","id":"aebczvvkxja8","geo_precision":"street","state":"FL"},"type":"Feature","geometry":{"type":"Point","coordinates":[-80.314679,27.165221]}},{"properties":{"city":"Indianapolis","zip":"46268","store no-":"11009B","last name":"Raxlin","geo_score":0.902,"address 1":"7125 Georgetown Rd.","id":"aebczvqy7rnu","geo_precision":"range","state":"IN"},"type":"Feature","geometry":{"type":"Point","coordinates":[-86.241529,39.89324]}},{"properties":{"city":"Raleigh","zip":"27612","store no-":"3002A","last name":"Haines","geo_score":0.585,"address 1":"5910-119 Duraleigh Rd.","id":"aebczvwe3o5s","geo_precision":"zip","state":"NC"},"type":"Feature","geometry":{"type":"Point","coordinates":[-78.675135,35.821942]}},{"properties":{"city":"Lakewood","zip":"8701","store no-":"1028","last name":"Terry","geo_score":0.854,"address 1":"1195 Route 70","id":"aebczvrynda0","geo_precision":"range","state":"NJ"},"type":"Feature","geometry":{"type":"Point","coordinates":[-74.179137,40.053134]}},{"properties":{"city":"Boca Raton","zip":"33431","store no-":"13058","last name":"Coleman","geo_score":0.61,"address 1":"1200 Yamato Rd.","id":"aebczw2ij08w","geo_precision":"street","state":"FL"},"type":"Feature","geometry":{"type":"Point","coordinates":[-80.150241,26.394119]}},{"properties":{"city":"Bonita Springs","zip":"34135","store no-":"13028","last name":"Shaw","geo_score":1.0,"address 1":"8951 Bonita Beach Road","id":"aebczvq3owis","geo_precision":"range","state":"FL"},"type":"Feature","geometry":{"type":"Point","coordinates":[-81.803661,26.330503]}},{"properties":{"city":"Indianapolis","zip":"46250","store no-":"11011A","last name":"Fleischman","geo_score":0.619,"address 1":"5025 E. 82nd Street","id":"aebczvz8auqk","geo_precision":"street","state":"IN"},"type":"Feature","geometry":{"type":"Point","coordinates":[-86.104914,39.910183]}},{"properties":{"city":"Cary","zip":"27518","store no-":"3127","last name":"Hardie","geo_score":0.612,"address 1":"280 Meeting Street","id":"aebczvvz2gas","geo_precision":"street","state":"NC"},"type":"Feature","geometry":{"type":"Point","coordinates":[-79.062385,35.884366]}},{"properties":{"city":"Cherry Hill","zip":"8002","store no-":"1037","last name":"Helm","geo_score":1.0,"address 1":"512 Haddonfield Road","id":"aebczw26lokf","geo_precision":"range","state":"NJ"},"type":"Feature","geometry":{"type":"Point","coordinates":[-75.030934,39.934199]}},{"properties":{"city":"Rock Hill","zip":"29732","store no-":"7005C","last name":"Blake-Ward","geo_score":0.805,"address 1":"735 Cherry Road","id":"aebczw0r8q28","geo_precision":"street","state":"SC"},"type":"Feature","geometry":{"type":"Point","coordinates":[-80.991768,34.970027]}},{"properties":{"city":"Cinnaminson","zip":"8077","store no-":"1032","last name":"Helm","geo_score":0.702,"address 1":"195 Route 130","id":"aebczw0h3660","geo_precision":"range","state":"NJ"},"type":"Feature","geometry":{"type":"Point","coordinates":[-75.010613,39.987353]}},{"properties":{"city":"Moorestown","zip":"8057","store no-":"1033","last name":"Helm","geo_score":0.585,"address 1":"1624 Nixon Drive","id":"aebczvzsvov2","geo_precision":"zip","state":"NJ"},"type":"Feature","geometry":{"type":"Point","coordinates":[-74.982391,39.962335]}},{"properties":{"city":"Charlotte","zip":"28203","store no-":"3130","last name":"Smith","geo_score":0.902,"address 1":"1300 East Blvd.","id":"aebczvvt0x1z","geo_precision":"range","state":"NC"},"type":"Feature","geometry":{"type":"Point","coordinates":[-80.843701,35.201234]}},{"properties":{"city":"Charlotte","zip":"28202","store no-":"3096","last name":"Smith","geo_score":1.0,"address 1":"128 South Tryon Street","id":"aebczvxuvlm8","geo_precision":"range","state":"NC"},"type":"Feature","geometry":{"type":"Point","coordinates":[-80.843993,35.226696]}},{"properties":{"city":"Tampa","zip":"33606","store no-":"13065","last name":"Atkins","geo_score":0.602,"address 1":"2121 W. Kennedy Blvd.","id":"aebczvqe9s8t","geo_precision":"street","state":"FL"},"type":"Feature","geometry":{"type":"Point","coordinates":[-82.459657,27.947105]}},{"properties":{"city":"Trinity","zip":"34655","store no-":"13072","last name":"Atkins","geo_score":0.734,"address 1":"10829 State Road 54","id":"aebczw1dre5d","geo_precision":"street","state":"FL"},"type":"Feature","geometry":{"type":"Point","coordinates":[-82.635015,28.193215]}},{"properties":{"city":"Fuquay-Varina","zip":"27526","store no-":"3021B","last name":"Boyd","geo_score":0.667,"address 1":"701-A N. Main St.","id":"aebczvqqlagx","geo_precision":"street","state":"NC"},"type":"Feature","geometry":{"type":"Point","coordinates":[-78.799927,35.57891]}},{"properties":{"city":"Raleigh","zip":"27614","store no-":"3101A","last name":"Obman","geo_score":0.953,"address 1":"14460-113 New Falls of the Neuse Road","id":"aebczvobryk6","geo_precision":"range","state":"NC"},"type":"Feature","geometry":{"type":"Point","coordinates":[-78.541692,35.945846]}},{"properties":{"city":"Raleigh","zip":"27603","store no-":"3042B","last name":"Elwood","geo_score":1.0,"address 1":"7949 Fayetteville Road","id":"aebczvr8iqpg","geo_precision":"range","state":"NC"},"type":"Feature","geometry":{"type":"Point","coordinates":[-78.698325,35.665704]}},{"properties":{"city":"Garner","zip":"27529","store no-":"3091A","last name":"Fulghum","geo_score":1.0,"address 1":"2345 Timber Drive","id":"aebczvnbnink","geo_precision":"range","state":"NC"},"type":"Feature","geometry":{"type":"Point","coordinates":[-78.63969,35.698136]}},{"properties":{"city":"Jupiter","zip":"33458","store no-":"13060","last name":"Gagne","geo_score":0.836,"address 1":"5500 North Military Trail","id":"aebczvshi88h","geo_precision":"range","state":"FL"},"type":"Feature","geometry":{"type":"Point","coordinates":[-80.102612,26.907697]}},{"properties":{"city":"Cincinnati","zip":"45249","store no-":"2048","last name":"Rover","geo_score":0.937,"address 1":"12133 Royal Point Dr.","id":"aebczvuy48f4","geo_precision":"range","state":"OH"},"type":"Feature","geometry":{"type":"Point","coordinates":[-84.311233,39.291862]}},{"properties":{"city":"Raleigh","zip":"27609","store no-":"3131","last name":"Yount","geo_score":1.0,"address 1":"6176 Falls of Neuse Road","id":"aebczvyv0wjg","geo_precision":"range","state":"NC"},"type":"Feature","geometry":{"type":"Point","coordinates":[-78.620483,35.866098]}},{"properties":{"city":"Westerville","zip":"43081","store no-":"2013A","last name":"Tittle","geo_score":1.0,"address 1":"5957 Sunbury Road","id":"aebczvooerwh","geo_precision":"range","state":"OH"},"type":"Feature","geometry":{"type":"Point","coordinates":[-82.895731,40.083183]}},{"properties":{"city":"Rock Hill","zip":"29732","store no-":"7006B","last name":"Blake-Ward","geo_score":1.0,"address 1":"2748 Celanese Road","id":"aebczvz7dw5n","geo_precision":"range","state":"SC"},"type":"Feature","geometry":{"type":"Point","coordinates":[-81.026446,34.975985]}},{"properties":{"city":"Schaumburg","zip":"60194","store no-":"27019A","last name":"Punukollu","geo_score":0.857,"address 1":"2568 W. Schaumburg Rd.","id":"aebczvmj9rbt","geo_precision":"zip","state":"IL"},"type":"Feature","geometry":{"type":"Point","coordinates":[-88.116655,42.028926]}},{"properties":{"city":"Charlotte","zip":"28273","store no-":"3073B","last name":"Blake-Ward","geo_score":0.932,"address 1":"11112-A South Tryon St.","id":"aebczvu17tnk","geo_precision":"range","state":"NC"},"type":"Feature","geometry":{"type":"Point","coordinates":[-80.962071,35.115343]}},{"properties":{"city":"Schaumburg","zip":"60173","store no-":"27006A","last name":"Punukollu","geo_score":0.961,"address 1":"601 Martingale Road","id":"aebczvxt4irs","geo_precision":"range","state":"IL"},"type":"Feature","geometry":{"type":"Point","coordinates":[-88.035597,42.040517]}},{"properties":{"city":"Stuart","zip":"34997","store no-":"13009A","last name":"Forbes","geo_score":0.602,"address 1":"3321 S. Federal Highway","id":"aebczvvpnehr","geo_precision":"street","state":"FL"},"type":"Feature","geometry":{"type":"Point","coordinates":[-80.231169,27.17219]}},{"properties":{"city":"Oldsmar","zip":"34677","store no-":"13039","last name":"Kenny","geo_score":1.0,"address 1":"3860 Tampa Road","id":"aebczvojwpdh","geo_precision":"range","state":"FL"},"type":"Feature","geometry":{"type":"Point","coordinates":[-82.672836,28.041937]}},{"properties":{"city":"Tarboro","zip":"27886","store no-":"3110","last name":"Wooten","geo_score":0.955,"address 1":"150 River Oaks Drive","id":"aebczvzzilwl","geo_precision":"range","state":"NC"},"type":"Feature","geometry":{"type":"Point","coordinates":[-77.546339,35.882564]}},{"properties":{"city":"Fairfax","zip":"22030","store no-":"6027","last name":"White","geo_score":1.0,"address 1":"11199 Lee Highway","id":"aebczvmed4rn","geo_precision":"range","state":"VA"},"type":"Feature","geometry":{"type":"Point","coordinates":[-77.329639,38.852022]}},{"properties":{"city":"Chantilly","zip":"20151","store no-":"6029","last name":"White","geo_score":0.659,"address 1":"5005 Westone Plaza Blvd.","id":"aebczw2j1uak","geo_precision":"range","state":"VA"},"type":"Feature","geometry":{"type":"Point","coordinates":[-77.710504,38.660256]}},{"properties":{"city":"Houston","zip":"77007","store no-":"15034","last name":"Nordenstrom","geo_score":1.0,"address 1":"103 Yale Street","id":"aebczw0kreml","geo_precision":"range","state":"TX"},"type":"Feature","geometry":{"type":"Point","coordinates":[-95.398696,29.77149]}},{"properties":{"city":"Houston","zip":"77077","store no-":"15031","last name":"Nordenstrom","geo_score":1.0,"address 1":"1635 Eldridge Parkway","id":"aebczvu99001","geo_precision":"range","state":"TX"},"type":"Feature","geometry":{"type":"Point","coordinates":[-95.625184,29.754393]}},{"properties":{"city":"Houston","zip":"77025","store no-":"15038","last name":"Nordenstrom","geo_score":1.0,"address 1":"8001 South Main St","id":"aebczvu84xqz","geo_precision":"range","state":"TX"},"type":"Feature","geometry":{"type":"Point","coordinates":[-95.414864,29.693835]}},{"properties":{"city":"Niles","zip":"60714","store no-":"27029A","last name":"Punukollu","geo_score":1.0,"address 1":"5691 West Touhy Ave","id":"aebczvxsn3st","geo_precision":"range","state":"IL"},"type":"Feature","geometry":{"type":"Point","coordinates":[-87.769888,42.011876]}},{"properties":{"city":"Vero Beach","zip":"32960","store no-":"13023A","last name":"Nigito","geo_score":0.916,"address 1":"628 21st Street","id":"aebczvmv3d0i","geo_precision":"range","state":"FL"},"type":"Feature","geometry":{"type":"Point","coordinates":[-80.385999,27.639829]}},{"properties":{"city":"Ojai","zip":"93023","store no-":"20006","last name":"Burrell","geo_score":0.614,"address 1":"423 E. Ojai Ave.","id":"aebczw0o0nkk","geo_precision":"street","state":"CA"},"type":"Feature","geometry":{"type":"Point","coordinates":[-119.249394,34.447489]}},{"properties":{"city":"Newbury Park","zip":"91320","store no-":"20013","last name":"Burrell","geo_score":1.0,"address 1":"1610-2 Newbury Rd","id":"aebczw1u017o","geo_precision":"range","state":"CA"},"type":"Feature","geometry":{"type":"Point","coordinates":[-118.916276,34.183891]}},{"properties":{"city":"Westlake Village","zip":"91362","store no-":"20011","last name":"Burrell","geo_score":0.477,"address 1":"3825 E. Thousand Oaks Blvd.","id":"aebczvx0qrnq","geo_precision":"street","state":"CA"},"type":"Feature","geometry":{"type":"Point","coordinates":[-118.874018,34.179148]}},{"properties":{"city":"Ventura","zip":"93003","store no-":"20100","last name":"Burrell","geo_score":1.0,"address 1":"3301 East Main St","id":"aebczvpdzmdz","geo_precision":"range","state":"CA"},"type":"Feature","geometry":{"type":"Point","coordinates":[-119.247534,34.265434]}},{"properties":{"city":"Thousand Oaks","zip":"91360","store no-":"20048","last name":"Burrell","geo_score":0.614,"address 1":"605 E. Janss Road","id":"aebczvwks3kp","geo_precision":"street","state":"CA"},"type":"Feature","geometry":{"type":"Point","coordinates":[-118.873611,34.200497]}},{"properties":{"city":"Arroyo Grande","zip":"93420","store no-":"20029","last name":"Burrell","geo_score":0.947,"address 1":"1540 E Grand Ave.","id":"aebczvolm8df","geo_precision":"range","state":"CA"},"type":"Feature","geometry":{"type":"Point","coordinates":[-120.606186,35.120869]}},{"properties":{"city":"Long Beach","zip":"90831","store no-":"20025","last name":"Burrell","geo_score":0.957,"address 1":"One World Trade Center","id":"aebczvt03k36","geo_precision":"street","state":"CA"},"type":"Feature","geometry":{"type":"Point","coordinates":[-118.199374,33.767319]}},{"properties":{"city":"Oxnard","zip":"93033","store no-":"20009A","last name":"Burrell","geo_score":0.902,"address 1":"2721 South Rose Ave.","id":"aebczw1qmb35","geo_precision":"range","state":"CA"},"type":"Feature","geometry":{"type":"Point","coordinates":[-119.159997,34.182084]}},{"properties":{"city":"Camarillo","zip":"93010","store no-":"20001","last name":"Burrell","geo_score":0.614,"address 1":"370 N. Lantana","id":"aebczvyli73w","geo_precision":"street","state":"CA"},"type":"Feature","geometry":{"type":"Point","coordinates":[-119.054237,34.232946]}},{"properties":{"city":"Ventura","zip":"93003","store no-":"20003","last name":"Burrell","geo_score":0.602,"address 1":"1145 S. Victoria Avenue","id":"aebczvw1bt0c","geo_precision":"street","state":"CA"},"type":"Feature","geometry":{"type":"Point","coordinates":[-119.214447,34.275587]}},{"properties":{"city":"Santa Maria","zip":"93455","store no-":"20023","last name":"Burrell","geo_score":0.805,"address 1":"2358 S Bradley Rd","id":"aebczw2pjcwa","geo_precision":"street","state":"CA"},"type":"Feature","geometry":{"type":"Point","coordinates":[-120.418523,34.909214]}},{"properties":{"city":"Boynton Beach","zip":"33426","store no-":"13012","last name":"McMenaman","geo_score":0.961,"address 1":"2260 Woolbright Rd.","id":"aebczvqnoyqy","geo_precision":"range","state":"FL"},"type":"Feature","geometry":{"type":"Point","coordinates":[-80.089841,26.513137]}},{"properties":{"city":"Easley","zip":"29640","store no-":"7043","last name":"Cunningham","geo_score":0.667,"address 1":"125 Rolling Hills Circle","id":"aebczvp2uzjw","geo_precision":"range","state":"SC"},"type":"Feature","geometry":{"type":"Point","coordinates":[-83.050781,34.652879]}},{"properties":{"city":"Clemson","zip":"29631","store no-":"7022B","last name":"Bockstahler","geo_score":1.0,"address 1":"1067 Tiger Boulevard","id":"aebczvnbtl05","geo_precision":"range","state":"SC"},"type":"Feature","geometry":{"type":"Point","coordinates":[-82.849396,34.692754]}},{"properties":{"city":"Canyon Country","zip":"91351","store no-":"20016B","last name":"Youlios","geo_score":1.0,"address 1":"18635 Soledad Canyon Road","id":"aebczvuw8ccc","geo_precision":"range","state":"CA"},"type":"Feature","geometry":{"type":"Point","coordinates":[-118.458657,34.416026]}},{"properties":{"city":"Killeen","zip":"76543","store no-":"15041","last name":"Selden","geo_score":0.593,"address 1":"3007 E. Central Texas Expressway","id":"aebczvxubqtm","geo_precision":"street","state":"TX"},"type":"Feature","geometry":{"type":"Point","coordinates":[-97.716102,31.088538]}},{"properties":{"city":"Longview","zip":"75604","store no-":"15036","last name":"Selden","geo_score":1.0,"address 1":"2199 Gilmer Road","id":"aebczvmhkxk9","geo_precision":"range","state":"TX"},"type":"Feature","geometry":{"type":"Point","coordinates":[-94.787236,32.52829]}},{"properties":{"city":"Tyler","zip":"75701","store no-":"15025","last name":"Selden","geo_score":0.585,"address 1":"1690 South Beckham Avenue","id":"aebczvzz2tcv","geo_precision":"zip","state":"TX"},"type":"Feature","geometry":{"type":"Point","coordinates":[-95.466068,32.414312]}},{"properties":{"city":"Longview","zip":"75604","store no-":"15040","last name":"Selden","geo_score":0.571,"address 1":"3312 N. Fourth Street","id":"aebczvz4pcin","geo_precision":"street","state":"TX"},"type":"Feature","geometry":{"type":"Point","coordinates":[-94.795133,32.533386]}},{"properties":{"city":"Tyler","zip":"75703","store no-":"15004A","last name":"Selden","geo_score":0.602,"address 1":"4754 S. Broadway","id":"aebczvukc5x9","geo_precision":"street","state":"TX"},"type":"Feature","geometry":{"type":"Point","coordinates":[-95.30066,32.302897]}},{"properties":{"city":"Mansfield","zip":"76063","store no-":"15050","last name":"Selden","geo_score":0.61,"address 1":"1301 E. Debbie Lane","id":"aebczvx76tt3","geo_precision":"street","state":"TX"},"type":"Feature","geometry":{"type":"Point","coordinates":[-97.140465,32.594642]}},{"properties":{"city":"Shreveport","zip":"71105","store no-":"30001","last name":"Selden","geo_score":1.0,"address 1":"7435 Youree Drive","id":"aebczvouvcmq","geo_precision":"range","state":"LA"},"type":"Feature","geometry":{"type":"Point","coordinates":[-93.717386,32.442231]}},{"properties":{"city":"Morehead City","zip":"28557","store no-":"3047A","last name":"Anderson","geo_score":1.0,"address 1":"4950 Arendell Street","id":"aebczvsorwcd","geo_precision":"range","state":"NC"},"type":"Feature","geometry":{"type":"Point","coordinates":[-76.78957,34.734305]}},{"properties":{"city":"Orland Park","zip":"60462","store no-":"27021","last name":"Shimmon","geo_score":0.602,"address 1":"15625 S. La Grange Road","id":"aebczvvqqw0k","geo_precision":"street","state":"IL"},"type":"Feature","geometry":{"type":"Point","coordinates":[-87.853966,41.649938]}},{"properties":{"city":"Coppell","zip":"75019","store no-":"15044","last name":"Selden","geo_score":0.6,"address 1":"143 S. Denton Tap Road","id":"aebczvtdk3nj","geo_precision":"street","state":"TX"},"type":"Feature","geometry":{"type":"Point","coordinates":[-96.993692,32.968458]}},{"properties":{"city":"San Diego","zip":"92111","store no-":"20056","last name":"Paul","geo_score":0.805,"address 1":"7420 Clairemont Mesa Blvd.","id":"aebczvsr077p","geo_precision":"range","state":"CA"},"type":"Feature","geometry":{"type":"Point","coordinates":[-117.153523,32.832804]}},{"properties":{"city":"Richmond","zip":"23220","store no-":"6008A","last name":"Waldrop","geo_score":1.0,"address 1":"927 West Broad Street","id":"aebczvr9f4n0","geo_precision":"range","state":"VA"},"type":"Feature","geometry":{"type":"Point","coordinates":[-77.450152,37.550326]}},{"properties":{"city":"Bristol","zip":"24202","store no-":"6009","last name":"Wampler","geo_score":1.0,"address 1":"102 Bonham Rd.","id":"aebczvqn5g6n","geo_precision":"range","state":"VA"},"type":"Feature","geometry":{"type":"Point","coordinates":[-82.130924,36.63188]}},{"properties":{"city":"Bristol","zip":"37620","store no-":"4035","last name":"Wampler","geo_score":1.0,"address 1":"1430 Volunteer Parkway","id":"aebczvqxesyt","geo_precision":"range","state":"TN"},"type":"Feature","geometry":{"type":"Point","coordinates":[-82.213123,36.558059]}},{"properties":{"city":"Kingsport","zip":"37660","store no-":"4040","last name":"Wampler","geo_score":1.0,"address 1":"2637 East Stone Drive","id":"aebczvmmsx1v","geo_precision":"range","state":"TN"},"type":"Feature","geometry":{"type":"Point","coordinates":[-82.496614,36.548562]}},{"properties":{"city":"Brandon","zip":"33511","store no-":"13026","last name":"Fanning","geo_score":0.719,"address 1":"10951 Causeway Blvd","id":"aebczvy4u60g","geo_precision":"street","state":"FL"},"type":"Feature","geometry":{"type":"Point","coordinates":[-82.332562,27.923071]}},{"properties":{"city":"Wilson","zip":"27893","store no-":"3035A","last name":"Wooten","geo_score":0.757,"address 1":"2338 Forest Hills Road","id":"aebczvt7r4d7","geo_precision":"street","state":"NC"},"type":"Feature","geometry":{"type":"Point","coordinates":[-77.952129,35.719792]}},{"properties":{"city":"Houston","zip":"77056","store no-":"15008A","last name":"Selden","geo_score":0.945,"address 1":"5393-B Westheimer Rd","id":"aebczvsia306","geo_precision":"range","state":"TX"},"type":"Feature","geometry":{"type":"Point","coordinates":[-95.467142,29.740297]}},{"properties":{"city":"Katy","zip":"77494","store no-":"15042","last name":"Selden","geo_score":0.683,"address 1":"6645 South Fry Road","id":"aebczvr9iwf8","geo_precision":"range","state":"TX"},"type":"Feature","geometry":{"type":"Point","coordinates":[-95.755057,29.717487]}},{"properties":{"city":"Stevenson Ranch","zip":"91381","store no-":"20045","last name":"Youlios","geo_score":1.0,"address 1":"25660 The Old Road","id":"aebczvr8t9wu","geo_precision":"range","state":"CA"},"type":"Feature","geometry":{"type":"Point","coordinates":[-118.572067,34.386217]}},{"properties":{"city":"Frederick","zip":"21703","store no-":"28003","last name":"Malamis","geo_score":1.0,"address 1":"5599 Spectrum Drive","id":"aebczvp0dwdj","geo_precision":"range","state":"MD"},"type":"Feature","geometry":{"type":"Point","coordinates":[-77.404686,39.384823]}},{"properties":{"city":"Germantown","zip":"20876","store no-":"28001","last name":"Malamis","geo_score":0.941,"address 1":"21040-F Frederick Rd.","id":"aebczvz9rz6q","geo_precision":"range","state":"MD"},"type":"Feature","geometry":{"type":"Point","coordinates":[-77.245911,39.203536]}},{"properties":{"city":"Greenbelt","zip":"20770","store no-":"28007","last name":"Malamis","geo_score":1.0,"address 1":"6000 Greenbelt Road","id":"aebczvsf4x6e","geo_precision":"range","state":"MD"},"type":"Feature","geometry":{"type":"Point","coordinates":[-76.912037,38.998021]}},{"properties":{"city":"Gaithersburg","zip":"20878","store no-":"28005","last name":"Malamis","geo_score":1.0,"address 1":"249 Kentlands Blvd.","id":"aebczvxx52yw","geo_precision":"range","state":"MD"},"type":"Feature","geometry":{"type":"Point","coordinates":[-77.241756,39.124737]}},{"properties":{"city":"Laurel","zip":"20707","store no-":"28002","last name":"Malamis","geo_score":1.0,"address 1":"13600 Baltimore Ave.","id":"aebczvtoxk5c","geo_precision":"range","state":"MD"},"type":"Feature","geometry":{"type":"Point","coordinates":[-76.867894,39.07657]}},{"properties":{"city":"Valencia","zip":"91354","store no-":"20005A","last name":"Youlios","geo_score":0.61,"address 1":"23872 Copper Hill Dr","id":"aebczvta3ne5","geo_precision":"street","state":"CA"},"type":"Feature","geometry":{"type":"Point","coordinates":[-118.535189,34.46]}},{"properties":{"city":"Wichita Falls","zip":"76308","store no-":"15032","last name":"Selden","geo_score":1.0,"address 1":"3801 Call Field Road","id":"aebczvxb9du0","geo_precision":"range","state":"TX"},"type":"Feature","geometry":{"type":"Point","coordinates":[-98.539942,33.871235]}},{"properties":{"city":"Fort Worth","zip":"76116","store no-":"15026","last name":"Selden","geo_score":1.0,"address 1":"6318 Camp Bowie Boulevard","id":"aebczvn9zxfn","geo_precision":"range","state":"TX"},"type":"Feature","geometry":{"type":"Point","coordinates":[-97.419206,32.727261]}},{"properties":{"city":"Fort Worth","zip":"76155","store no-":"15033","last name":"Selden","geo_score":1.0,"address 1":"14113 Trinity Blvd.","id":"aebczvwhnutq","geo_precision":"range","state":"TX"},"type":"Feature","geometry":{"type":"Point","coordinates":[-97.061191,32.822236]}},{"properties":{"city":"Cincinnati","zip":"45231","store no-":"2008C","last name":"Jett","geo_score":1.0,"address 1":"8481 Winton Rd.","id":"aebczvs4nkg4","geo_precision":"range","state":"OH"},"type":"Feature","geometry":{"type":"Point","coordinates":[-84.517416,39.223038]}},{"properties":{"city":"West Chester","zip":"45069","store no-":"2043","last name":"Jett","geo_score":0.63,"address 1":"7240 Towne Center Drive","id":"aebczvzessv9","geo_precision":"street","state":"OH"},"type":"Feature","geometry":{"type":"Point","coordinates":[-84.363393,39.326017]}},{"properties":{"city":"Brea","zip":"92821","store no-":"20031","last name":"Palomaria","geo_score":1.0,"address 1":"955 East Birch Street","id":"aebczw1s3x0b","geo_precision":"range","state":"CA"},"type":"Feature","geometry":{"type":"Point","coordinates":[-117.883395,33.917924]}},{"properties":{"city":"Castaic","zip":"91384","store no-":"20015A","last name":"Ensing","geo_score":1.0,"address 1":"31765 Castaic Road","id":"aebczvqsj1r8","geo_precision":"range","state":"CA"},"type":"Feature","geometry":{"type":"Point","coordinates":[-118.621828,34.495817]}},{"properties":{"city":"Geneva","zip":"60134","store no-":"27008","last name":"Shipman","geo_score":0.607,"address 1":"1770 S. Randall Rd.","id":"aebczw1ympq6","geo_precision":"street","state":"IL"},"type":"Feature","geometry":{"type":"Point","coordinates":[-88.340368,41.872172]}},{"properties":{"city":"St. Charles","zip":"60174","store no-":"27020","last name":"Shipman","geo_score":0.97,"address 1":"2540 East Main St.","id":"aebczvmb7wl9","geo_precision":"range","state":"IL"},"type":"Feature","geometry":{"type":"Point","coordinates":[-88.282827,41.921247]}},{"properties":{"city":"South Elgin","zip":"60177","store no-":"27039","last name":"Shipman","geo_score":0.585,"address 1":"469 Redington Drive","id":"aebczvwcj661","geo_precision":"zip","state":"IL"},"type":"Feature","geometry":{"type":"Point","coordinates":[-88.405895,42.007476]}},{"properties":{"city":"Johnson City","zip":"37604","store no-":"4020","last name":"Hudson","geo_score":0.785,"address 1":"2106 Mount Castle Drive","id":"aebczvxoehtq","geo_precision":"street","state":"TN"},"type":"Feature","geometry":{"type":"Point","coordinates":[-82.369712,36.342611]}},{"properties":{"city":"Johnson City","zip":"37604","store no-":"4002","last name":"Hudson","geo_score":0.752,"address 1":"1805  West State of Franklin","id":"aebczvx9fqzj","geo_precision":"street","state":"TN"},"type":"Feature","geometry":{"type":"Point","coordinates":[-82.397195,36.354732]}},{"properties":{"city":"Charlotte","zip":"28204","store no-":"3038B","last name":"Blake-Ward","geo_score":0.927,"address 1":"2001 East 7th Street","id":"aebczvyn28nq","geo_precision":"range","state":"NC"},"type":"Feature","geometry":{"type":"Point","coordinates":[-80.816758,35.211445]}},{"properties":{"city":"St. Petersburg","zip":"33716","store no-":"13056","last name":"Connolly","geo_score":0.783,"address 1":"10304 Roosevelt Boulevard North","id":"aebczvwua4iw","geo_precision":"street","state":"FL"},"type":"Feature","geometry":{"type":"Point","coordinates":[-82.645009,27.868395]}},{"properties":{"city":"San Antonio","zip":"78229","store no-":"15029","last name":"Murph","geo_score":1.0,"address 1":"7970 Fredericksburg Road","id":"aebczvtu63uu","geo_precision":"range","state":"TX"},"type":"Feature","geometry":{"type":"Point","coordinates":[-98.567166,29.510873]}},{"properties":{"city":"San Antonio","zip":"78258","store no-":"15030","last name":"Murph","geo_score":1.0,"address 1":"20323 Huebner Road","id":"aebczvymaaz5","geo_precision":"range","state":"TX"},"type":"Feature","geometry":{"type":"Point","coordinates":[-98.501176,29.626116]}},{"properties":{"city":"San Antonio","zip":"78245","store no-":"15028","last name":"Murph","geo_score":0.684,"address 1":"8603 State Highway 151","id":"aebczvr8ey27","geo_precision":"street","state":"TX"},"type":"Feature","geometry":{"type":"Point","coordinates":[-98.658943,29.438789]}},{"properties":{"city":"Kennesaw","zip":"30144","store no-":"5039","last name":"Barnes","geo_score":0.735,"address 1":"840 Ernest W. Barrett Pkwy NW","id":"aebczvu5wlet","geo_precision":"street","state":"GA"},"type":"Feature","geometry":{"type":"Point","coordinates":[-84.561303,34.014033]}},{"properties":{"city":"Gainesville","zip":"32605","store no-":"13054","last name":"Crowell","geo_score":0.809,"address 1":"2015 NW 43rd Street","id":"aebczw20wmgc","geo_precision":"street","state":"FL"},"type":"Feature","geometry":{"type":"Point","coordinates":[-82.388986,29.671031]}},{"properties":{"city":"Tallahassee","zip":"32304","store no-":"13043","last name":"Crowell","geo_score":1.0,"address 1":"1801 West Tennessee St.","id":"aebczvn88f6w","geo_precision":"range","state":"FL"},"type":"Feature","geometry":{"type":"Point","coordinates":[-84.308628,30.449043]}},{"properties":{"city":"Tallahassee","zip":"32312","store no-":"13047","last name":"Crowell","geo_score":1.0,"address 1":"1355 Market St.","id":"aebczw17mov7","geo_precision":"range","state":"FL"},"type":"Feature","geometry":{"type":"Point","coordinates":[-84.253809,30.506034]}},{"properties":{"city":"Tallahassee","zip":"32308","store no-":"13069","last name":"Crowell","geo_score":1.0,"address 1":"3122 Mahan Drive","id":"aebczw064f7g","geo_precision":"range","state":"FL"},"type":"Feature","geometry":{"type":"Point","coordinates":[-84.226542,30.460648]}},{"properties":{"city":"Tallahassee","zip":"32311","store no-":"13076","last name":"Crowell","geo_score":0.585,"address 1":"1970 Gainesborough Drive","id":"aebczvql82nq","geo_precision":"zip","state":"FL"},"type":"Feature","geometry":{"type":"Point","coordinates":[-84.135913,30.433478]}},{"properties":{"city":"Okeechobee","zip":"34972","store no-":"13035A","last name":"Dail","geo_score":0.779,"address 1":"611 South West Park St.","id":"aebczvsno96o","geo_precision":"street","state":"FL"},"type":"Feature","geometry":{"type":"Point","coordinates":[-80.839147,27.243133]}},{"properties":{"city":"Fayetteville","zip":"28304","store no-":"3094C","last name":"Ainolhayat","geo_score":0.805,"address 1":"2043 Skibo Road","id":"aebczw0esem0","geo_precision":"range","state":"NC"},"type":"Feature","geometry":{"type":"Point","coordinates":[-78.972589,35.055102]}},{"properties":{"city":"Fayetteville","zip":"28311","store no-":"3071B","last name":"Ainolhayat","geo_score":0.927,"address 1":"4225-B Ramsey Street","id":"aebczvmjaeqi","geo_precision":"range","state":"NC"},"type":"Feature","geometry":{"type":"Point","coordinates":[-78.879925,35.118776]}},{"properties":{"city":"Lake in the Hills","zip":"60156","store no-":"27009","last name":"Michalak","geo_score":0.607,"address 1":"285 N. Randall Road","id":"aebczvunoo3c","geo_precision":"street","state":"IL"},"type":"Feature","geometry":{"type":"Point","coordinates":[-88.335472,42.181716]}},{"properties":{"city":"Charlotte","zip":"28208","store no-":"3126","last name":"Blake-Ward","geo_score":1.0,"address 1":"2908 Oak Lake Blvd.","id":"aebczvx4d2r0","geo_precision":"range","state":"NC"},"type":"Feature","geometry":{"type":"Point","coordinates":[-80.923098,35.19016]}},{"properties":{"city":"Simi Valley","zip":"93065","store no-":"20007A","last name":"Bhogal","geo_score":1.0,"address 1":"2790 Cochran Street","id":"aebczvs4z3fd","geo_precision":"range","state":"CA"},"type":"Feature","geometry":{"type":"Point","coordinates":[-118.743807,34.27899]}},{"properties":{"city":"La Jolla","zip":"92037","store no-":"20066","last name":"Kenny","geo_score":1.0,"address 1":"7836 Herschel Avenue","id":"aebczvte6lmy","geo_precision":"range","state":"CA"},"type":"Feature","geometry":{"type":"Point","coordinates":[-117.273167,32.846345]}},{"properties":{"city":"San Diego","zip":"92109","store no-":"20074","last name":"Kenny","geo_score":1.0,"address 1":"1975 Garnet Ave","id":"aebczw1i2j22","geo_precision":"range","state":"CA"},"type":"Feature","geometry":{"type":"Point","coordinates":[-117.234709,32.801026]}},{"properties":{"city":"Solana Beach","zip":"92075","store no-":"20050","last name":"Kenny","geo_score":1.0,"address 1":"915 Lomas Santa Fe Dr.","id":"aebczvpo1wn0","geo_precision":"range","state":"CA"},"type":"Feature","geometry":{"type":"Point","coordinates":[-117.255134,32.995703]}},{"properties":{"city":"Gurnee","zip":"60031","store no-":"27003A","last name":"Punukollu","geo_score":1.0,"address 1":"7105 Grand Ave.","id":"aebczvtsjh67","geo_precision":"range","state":"IL"},"type":"Feature","geometry":{"type":"Point","coordinates":[-87.981085,42.385893]}},{"properties":{"city":"Oxnard","zip":"93035","store no-":"20012","last name":"Kincade","geo_score":0.708,"address 1":"1231 South Victoria Ave.","id":"aebczvql8b27","geo_precision":"street","state":"CA"},"type":"Feature","geometry":{"type":"Point","coordinates":[-119.213741,34.272107]}},{"properties":{"city":"Morganton","zip":"28655","store no-":"3084","last name":"Kinney","geo_score":0.984,"address 1":"108 Fiddler's Run Blvd.","id":"aebczw260xub","geo_precision":"range","state":"NC"},"type":"Feature","geometry":{"type":"Point","coordinates":[-81.669082,35.716829]}},{"properties":{"city":"Alpharetta","zip":"30005","store no-":"5005B","last name":"Knezevich","geo_score":0.878,"address 1":"4075 Old Milton Pkwy.","id":"aebczvnz3z1h","geo_precision":"range","state":"GA"},"type":"Feature","geometry":{"type":"Point","coordinates":[-84.239796,34.060306]}},{"properties":{"city":"Lake Mary","zip":"32746","store no-":"13033","last name":"Padgett","geo_score":0.837,"address 1":"819 Rinehart Road","id":"aebczvp77276","geo_precision":"street","state":"FL"},"type":"Feature","geometry":{"type":"Point","coordinates":[-81.347281,28.779287]}},{"properties":{"city":"Las Vegas","zip":"89148","store no-":"17008","last name":"Gibson","geo_score":0.598,"address 1":"8680 W. Warm Springs Road","id":"aebczvmmz4ir","geo_precision":"street","state":"NV"},"type":"Feature","geometry":{"type":"Point","coordinates":[-115.294554,36.046679]}},{"properties":{"city":"Forked River","zip":"8731","store no-":"1009B","last name":"Hurley","geo_score":1.0,"address 1":"1 Lacey Road","id":"aebczvzfsapn","geo_precision":"range","state":"NJ"},"type":"Feature","geometry":{"type":"Point","coordinates":[-74.191985,39.841113]}},{"properties":{"city":"Lynnwood","zip":"98037","store no-":"18003","last name":"Larson","geo_score":0.649,"address 1":"2701 184th St.  SW","id":"aebczvrjcv5w","geo_precision":"street","state":"WA"},"type":"Feature","geometry":{"type":"Point","coordinates":[-122.289173,47.832011]}},{"properties":{"city":"Greenwood Village","zip":"80111","store no-":"22005","last name":"Chambers","geo_score":0.925,"address 1":"5137 South Yosemite St.","id":"aebczvxozvk1","geo_precision":"range","state":"CO"},"type":"Feature","geometry":{"type":"Point","coordinates":[-104.885404,39.622778]}},{"properties":{"city":"Westminster","zip":"80234","store no-":"22003","last name":"Chambers","geo_score":0.481,"address 1":"12003 N. Pecos Street","id":"aebczvtmtph5","geo_precision":"street","state":"CO"},"type":"Feature","geometry":{"type":"Point","coordinates":[-105.006425,39.890327]}},{"properties":{"city":"Jacksonville","zip":"32207","store no-":"13059","last name":"McLaughlin","geo_score":1.0,"address 1":"1615 Hendricks Avenue","id":"aebczw1rqt2o","geo_precision":"range","state":"FL"},"type":"Feature","geometry":{"type":"Point","coordinates":[-81.65426,30.307513]}},{"properties":{"city":"Santa Monica","zip":"90401","store no-":"20096","last name":"Garcia","geo_score":1.0,"address 1":"1447 Lincoln Blvd.","id":"aebczvut5fj0","geo_precision":"range","state":"CA"},"type":"Feature","geometry":{"type":"Point","coordinates":[-118.490217,34.018657]}},{"properties":{"city":"Long Beach","zip":"90815","store no-":"20089","last name":"Garcia","geo_score":0.973,"address 1":"1831 Ximeno  Avenue","id":"aebczvoh1brh","geo_precision":"range","state":"CA"},"type":"Feature","geometry":{"type":"Point","coordinates":[-118.13939,33.791676]}},{"properties":{"city":"Buena Park","zip":"90620","store no-":"20088","last name":"Garcia","geo_score":1.0,"address 1":"5974 Orangethorpe Ave","id":"aebczvmc63rz","geo_precision":"range","state":"CA"},"type":"Feature","geometry":{"type":"Point","coordinates":[-118.030726,33.858627]}},{"properties":{"city":"La Verne","zip":"91750","store no-":"20077","last name":"Garcia","geo_score":1.0,"address 1":"2212 Foothill Blvd.","id":"aebczvvxle0c","geo_precision":"range","state":"CA"},"type":"Feature","geometry":{"type":"Point","coordinates":[-117.765163,34.113293]}},{"properties":{"city":"Fountain Valley","zip":"92708","store no-":"20064","last name":"Garcia","geo_score":1.0,"address 1":"18120 Brookhurst Street","id":"aebczvzb887o","geo_precision":"range","state":"CA"},"type":"Feature","geometry":{"type":"Point","coordinates":[-117.954119,33.69956]}},{"properties":{"city":"Rancho Cucamonga","zip":"91730","store no-":"20060","last name":"Garcia","geo_score":1.0,"address 1":"8880 Foothill Blvd.","id":"aebczvo4xi7s","geo_precision":"range","state":"CA"},"type":"Feature","geometry":{"type":"Point","coordinates":[-117.612568,34.106737]}},{"properties":{"city":"Costa Mesa","zip":"92626","store no-":"20068","last name":"Garcia","geo_score":1.0,"address 1":"2300 Harbor Boulevard","id":"aebczvvxr2gn","geo_precision":"range","state":"CA"},"type":"Feature","geometry":{"type":"Point","coordinates":[-117.91927,33.66328]}},{"properties":{"city":"Culver City","zip":"90230","store no-":"20098","last name":"Garcia","geo_score":1.0,"address 1":"4114 Sepulveda Blvd.","id":"aebczvvow7oi","geo_precision":"range","state":"CA"},"type":"Feature","geometry":{"type":"Point","coordinates":[-118.412758,34.007016]}},{"properties":{"city":"Glendora","zip":"91740","store no-":"20070","last name":"Garcia","geo_score":0.571,"address 1":"865 W. Route 66","id":"aebczvmjr5qi","geo_precision":"street","state":"CA"},"type":"Feature","geometry":{"type":"Point","coordinates":[-117.863802,34.128675]}},{"properties":{"city":"Upland","zip":"91784","store no-":"20073","last name":"Garcia","geo_score":0.607,"address 1":"1945 N. Campus Ave.","id":"aebczvuebq8w","geo_precision":"street","state":"CA"},"type":"Feature","geometry":{"type":"Point","coordinates":[-117.641616,34.126227]}},{"properties":{"city":"Marina del Rey","zip":"90292","store no-":"20081","last name":"Garcia","geo_score":1.0,"address 1":"4020 Lincoln Blvd.","id":"aebczvu4zq7f","geo_precision":"range","state":"CA"},"type":"Feature","geometry":{"type":"Point","coordinates":[-118.444694,33.987331]}},{"properties":{"city":"Greenville","zip":"29607","store no-":"7018","last name":"Culp","geo_score":1.0,"address 1":"1507 Woodruff Road","id":"aebczvun5m4q","geo_precision":"range","state":"SC"},"type":"Feature","geometry":{"type":"Point","coordinates":[-82.278296,34.820057]}},{"properties":{"city":"Ft. Myers","zip":"33907","store no-":"13021A","last name":"Cherry","geo_score":0.529,"address 1":"12377 S. Cleveland Ave","id":"aebczvrlncbw","geo_precision":"street","state":"FL"},"type":"Feature","geometry":{"type":"Point","coordinates":[-81.871984,26.59355]}},{"properties":{"city":"Marietta","zip":"30066","store no-":"5033","last name":"Windon","geo_score":1.0,"address 1":"2960 Shallowford Road","id":"aebczvsui5p4","geo_precision":"range","state":"GA"},"type":"Feature","geometry":{"type":"Point","coordinates":[-84.466173,34.036605]}},{"properties":{"city":"Aurora","zip":"80013","store no-":"22008","last name":"Longhofer","geo_score":1.0,"address 1":"3571 S Tower Rd.","id":"aebczw2c60t8","geo_precision":"range","state":"CO"},"type":"Feature","geometry":{"type":"Point","coordinates":[-104.772539,39.65288]}},{"properties":{"city":"Crystal Lake","zip":"60014","store no-":"27022","last name":"Michalak","geo_score":0.842,"address 1":"5006 Northwest Highway","id":"aebczvp9jaff","geo_precision":"range","state":"IL"},"type":"Feature","geometry":{"type":"Point","coordinates":[-88.292236,42.226099]}},{"properties":{"city":"Mesa","zip":"85204","store no-":"9016","last name":"Pentz","geo_score":0.602,"address 1":"1939 S. Val Vista Drive","id":"aebczvs1wdwn","geo_precision":"street","state":"AZ"},"type":"Feature","geometry":{"type":"Point","coordinates":[-111.753722,33.413088]}},{"properties":{"city":"Gilbert","zip":"85233","store no-":"9011","last name":"Pentz","geo_score":0.805,"address 1":"891 E Baseline Rd","id":"aebczvrrvkl4","geo_precision":"range","state":"AZ"},"type":"Feature","geometry":{"type":"Point","coordinates":[-111.930687,33.378172]}},{"properties":{"city":"Jacksonville","zip":"32217","store no-":"13070","last name":"McLaughlin","geo_score":1.0,"address 1":"3541-1 University Blvd West","id":"aebczvrd6wk9","geo_precision":"range","state":"FL"},"type":"Feature","geometry":{"type":"Point","coordinates":[-81.624117,30.262579]}},{"properties":{"city":"Washington","zip":"27889","store no-":"3070","last name":"Yates","geo_score":0.727,"address 1":"420 Pamlico Plaza","id":"aebczw1b7s13","geo_precision":"street","state":"NC"},"type":"Feature","geometry":{"type":"Point","coordinates":[-77.009596,35.53222]}},{"properties":{"city":"Van Nuys","zip":"91401","store no-":"20085","last name":"Babaie","geo_score":1.0,"address 1":"14441 Burbank Blvd","id":"aebczvvc1vq5","geo_precision":"range","state":"CA"},"type":"Feature","geometry":{"type":"Point","coordinates":[-118.448487,34.17219]}},{"properties":{"city":"Raleigh","zip":"27607","store no-":"3132","last name":"Domanski","geo_score":1.0,"address 1":"2712 Hillsborough Street","id":"aebczvv1eezn","geo_precision":"range","state":"NC"},"type":"Feature","geometry":{"type":"Point","coordinates":[-78.67293,35.788892]}},{"properties":{"city":"Fayetteville","zip":"28304","store no-":"3049A","last name":"Minyon","geo_score":0.977,"address 1":"3057 Boone Trail Extension","id":"aebczvsl5e7b","geo_precision":"range","state":"NC"},"type":"Feature","geometry":{"type":"Point","coordinates":[-78.926724,35.029425]}},{"properties":{"city":"Aberdeen","zip":"28315","store no-":"3102B","last name":"Minyon","geo_score":0.945,"address 1":"1814B Sandhill Blvd.","id":"aebczvmy3s7x","geo_precision":"range","state":"NC"},"type":"Feature","geometry":{"type":"Point","coordinates":[-79.414852,35.154863]}},{"properties":{"city":"Morrisville","zip":"27560","store no-":"3013","last name":"Macko","geo_score":1.0,"address 1":"962D Airport Boulevard","id":"aebczvv3pr9h","geo_precision":"range","state":"NC"},"type":"Feature","geometry":{"type":"Point","coordinates":[-78.819475,35.859185]}},{"properties":{"city":"Acworth","zip":"30101","store no-":"5035B","last name":"Dadmehr","geo_score":0.571,"address 1":"3330 N. Cobb Pkwy.","id":"aebczvuggnpo","geo_precision":"street","state":"GA"},"type":"Feature","geometry":{"type":"Point","coordinates":[-84.671364,34.033584]}},{"properties":{"city":"Maitland","zip":"32751","store no-":"13057","last name":"Padgett","geo_score":0.604,"address 1":"246 N. Orlando Avenue","id":"aebczvnzqgca","geo_precision":"street","state":"FL"},"type":"Feature","geometry":{"type":"Point","coordinates":[-81.363495,28.625791]}},{"properties":{"city":"Delray Beach","zip":"33483","store no-":"13010B","last name":"Malik","geo_score":0.867,"address 1":"455-C NE 5th Avenue","id":"aebczvnw4qb9","geo_precision":"range","state":"FL"},"type":"Feature","geometry":{"type":"Point","coordinates":[-80.068135,26.469842]}},{"properties":{"city":"Chandler","zip":"85224","store no-":"9005","last name":"Mapes","geo_score":0.6,"address 1":"2780 W. Chandler Blvd.","id":"aebczvzvbt7s","geo_precision":"street","state":"AZ"},"type":"Feature","geometry":{"type":"Point","coordinates":[-111.842745,33.306159]}},{"properties":{"city":"Scottsdale","zip":"85260","store no-":"9009","last name":"Mapes","geo_score":0.589,"address 1":"15807 E. Frank Lloyd Wright","id":"aebczvn21bz7","geo_precision":"street","state":"AZ"},"type":"Feature","geometry":{"type":"Point","coordinates":[-111.897646,33.632337]}},{"properties":{"city":"Phoenix","zip":"85058","store no-":"9008","last name":"Mapes","geo_score":0.805,"address 1":"2501 West Happy Valley Road","id":"aebczvpbnii8","geo_precision":"range","state":"AZ"},"type":"Feature","geometry":{"type":"Point","coordinates":[-112.113139,33.712894]}},{"properties":{"city":"Phoenix","zip":"85048","store no-":"9006","last name":"Mapes","geo_score":1.0,"address 1":"4605 East Chandler Blvd.","id":"aebczvu4ge59","geo_precision":"range","state":"AZ"},"type":"Feature","geometry":{"type":"Point","coordinates":[-111.984704,33.305173]}},{"properties":{"city":"Phoenix","zip":"85032","store no-":"9017","last name":"Mapes","geo_score":1.0,"address 1":"4603 East Cactus Rd.","id":"aebczvyo3srb","geo_precision":"range","state":"AZ"},"type":"Feature","geometry":{"type":"Point","coordinates":[-111.980408,33.598603]}},{"properties":{"city":"Scottsdale","zip":"85254","store no-":"9004","last name":"Mapes","geo_score":0.61,"address 1":"10392 North Scottsdale Rd.","id":"aebczw1m5prg","geo_precision":"street","state":"AZ"},"type":"Feature","geometry":{"type":"Point","coordinates":[-111.926117,33.489745]}},{"properties":{"city":"Tempe","zip":"85281","store no-":"9002","last name":"Mapes","geo_score":1.0,"address 1":"555 North Scottsdale Rd.","id":"aebczvo0qwzs","geo_precision":"range","state":"AZ"},"type":"Feature","geometry":{"type":"Point","coordinates":[-111.926178,33.434349]}},{"properties":{"city":"Phoenix","zip":"85032","store no-":"9003","last name":"Mapes","geo_score":1.0,"address 1":"4550 East Bell Road","id":"aebczvydr0ir","geo_precision":"range","state":"AZ"},"type":"Feature","geometry":{"type":"Point","coordinates":[-111.983178,33.64068]}},{"properties":{"city":"Phoenix","zip":"85022","store no-":"9015","last name":"Mapes","geo_score":1.0,"address 1":"245 East Bell Road","id":"aebczvxw6dl5","geo_precision":"range","state":"AZ"},"type":"Feature","geometry":{"type":"Point","coordinates":[-112.070938,33.6402]}},{"properties":{"city":"Glendale","zip":"85308","store no-":"9007","last name":"Mapes","geo_score":1.0,"address 1":"7410 West Bell Rd.","id":"aebczvu4ftjk","geo_precision":"range","state":"AZ"},"type":"Feature","geometry":{"type":"Point","coordinates":[-112.218044,33.638304]}},{"properties":{"city":"University Park","zip":"34201","store no-":"13030","last name":"Schulte","geo_score":0.455,"address 1":"8210 Tourist Center Drive","id":"aebczvou3nor","geo_precision":"street","state":"FL"},"type":"Feature","geometry":{"type":"Point","coordinates":[-82.533734,27.557762]}},{"properties":{"city":"Edgewater","zip":"80214","store no-":"22002","last name":"Chambers","geo_score":0.78,"address 1":"2255 Sheridan Blvd.","id":"aebczvtpd81k","geo_precision":"range","state":"CO"},"type":"Feature","geometry":{"type":"Point","coordinates":[-105.053149,39.750868]}},{"properties":{"city":"Columbus","zip":"43240","store no-":"2024","last name":"Maxeiner","geo_score":1.0,"address 1":"1213 Polaris Parkway","id":"aebczvn8bwno","geo_precision":"range","state":"OH"},"type":"Feature","geometry":{"type":"Point","coordinates":[-82.990306,40.144082]}},{"properties":{"city":"Cincinnati","zip":"45255","store no-":"2007","last name":"McCarroll","geo_score":1.0,"address 1":"8138 Beechmont Avenue","id":"aebczvpz0gu7","geo_precision":"range","state":"OH"},"type":"Feature","geometry":{"type":"Point","coordinates":[-84.331463,39.073121]}},{"properties":{"city":"Pittsfield","zip":"48197","store no-":"31001","last name":"Shipman","geo_score":0.798,"address 1":"3650 Carpenter Road","id":"aebczvt57qb9","geo_precision":"range","state":"MI"},"type":"Feature","geometry":{"type":"Point","coordinates":[-83.680188,42.238458]}},{"properties":{"city":"Smyrna","zip":"30080","store no-":"5020","last name":"Lee","geo_score":0.951,"address 1":"4715 South Atlanta Road","id":"aebczvp5zk2u","geo_precision":"range","state":"GA"},"type":"Feature","geometry":{"type":"Point","coordinates":[-84.483922,33.839324]}},{"properties":{"city":"Peters Township","zip":"15317","store no-":"8002A","last name":"Panarello","geo_score":0.941,"address 1":"4123 Washington Road","id":"aebczvrffj59","geo_precision":"range","state":"PA"},"type":"Feature","geometry":{"type":"Point","coordinates":[-80.128539,40.269194]}},{"properties":{"city":"Greenville","zip":"27858","store no-":"3003","last name":"Yates","geo_score":0.954,"address 1":"310-D East Arlington Boulevard","id":"aebczw1idqy8","geo_precision":"range","state":"NC"},"type":"Feature","geometry":{"type":"Point","coordinates":[-77.372041,35.586737]}},{"properties":{"city":"Orange","zip":"92869","store no-":"20082","last name":"May","geo_score":0.604,"address 1":"3428 E. Chapman Avenue","id":"aebczvrjhgvf","geo_precision":"street","state":"CA"},"type":"Feature","geometry":{"type":"Point","coordinates":[-117.82842,33.78781]}},{"properties":{"city":"Lebanon","zip":"37087","store no-":"4023A","last name":"Patel","geo_score":1.0,"address 1":"1315 West Main St","id":"aebczw0fsu3t","geo_precision":"range","state":"TN"},"type":"Feature","geometry":{"type":"Point","coordinates":[-86.325122,36.214462]}},{"properties":{"city":"Parker","zip":"80134","store no-":"22006","last name":"Karpa","geo_score":0.604,"address 1":"18366 E. Lincoln Avenue","id":"aebczvrz4ib7","geo_precision":"street","state":"CO"},"type":"Feature","geometry":{"type":"Point","coordinates":[-104.866391,39.536238]}},{"properties":{"city":"Sarasota","zip":"34239","store no-":"13019","last name":"Schulte","geo_score":0.607,"address 1":"3820 S. Tuttle Ave.","id":"aebczw1ggb83","geo_precision":"street","state":"FL"},"type":"Feature","geometry":{"type":"Point","coordinates":[-82.51409,27.322753]}},{"properties":{"city":"New Bern","zip":"28560","store no-":"3115","last name":"Yates","geo_score":0.671,"address 1":"2309 Highway 70 East","id":"aebczvxh11kl","geo_precision":"street","state":"NC"},"type":"Feature","geometry":{"type":"Point","coordinates":[-77.072944,35.108187]}},{"properties":{"city":"Lincoln","zip":"68508","store no-":"33001","last name":"Marcotte","geo_score":0.935,"address 1":"210 North 14th Street","id":"aebczvtmic6k","geo_precision":"range","state":"NE"},"type":"Feature","geometry":{"type":"Point","coordinates":[-96.701072,40.815729]}},{"properties":{"city":"Kent","zip":"98032","store no-":"18001","last name":"Neyens","geo_score":0.619,"address 1":"18119 E. Valley Highway South","id":"aebczvujoz26","geo_precision":"street","state":"WA"},"type":"Feature","geometry":{"type":"Point","coordinates":[-122.232377,47.348479]}},{"properties":{"city":"Winston-Salem","zip":"27103","store no-":"3053B","last name":"Protokowicz","geo_score":1.0,"address 1":"2291 Cloverdale Ave","id":"aebczw22zop3","geo_precision":"range","state":"NC"},"type":"Feature","geometry":{"type":"Point","coordinates":[-80.277055,36.09003]}},{"properties":{"city":"Indian Land","zip":"29707","store no-":"7029","last name":"Ross","geo_score":0.902,"address 1":"8431 Charlotte Hwy.","id":"aebczvwdmyml","geo_precision":"range","state":"SC"},"type":"Feature","geometry":{"type":"Point","coordinates":[-80.853065,34.955893]}},{"properties":{"city":"Bluffton","zip":"29910","store no-":"7039","last name":"Brown","geo_score":1.0,"address 1":"1019 Fording Island Road","id":"aebczvwv61gl","geo_precision":"range","state":"SC"},"type":"Feature","geometry":{"type":"Point","coordinates":[-80.850524,32.25772]}},{"properties":{"city":"Point Pleasant Beach","zip":"8742","store no-":"1012","last name":"Cancro","geo_score":1.0,"address 1":"901 Richmond Avenue","id":"aebczvt5jkkv","geo_precision":"range","state":"NJ"},"type":"Feature","geometry":{"type":"Point","coordinates":[-74.049236,40.087937]}},{"properties":{"city":"Tampa","zip":"33613","store no-":"13007B","last name":"Quinzi","geo_score":1.0,"address 1":"14925 Bruce B Downs Blvd.","id":"aebczvmo3xvk","geo_precision":"range","state":"FL"},"type":"Feature","geometry":{"type":"Point","coordinates":[-82.413941,28.082169]}},{"properties":{"city":"Bradenton","zip":"34205","store no-":"13046","last name":"George","geo_score":0.619,"address 1":"4020 14th St. West","id":"aebczw1yin7v","geo_precision":"street","state":"FL"},"type":"Feature","geometry":{"type":"Point","coordinates":[-82.575217,27.496122]}},{"properties":{"city":"Vernon Hills","zip":"60061","store no-":"27002","last name":"Griparis","geo_score":0.805,"address 1":"1640 North Milwaukee Avenue","id":"aebczvth65fo","geo_precision":"street","state":"IL"},"type":"Feature","geometry":{"type":"Point","coordinates":[-87.938108,42.220631]}},{"properties":{"city":"Mount Prospect","zip":"60056","store no-":"27007","last name":"Griparis","geo_score":0.604,"address 1":"106 E. Kensington Rd.","id":"aebczvp7h15a","geo_precision":"street","state":"IL"},"type":"Feature","geometry":{"type":"Point","coordinates":[-87.904468,42.080595]}},{"properties":{"city":"Glenview","zip":"60025","store no-":"27015A","last name":"Griparis","geo_score":0.74,"address 1":"2149 Willow Road","id":"aebczvvzef3e","geo_precision":"street","state":"IL"},"type":"Feature","geometry":{"type":"Point","coordinates":[-87.852043,42.101907]}},{"properties":{"city":"Elmhurst","zip":"60126","store no-":"27010A","last name":"Griparis","geo_score":0.677,"address 1":"297 N York Rd","id":"aebczvs09664","geo_precision":"street","state":"IL"},"type":"Feature","geometry":{"type":"Point","coordinates":[-87.932442,41.867391]}},{"properties":{"city":"Apex","zip":"27502","store no-":"3028","last name":"Patrone","geo_score":0.672,"address 1":"922 Highway 64","id":"aebczvokx7oy","geo_precision":"street","state":"NC"},"type":"Feature","geometry":{"type":"Point","coordinates":[-78.9231,35.743857]}},{"properties":{"city":"Apex","zip":"27523","store no-":"3080","last name":"Patrone","geo_score":0.659,"address 1":"1761 Highway 55","id":"aebczvr6if8t","geo_precision":"range","state":"NC"},"type":"Feature","geometry":{"type":"Point","coordinates":[-78.833189,35.675501]}},{"properties":{"city":"Covington","zip":"98042","store no-":"18006A","last name":"Peltekian","geo_score":0.805,"address 1":"17309 SE 270th Place","id":"aebczvmcj569","geo_precision":"street","state":"WA"},"type":"Feature","geometry":{"type":"Point","coordinates":[-122.086881,47.359379]}},{"properties":{"city":"Vista","zip":"92081","store no-":"20092","last name":"Jones","geo_score":1.0,"address 1":"620 Hacienda Drive","id":"aebczvt8qbhm","geo_precision":"range","state":"CA"},"type":"Feature","geometry":{"type":"Point","coordinates":[-117.257139,33.193412]}},{"properties":{"city":"Fairfax","zip":"22033","store no-":"6033","last name":"Kollar","geo_score":1.0,"address 1":"12703 Shoppes Lane","id":"aebczw192eik","geo_precision":"range","state":"VA"},"type":"Feature","geometry":{"type":"Point","coordinates":[-77.386746,38.86205]}},{"properties":{"city":"Alexandria","zip":"22306","store no-":"6030","last name":"Treacy","geo_score":0.958,"address 1":"7732 D Richmond Highway","id":"aebczvq0aqra","geo_precision":"range","state":"VA"},"type":"Feature","geometry":{"type":"Point","coordinates":[-77.083128,38.748307]}},{"properties":{"city":"Stafford","zip":"22556","store no-":"6034","last name":"Treacy","geo_score":0.594,"address 1":"1495 Stafford Market Place","id":"aebczvy5d30q","geo_precision":"street","state":"VA"},"type":"Feature","geometry":{"type":"Point","coordinates":[-77.41087,38.462761]}},{"properties":{"city":"West Columbia","zip":"29169","store no-":"7023","last name":"Pinckney","geo_score":1.0,"address 1":"1720 Sunset Blvd.","id":"aebczw19rujn","geo_precision":"range","state":"SC"},"type":"Feature","geometry":{"type":"Point","coordinates":[-81.088567,33.998987]}},{"properties":{"city":"Arlington Heights","zip":"60004","store no-":"27017","last name":"Griparis","geo_score":1.0,"address 1":"115 West Rand Road","id":"aebczvso1679","geo_precision":"range","state":"IL"},"type":"Feature","geometry":{"type":"Point","coordinates":[-87.984232,42.115156]}},{"properties":{"city":"Coon Rapids","zip":"55448","store no-":"24003","last name":"Griparis","geo_score":0.838,"address 1":"3473 River Rapids Drive NW","id":"aebczvppovrp","geo_precision":"range","state":"MN"},"type":"Feature","geometry":{"type":"Point","coordinates":[-93.351548,45.199608]}},{"properties":{"city":"St. Anthony Village","zip":"55418","store no-":"24001A","last name":"Griparis","geo_score":0.755,"address 1":"2704 Highway 88","id":"aebczvpt1n31","geo_precision":"range","state":"MN"},"type":"Feature","geometry":{"type":"Point","coordinates":[-93.217225,45.016732]}},{"properties":{"city":"Dalton","zip":"30720","store no-":"5044","last name":"Patel","geo_score":1.0,"address 1":"1367 W Walnut Ave.","id":"aebczw1nobyb","geo_precision":"range","state":"GA"},"type":"Feature","geometry":{"type":"Point","coordinates":[-84.992983,34.759658]}},{"properties":{"city":"Orlando","zip":"32817","store no-":"13044","last name":"Gillespie","geo_score":1.0,"address 1":"3402 Technological Ave.","id":"aebczvzxlwhu","geo_precision":"range","state":"FL"},"type":"Feature","geometry":{"type":"Point","coordinates":[-81.220378,28.598625]}},{"properties":{"city":"Winter Park","zip":"32792","store no-":"13055","last name":"Gillespie","geo_score":0.607,"address 1":"4004 N. Goldenrod Road","id":"aebczvn3sjjy","geo_precision":"street","state":"FL"},"type":"Feature","geometry":{"type":"Point","coordinates":[-81.27327,28.618579]}},{"properties":{"city":"Raleigh","zip":"27609","store no-":"3009","last name":"Domanski","geo_score":0.902,"address 1":"3088 Wake Forest Road","id":"aebczvtgijeh","geo_precision":"range","state":"NC"},"type":"Feature","geometry":{"type":"Point","coordinates":[-78.621878,35.82399]}},{"properties":{"city":"Raleigh","zip":"27603","store no-":"3026","last name":"Domanski","geo_score":0.805,"address 1":"200 West Peace Street","id":"aebczw1n72ij","geo_precision":"range","state":"NC"},"type":"Feature","geometry":{"type":"Point","coordinates":[-78.642595,35.788312]}},{"properties":{"city":"Laurinburg","zip":"28352","store no-":"3114","last name":"Gibson","geo_score":0.585,"address 1":"12280 McColl Road","id":"aebczvr78u0n","geo_precision":"zip","state":"NC"},"type":"Feature","geometry":{"type":"Point","coordinates":[-79.50866,34.794604]}},{"properties":{"city":"Pembroke","zip":"28372","store no-":"3120","last name":"Gibson","geo_score":0.927,"address 1":"409 West 3rd Street","id":"aebczvn0t0cr","geo_precision":"range","state":"NC"},"type":"Feature","geometry":{"type":"Point","coordinates":[-79.195619,34.680961]}},{"properties":{"city":"Fairview Park","zip":"44126","store no-":"2041A","last name":"Patel","geo_score":1.0,"address 1":"21875 Lorain Road","id":"aebczvwqodhq","geo_precision":"range","state":"OH"},"type":"Feature","geometry":{"type":"Point","coordinates":[-81.863959,41.441753]}},{"properties":{"city":"Durham","zip":"27704","store no-":"3100A","last name":"Smith","geo_score":1.0,"address 1":"3600 North Duke Street","id":"aebczvu3dxao","geo_precision":"range","state":"NC"},"type":"Feature","geometry":{"type":"Point","coordinates":[-78.905729,36.050094]}},{"properties":{"city":"Fort Mill","zip":"29708","store no-":"7016A","last name":"Blake-Ward","geo_score":1.0,"address 1":"1710 Gold Hill Road","id":"aebczvqy66d9","geo_precision":"range","state":"SC"},"type":"Feature","geometry":{"type":"Point","coordinates":[-80.990874,35.061442]}},{"properties":{"city":"Wilmington","zip":"28411","store no-":"3032B","last name":"Normandin","geo_score":1.0,"address 1":"8207 Market Street","id":"aebczvoio61p","geo_precision":"range","state":"NC"},"type":"Feature","geometry":{"type":"Point","coordinates":[-77.791653,34.298401]}},{"properties":{"city":"Plainfield","zip":"60585","store no-":"27018","last name":"Cross","geo_score":0.482,"address 1":"13400 S. Route 59","id":"aebczvt0wcbq","geo_precision":"street","state":"IL"},"type":"Feature","geometry":{"type":"Point","coordinates":[-88.201843,41.5999]}},{"properties":{"city":"Naperville","zip":"60540","store no-":"27001","last name":"Cross","geo_score":0.333,"address 1":"2555 W. 75th Street","id":"aebczw1u1z2x","geo_precision":"street","state":"IL"},"type":"Feature","geometry":{"type":"Point","coordinates":[-87.991486,41.751514]}},{"properties":{"city":"Aurora","zip":"60504","store no-":"27005","last name":"Cross","geo_score":0.902,"address 1":"1147 North Eola Road","id":"aebczvs2npus","geo_precision":"street","state":"IL"},"type":"Feature","geometry":{"type":"Point","coordinates":[-88.240687,41.782851]}},{"properties":{"city":"Lisle","zip":"60532","store no-":"27016","last name":"Cross","geo_score":0.878,"address 1":"1032 Maple Avenue","id":"aebczw1nvcly","geo_precision":"range","state":"IL"},"type":"Feature","geometry":{"type":"Point","coordinates":[-88.071901,41.786606]}},{"properties":{"city":"Wheaton","zip":"60187","store no-":"27013A","last name":"Cross","geo_score":1.0,"address 1":"3 Danada Square East","id":"aebczvoglgwq","geo_precision":"range","state":"IL"},"type":"Feature","geometry":{"type":"Point","coordinates":[-88.101433,41.832846]}},{"properties":{"city":"San Diego","zip":"92122","store no-":"20097","last name":"Remy","geo_score":0.985,"address 1":"4353 La Jolla Village Drive","id":"aebczvq2uq35","geo_precision":"range","state":"CA"},"type":"Feature","geometry":{"type":"Point","coordinates":[-117.210755,32.873351]}},{"properties":{"city":"San Diego","zip":"92103","store no-":"20079","last name":"Remy","geo_score":0.916,"address 1":"3975 5th Avenue","id":"aebczvv7j107","geo_precision":"range","state":"CA"},"type":"Feature","geometry":{"type":"Point","coordinates":[-117.160365,32.748728]}},{"properties":{"city":"Mason","zip":"45040","store no-":"2019A","last name":"Copeland","geo_score":1.0,"address 1":"6651 Western Row Road","id":"aebczvx0klw8","geo_precision":"range","state":"OH"},"type":"Feature","geometry":{"type":"Point","coordinates":[-84.33101,39.337279]}},{"properties":{"city":"Redlands","zip":"92374","store no-":"20095","last name":"Abrahams","geo_score":1.0,"address 1":"10040 Alabama Street","id":"aebczw2t6qkl","geo_precision":"range","state":"CA"},"type":"Feature","geometry":{"type":"Point","coordinates":[-117.208844,34.072881]}},{"properties":{"city":"Beverly Hills","zip":"90212","store no-":"20034A","last name":"Baldieri","geo_score":1.0,"address 1":"279 South Beverly Dr.","id":"aebczvwt93yd","geo_precision":"range","state":"CA"},"type":"Feature","geometry":{"type":"Point","coordinates":[-118.399142,34.064417]}},{"properties":{"city":"Peachtree Corners","zip":"30092","store no-":"5007C","last name":"Kallman","geo_score":0.874,"address 1":"6050 Peachtree Pkwy.","id":"aebczvopn2gw","geo_precision":"range","state":"GA"},"type":"Feature","geometry":{"type":"Point","coordinates":[-84.232923,33.95454]}},{"properties":{"city":"Orlando","zip":"32801","store no-":"13068","last name":"Ceide","geo_score":0.61,"address 1":"54 W. Church Street","id":"aebczvrdkonh","geo_precision":"street","state":"FL"},"type":"Feature","geometry":{"type":"Point","coordinates":[-81.379888,28.540343]}},{"properties":{"city":"Orlando","zip":"32837","store no-":"13064","last name":"Ceide","geo_score":0.727,"address 1":"13651 Hunters Oak Dr.","id":"aebczw0hxxno","geo_precision":"street","state":"FL"},"type":"Feature","geometry":{"type":"Point","coordinates":[-81.400553,28.378556]}},{"properties":{"city":"Orlando","zip":"32835","store no-":"13020A","last name":"Ceide","geo_score":1.0,"address 1":"6700 Conroy Rd","id":"aebczvyxp169","geo_precision":"range","state":"FL"},"type":"Feature","geometry":{"type":"Point","coordinates":[-81.473238,28.493691]}},{"properties":{"city":"Orlando","zip":"32819","store no-":"13048","last name":"Ceide","geo_score":1.0,"address 1":"3042 West Sand Lake Road","id":"aebczw0c2b7l","geo_precision":"range","state":"FL"},"type":"Feature","geometry":{"type":"Point","coordinates":[-81.422515,28.45032]}},{"properties":{"city":"Winter Garden","zip":"34787","store no-":"13071","last name":"Ceide","geo_score":0.805,"address 1":"3310 Daniels Road","id":"aebczvs000fh","geo_precision":"street","state":"FL"},"type":"Feature","geometry":{"type":"Point","coordinates":[-81.5835,28.54879]}},{"properties":{"city":"Roswell","zip":"30076","store no-":"5015","last name":"Longo","geo_score":0.826,"address 1":"665 Holcomb Bridge Road","id":"aebczvo6mnhd","geo_precision":"range","state":"GA"},"type":"Feature","geometry":{"type":"Point","coordinates":[-84.34189,34.034448]}},{"properties":{"city":"Oxnard","zip":"93036","store no-":"20004","last name":"Cox","geo_score":0.585,"address 1":"2041 North Oxnard Blvd.","id":"aebczvoskb8t","geo_precision":"zip","state":"CA"},"type":"Feature","geometry":{"type":"Point","coordinates":[-119.21216,34.199838]}},{"properties":{"city":"Warwick","zip":"02919-3506","store no-":"14003A","last name":"Sullivan","geo_score":0.585,"address 1":"782 Warwick Avenue","id":"aebczvnjj5e6","geo_precision":"zip","state":"RI"},"type":"Feature","geometry":{"type":"Point","coordinates":[-71.493671,41.808156]}},{"properties":{"city":"Edmond","zip":"73013","store no-":"23005","last name":"Otagaki","geo_score":0.958,"address 1":"1724 S Broadway Extension","id":"aebczw1bpw6p","geo_precision":"range","state":"OK"},"type":"Feature","geometry":{"type":"Point","coordinates":[-97.491988,35.6156]}},{"properties":{"city":"Edmond","zip":"73034","store no-":"23011","last name":"Willis","geo_score":0.927,"address 1":"1149 East 2nd Street","id":"aebczvokkd6y","geo_precision":"range","state":"OK"},"type":"Feature","geometry":{"type":"Point","coordinates":[-97.463659,35.652866]}},{"properties":{"city":"Lynchburg","zip":"24502","store no-":"6018","last name":"Buckner","geo_score":1.0,"address 1":"3919 Wards Road","id":"aebczvpkhym5","geo_precision":"range","state":"VA"},"type":"Feature","geometry":{"type":"Point","coordinates":[-79.183613,37.352888]}},{"properties":{"city":"Denver","zip":"80203","store no-":"22001","last name":"Chambers","geo_score":1.0,"address 1":"555 Broadway","id":"aebczvt9b30p","geo_precision":"range","state":"CO"},"type":"Feature","geometry":{"type":"Point","coordinates":[-104.987532,39.724812]}},{"properties":{"city":"Myrtle Beach","zip":"29577","store no-":"7046","last name":"Saad","geo_score":0.625,"address 1":"2602 N. Kings Hwy","id":"aebczvu3p74n","geo_precision":"street","state":"SC"},"type":"Feature","geometry":{"type":"Point","coordinates":[-78.969683,33.67653]}},{"properties":{"city":"Myrtle Beach","zip":"29588","store no-":"7047","last name":"Saad","geo_score":0.423,"address 1":"102-B Loyola Drive","id":"aebczvvnspgx","geo_precision":"street","state":"SC"},"type":"Feature","geometry":{"type":"Point","coordinates":[-79.033427,33.63982]}},{"properties":{"city":"Chardon","zip":"44024","store no-":"2046","last name":"Salem","geo_score":1.0,"address 1":"209 Center Street","id":"aebczw1ike6u","geo_precision":"range","state":"OH"},"type":"Feature","geometry":{"type":"Point","coordinates":[-81.209605,41.583275]}},{"properties":{"city":"Willoughby","zip":"44094","store no-":"2025","last name":"Salem","geo_score":0.857,"address 1":"36295 Euclid Avenue (Route 20)","id":"aebczvq385d1","geo_precision":"street","state":"OH"},"type":"Feature","geometry":{"type":"Point","coordinates":[-81.406595,41.641726]}},{"properties":{"city":"High Point","zip":"27263","store no-":"3090","last name":"Hiatt","geo_score":0.619,"address 1":"2620 S. Main Street","id":"aebczvmlndm3","geo_precision":"street","state":"NC"},"type":"Feature","geometry":{"type":"Point","coordinates":[-80.005235,35.955596]}},{"properties":{"city":"High Point","zip":"27262","store no-":"3055A","last name":"Hiatt","geo_score":0.619,"address 1":"2200 N. Main St","id":"aebczw1p03zs","geo_precision":"street","state":"NC"},"type":"Feature","geometry":{"type":"Point","coordinates":[-80.005783,35.957813]}},{"properties":{"city":"Raynham","zip":"2767","store no-":"16001B","last name":"Sullivan","geo_score":0.707,"address 1":"325 New State Highway Rt. 44","id":"aebczvtltqyq","geo_precision":"range","state":"MA"},"type":"Feature","geometry":{"type":"Point","coordinates":[-71.082809,41.939468]}},{"properties":{"city":"Oklahoma City","zip":"73112","store no-":"23014","last name":"Allen","geo_score":1.0,"address 1":"3604 N May Ave","id":"aebczvnmtdas","geo_precision":"range","state":"OK"},"type":"Feature","geometry":{"type":"Point","coordinates":[-97.565596,35.506207]}},{"properties":{"city":"Chicago","zip":"60606","store no-":"27014","last name":"Patel","geo_score":0.902,"address 1":"200 West Monroe Street","id":"aebczvwtkjzh","geo_precision":"range","state":"IL"},"type":"Feature","geometry":{"type":"Point","coordinates":[-87.63528,41.880641]}},{"properties":{"city":"Chicago","zip":"60606","store no-":"27025","last name":"Patel","geo_score":1.0,"address 1":"120 North Wells Street","id":"aebczvn1qdmw","geo_precision":"range","state":"IL"},"type":"Feature","geometry":{"type":"Point","coordinates":[-87.633895,41.884468]}},{"properties":{"city":"Atlanta","zip":"30342","store no-":"5014B","last name":"Dorfman","geo_score":1.0,"address 1":"3740 Roswell Road","id":"aebczvo1c56i","geo_precision":"range","state":"GA"},"type":"Feature","geometry":{"type":"Point","coordinates":[-84.381999,33.857124]}},{"properties":{"city":"Atlanta","zip":"30328","store no-":"5037","last name":"Dorfman","geo_score":1.0,"address 1":"227 Sandy Springs Place NE","id":"aebczvssd8f3","geo_precision":"range","state":"GA"},"type":"Feature","geometry":{"type":"Point","coordinates":[-84.381752,33.921477]}},{"properties":{"city":"Columbus","zip":"43214","store no-":"2044A","last name":"Share","geo_score":0.397,"address 1":"4249 North High St.","id":"aebczvop98kc","geo_precision":"street","state":"OH"},"type":"Feature","geometry":{"type":"Point","coordinates":[-83.041606,40.1287]}},{"properties":{"city":"Rochester Hills","zip":"48307","store no-":"31002","last name":"Middleton","geo_score":0.545,"address 1":"2670 S. Rochester Road","id":"aebczvyqnb7l","geo_precision":"street","state":"MI"},"type":"Feature","geometry":{"type":"Point","coordinates":[-83.133686,42.678232]}},{"properties":{"city":"Shelby Township","zip":"48315","store no-":"31003","last name":"Middleton","geo_score":0.568,"address 1":"12161 23 Mile Road","id":"aebczvt9219n","geo_precision":"street","state":"MI"},"type":"Feature","geometry":{"type":"Point","coordinates":[-83.48343,42.641025]}},{"properties":{"city":"Fayetteville","zip":"28303","store no-":"3105","last name":"Kaneria","geo_score":1.0,"address 1":"5815 Yadkin Road","id":"aebczvwvnz9d","geo_precision":"range","state":"NC"},"type":"Feature","geometry":{"type":"Point","coordinates":[-78.986146,35.093696]}},{"properties":{"city":"Middletown","zip":"7748","store no-":"1004","last name":"Bullivant","geo_score":0.854,"address 1":"1209 Route 35","id":"aebczvs7yb8h","geo_precision":"range","state":"NJ"},"type":"Feature","geometry":{"type":"Point","coordinates":[-74.113607,40.398588]}},{"properties":{"city":"Cranberry Township","zip":"16066","store no-":"8001A","last name":"Surati","geo_score":0.829,"address 1":"20300 Route 19","id":"aebczvmj23ra","geo_precision":"range","state":"PA"},"type":"Feature","geometry":{"type":"Point","coordinates":[-80.103452,40.691961]}},{"properties":{"city":"Lakewood","zip":"80226","store no-":"22004","last name":"Chambers","geo_score":0.915,"address 1":"105 Wadsworth Blvd","id":"aebczvt6zedr","geo_precision":"range","state":"CO"},"type":"Feature","geometry":{"type":"Point","coordinates":[-105.081568,39.719265]}},{"properties":{"city":"Burbank","zip":"91502","store no-":"20020","last name":"Babaie","geo_score":0.6,"address 1":"875 N. San Fernando Blvd.","id":"aebczvw2ud64","geo_precision":"street","state":"CA"},"type":"Feature","geometry":{"type":"Point","coordinates":[-118.308744,34.180839]}},{"properties":{"city":"Winterville","zip":"28590","store no-":"3064","last name":"Yates","geo_score":1.0,"address 1":"4054 South Memorial Dr","id":"aebczvxhmeau","geo_precision":"range","state":"NC"},"type":"Feature","geometry":{"type":"Point","coordinates":[-77.406082,35.553746]}},{"properties":{"city":"Murfreesboro","zip":"37129","store no-":"4008A","last name":"Ray","geo_score":0.333,"address 1":"2932 S. Church St.","id":"aebczvni0j1f","geo_precision":"street","state":"TN"},"type":"Feature","geometry":{"type":"Point","coordinates":[-86.524856,35.981393]}},{"properties":{"city":"Murfreesboro","zip":"37128","store no-":"4034","last name":"Ray","geo_score":1.0,"address 1":"2705A Old Fort Parkway","id":"aebczw075usu","geo_precision":"range","state":"TN"},"type":"Feature","geometry":{"type":"Point","coordinates":[-86.448473,35.844913]}},{"properties":{"city":"Chicago","zip":"60605","store no-":"27037","last name":"Herter","geo_score":0.602,"address 1":"26 E. Roosevelt Road","id":"aebczw2f3u6c","geo_precision":"street","state":"IL"},"type":"Feature","geometry":{"type":"Point","coordinates":[-87.629298,41.867457]}},{"properties":{"city":"Mishawaka","zip":"46545","store no-":"11001","last name":"Guros","geo_score":0.619,"address 1":"5718 N. Main Street","id":"aebczvylsc1e","geo_precision":"street","state":"IN"},"type":"Feature","geometry":{"type":"Point","coordinates":[-86.180453,41.663047]}},{"properties":{"city":"Olathe","zip":"66062","store no-":"21004A","last name":"Spiegel","geo_score":0.614,"address 1":"15018 S.Black Bob Rd.","id":"aebczvq0ymyp","geo_precision":"street","state":"KS"},"type":"Feature","geometry":{"type":"Point","coordinates":[-94.802452,38.834382]}},{"properties":{"city":"Richmond","zip":"23228","store no-":"6010A","last name":"Waldrop","geo_score":0.878,"address 1":"8654 Staples Mill Road","id":"aebczw0mou15","geo_precision":"range","state":"VA"},"type":"Feature","geometry":{"type":"Point","coordinates":[-77.507343,37.631187]}},{"properties":{"city":"Jacksonville","zip":"32246","store no-":"13067","last name":"McLaughlin","geo_score":1.0,"address 1":"9700 Deer Lake Court","id":"aebczvswdrkv","geo_precision":"range","state":"FL"},"type":"Feature","geometry":{"type":"Point","coordinates":[-81.554454,30.268145]}},{"properties":{"city":"State College","zip":"16801","store no-":"8007","last name":"Patterson","geo_score":1.0,"address 1":"128 South Allen Street","id":"aebczvvll1yt","geo_precision":"range","state":"PA"},"type":"Feature","geometry":{"type":"Point","coordinates":[-77.860447,40.79345]}},{"properties":{"city":"Manahawkin","zip":"8050","store no-":"1003","last name":"Steele","geo_score":0.807,"address 1":"25 South Main Street","id":"aebczvv9v5u1","geo_precision":"street","state":"NJ"},"type":"Feature","geometry":{"type":"Point","coordinates":[-74.260255,39.694171]}},{"properties":{"city":"Little Egg Harbor","zip":"8087","store no-":"1027","last name":"Steele","geo_score":0.633,"address 1":"418 Rt. 9 South","id":"aebczvu266dt","geo_precision":"range","state":"NJ"},"type":"Feature","geometry":{"type":"Point","coordinates":[-74.334437,39.606766]}},{"properties":{"city":"Woodbury","zip":"55125","store no-":"24004","last name":"Risch","geo_score":1.0,"address 1":"7455 Currell Boulevard","id":"aebczvub4xp4","geo_precision":"range","state":"MN"},"type":"Feature","geometry":{"type":"Point","coordinates":[-92.954241,44.925645]}},{"properties":{"city":"Jackson","zip":"8527","store no-":"1016A","last name":"Forrester","geo_score":0.684,"address 1":"2275 West County Line Road","id":"aebczvsqhag9","geo_precision":"street","state":"NJ"},"type":"Feature","geometry":{"type":"Point","coordinates":[-74.259478,40.120866]}},{"properties":{"city":"Cincinnati","zip":"45209","store no-":"2003B","last name":"Jones","geo_score":0.585,"address 1":"3770 Paxton Ave","id":"aebczvwkumhn","geo_precision":"zip","state":"OH"},"type":"Feature","geometry":{"type":"Point","coordinates":[-84.450692,39.15471]}},{"properties":{"city":"Webster Groves","zip":"63119","store no-":"25001","last name":"Wolfangel","geo_score":1.0,"address 1":"8567 Watson Rd.","id":"aebczvp8u5oz","geo_precision":"range","state":"MO"},"type":"Feature","geometry":{"type":"Point","coordinates":[-90.356074,38.565468]}},{"properties":{"city":"Simpsonville","zip":"29680","store no-":"7020","last name":"Culp","geo_score":0.951,"address 1":"325 Harrison Bridge Rd.","id":"aebczvsz4csw","geo_precision":"range","state":"SC"},"type":"Feature","geometry":{"type":"Point","coordinates":[-82.244658,34.704537]}},{"properties":{"city":"West Long Branch","zip":"7764","store no-":"1022B","last name":"Brown","geo_score":1.0,"address 1":"175 Monmouth Road","id":"aebczvy3rdov","geo_precision":"range","state":"NJ"},"type":"Feature","geometry":{"type":"Point","coordinates":[-74.028145,40.294633]}},{"properties":{"city":"Greenville","zip":"29615","store no-":"7017A","last name":"Culp","geo_score":1.0,"address 1":"215 Pelham Rd.","id":"aebczvq9bqny","geo_precision":"range","state":"SC"},"type":"Feature","geometry":{"type":"Point","coordinates":[-82.348591,34.866546]}},{"properties":{"city":"Portland","zip":"97220","store no-":"32003","last name":"Baluyut","geo_score":1.0,"address 1":"10123 NE Cascades Parkway","id":"aebczvo9i3mb","geo_precision":"range","state":"OR"},"type":"Feature","geometry":{"type":"Point","coordinates":[-122.558519,45.572941]}},{"properties":{"city":"Shrewsbury","zip":"7702","store no-":"1021B","last name":"Rich","geo_score":0.645,"address 1":"10 Shrewsbury Plaza","id":"aebczvz8lmep","geo_precision":"street","state":"NJ"},"type":"Feature","geometry":{"type":"Point","coordinates":[-74.074385,40.333816]}},{"properties":{"city":"Salisbury","zip":"28147","store no-":"3037","last name":"Hartpence","geo_score":0.286,"address 1":"850 Jake Alexander Blvd.West","id":"aebczvrmzdhu","geo_precision":"street","state":"NC"},"type":"Feature","geometry":{"type":"Point","coordinates":[-80.818038,35.557707]}},{"properties":{"city":"Hollywood","zip":"90028","store no-":"20058","last name":"Weintraub","geo_score":1.0,"address 1":"1517 Vine St.","id":"aebczvqdq7o3","geo_precision":"range","state":"CA"},"type":"Feature","geometry":{"type":"Point","coordinates":[-118.326741,34.099498]}},{"properties":{"city":"Columbus","zip":"31904","store no-":"5046","last name":"Swecker","geo_score":0.686,"address 1":"1640 Rollins Way","id":"aebczvyzl71f","geo_precision":"street","state":"GA"},"type":"Feature","geometry":{"type":"Point","coordinates":[-84.972065,32.535832]}},{"properties":{"city":"Watauga","zip":"76148","store no-":"15019","last name":"Brown","geo_score":0.824,"address 1":"7608 Denton Hwy","id":"aebczvs78sli","geo_precision":"street","state":"TX"},"type":"Feature","geometry":{"type":"Point","coordinates":[-97.262063,32.874172]}},{"properties":{"city":"Hurst","zip":"76054","store no-":"15027","last name":"Brown","geo_score":0.805,"address 1":"1308 W Pipeline Rd","id":"aebczvnv6w1i","geo_precision":"range","state":"TX"},"type":"Feature","geometry":{"type":"Point","coordinates":[-97.202854,32.82372]}},{"properties":{"city":"Pinellas Park","zip":"33781","store no-":"13074","last name":"Connolly","geo_score":0.947,"address 1":"7066  US Highway 19 North","id":"aebczvzzreop","geo_precision":"range","state":"FL"},"type":"Feature","geometry":{"type":"Point","coordinates":[-82.682185,27.83678]}},{"properties":{"city":"Philadelphia","zip":"19104","store no-":"8008","last name":"Loupakos","geo_score":0.694,"address 1":"Amtrack 30th Street Station","id":"aebczvy997c6","geo_precision":"street","state":"PA"},"type":"Feature","geometry":{"type":"Point","coordinates":[-75.183264,39.954896]}},{"properties":{"city":"Wilmington","zip":"28412","store no-":"3067A","last name":"Christensen","geo_score":0.969,"address 1":"3905 G Independence Blvd.","id":"aebczvzqusm5","geo_precision":"range","state":"NC"},"type":"Feature","geometry":{"type":"Point","coordinates":[-77.927201,34.173344]}},{"properties":{"city":"Wilmington","zip":"28403","store no-":"3011A","last name":"Christensen","geo_score":1.0,"address 1":"343-4 South College Rd.","id":"aebczw0q4fy0","geo_precision":"range","state":"NC"},"type":"Feature","geometry":{"type":"Point","coordinates":[-77.874826,34.233449]}},{"properties":{"city":"Newark","zip":"7114","store no-":"1035","last name":"Loupakos","geo_score":0.738,"address 1":"Newark Liberty International Airport","id":"aebczvrrqjie","geo_precision":"street","state":"NJ"},"type":"Feature","geometry":{"type":"Point","coordinates":[-74.18444,40.70549]}},{"properties":{"city":"Las Vegas","zip":"89139","store no-":"17010","last name":"Loupakos","geo_score":0.805,"address 1":"5757 Wayne Newton Blvd.","id":"aebczw1jjctv","geo_precision":"range","state":"NV"},"type":"Feature","geometry":{"type":"Point","coordinates":[-115.150894,36.088051]}},{"properties":{"city":"Nashville","zip":"37205","store no-":"4005A","last name":"Herndon","geo_score":0.879,"address 1":"73 White Bridge Road","id":"aebczvssm756","geo_precision":"range","state":"TN"},"type":"Feature","geometry":{"type":"Point","coordinates":[-86.857141,36.131117]}},{"properties":{"city":"Nashville","zip":"37221","store no-":"4010A","last name":"Herndon","geo_score":0.619,"address 1":"7114 U.S.HWY 70-South","id":"aebczvxk05wl","geo_precision":"street","state":"TN"},"type":"Feature","geometry":{"type":"Point","coordinates":[-86.903308,36.129462]}},{"properties":{"city":"Nashville","zip":"37201","store no-":"4038","last name":"Herndon","geo_score":1.0,"address 1":"211 Union Street","id":"aebczvxmftlj","geo_precision":"range","state":"TN"},"type":"Feature","geometry":{"type":"Point","coordinates":[-86.778526,36.165621]}},{"properties":{"city":"Hermitage","zip":"37076","store no-":"4011B","last name":"Herndon","geo_score":0.287,"address 1":"5506 Old Hickory Blvd.","id":"aebczvpf33c0","geo_precision":"street","state":"TN"},"type":"Feature","geometry":{"type":"Point","coordinates":[-86.911182,35.323004]}},{"properties":{"city":"Nashville","zip":"37215","store no-":"4041","last name":"Herndon","geo_score":1.0,"address 1":"2184 Bandywood Drive","id":"aebczvp5akux","geo_precision":"range","state":"TN"},"type":"Feature","geometry":{"type":"Point","coordinates":[-86.817592,36.104961]}},{"properties":{"city":"Schererville","zip":"46375","store no-":"11012","last name":"Padilla","geo_score":0.619,"address 1":"37 U.S. Highway 41","id":"aebczw0iosgt","geo_precision":"street","state":"IN"},"type":"Feature","geometry":{"type":"Point","coordinates":[-87.471322,41.521636]}},{"properties":{"city":"Granada Hills","zip":"91344","store no-":"20038","last name":"Armenta","geo_score":0.815,"address 1":"18131 Chatsworth Street","id":"aebczvxm0kkf","geo_precision":"street","state":"CA"},"type":"Feature","geometry":{"type":"Point","coordinates":[-118.528112,34.26452]}},{"properties":{"city":"Greenville","zip":"27858","store no-":"3004","last name":"Yates","geo_score":0.892,"address 1":"1915 South East Greenville Blvd","id":"aebczvxyg09f","geo_precision":"range","state":"NC"},"type":"Feature","geometry":{"type":"Point","coordinates":[-77.337991,35.596321]}},{"properties":{"city":"Houston","zip":"77069","store no-":"15043","last name":"Guerra","geo_score":0.927,"address 1":"4765 FM 1960 Rd West","id":"aebczvywlstx","geo_precision":"range","state":"TX"},"type":"Feature","geometry":{"type":"Point","coordinates":[-95.50256,29.985585]}},{"properties":{"city":"Ormond Beach","zip":"32174","store no-":"13049","last name":"Ebbs","geo_score":0.602,"address 1":"1474 W Granada Blvd, Suite 25","id":"aebczvsxunb5","geo_precision":"street","state":"FL"},"type":"Feature","geometry":{"type":"Point","coordinates":[-81.058685,29.284457]}},{"properties":{"city":"Daytona Beach","zip":"32114","store no-":"13042","last name":"Ebbs","geo_score":0.586,"address 1":"1808 W. International Speedway Blvd.","id":"aebczvw93os9","geo_precision":"street","state":"FL"},"type":"Feature","geometry":{"type":"Point","coordinates":[-81.022064,29.211131]}},{"properties":{"city":"Mooresville","zip":"28117","store no-":"3043A","last name":"Christman","geo_score":1.0,"address 1":"647 Brawley School Road","id":"aebczvq50g18","geo_precision":"range","state":"NC"},"type":"Feature","geometry":{"type":"Point","coordinates":[-80.875809,35.582629]}},{"properties":{"city":"Waukesha","zip":"53189","store no-":"29002","last name":"Murphy","geo_score":0.824,"address 1":"1190 West Sunset Dr.","id":"aebczvnrkcxd","geo_precision":"street","state":"WI"},"type":"Feature","geometry":{"type":"Point","coordinates":[-88.263849,42.988436]}},{"properties":{"city":"Brookfield","zip":"53045","store no-":"29001","last name":"Murphy","geo_score":0.633,"address 1":"17550-C W. Bluemound Rd.","id":"aebczvybgewf","geo_precision":"street","state":"WI"},"type":"Feature","geometry":{"type":"Point","coordinates":[-88.13519,43.104628]}},{"properties":{"city":"West Milwaukee","zip":"53214","store no-":"29003","last name":"Murphy","geo_score":0.773,"address 1":"1232 South Miller Park Way","id":"aebczvukrj9y","geo_precision":"street","state":"WI"},"type":"Feature","geometry":{"type":"Point","coordinates":[-87.967498,43.016849]}},{"properties":{"city":"Dallas","zip":"75205","store no-":"15022","last name":"Riley","geo_score":0.585,"address 1":"3001 Knox Street","id":"aebczw0ax4ye","geo_precision":"zip","state":"TX"},"type":"Feature","geometry":{"type":"Point","coordinates":[-96.800279,32.850127]}},{"properties":{"city":"Dallas","zip":"75225","store no-":"15020","last name":"Riley","geo_score":1.0,"address 1":"8411 Preston Road","id":"aebczw1ejwuq","geo_precision":"range","state":"TX"},"type":"Feature","geometry":{"type":"Point","coordinates":[-96.80425,32.865376]}},{"properties":{"city":"Cary","zip":"27513","store no-":"3005A","last name":"Hardie","geo_score":0.692,"address 1":"957 High House Road","id":"aebczvqo39qn","geo_precision":"range","state":"NC"},"type":"Feature","geometry":{"type":"Point","coordinates":[-78.173659,35.69836]}},{"properties":{"city":"Cary","zip":"27511","store no-":"3099A","last name":"Hardie","geo_score":0.787,"address 1":"3490 Kildare Farm Road","id":"aebczvmn99te","geo_precision":"street","state":"NC"},"type":"Feature","geometry":{"type":"Point","coordinates":[-78.787971,35.716477]}},{"properties":{"city":"Cary","zip":"27511","store no-":"3024A","last name":"Hardie","geo_score":1.0,"address 1":"701 Cary Towne Blvd.","id":"aebczw0swjfj","geo_precision":"range","state":"NC"},"type":"Feature","geometry":{"type":"Point","coordinates":[-78.764718,35.775956]}},{"properties":{"city":"Nashville","zip":"37228","store no-":"4027","last name":"Ziady","geo_score":0.493,"address 1":"2050 Rosa Parks Blvd","id":"aebczvuxrp72","geo_precision":"street","state":"TN"},"type":"Feature","geometry":{"type":"Point","coordinates":[-86.70821,36.188554]}},{"properties":{"city":"Wilmington","zip":"28403","store no-":"3015","last name":"Owens","geo_score":1.0,"address 1":"1968 Eastwood Road","id":"aebczvy3vk8w","geo_precision":"range","state":"NC"},"type":"Feature","geometry":{"type":"Point","coordinates":[-77.820223,34.222094]}},{"properties":{"city":"Norco","zip":"92860","store no-":"20057","last name":"Talley","geo_score":1.0,"address 1":"1411 Hamner Ave.","id":"aebczvmb8gn1","geo_precision":"range","state":"CA"},"type":"Feature","geometry":{"type":"Point","coordinates":[-117.561952,33.903614]}},{"properties":{"city":"Branford","zip":"6405","store no-":"19001","last name":"Rizzuti","geo_score":1.0,"address 1":"845 West Main Street","id":"aebczw0i1qem","geo_precision":"range","state":"CT"},"type":"Feature","geometry":{"type":"Point","coordinates":[-72.838968,41.27743]}},{"properties":{"city":"Arden","zip":"28704","store no-":"3125","last name":"Dillingham","geo_score":0.878,"address 1":"300 Airport Rd.","id":"aebczvrungz4","geo_precision":"street","state":"NC"},"type":"Feature","geometry":{"type":"Point","coordinates":[-82.525751,35.451198]}},{"properties":{"city":"Asheville","zip":"28805","store no-":"3111","last name":"Dillingham","geo_score":0.585,"address 1":"104A River Hills Road","id":"aebczvzghrn8","geo_precision":"zip","state":"NC"},"type":"Feature","geometry":{"type":"Point","coordinates":[-82.471512,35.592892]}},{"properties":{"city":"Asheville","zip":"28804","store no-":"3121","last name":"Dillingham","geo_score":1.0,"address 1":"674 Merrimon Avenue","id":"aebczw0ktl0s","geo_precision":"range","state":"NC"},"type":"Feature","geometry":{"type":"Point","coordinates":[-82.55464,35.622146]}},{"properties":{"city":"Atlanta","zip":"30319","store no-":"5011","last name":"Sponsler","geo_score":0.982,"address 1":"3895 Peachtree Road North East","id":"aebczvpzftqv","geo_precision":"range","state":"GA"},"type":"Feature","geometry":{"type":"Point","coordinates":[-84.344743,33.857386]}},{"properties":{"city":"Atlanta","zip":"30318","store no-":"5017A","last name":"Sponsler","geo_score":1.0,"address 1":"2020 Howell Mill Road","id":"aebczvuij8ad","geo_precision":"range","state":"GA"},"type":"Feature","geometry":{"type":"Point","coordinates":[-84.412703,33.810577]}},{"properties":{"city":"Atlanta","zip":"30336","store no-":"5031A","last name":"Sponsler","geo_score":0.664,"address 1":"6035 Bakers Ferry Rd.","id":"aebczvqoz645","geo_precision":"street","state":"GA"},"type":"Feature","geometry":{"type":"Point","coordinates":[-84.545949,33.746403]}},{"properties":{"city":"Dunwoody","zip":"30338","store no-":"5001","last name":"Sponsler","geo_score":1.0,"address 1":"2458 Jett Ferry Road;","id":"aebczvwttgjf","geo_precision":"range","state":"GA"},"type":"Feature","geometry":{"type":"Point","coordinates":[-84.302574,33.958687]}},{"properties":{"city":"Lawrenceville","zip":"30043","store no-":"5027A","last name":"Sponsler","geo_score":0.807,"address 1":"1820 North Brown Road","id":"aebczw1bh32p","geo_precision":"street","state":"GA"},"type":"Feature","geometry":{"type":"Point","coordinates":[-84.079852,33.985942]}},{"properties":{"city":"North Myrtle Beach","zip":"29582","store no-":"7044","last name":"Satterfield","geo_score":0.732,"address 1":"515 Highway 17 N","id":"aebczvyyzrkd","geo_precision":"street","state":"SC"},"type":"Feature","geometry":{"type":"Point","coordinates":[-78.660242,33.844256]}},{"properties":{"city":"Glendale","zip":"91210","store no-":"20072","last name":"Elmassian","geo_score":0.585,"address 1":"813 Americana Way","id":"aebczw0d0to5","geo_precision":"zip","state":"CA"},"type":"Feature","geometry":{"type":"Point","coordinates":[-118.298662,33.786594]}},{"properties":{"city":"Kingsport","zip":"37663","store no-":"4022A","last name":"Upright","geo_score":1.0,"address 1":"4260 Fort Henry Drive","id":"aebczvtvfnss","geo_precision":"range","state":"TN"},"type":"Feature","geometry":{"type":"Point","coordinates":[-82.498469,36.481833]}},{"properties":{"city":"Altamonte Springs","zip":"32701","store no-":"13037","last name":"Padgett","geo_score":1.0,"address 1":"175 East Altamonte Drive","id":"aebczvrgr8hs","geo_precision":"range","state":"FL"},"type":"Feature","geometry":{"type":"Point","coordinates":[-81.385511,28.662027]}},{"properties":{"city":"Monrovia","zip":"91016","store no-":"20046","last name":"Mehrabian","geo_score":1.0,"address 1":"444 West Huntington Dr.","id":"aebczvy6qh5b","geo_precision":"range","state":"CA"},"type":"Feature","geometry":{"type":"Point","coordinates":[-118.009199,34.140196]}},{"properties":{"city":"Arcadia","zip":"91007","store no-":"20076","last name":"Mehrabian","geo_score":1.0,"address 1":"400 South Baldwin Avenue","id":"aebczw2raeq3","geo_precision":"range","state":"CA"},"type":"Feature","geometry":{"type":"Point","coordinates":[-118.054255,34.134837]}},{"properties":{"city":"Chatsworth","zip":"91311","store no-":"20039","last name":"Magglos","geo_score":1.0,"address 1":"9840E Topanga Canyon Blvd.","id":"aebczvvmwkhn","geo_precision":"range","state":"CA"},"type":"Feature","geometry":{"type":"Point","coordinates":[-118.605883,34.249015]}},{"properties":{"city":"Woodland Hills","zip":"91364","store no-":"20051","last name":"Magglos","geo_score":1.0,"address 1":"22649 Ventura Blvd.","id":"aebczvyj0pjk","geo_precision":"range","state":"CA"},"type":"Feature","geometry":{"type":"Point","coordinates":[-118.620013,34.167195]}},{"properties":{"city":"Phoenix","zip":"85012","store no-":"9012","last name":"Rosenfield","geo_score":1.0,"address 1":"18 East Camelback Road","id":"aebczvpepisl","geo_precision":"range","state":"AZ"},"type":"Feature","geometry":{"type":"Point","coordinates":[-112.072953,33.509352]}},{"properties":{"city":"Chandler","zip":"85248","store no-":"9010","last name":"Rosenfield","geo_score":0.598,"address 1":"1085 W. Queen Creek Road","id":"aebczvnfrff5","geo_precision":"street","state":"AZ"},"type":"Feature","geometry":{"type":"Point","coordinates":[-111.846972,33.26205]}},{"properties":{"city":"Phoenix","zip":"85003","store no-":"9013","last name":"Rosenfield","geo_score":0.339,"address 1":"1515 N. 7th Avenue","id":"aebczvruud1w","geo_precision":"street","state":"AZ"},"type":"Feature","geometry":{"type":"Point","coordinates":[-112.065122,33.450013]}},{"properties":{"city":"Phoenix","zip":"85042","store no-":"9014","last name":"Rosenfield","geo_score":0.604,"address 1":"2415 E. Baseline Road","id":"aebczvnzga6h","geo_precision":"street","state":"AZ"},"type":"Feature","geometry":{"type":"Point","coordinates":[-112.073255,33.377756]}},{"properties":{"city":"Laveen","zip":"85339","store no-":"9018","last name":"Rosenfield","geo_score":0.604,"address 1":"5130 W. Baseline Rd","id":"aebczvnbqsft","geo_precision":"street","state":"AZ"},"type":"Feature","geometry":{"type":"Point","coordinates":[-112.12113,33.377708]}},{"properties":{"city":"Point Pleasant","zip":"8742","store no-":"1008A","last name":"Nostrand","geo_score":0.912,"address 1":"2600 Bridge Avenue","id":"aebczvuje1w5","geo_precision":"range","state":"NJ"},"type":"Feature","geometry":{"type":"Point","coordinates":[-74.078496,40.074058]}},{"properties":{"city":"Palmdale","zip":"93551","store no-":"20028","last name":"Violante","geo_score":0.633,"address 1":"39604 10th St. West","id":"aebczvs0m29v","geo_precision":"street","state":"CA"},"type":"Feature","geometry":{"type":"Point","coordinates":[-118.199702,34.617789]}},{"properties":{"city":"Rockford","zip":"61114","store no-":"27026","last name":"Tarara","geo_score":0.329,"address 1":"6284 E. State Street","id":"aebczvslcpek","geo_precision":"street","state":"IL"},"type":"Feature","geometry":{"type":"Point","coordinates":[-89.087554,42.267693]}},{"properties":{"city":"Machesney","zip":"61115","store no-":"27032","last name":"Tarara","geo_score":0.843,"address 1":"1513 W Lane Road","id":"aebczw11s2oj","geo_precision":"range","state":"IL"},"type":"Feature","geometry":{"type":"Point","coordinates":[-89.031872,42.365528]}},{"properties":{"city":"Midlothian","zip":"23112","store no-":"6013","last name":"Waldrop","geo_score":0.805,"address 1":"4500 Commonwealth Centre Parkway","id":"aebczvwx5h6k","geo_precision":"street","state":"VA"},"type":"Feature","geometry":{"type":"Point","coordinates":[-77.632829,37.419506]}},{"properties":{"city":"Chesterfield","zip":"23832","store no-":"6014","last name":"Waldrop","geo_score":0.435,"address 1":"6945 Commons Plaza","id":"aebczvsfpalb","geo_precision":"street","state":"VA"},"type":"Feature","geometry":{"type":"Point","coordinates":[-77.291016,37.221468]}},{"properties":{"city":"Midlothian","zip":"23114","store no-":"6012","last name":"Waldrop","geo_score":0.67,"address 1":"100 Heaths Way Road","id":"aebczvw8gt1c","geo_precision":"range","state":"VA"},"type":"Feature","geometry":{"type":"Point","coordinates":[-76.764994,37.341888]}},{"properties":{"city":"Glen Allen","zip":"23060","store no-":"6002","last name":"Waldrop","geo_score":1.0,"address 1":"11444 West Broad Street","id":"aebczvp6uk9i","geo_precision":"range","state":"VA"},"type":"Feature","geometry":{"type":"Point","coordinates":[-77.611159,37.651352]}},{"properties":{"city":"Oklahoma City","zip":"73120","store no-":"23002","last name":"Warfel","geo_score":0.604,"address 1":"2522  W. Memorial Rd.","id":"aebczvnt5ewp","geo_precision":"street","state":"OK"},"type":"Feature","geometry":{"type":"Point","coordinates":[-97.567168,35.60861]}},{"properties":{"city":"Midwest City","zip":"73110","store no-":"23003","last name":"Warfel","geo_score":0.598,"address 1":"1940 S. Air Depot Blvd.","id":"aebczvxwotj9","geo_precision":"street","state":"OK"},"type":"Feature","geometry":{"type":"Point","coordinates":[-97.406255,35.463879]}},{"properties":{"city":"Warr Acres","zip":"73122","store no-":"23010","last name":"Warfel","geo_score":0.488,"address 1":"3800 N. MacArthur Blvd.","id":"aebczvnbgk38","geo_precision":"street","state":"OK"},"type":"Feature","geometry":{"type":"Point","coordinates":[-97.618997,35.50051]}},{"properties":{"city":"Oklahoma City","zip":"73139","store no-":"23001","last name":"Warfel","geo_score":0.916,"address 1":"7500 South Santa Fe","id":"aebczvr87flp","geo_precision":"range","state":"OK"},"type":"Feature","geometry":{"type":"Point","coordinates":[-97.512462,35.392037]}},{"properties":{"city":"Goldsboro","zip":"27534","store no-":"3058B","last name":"Yates","geo_score":0.625,"address 1":"2503 E. Ash Street","id":"aebczvqdomz9","geo_precision":"street","state":"NC"},"type":"Feature","geometry":{"type":"Point","coordinates":[-77.960016,35.375566]}},{"properties":{"city":"Bowie","zip":"20715","store no-":"28006","last name":"Bryant","geo_score":1.0,"address 1":"6844 Race Track Road","id":"aebczvzrtbi0","geo_precision":"range","state":"MD"},"type":"Feature","geometry":{"type":"Point","coordinates":[-76.729571,38.984106]}},{"properties":{"city":"Flower Mound","zip":"75028","store no-":"15015","last name":"Weachter","geo_score":1.0,"address 1":"2701 Cross Timbers Road","id":"aebczvvxtsor","geo_precision":"range","state":"TX"},"type":"Feature","geometry":{"type":"Point","coordinates":[-97.070456,33.035969]}},{"properties":{"city":"Denton","zip":"76205","store no-":"15024","last name":"Weachter","geo_score":0.916,"address 1":"1800 S Loop 288","id":"aebczvt4nxh1","geo_precision":"range","state":"TX"},"type":"Feature","geometry":{"type":"Point","coordinates":[-97.101202,33.190675]}},{"properties":{"city":"Lexington","zip":"29072","store no-":"7037","last name":"Wells","geo_score":1.0,"address 1":"5594 Sunset Blvd.","id":"aebczvzock1h","geo_precision":"range","state":"SC"},"type":"Feature","geometry":{"type":"Point","coordinates":[-81.226863,33.994121]}},{"properties":{"city":"Dublin","zip":"43017","store no-":"2017B","last name":"Westerlund","geo_score":1.0,"address 1":"6702 Perimeter Loop Road","id":"aebczvsfy4o2","geo_precision":"range","state":"OH"},"type":"Feature","geometry":{"type":"Point","coordinates":[-83.157604,40.101726]}},{"properties":{"city":"Gahanna","zip":"43230","store no-":"2005A","last name":"Westerlund","geo_score":1.0,"address 1":"332 South Hamilton Road","id":"aebczvqhhrme","geo_precision":"range","state":"OH"},"type":"Feature","geometry":{"type":"Point","coordinates":[-82.867089,40.010916]}},{"properties":{"city":"Grove City","zip":"43123","store no-":"2047","last name":"Westerlund","geo_score":0.585,"address 1":"4114 Buckeye Parkway","id":"aebczw096knm","geo_precision":"zip","state":"OH"},"type":"Feature","geometry":{"type":"Point","coordinates":[-83.086853,39.897563]}},{"properties":{"city":"Hilliard","zip":"43026","store no-":"2023A","last name":"Westerlund","geo_score":1.0,"address 1":"4664 Cemetery Road","id":"aebczvt6cva1","geo_precision":"range","state":"OH"},"type":"Feature","geometry":{"type":"Point","coordinates":[-83.137085,40.032072]}},{"properties":{"city":"Gahanna","zip":"43230","store no-":"2006A","last name":"Westerlund","geo_score":0.604,"address 1":"1340 N. Hamilton Rd.","id":"aebczvqoqe3h","geo_precision":"street","state":"OH"},"type":"Feature","geometry":{"type":"Point","coordinates":[-82.866973,40.013501]}},{"properties":{"city":"Boca Raton","zip":"33434","store no-":"13017","last name":"Wilson","geo_score":1.0,"address 1":"8903 Glades Road","id":"aebczvtklnws","geo_precision":"range","state":"FL"},"type":"Feature","geometry":{"type":"Point","coordinates":[-80.184875,26.367969]}},{"properties":{"city":"Winter Park","zip":"32789","store no-":"13061","last name":"Padgett","geo_score":1.0,"address 1":"1150 South Orlando Ave.","id":"aebczvwcsh4h","geo_precision":"range","state":"FL"},"type":"Feature","geometry":{"type":"Point","coordinates":[-81.36503,28.587238]}},{"properties":{"city":"Charlotte","zip":"28277","store no-":"3060","last name":"Smith","geo_score":1.0,"address 1":"7828 Rea Road","id":"aebczvzcpbgy","geo_precision":"range","state":"NC"},"type":"Feature","geometry":{"type":"Point","coordinates":[-80.814094,35.061714]}},{"properties":{"city":"Encinitas","zip":"92024","store no-":"20065","last name":"Weir","geo_score":0.753,"address 1":"1070 N El Camino Real","id":"aebczvxyrxl2","geo_precision":"street","state":"CA"},"type":"Feature","geometry":{"type":"Point","coordinates":[-117.262216,33.067585]}},{"properties":{"city":"Melbourne","zip":"32901","store no-":"13052","last name":"Price","geo_score":1.0,"address 1":"90 West Hibiscus Blvd.","id":"aebczvx8ogv1","geo_precision":"range","state":"FL"},"type":"Feature","geometry":{"type":"Point","coordinates":[-80.624093,28.085303]}},{"properties":{"city":"Melbourne","zip":"32935","store no-":"13045","last name":"Price","geo_score":0.585,"address 1":"1070 North Wickham Road","id":"aebczvymdw1e","geo_precision":"zip","state":"FL"},"type":"Feature","geometry":{"type":"Point","coordinates":[-80.680583,28.210733]}},{"properties":{"city":"Melbourne","zip":"32901","store no-":"13040","last name":"Price","geo_score":0.699,"address 1":"1515 Palm Bay Road","id":"aebczvs0x9mf","geo_precision":"street","state":"FL"},"type":"Feature","geometry":{"type":"Point","coordinates":[-80.634294,28.080555]}},{"properties":{"city":"Greenville","zip":"27834","store no-":"3106","last name":"Yates","geo_score":1.0,"address 1":"796A Moye Boulevard","id":"aebczvzc6c1s","geo_precision":"range","state":"NC"},"type":"Feature","geometry":{"type":"Point","coordinates":[-77.4009,35.605803]}},{"properties":{"city":"Plano","zip":"75075","store no-":"15013","last name":"Zeigler","geo_score":0.607,"address 1":"1881 N. Central Expressway","id":"aebczvqfu7s2","geo_precision":"street","state":"TX"},"type":"Feature","geometry":{"type":"Point","coordinates":[-96.708441,33.009444]}},{"properties":{"city":"Arlington","zip":"98223","store no-":"18008","last name":"Zelmer","geo_score":1.0,"address 1":"3704 172nd Street NE","id":"aebczvo6lqgo","geo_precision":"range","state":"WA"},"type":"Feature","geometry":{"type":"Point","coordinates":[-122.180272,48.152397]}},{"properties":{"city":"Frisco","zip":"75034","store no-":"15037","last name":"Zeigler","geo_score":0.878,"address 1":"5110 Eldorado Parkway","id":"aebczvq8dsr2","geo_precision":"range","state":"TX"},"type":"Feature","geometry":{"type":"Point","coordinates":[-96.837903,33.175066]}}],"is_temporal":false,"author":{"url":"","metadata":"","contact_name":"","contact_address":"","source":"","contact_phone":""},"source":"","pagination":{"sort":null,"start":0,"total":616,"limit":1000000},"state":"complete","tags":"","published":"2014-08-16T22:52:39-04:00","id":357070}