{"type":"FeatureCollection","data_type":"Dataset","url_type":null,"permissions":[{"permissions":{"download":true,"view":true},"group_id":"everyone"}],"classification":null,"title":"National Depots point","count":37,"stream_id":360078,"contributor":{"url":"http://geocommons.com/users/72589","name":"danieldelarey"},"data_attributes":null,"calculation_params":null,"icon_link":null,"link":"http://geocommons.com/overlays/360078.json","extent":[17.0765,-33.982,31.6158,-19.2399],"geometry_types":["point"],"unique_name":null,"name":"National Depots point","feature_count":37,"description":"","next_feature":null,"is_raster":false,"short_classification":"Y","stats":{"CONFIDENCE":{"max":0.0,"variance":0.0,"mean":0.0,"stdev":0.0,"min":0.0,"median":0.0},"LONGITUDE":{"max":32,"variance":37.6456456456456,"mean":25.4864864864865,"stdev":6.13560474979,"min":0,"median":28},"LATITUDE":{"max":0,"variance":37.03003003003,"mean":-27.5675675675676,"stdev":6.0852304829012,"min":-34,"median":-28},"ID":{"max":4,"variance":0.758258258258257,"mean":0.27027027027027,"stdev":0.870780258307604,"min":0,"median":0}},"features":[{"properties":{"NAME":"C.T","A_STR_NO":null,"CONFIDENCE":0.0,"LONGITUDE":19,"ID":1,"LATITUDE":-34,"STREET":"Prime Park, Off Printers Way","TOWN":"Cape Town","id":"aehzfrp8j9ik","SUBURB":"Montague Gardens","PROVINCE":"Western Cape"},"type":"Feature","geometry":{"type":"Point","coordinates":[18.512991,-33.876786]}},{"properties":{"NAME":"Springbok","A_STR_NO":"1","CONFIDENCE":0.0,"LONGITUDE":18,"ID":2,"LATITUDE":-30,"STREET":"Kokerboom Street","TOWN":"Springbok","id":"aehzfrodpajl","SUBURB":"Okiep","PROVINCE":"Western Cape"},"type":"Feature","geometry":{"type":"Point","coordinates":[17.890285,-29.665416]}},{"properties":{"NAME":"Lamberts Bay","A_STR_NO":"9","CONFIDENCE":0.0,"LONGITUDE":18,"ID":0,"LATITUDE":-32,"STREET":"Saint Marks Street","TOWN":null,"id":"aehzfrxp5dtm","SUBURB":"Lamberts Bay","PROVINCE":"Western Cape"},"type":"Feature","geometry":{"type":"Point","coordinates":[18.311853,-32.101785]}},{"properties":{"NAME":"Worcester","A_STR_NO":"27","CONFIDENCE":0.0,"LONGITUDE":19,"ID":3,"LATITUDE":-34,"STREET":"Retief Street","TOWN":null,"id":"aehzfrrwupsc","SUBURB":"Worcester","PROVINCE":"Western Cape"},"type":"Feature","geometry":{"type":"Point","coordinates":[19.454595,-33.616668]}},{"properties":{"NAME":"Vrendenburg","A_STR_NO":"8","CONFIDENCE":0.0,"LONGITUDE":18,"ID":4,"LATITUDE":-33,"STREET":"Dirkie Uys Street","TOWN":null,"id":"aehzfrp1pc5t","SUBURB":"Vrendenburg","PROVINCE":"Western Cape"},"type":"Feature","geometry":{"type":"Point","coordinates":[17.993063,-32.910462]}},{"properties":{"NAME":"P.E","A_STR_NO":null,"CONFIDENCE":0.0,"LONGITUDE":26,"ID":0,"LATITUDE":-34,"STREET":"Roshan Road","TOWN":"Port Elizabeth","id":"aehzfrn26x9k","SUBURB":"Framesby","PROVINCE":"Eastern Cape"},"type":"Feature","geometry":{"type":"Point","coordinates":[25.512556,-33.946503]}},{"properties":{"NAME":"Queenstown","A_STR_NO":"18","CONFIDENCE":0.0,"LONGITUDE":27,"ID":0,"LATITUDE":-32,"STREET":"Kei Cresent","TOWN":"Queenstown","id":"aehzfrk5ooog","SUBURB":"Komani Park","PROVINCE":"Eastern Cape"},"type":"Feature","geometry":{"type":"Point","coordinates":[26.890533,-31.911365]}},{"properties":{"NAME":"Cradock","A_STR_NO":"40","CONFIDENCE":0.0,"LONGITUDE":26,"ID":0,"LATITUDE":-32,"STREET":"Ziervogel Street","TOWN":null,"id":"aehzfroetg22","SUBURB":"Cradock","PROVINCE":"Eastern Cape"},"type":"Feature","geometry":{"type":"Point","coordinates":[25.624579,-32.158551]}},{"properties":{"NAME":"Aliwal North","A_STR_NO":"11","CONFIDENCE":0.0,"LONGITUDE":27,"ID":0,"LATITUDE":-31,"STREET":"Somerset Street","TOWN":null,"id":"aehzfrxlxzaw","SUBURB":"Aliwal North","PROVINCE":"Eastern Cape"},"type":"Feature","geometry":{"type":"Point","coordinates":[26.708702,-30.694437]}},{"properties":{"NAME":"George","A_STR_NO":"24","CONFIDENCE":0.0,"LONGITUDE":22,"ID":0,"LATITUDE":-34,"STREET":"Binne Street","TOWN":"George","id":"aehzfrw30cpt","SUBURB":"Industria","PROVINCE":"Western Cape"},"type":"Feature","geometry":{"type":"Point","coordinates":[22.469785,-33.981958]}},{"properties":{"NAME":"E.L","A_STR_NO":"9","CONFIDENCE":0.0,"LONGITUDE":28,"ID":0,"LATITUDE":-33,"STREET":"Falcon Street","TOWN":null,"id":"aehzfrwfycgy","SUBURB":"East London","PROVINCE":"Eastern Cape"},"type":"Feature","geometry":{"type":"Point","coordinates":[27.997938,-32.944141]}},{"properties":{"NAME":"Kokstad","A_STR_NO":"20","CONFIDENCE":0.0,"LONGITUDE":29,"ID":0,"LATITUDE":-31,"STREET":"Hawthorn Street","TOWN":null,"id":"aehzfrqgaxm3","SUBURB":"Kokstad","PROVINCE":"Eastern Cape"},"type":"Feature","geometry":{"type":"Point","coordinates":[29.424996,-30.555908]}},{"properties":{"NAME":"Umtata","A_STR_NO":"2","CONFIDENCE":0.0,"LONGITUDE":29,"ID":0,"LATITUDE":-32,"STREET":"Progress Streetr","TOWN":"Umtata","id":"aehzfrvr9cl9","SUBURB":"Vulindela Heights","PROVINCE":"Eastern Cape"},"type":"Feature","geometry":{"type":"Point","coordinates":[28.784381,-31.590814]}},{"properties":{"NAME":"DBN","A_STR_NO":"43","CONFIDENCE":0.0,"LONGITUDE":31,"ID":0,"LATITUDE":-30,"STREET":"Imvumbu Park Place","TOWN":"Durban","id":"aehzfrpl8kvd","SUBURB":"Riverhorse Valley","PROVINCE":"KwaZulu Natal"},"type":"Feature","geometry":{"type":"Point","coordinates":[31.000398,-29.781873]}},{"properties":{"NAME":"Newcastle","A_STR_NO":"41","CONFIDENCE":0.0,"LONGITUDE":30,"ID":0,"LATITUDE":-28,"STREET":"Ayliff Street","TOWN":"Newcastle","id":"aehzfrkxv26b","SUBURB":null,"PROVINCE":"KwaZulu Natal"},"type":"Feature","geometry":{"type":"Point","coordinates":[29.938493,-27.755914]}},{"properties":{"NAME":"Pietermaritzburg","A_STR_NO":"1","CONFIDENCE":0.0,"LONGITUDE":30,"ID":0,"LATITUDE":-30,"STREET":"Haworth Road","TOWN":"Pietermaritzburg","id":"aehzfrtr94e8","SUBURB":"Mkondeni","PROVINCE":"KwaZulu Natal"},"type":"Feature","geometry":{"type":"Point","coordinates":[30.411713,-29.656639]}},{"properties":{"NAME":"Pongola","A_STR_NO":"32","CONFIDENCE":0.0,"LONGITUDE":32,"ID":0,"LATITUDE":-27,"STREET":"Klasie Havenga Street","TOWN":null,"id":"aehzfruwnfhl","SUBURB":"Pongola","PROVINCE":"KwaZulu Natal"},"type":"Feature","geometry":{"type":"Point","coordinates":[31.615774,-27.375683]}},{"properties":{"NAME":"Bloemfontein","A_STR_NO":"5","CONFIDENCE":0.0,"LONGITUDE":26,"ID":0,"LATITUDE":-29,"STREET":"Leon Bartel Street","TOWN":"Bloemfontein","id":"aehzfry01gy1","SUBURB":"East End","PROVINCE":"Free State"},"type":"Feature","geometry":{"type":"Point","coordinates":[26.260433,-29.130839]}},{"properties":{"NAME":"Kimberley","A_STR_NO":"26","CONFIDENCE":0.0,"LONGITUDE":25,"ID":0,"LATITUDE":-29,"STREET":"Main Road","TOWN":"Kimberley","id":"aehzfrosmk68","SUBURB":"Beaconsfield","PROVINCE":"Free State"},"type":"Feature","geometry":{"type":"Point","coordinates":[24.784214,-28.756139]}},{"properties":{"NAME":"Klerksdorp","A_STR_NO":"110","CONFIDENCE":0.0,"LONGITUDE":27,"ID":0,"LATITUDE":-27,"STREET":"Archbishop Desmond Tutu Road","TOWN":null,"id":"aehzfrqjlw2o","SUBURB":"Klerksdorp","PROVINCE":"Free State"},"type":"Feature","geometry":{"type":"Point","coordinates":[26.660568,-26.874527]}},{"properties":{"NAME":"PTA","A_STR_NO":"627","CONFIDENCE":0.0,"LONGITUDE":28,"ID":0,"LATITUDE":-26,"STREET":"Welthagen Street","TOWN":"Pretoria","id":"aehzfrm8sjbc","SUBURB":"Hermanstad","PROVINCE":"Gauteng"},"type":"Feature","geometry":{"type":"Point","coordinates":[28.162723,-25.716936]}},{"properties":{"NAME":"Brits","A_STR_NO":"8","CONFIDENCE":0.0,"LONGITUDE":28,"ID":0,"LATITUDE":-26,"STREET":"Simonsberg","TOWN":"Brits","id":"aehzfrt96c2d","SUBURB":"Elandsrand","PROVINCE":"North West"},"type":"Feature","geometry":{"type":"Point","coordinates":[27.811427,-25.615073]}},{"properties":{"NAME":"Polokwane","A_STR_NO":null,"CONFIDENCE":0.0,"LONGITUDE":29,"ID":0,"LATITUDE":-24,"STREET":"Danielle Close Corperate Park2","TOWN":"Polokwane","id":"aehzfro80iim","SUBURB":"Polokwane Ext 12","PROVINCE":"Limpopo"},"type":"Feature","geometry":{"type":"Point","coordinates":[29.436776,-23.875376]}},{"properties":{"NAME":"Tzaneen","A_STR_NO":null,"CONFIDENCE":0.0,"LONGITUDE":30,"ID":0,"LATITUDE":-24,"STREET":"Trichartsdal","TOWN":null,"id":"aehzfrt6ywrs","SUBURB":"Tzaneen","PROVINCE":"Limpopo"},"type":"Feature","geometry":{"type":"Point","coordinates":[30.386542,-23.888946]}},{"properties":{"NAME":"Louis Trichardt","A_STR_NO":"Malherbe Street","CONFIDENCE":0.0,"LONGITUDE":30,"ID":0,"LATITUDE":-23,"STREET":"Grobler Street","TOWN":null,"id":"aehzfrn9t6h9","SUBURB":"Louis Trichardt","PROVINCE":"Limpopo"},"type":"Feature","geometry":{"type":"Point","coordinates":[29.906345,-23.05902]}},{"properties":{"NAME":"Witbank","A_STR_NO":"6","CONFIDENCE":0.0,"LONGITUDE":29,"ID":0,"LATITUDE":-26,"STREET":"Eitemal Street","TOWN":"Witbank","id":"aehzfrrr1dbo","SUBURB":"Ext 42","PROVINCE":"Mpumalanga"},"type":"Feature","geometry":{"type":"Point","coordinates":[29.22167,-25.902705]}},{"properties":{"NAME":"Nelspruit","A_STR_NO":"3","CONFIDENCE":0.0,"LONGITUDE":31,"ID":0,"LATITUDE":-25,"STREET":"Aluminium Road","TOWN":null,"id":"aehzfrx4bsft","SUBURB":"Witrivier","PROVINCE":"Mpumalanga"},"type":"Feature","geometry":{"type":"Point","coordinates":[30.99107,-25.381332]}},{"properties":{"NAME":"JHB","A_STR_NO":null,"CONFIDENCE":0.0,"LONGITUDE":28,"ID":0,"LATITUDE":-26,"STREET":"Miller Street","TOWN":"Johannesburg","id":"aehzfrtjwcze","SUBURB":"New Doornfontein","PROVINCE":"Gauteng"},"type":"Feature","geometry":{"type":"Point","coordinates":[28.061065,-26.199596]}},{"properties":{"NAME":"Soweto","A_STR_NO":null,"CONFIDENCE":0.0,"LONGITUDE":28,"ID":0,"LATITUDE":-26,"STREET":"Miller Street","TOWN":"Johannesburg","id":"aehzfrwf9rl4","SUBURB":"New Doornfontein","PROVINCE":"Gauteng"},"type":"Feature","geometry":{"type":"Point","coordinates":[27.78695,-26.194328]}},{"properties":{"NAME":"East Rand","A_STR_NO":"315","CONFIDENCE":0.0,"LONGITUDE":28,"ID":0,"LATITUDE":-26,"STREET":"Tamarisk Road","TOWN":"Zesfontein","id":"aehzfruhnbux","SUBURB":"Benoni AH","PROVINCE":"Gauteng"},"type":"Feature","geometry":{"type":"Point","coordinates":[28.302086,-26.179473]}},{"properties":{"NAME":"VTR","A_STR_NO":"13","CONFIDENCE":0.0,"LONGITUDE":28,"ID":0,"LATITUDE":-27,"STREET":"Mccolm Blvd","TOWN":"Vanderbijlpark","id":"aehzfrorlcds","SUBURB":"Vecor Park","PROVINCE":"Gauteng"},"type":"Feature","geometry":{"type":"Point","coordinates":[27.935111,-26.662624]}},{"properties":{"NAME":"Port Shepstone","A_STR_NO":"6","CONFIDENCE":0.0,"LONGITUDE":30,"ID":0,"LATITUDE":-31,"STREET":"Bauhina Road","TOWN":"Margate","id":"aehzfrkod94j","SUBURB":"Margate","PROVINCE":"KwaZulu Natal"},"type":"Feature","geometry":{"type":"Point","coordinates":[30.366659,-30.843752]}},{"properties":{"NAME":"Windhoek","A_STR_NO":"21","CONFIDENCE":0.0,"LONGITUDE":17,"ID":0,"LATITUDE":-23,"STREET":"Palladium Street","TOWN":"Windhoek","id":"aehzfrqvt5r7","SUBURB":"Windhoek","PROVINCE":"Namibia"},"type":"Feature","geometry":{"type":"Point","coordinates":[17.076515,-22.529292]}},{"properties":{"NAME":"Tsumeb","A_STR_NO":"559","CONFIDENCE":0.0,"LONGITUDE":18,"ID":0,"LATITUDE":-19,"STREET":"3rd Street","TOWN":"Tsumeb","id":"aehzfrwh24ih","SUBURB":"Tsumeb","PROVINCE":"Namibia"},"type":"Feature","geometry":{"type":"Point","coordinates":[17.713097,-19.239936]}},{"properties":{"NAME":"Gaborone","A_STR_NO":"Plot 20580","CONFIDENCE":0.0,"LONGITUDE":26,"ID":0,"LATITUDE":-25,"STREET":"Block 3 Industrial","TOWN":"Gaborone","id":"aehzfrqamp6p","SUBURB":"Gaborone","PROVINCE":"Botswana"},"type":"Feature","geometry":{"type":"Point","coordinates":[25.888766,-24.683787]}},{"properties":{"NAME":"Francistown","A_STR_NO":"Unit 5","CONFIDENCE":0.0,"LONGITUDE":28,"ID":0,"LATITUDE":-21,"STREET":"Plot  4898","TOWN":"Francistown","id":"aehzfrjb7fkk","SUBURB":"Francistown","PROVINCE":"Botswana"},"type":"Feature","geometry":{"type":"Point","coordinates":[27.502889,-21.164708]}},{"properties":{"NAME":"Paarl","A_STR_NO":"8","CONFIDENCE":0.0,"LONGITUDE":0,"ID":0,"LATITUDE":0,"STREET":"Lustof Avenue","TOWN":"Paarl","id":"aehzfro0l3xj","SUBURB":"Paarl","PROVINCE":"Western Cape"},"type":"Feature","geometry":{"type":"Point","coordinates":[18.975106,-33.726194]}}],"is_temporal":false,"author":{"url":"","metadata":"","contact_name":"","contact_address":"","source":"","contact_phone":""},"source":"","pagination":{"sort":null,"start":0,"total":37,"limit":1000000},"state":"complete","tags":"","published":"2014-08-16T13:09:05-04:00","id":360078}