{"type":"FeatureCollection","data_type":"Dataset","url_type":null,"permissions":[{"permissions":{"download":true,"view":true},"group_id":"everyone"}],"classification":null,"title":"Data Set second go","count":55,"stream_id":360040,"contributor":{"url":"http://geocommons.com/users/72817","name":"ermintrude"},"data_attributes":null,"calculation_params":null,"icon_link":null,"link":"http://geocommons.com/overlays/360040.json","extent":[-5.05232,50.2633,1.29554,54.8941],"geometry_types":["point"],"unique_name":null,"name":"Data Set second go","feature_count":55,"description":"","next_feature":null,"is_raster":false,"short_classification":"Y","stats":{"number of apprentices":{"max":67,"variance":227.830303030303,"mean":19.8545454545455,"stdev":15.094048596394,"min":1,"median":18}},"features":[{"properties":{"city":"Beaumaris","number of apprentices":6,"id":"aehxpyrgz9ms"},"type":"Feature","geometry":null},{"properties":{"city":"Bedford","geometry_id":"acijxlebuzxi","number of apprentices":17,"id":"aehxpz39oul8"},"type":"Feature","geometry":{"type":"Point","coordinates":[-0.468274,52.1379]}},{"properties":{"city":"Reading","geometry_id":"acijxlaf0nub","number of apprentices":30,"id":"aehxpz3ernag"},"type":"Feature","geometry":{"type":"Point","coordinates":[-0.96963,51.4552]}},{"properties":{"city":"Brecon","geometry_id":"acijxlanjy7n","number of apprentices":9,"id":"aehxpz3im3pl"},"type":"Feature","geometry":{"type":"Point","coordinates":[-3.3906,51.9476]}},{"properties":{"city":"Bristol","geometry_id":"acijxlae3dbt","number of apprentices":4,"id":"aehxpyv8cyev"},"type":"Feature","geometry":{"type":"Point","coordinates":[-2.59586,51.4563]}},{"properties":{"city":"Buckingham","geometry_id":"acijxl8ovusk","number of apprentices":41,"id":"aehxpyro5lcz"},"type":"Feature","geometry":{"type":"Point","coordinates":[-0.987354,52.0002]}},{"properties":{"city":"Caernarvon","number of apprentices":11,"id":"aehxpyro20wn"},"type":"Feature","geometry":null},{"properties":{"city":"Cambridge","geometry_id":"acijxlkra9w4","number of apprentices":8,"id":"aehxpyr3urpv"},"type":"Feature","geometry":{"type":"Point","coordinates":[0.125279,52.201]}},{"properties":{"city":"Cardigan","geometry_id":"acijxlidtexd","number of apprentices":2,"id":"aehxpz2nvsik"},"type":"Feature","geometry":{"type":"Point","coordinates":[-4.66076,52.0832]}},{"properties":{"city":"Carmarthen","geometry_id":"acijxldhvhij","number of apprentices":1,"id":"aehxpypmfrf0"},"type":"Feature","geometry":{"type":"Point","coordinates":[-4.30765,51.8567]}},{"properties":{"city":"Chester","geometry_id":"acijxl7d8jq9","number of apprentices":22,"id":"aehxpyxowi3n"},"type":"Feature","geometry":{"type":"Point","coordinates":[-2.88884,53.1909]}},{"properties":{"city":"Cork","number of apprentices":1,"id":"aehxpywr43r4"},"type":"Feature","geometry":null},{"properties":{"city":"Truro","geometry_id":"acijxlar35uj","number of apprentices":1,"id":"aehxpz1fqnho"},"type":"Feature","geometry":{"type":"Point","coordinates":[-5.05232,50.2633]}},{"properties":{"city":"Carlisle","geometry_id":"acijxlgrqbaf","number of apprentices":16,"id":"aehxpyyn1fkj"},"type":"Feature","geometry":{"type":"Point","coordinates":[-2.93417,54.8941]}},{"properties":{"city":"Denbigh","geometry_id":"acijxl7jizt3","number of apprentices":17,"id":"aehxpyopgsa8"},"type":"Feature","geometry":{"type":"Point","coordinates":[-3.41943,53.1836]}},{"properties":{"city":"Derby","geometry_id":"acijxl8j6b5h","number of apprentices":18,"id":"aehxpyowne5d"},"type":"Feature","geometry":{"type":"Point","coordinates":[-1.47875,52.9227]}},{"properties":{"city":"Devon","number of apprentices":19,"id":"aehxpyoygvwv"},"type":"Feature","geometry":null},{"properties":{"city":"Dorchester","geometry_id":"acijxl92acwg","number of apprentices":14,"id":"aehxpysnt3p9"},"type":"Feature","geometry":{"type":"Point","coordinates":[-2.43796,50.7145]}},{"properties":{"city":"Durham","geometry_id":"acijxl6u5xjr","number of apprentices":6,"id":"aehxpynv02o9"},"type":"Feature","geometry":{"type":"Point","coordinates":[-1.57605,54.7768]}},{"properties":{"city":"Chelmsford","geometry_id":"acijxlh8d9tj","number of apprentices":32,"id":"aehxpyq15oug"},"type":"Feature","geometry":{"type":"Point","coordinates":[0.471841,51.7335]}},{"properties":{"city":"Flint","geometry_id":"acijxlen2cdv","number of apprentices":7,"id":"aehxpyyxzao7"},"type":"Feature","geometry":{"type":"Point","coordinates":[-3.13494,53.2488]}},{"properties":{"city":"Glamorgan","number of apprentices":5,"id":"aehxpyuhm1pe"},"type":"Feature","geometry":null},{"properties":{"city":"Gloucester","geometry_id":"acijxl8nwlpe","number of apprentices":38,"id":"aehxpynzu3hy"},"type":"Feature","geometry":{"type":"Point","coordinates":[-2.2451,51.8643]}},{"properties":{"city":"Winchester","geometry_id":"acijxl634cf7","number of apprentices":20,"id":"aehxpyua2ji4"},"type":"Feature","geometry":{"type":"Point","coordinates":[-1.31563,51.0635]}},{"properties":{"city":"Hereford","geometry_id":"acijxliygajq","number of apprentices":39,"id":"aehxpyttjrxs"},"type":"Feature","geometry":{"type":"Point","coordinates":[-2.71537,52.0562]}},{"properties":{"city":"Hertford","geometry_id":"acijxl915zx6","number of apprentices":24,"id":"aehxpyonkj5l"},"type":"Feature","geometry":{"type":"Point","coordinates":[-0.078196,51.7954]}},{"properties":{"city":"Huntingdon","geometry_id":"acijxlihy5u5","number of apprentices":8,"id":"aehxpywp3odf"},"type":"Feature","geometry":{"type":"Point","coordinates":[-0.183608,52.3305]}},{"properties":{"city":"Maidstone","geometry_id":"acijxl9s3tj8","number of apprentices":14,"id":"aehxpyujq5eb"},"type":"Feature","geometry":{"type":"Point","coordinates":[0.522775,51.2739]}},{"properties":{"city":"Lancaster","geometry_id":"acijxlb1x19r","number of apprentices":23,"id":"aehxpz2kgyr5"},"type":"Feature","geometry":{"type":"Point","coordinates":[-2.80013,54.0482]}},{"properties":{"city":"Leicester","geometry_id":"acijxlbok63j","number of apprentices":21,"id":"aehxpz12ure9"},"type":"Feature","geometry":{"type":"Point","coordinates":[-1.1306,52.633]}},{"properties":{"city":"Lincoln","geometry_id":"acijxl58up2y","number of apprentices":11,"id":"aehxpz0sqt8c"},"type":"Feature","geometry":{"type":"Point","coordinates":[-0.542413,53.2285]}},{"properties":{"city":"London","number of apprentices":61,"id":"aehxpyovg3uy"},"type":"Feature","geometry":null},{"properties":{"city":"Dolgellau","geometry_id":"acijxlca3n0i","number of apprentices":5,"id":"aehxpyshlimj"},"type":"Feature","geometry":{"type":"Point","coordinates":[-3.88509,52.7428]}},{"properties":{"city":"Middlesex","number of apprentices":31,"id":"aehxpyt9tfk2"},"type":"Feature","geometry":null},{"properties":{"city":"Monmouth","geometry_id":"acijxlg0sw0x","number of apprentices":18,"id":"aehxpywkam2w"},"type":"Feature","geometry":{"type":"Point","coordinates":[-2.71657,51.8113]}},{"properties":{"city":"Montgomery","number of apprentices":18,"id":"aehxpyo4r3w0"},"type":"Feature","geometry":null},{"properties":{"city":"Norwich","geometry_id":"acijxlhm49gx","number of apprentices":23,"id":"aehxpyx7uegq"},"type":"Feature","geometry":{"type":"Point","coordinates":[1.29554,52.6289]}},{"properties":{"city":"Northampton","geometry_id":"acijxl54v90k","number of apprentices":33,"id":"aehxpyy8ic6z"},"type":"Feature","geometry":{"type":"Point","coordinates":[-0.894031,52.2381]}},{"properties":{"city":"Newcastle upon Tyne","number of apprentices":9,"id":"aehxpyypo7of"},"type":"Feature","geometry":null},{"properties":{"city":"Nottingham","geometry_id":"acijxliy3y03","number of apprentices":23,"id":"aehxpysh2x8r"},"type":"Feature","geometry":{"type":"Point","coordinates":[-1.15,52.9531]}},{"properties":{"city":"Oxford","geometry_id":"acijxlapjugo","number of apprentices":18,"id":"aehxpyoz6djr"},"type":"Feature","geometry":{"type":"Point","coordinates":[-1.26005,51.7522]}},{"properties":{"city":"Pembroke","geometry_id":"acijxl630yfe","number of apprentices":2,"id":"aehxpyxpo9k2"},"type":"Feature","geometry":{"type":"Point","coordinates":[-4.91693,51.6757]}},{"properties":{"city":"Radnor","number of apprentices":15,"id":"aehxpyye0xh2"},"type":"Feature","geometry":null},{"properties":{"city":"Oakham","geometry_id":"acijxlh7tu9f","number of apprentices":2,"id":"aehxpz3pvzh4"},"type":"Feature","geometry":{"type":"Point","coordinates":[-0.728814,52.6697]}},{"properties":{"city":"Shrewsbury","geometry_id":"acijxldvy4uk","number of apprentices":67,"id":"aehxpyzzfrxx"},"type":"Feature","geometry":{"type":"Point","coordinates":[-2.75347,52.7086]}},{"properties":{"city":"Taunton","geometry_id":"acijxl7tlacw","number of apprentices":47,"id":"aehxpytlx5p0"},"type":"Feature","geometry":{"type":"Point","coordinates":[-3.1032,51.0154]}},{"properties":{"city":"Stafford","geometry_id":"acijxl4b3tjr","number of apprentices":20,"id":"aehxpypg5l3w"},"type":"Feature","geometry":{"type":"Point","coordinates":[-2.11683,52.8062]}},{"properties":{"city":"Ipswich","geometry_id":"acijxl72z493","number of apprentices":24,"id":"aehxpytt4h4l"},"type":"Feature","geometry":{"type":"Point","coordinates":[1.1536,52.0567]}},{"properties":{"city":"Guildford","geometry_id":"acijxl6bgluy","number of apprentices":36,"id":"aehxpz3gbo0z"},"type":"Feature","geometry":{"type":"Point","coordinates":[-0.573899,51.2367]}},{"properties":{"city":"Chichester","geometry_id":"acijxlkap18j","number of apprentices":8,"id":"aehxpytaagoa"},"type":"Feature","geometry":{"type":"Point","coordinates":[-0.779279,50.836]}},{"properties":{"city":"Warwick","geometry_id":"acijxl79414b","number of apprentices":27,"id":"aehxpyxls5bf"},"type":"Feature","geometry":{"type":"Point","coordinates":[-1.58829,52.282]}},{"properties":{"city":"Appleby","number of apprentices":9,"id":"aehxpz3q6wpl"},"type":"Feature","geometry":null},{"properties":{"city":"Salisbury","geometry_id":"acijxlgdiy10","number of apprentices":33,"id":"aehxpyzlygtj"},"type":"Feature","geometry":{"type":"Point","coordinates":[-1.79596,51.0694]}},{"properties":{"city":"Worcester","geometry_id":"acijxlcxp99x","number of apprentices":26,"id":"aehxpyvs1y4p"},"type":"Feature","geometry":{"type":"Point","coordinates":[-2.22129,52.1937]}},{"properties":{"city":"York","geometry_id":"acijxl5pywz4","number of apprentices":52,"id":"aehxpz252zfi"},"type":"Feature","geometry":{"type":"Point","coordinates":[-1.08256,53.9591]}}],"is_temporal":false,"author":{"url":"","metadata":"","contact_name":"","contact_address":"","source":"","contact_phone":""},"source":"","pagination":{"sort":null,"start":0,"total":55,"limit":1000000},"state":"complete","tags":"","published":"2014-08-16T13:07:14-04:00","id":360040}