{"type":"FeatureCollection","data_type":"Dataset","url_type":null,"permissions":[{"permissions":{"download":true,"view":true},"group_id":"everyone"}],"classification":null,"title":"paobese","count":67,"stream_id":360134,"contributor":{"url":"http://geocommons.com/users/22098","name":"brent.dupay"},"data_attributes":null,"calculation_params":null,"icon_link":null,"link":"http://geocommons.com/overlays/360134.json","extent":[0.0,0.0,0.0,0.0],"geometry_types":null,"unique_name":null,"name":"paobese","feature_count":67,"description":"","next_feature":null,"is_raster":false,"short_classification":"Y","features":[{"properties":{"county":"Cambria County, Pennsylvania","yr2009":"36.4","change":"11.3","fips code":"42021","id":"aei3p5ccnmv1","yr2004":"25.1","state":"Pennsylvania"},"type":"Feature","geometry":null},{"properties":{"county":"Columbia County, Pennsylvania","yr2009":"35.6","change":"9.5","fips code":"42037","id":"aei3p5e1v57k","yr2004":"26.1","state":"Pennsylvania"},"type":"Feature","geometry":null},{"properties":{"county":"Fayette County, Pennsylvania","yr2009":"35.3","change":"4.7","fips code":"42051","id":"aei3p5cx81ve","yr2004":"30.6","state":"Pennsylvania"},"type":"Feature","geometry":null},{"properties":{"county":"Armstrong County, Pennsylvania","yr2009":"34.2","change":"6.8","fips code":"42005","id":"aei3p5bxbq8a","yr2004":"27.4","state":"Pennsylvania"},"type":"Feature","geometry":null},{"properties":{"county":"Bradford County, Pennsylvania","yr2009":"34.1","change":"7.6","fips code":"42015","id":"aei3p557p5x9","yr2004":"26.5","state":"Pennsylvania"},"type":"Feature","geometry":null},{"properties":{"county":"Sullivan County, Pennsylvania","yr2009":"33.6","change":"6.6","fips code":"42113","id":"aei3p4yoy061","yr2004":"27","state":"Pennsylvania"},"type":"Feature","geometry":null},{"properties":{"county":"Clarion County, Pennsylvania","yr2009":"32.4","change":"7.4","fips code":"42031","id":"aei3p55ezx8k","yr2004":"25","state":"Pennsylvania"},"type":"Feature","geometry":null},{"properties":{"county":"Blair County, Pennsylvania","yr2009":"32.2","change":"6.9","fips code":"42013","id":"aei3p56k9n4t","yr2004":"25.3","state":"Pennsylvania"},"type":"Feature","geometry":null},{"properties":{"county":"Mckean County, Pennsylvania","yr2009":"32.2","change":"6.1","fips code":"42083","id":"aei3p5b7b4xj","yr2004":"26.1","state":"Pennsylvania"},"type":"Feature","geometry":null},{"properties":{"county":"Dauphin County, Pennsylvania","yr2009":"32.2","change":"6","fips code":"42043","id":"aei3p4ydc4y5","yr2004":"26.2","state":"Pennsylvania"},"type":"Feature","geometry":null},{"properties":{"county":"Schuylkill County, Pennsylvania","yr2009":"32","change":"8.8","fips code":"42107","id":"aei3p5ai2k2t","yr2004":"23.2","state":"Pennsylvania"},"type":"Feature","geometry":null},{"properties":{"county":"York County, Pennsylvania","yr2009":"31.9","change":"6.5","fips code":"42133","id":"aei3p50vqlmp","yr2004":"25.4","state":"Pennsylvania"},"type":"Feature","geometry":null},{"properties":{"county":"Clinton County, Pennsylvania","yr2009":"31.9","change":"5.2","fips code":"42035","id":"aei3p5c56t8g","yr2004":"26.7","state":"Pennsylvania"},"type":"Feature","geometry":null},{"properties":{"county":"Northumberland County, Pennsylvania","yr2009":"31.9","change":"3.2","fips code":"42097","id":"aei3p5452fgn","yr2004":"28.7","state":"Pennsylvania"},"type":"Feature","geometry":null},{"properties":{"county":"Venango County, Pennsylvania","yr2009":"31.8","change":"8.7","fips code":"42121","id":"aei3p5a6zzga","yr2004":"23.1","state":"Pennsylvania"},"type":"Feature","geometry":null},{"properties":{"county":"Perry County, Pennsylvania","yr2009":"31.8","change":"4.4","fips code":"42099","id":"aei3p50z96d3","yr2004":"27.4","state":"Pennsylvania"},"type":"Feature","geometry":null},{"properties":{"county":"Elk County, Pennsylvania","yr2009":"31.7","change":"5.1","fips code":"42047","id":"aei3p5bt2rbx","yr2004":"26.6","state":"Pennsylvania"},"type":"Feature","geometry":null},{"properties":{"county":"Tioga County, Pennsylvania","yr2009":"31.7","change":"4.2","fips code":"42117","id":"aei3p5adgzml","yr2004":"27.5","state":"Pennsylvania"},"type":"Feature","geometry":null},{"properties":{"county":"Forest County, Pennsylvania","yr2009":"31.6","change":"5","fips code":"42053","id":"aei3p4yz3n5g","yr2004":"26.6","state":"Pennsylvania"},"type":"Feature","geometry":null},{"properties":{"county":"Somerset County, Pennsylvania","yr2009":"31.6","change":"4.7","fips code":"42111","id":"aei3p58t41xk","yr2004":"26.9","state":"Pennsylvania"},"type":"Feature","geometry":null},{"properties":{"county":"Snyder County, Pennsylvania","yr2009":"31.5","change":"6.1","fips code":"42109","id":"aei3p52ggdvm","yr2004":"25.4","state":"Pennsylvania"},"type":"Feature","geometry":null},{"properties":{"county":"Philadelphia County, Pennsylvania","yr2009":"31.5","change":"4.4","fips code":"42101","id":"aei3p52s5281","yr2004":"27.1","state":"Pennsylvania"},"type":"Feature","geometry":null},{"properties":{"county":"Pike County, Pennsylvania","yr2009":"31.3","change":"7.4","fips code":"42103","id":"aei3p59hr1yj","yr2004":"23.9","state":"Pennsylvania"},"type":"Feature","geometry":null},{"properties":{"county":"Beaver County, Pennsylvania","yr2009":"31.3","change":"6.3","fips code":"42007","id":"aei3p4z6cvx7","yr2004":"25","state":"Pennsylvania"},"type":"Feature","geometry":null},{"properties":{"county":"Franklin County, Pennsylvania","yr2009":"31.3","change":"5","fips code":"42055","id":"aei3p5ann0xy","yr2004":"26.3","state":"Pennsylvania"},"type":"Feature","geometry":null},{"properties":{"county":"Lebanon County, Pennsylvania","yr2009":"31","change":"4.7","fips code":"42075","id":"aei3p59kciap","yr2004":"26.3","state":"Pennsylvania"},"type":"Feature","geometry":null},{"properties":{"county":"Potter County, Pennsylvania","yr2009":"30.8","change":"5.4","fips code":"42105","id":"aei3p5a0yg1m","yr2004":"25.4","state":"Pennsylvania"},"type":"Feature","geometry":null},{"properties":{"county":"Wyoming County, Pennsylvania","yr2009":"30.7","change":"4.7","fips code":"42131","id":"aei3p5aguyqc","yr2004":"26","state":"Pennsylvania"},"type":"Feature","geometry":null},{"properties":{"county":"Juniata County, Pennsylvania","yr2009":"30.7","change":"4.2","fips code":"42067","id":"aei3p537n7ph","yr2004":"26.5","state":"Pennsylvania"},"type":"Feature","geometry":null},{"properties":{"county":"Mifflin County, Pennsylvania","yr2009":"30.7","change":"3.5","fips code":"42087","id":"aei3p4ztjo86","yr2004":"27.2","state":"Pennsylvania"},"type":"Feature","geometry":null},{"properties":{"county":"Huntingdon County, Pennsylvania","yr2009":"30.7","change":"1.8","fips code":"42061","id":"aei3p51c5m7i","yr2004":"28.9","state":"Pennsylvania"},"type":"Feature","geometry":null},{"properties":{"county":"Lycoming County, Pennsylvania","yr2009":"30.5","change":"4.2","fips code":"42081","id":"aei3p5e23ytl","yr2004":"26.3","state":"Pennsylvania"},"type":"Feature","geometry":null},{"properties":{"county":"Union County, Pennsylvania","yr2009":"30.2","change":"2.2","fips code":"42119","id":"aei3p4yankc2","yr2004":"28","state":"Pennsylvania"},"type":"Feature","geometry":null},{"properties":{"county":"Mercer County, Pennsylvania","yr2009":"30.1","change":"2.7","fips code":"42085","id":"aei3p5d01hry","yr2004":"27.4","state":"Pennsylvania"},"type":"Feature","geometry":null},{"properties":{"county":"Carbon County, Pennsylvania","yr2009":"30","change":"5.3","fips code":"42025","id":"aei3p51gtu4r","yr2004":"24.7","state":"Pennsylvania"},"type":"Feature","geometry":null},{"properties":{"county":"Northampton County, Pennsylvania","yr2009":"30","change":"4.6","fips code":"42095","id":"aei3p55wuape","yr2004":"25.4","state":"Pennsylvania"},"type":"Feature","geometry":null},{"properties":{"county":"Fulton County, Pennsylvania","yr2009":"29.9","change":"5.7","fips code":"42057","id":"aei3p59bucex","yr2004":"24.2","state":"Pennsylvania"},"type":"Feature","geometry":null},{"properties":{"county":"Luzerne County, Pennsylvania","yr2009":"29.9","change":"4.6","fips code":"42079","id":"aei3p55dkiuc","yr2004":"25.3","state":"Pennsylvania"},"type":"Feature","geometry":null},{"properties":{"county":"Bedford County, Pennsylvania","yr2009":"29.7","change":"2.7","fips code":"42009","id":"aei3p5da9anm","yr2004":"27","state":"Pennsylvania"},"type":"Feature","geometry":null},{"properties":{"county":"Jefferson County, Pennsylvania","yr2009":"29.7","change":"1.9","fips code":"42065","id":"aei3p5dcwq7d","yr2004":"27.8","state":"Pennsylvania"},"type":"Feature","geometry":null},{"properties":{"county":"Lancaster County, Pennsylvania","yr2009":"29.6","change":"5.4","fips code":"42071","id":"aei3p5dttn2g","yr2004":"24.2","state":"Pennsylvania"},"type":"Feature","geometry":null},{"properties":{"county":"Lawrence County, Pennsylvania","yr2009":"29.6","change":"4.7","fips code":"42073","id":"aei3p54994sr","yr2004":"24.9","state":"Pennsylvania"},"type":"Feature","geometry":null},{"properties":{"county":"Monroe County, Pennsylvania","yr2009":"29.6","change":"3.7","fips code":"42089","id":"aei3p5a4mkky","yr2004":"25.9","state":"Pennsylvania"},"type":"Feature","geometry":null},{"properties":{"county":"Montour County, Pennsylvania","yr2009":"29.5","change":"2.8","fips code":"42093","id":"aei3p5damj8f","yr2004":"26.7","state":"Pennsylvania"},"type":"Feature","geometry":null},{"properties":{"county":"Indiana County, Pennsylvania","yr2009":"29.4","change":"6.6","fips code":"42063","id":"aei3p500a78z","yr2004":"22.8","state":"Pennsylvania"},"type":"Feature","geometry":null},{"properties":{"county":"Erie County, Pennsylvania","yr2009":"29.4","change":"4.8","fips code":"42049","id":"aei3p549fccu","yr2004":"24.6","state":"Pennsylvania"},"type":"Feature","geometry":null},{"properties":{"county":"Washington County, Pennsylvania","yr2009":"29.3","change":"1.1","fips code":"42125","id":"aei3p5cas09m","yr2004":"28.2","state":"Pennsylvania"},"type":"Feature","geometry":null},{"properties":{"county":"Berks County, Pennsylvania","yr2009":"29.2","change":"3.6","fips code":"42011","id":"aei3p5egs9ve","yr2004":"25.6","state":"Pennsylvania"},"type":"Feature","geometry":null},{"properties":{"county":"Clearfield County, Pennsylvania","yr2009":"29.2","change":"0.6","fips code":"42033","id":"aei3p5bm1kn5","yr2004":"28.6","state":"Pennsylvania"},"type":"Feature","geometry":null},{"properties":{"county":"Cameron County, Pennsylvania","yr2009":"29.1","change":"1.3","fips code":"42023","id":"aei3p5a550m2","yr2004":"27.8","state":"Pennsylvania"},"type":"Feature","geometry":null},{"properties":{"county":"Warren County, Pennsylvania","yr2009":"28.9","change":"5.1","fips code":"42123","id":"aei3p54mdgtr","yr2004":"23.8","state":"Pennsylvania"},"type":"Feature","geometry":null},{"properties":{"county":"Lehigh County, Pennsylvania","yr2009":"28.9","change":"4.8","fips code":"42077","id":"aei3p511c2jy","yr2004":"24.1","state":"Pennsylvania"},"type":"Feature","geometry":null},{"properties":{"county":"Crawford County, Pennsylvania","yr2009":"28.8","change":"3.2","fips code":"42039","id":"aei3p53v70v4","yr2004":"25.6","state":"Pennsylvania"},"type":"Feature","geometry":null},{"properties":{"county":"Allegheny County, Pennsylvania","yr2009":"28.6","change":"6.8","fips code":"42003","id":"aei3p53m8f8f","yr2004":"21.8","state":"Pennsylvania"},"type":"Feature","geometry":null},{"properties":{"county":"Westmoreland County, Pennsylvania","yr2009":"28.3","change":"1.5","fips code":"42129","id":"aei3p5azoojt","yr2004":"26.8","state":"Pennsylvania"},"type":"Feature","geometry":null},{"properties":{"county":"Greene County, Pennsylvania","yr2009":"28.2","change":"-0.4","fips code":"42059","id":"aei3p51yhdp1","yr2004":"28.6","state":"Pennsylvania"},"type":"Feature","geometry":null},{"properties":{"county":"Wayne County, Pennsylvania","yr2009":"27.8","change":"5","fips code":"42127","id":"aei3p5901jns","yr2004":"22.8","state":"Pennsylvania"},"type":"Feature","geometry":null},{"properties":{"county":"Cumberland County, Pennsylvania","yr2009":"27.5","change":"2.9","fips code":"42041","id":"aei3p5aozx6z","yr2004":"24.6","state":"Pennsylvania"},"type":"Feature","geometry":null},{"properties":{"county":"Susquehanna County, Pennsylvania","yr2009":"27.2","change":"2.3","fips code":"42115","id":"aei3p566sltl","yr2004":"24.9","state":"Pennsylvania"},"type":"Feature","geometry":null},{"properties":{"county":"Butler County, Pennsylvania","yr2009":"26.9","change":"1","fips code":"42019","id":"aei3p54x8dz9","yr2004":"25.9","state":"Pennsylvania"},"type":"Feature","geometry":null},{"properties":{"county":"Centre County, Pennsylvania","yr2009":"26.6","change":"2.5","fips code":"42027","id":"aei3p56jaiv8","yr2004":"24.1","state":"Pennsylvania"},"type":"Feature","geometry":null},{"properties":{"county":"Delaware County, Pennsylvania","yr2009":"26.6","change":"2.3","fips code":"42045","id":"aei3p5dcr8ua","yr2004":"24.3","state":"Pennsylvania"},"type":"Feature","geometry":null},{"properties":{"county":"Adams County, Pennsylvania","yr2009":"26.4","change":"0.2","fips code":"42001","id":"aei3p5b9oaj4","yr2004":"26.2","state":"Pennsylvania"},"type":"Feature","geometry":null},{"properties":{"county":"Lackawanna County, Pennsylvania","yr2009":"25.7","change":"1.6","fips code":"42069","id":"aei3p5anjhbx","yr2004":"24.1","state":"Pennsylvania"},"type":"Feature","geometry":null},{"properties":{"county":"Montgomery County, Pennsylvania","yr2009":"25.3","change":"5.5","fips code":"42091","id":"aei3p5eiml4o","yr2004":"19.8","state":"Pennsylvania"},"type":"Feature","geometry":null},{"properties":{"county":"Bucks County, Pennsylvania","yr2009":"24.5","change":"3.7","fips code":"42017","id":"aei3p5533avr","yr2004":"20.8","state":"Pennsylvania"},"type":"Feature","geometry":null},{"properties":{"county":"Chester County, Pennsylvania","yr2009":"21.2","change":"2.8","fips code":"42029","id":"aei3p52s2sw0","yr2004":"18.4","state":"Pennsylvania"},"type":"Feature","geometry":null}],"is_temporal":false,"author":{"url":"","metadata":null,"contact_name":null,"contact_address":null,"source":null,"contact_phone":null},"source":"","pagination":{"sort":null,"start":0,"total":67,"limit":1000000},"state":"parsed","tags":"","published":"2014-08-16T13:11:17-04:00","id":360134}