{"type":"FeatureCollection","data_type":"Dataset","url_type":null,"permissions":[{"permissions":{"download":true,"view":true},"group_id":"everyone"}],"classification":null,"title":"paobese","count":67,"stream_id":360130,"contributor":{"url":"http://geocommons.com/users/22098","name":"brent.dupay"},"data_attributes":null,"calculation_params":null,"icon_link":null,"link":"http://geocommons.com/overlays/360130.json","extent":[0.0,0.0,0.0,0.0],"geometry_types":null,"unique_name":null,"name":"paobese","feature_count":67,"description":"","next_feature":null,"is_raster":false,"short_classification":"Y","features":[{"properties":{"county":"Cambria County","yr2009":"36.4","change":"11.3","fips code":"42021","id":"aei3lk9f0e7j","yr2004":"25.1","state":"Pennsylvania"},"type":"Feature","geometry":null},{"properties":{"county":"Columbia County","yr2009":"35.6","change":"9.5","fips code":"42037","id":"aei3lk14a9q4","yr2004":"26.1","state":"Pennsylvania"},"type":"Feature","geometry":null},{"properties":{"county":"Fayette County","yr2009":"35.3","change":"4.7","fips code":"42051","id":"aei3ljwe0793","yr2004":"30.6","state":"Pennsylvania"},"type":"Feature","geometry":null},{"properties":{"county":"Armstrong County","yr2009":"34.2","change":"6.8","fips code":"42005","id":"aei3lk9j2iy9","yr2004":"27.4","state":"Pennsylvania"},"type":"Feature","geometry":null},{"properties":{"county":"Bradford County","yr2009":"34.1","change":"7.6","fips code":"42015","id":"aei3ljz5ahb4","yr2004":"26.5","state":"Pennsylvania"},"type":"Feature","geometry":null},{"properties":{"county":"Sullivan County","yr2009":"33.6","change":"6.6","fips code":"42113","id":"aei3ljv01wnz","yr2004":"27","state":"Pennsylvania"},"type":"Feature","geometry":null},{"properties":{"county":"Clarion County","yr2009":"32.4","change":"7.4","fips code":"42031","id":"aei3lk3rndxv","yr2004":"25","state":"Pennsylvania"},"type":"Feature","geometry":null},{"properties":{"county":"Blair County","yr2009":"32.2","change":"6.9","fips code":"42013","id":"aei3lk77b4r4","yr2004":"25.3","state":"Pennsylvania"},"type":"Feature","geometry":null},{"properties":{"county":"Mckean County","yr2009":"32.2","change":"6.1","fips code":"42083","id":"aei3lk3dv4ii","yr2004":"26.1","state":"Pennsylvania"},"type":"Feature","geometry":null},{"properties":{"county":"Dauphin County","yr2009":"32.2","change":"6","fips code":"42043","id":"aei3lkchdwnd","yr2004":"26.2","state":"Pennsylvania"},"type":"Feature","geometry":null},{"properties":{"county":"Schuylkill County","yr2009":"32","change":"8.8","fips code":"42107","id":"aei3lkcv35ef","yr2004":"23.2","state":"Pennsylvania"},"type":"Feature","geometry":null},{"properties":{"county":"York County","yr2009":"31.9","change":"6.5","fips code":"42133","id":"aei3lkpn4m26","yr2004":"25.4","state":"Pennsylvania"},"type":"Feature","geometry":null},{"properties":{"county":"Clinton County","yr2009":"31.9","change":"5.2","fips code":"42035","id":"aei3lkc47rot","yr2004":"26.7","state":"Pennsylvania"},"type":"Feature","geometry":null},{"properties":{"county":"Northumberland County","yr2009":"31.9","change":"3.2","fips code":"42097","id":"aei3lknjzqmi","yr2004":"28.7","state":"Pennsylvania"},"type":"Feature","geometry":null},{"properties":{"county":"Venango County","yr2009":"31.8","change":"8.7","fips code":"42121","id":"aei3lkfosdop","yr2004":"23.1","state":"Pennsylvania"},"type":"Feature","geometry":null},{"properties":{"county":"Perry County","yr2009":"31.8","change":"4.4","fips code":"42099","id":"aei3lkpkcioz","yr2004":"27.4","state":"Pennsylvania"},"type":"Feature","geometry":null},{"properties":{"county":"Elk County","yr2009":"31.7","change":"5.1","fips code":"42047","id":"aei3lkk41s89","yr2004":"26.6","state":"Pennsylvania"},"type":"Feature","geometry":null},{"properties":{"county":"Tioga County","yr2009":"31.7","change":"4.2","fips code":"42117","id":"aei3lkqecc9m","yr2004":"27.5","state":"Pennsylvania"},"type":"Feature","geometry":null},{"properties":{"county":"Forest County","yr2009":"31.6","change":"5","fips code":"42053","id":"aei3lkh8kta8","yr2004":"26.6","state":"Pennsylvania"},"type":"Feature","geometry":null},{"properties":{"county":"Somerset County","yr2009":"31.6","change":"4.7","fips code":"42111","id":"aei3lkojrog8","yr2004":"26.9","state":"Pennsylvania"},"type":"Feature","geometry":null},{"properties":{"county":"Snyder County","yr2009":"31.5","change":"6.1","fips code":"42109","id":"aei3lklsouii","yr2004":"25.4","state":"Pennsylvania"},"type":"Feature","geometry":null},{"properties":{"county":"Philadelphia County","yr2009":"31.5","change":"4.4","fips code":"42101","id":"aei3lkpc1ux0","yr2004":"27.1","state":"Pennsylvania"},"type":"Feature","geometry":null},{"properties":{"county":"Pike County","yr2009":"31.3","change":"7.4","fips code":"42103","id":"aei3lkdu0ml2","yr2004":"23.9","state":"Pennsylvania"},"type":"Feature","geometry":null},{"properties":{"county":"Beaver County","yr2009":"31.3","change":"6.3","fips code":"42007","id":"aei3lkes1oxf","yr2004":"25","state":"Pennsylvania"},"type":"Feature","geometry":null},{"properties":{"county":"Franklin County","yr2009":"31.3","change":"5","fips code":"42055","id":"aei3lkfegjuw","yr2004":"26.3","state":"Pennsylvania"},"type":"Feature","geometry":null},{"properties":{"county":"Lebanon County","yr2009":"31","change":"4.7","fips code":"42075","id":"aei3lkdsztxp","yr2004":"26.3","state":"Pennsylvania"},"type":"Feature","geometry":null},{"properties":{"county":"Potter County","yr2009":"30.8","change":"5.4","fips code":"42105","id":"aei3lknasb3i","yr2004":"25.4","state":"Pennsylvania"},"type":"Feature","geometry":null},{"properties":{"county":"Wyoming County","yr2009":"30.7","change":"4.7","fips code":"42131","id":"aei3lki0qgau","yr2004":"26","state":"Pennsylvania"},"type":"Feature","geometry":null},{"properties":{"county":"Juniata County","yr2009":"30.7","change":"4.2","fips code":"42067","id":"aei3lkdw2bfa","yr2004":"26.5","state":"Pennsylvania"},"type":"Feature","geometry":null},{"properties":{"county":"Mifflin County","yr2009":"30.7","change":"3.5","fips code":"42087","id":"aei3lkgj4qqk","yr2004":"27.2","state":"Pennsylvania"},"type":"Feature","geometry":null},{"properties":{"county":"Huntingdon County","yr2009":"30.7","change":"1.8","fips code":"42061","id":"aei3lkfl3rob","yr2004":"28.9","state":"Pennsylvania"},"type":"Feature","geometry":null},{"properties":{"county":"Lycoming County","yr2009":"30.5","change":"4.2","fips code":"42081","id":"aei3lkf4w1xn","yr2004":"26.3","state":"Pennsylvania"},"type":"Feature","geometry":null},{"properties":{"county":"Union County","yr2009":"30.2","change":"2.2","fips code":"42119","id":"aei3lkiy0fqk","yr2004":"28","state":"Pennsylvania"},"type":"Feature","geometry":null},{"properties":{"county":"Mercer County","yr2009":"30.1","change":"2.7","fips code":"42085","id":"aei3lkk5mcxz","yr2004":"27.4","state":"Pennsylvania"},"type":"Feature","geometry":null},{"properties":{"county":"Carbon County","yr2009":"30","change":"5.3","fips code":"42025","id":"aei3lkjlbvmh","yr2004":"24.7","state":"Pennsylvania"},"type":"Feature","geometry":null},{"properties":{"county":"Northampton County","yr2009":"30","change":"4.6","fips code":"42095","id":"aei3lkdu61hy","yr2004":"25.4","state":"Pennsylvania"},"type":"Feature","geometry":null},{"properties":{"county":"Fulton County","yr2009":"29.9","change":"5.7","fips code":"42057","id":"aei3lkrn6j71","yr2004":"24.2","state":"Pennsylvania"},"type":"Feature","geometry":null},{"properties":{"county":"Luzerne County","yr2009":"29.9","change":"4.6","fips code":"42079","id":"aei3lkdl80z6","yr2004":"25.3","state":"Pennsylvania"},"type":"Feature","geometry":null},{"properties":{"county":"Bedford County","yr2009":"29.7","change":"2.7","fips code":"42009","id":"aei3lkqioapc","yr2004":"27","state":"Pennsylvania"},"type":"Feature","geometry":null},{"properties":{"county":"Jefferson County","yr2009":"29.7","change":"1.9","fips code":"42065","id":"aei3lkqc5dkl","yr2004":"27.8","state":"Pennsylvania"},"type":"Feature","geometry":null},{"properties":{"county":"Lancaster County","yr2009":"29.6","change":"5.4","fips code":"42071","id":"aei3lkcazpz4","yr2004":"24.2","state":"Pennsylvania"},"type":"Feature","geometry":null},{"properties":{"county":"Lawrence County","yr2009":"29.6","change":"4.7","fips code":"42073","id":"aei3lkewqhas","yr2004":"24.9","state":"Pennsylvania"},"type":"Feature","geometry":null},{"properties":{"county":"Monroe County","yr2009":"29.6","change":"3.7","fips code":"42089","id":"aei3lkdmdkjf","yr2004":"25.9","state":"Pennsylvania"},"type":"Feature","geometry":null},{"properties":{"county":"Montour County","yr2009":"29.5","change":"2.8","fips code":"42093","id":"aei3lkk5n8ya","yr2004":"26.7","state":"Pennsylvania"},"type":"Feature","geometry":null},{"properties":{"county":"Indiana County","yr2009":"29.4","change":"6.6","fips code":"42063","id":"aei3lkn54t71","yr2004":"22.8","state":"Pennsylvania"},"type":"Feature","geometry":null},{"properties":{"county":"Erie County","yr2009":"29.4","change":"4.8","fips code":"42049","id":"aei3lkmjlv9n","yr2004":"24.6","state":"Pennsylvania"},"type":"Feature","geometry":null},{"properties":{"county":"Washington County","yr2009":"29.3","change":"1.1","fips code":"42125","id":"aei3lkmb0yt6","yr2004":"28.2","state":"Pennsylvania"},"type":"Feature","geometry":null},{"properties":{"county":"Berks County","yr2009":"29.2","change":"3.6","fips code":"42011","id":"aei3lkmfnuvk","yr2004":"25.6","state":"Pennsylvania"},"type":"Feature","geometry":null},{"properties":{"county":"Clearfield County","yr2009":"29.2","change":"0.6","fips code":"42033","id":"aei3lkn8ti19","yr2004":"28.6","state":"Pennsylvania"},"type":"Feature","geometry":null},{"properties":{"county":"Cameron County","yr2009":"29.1","change":"1.3","fips code":"42023","id":"aei3lket8su9","yr2004":"27.8","state":"Pennsylvania"},"type":"Feature","geometry":null},{"properties":{"county":"Warren County","yr2009":"28.9","change":"5.1","fips code":"42123","id":"aei3lkl1ew2r","yr2004":"23.8","state":"Pennsylvania"},"type":"Feature","geometry":null},{"properties":{"county":"Lehigh County","yr2009":"28.9","change":"4.8","fips code":"42077","id":"aei3lkbmzsu6","yr2004":"24.1","state":"Pennsylvania"},"type":"Feature","geometry":null},{"properties":{"county":"Crawford County","yr2009":"28.8","change":"3.2","fips code":"42039","id":"aei3lkqht01g","yr2004":"25.6","state":"Pennsylvania"},"type":"Feature","geometry":null},{"properties":{"county":"Allegheny County","yr2009":"28.6","change":"6.8","fips code":"42003","id":"aei3lkntrc8f","yr2004":"21.8","state":"Pennsylvania"},"type":"Feature","geometry":null},{"properties":{"county":"Westmoreland County","yr2009":"28.3","change":"1.5","fips code":"42129","id":"aei3lknvi88y","yr2004":"26.8","state":"Pennsylvania"},"type":"Feature","geometry":null},{"properties":{"county":"Greene County","yr2009":"28.2","change":"-0.4","fips code":"42059","id":"aei3lkf2mkpl","yr2004":"28.6","state":"Pennsylvania"},"type":"Feature","geometry":null},{"properties":{"county":"Wayne County","yr2009":"27.8","change":"5","fips code":"42127","id":"aei3lkdkblw7","yr2004":"22.8","state":"Pennsylvania"},"type":"Feature","geometry":null},{"properties":{"county":"Cumberland County","yr2009":"27.5","change":"2.9","fips code":"42041","id":"aei3lkkiw5pf","yr2004":"24.6","state":"Pennsylvania"},"type":"Feature","geometry":null},{"properties":{"county":"Susquehanna County","yr2009":"27.2","change":"2.3","fips code":"42115","id":"aei3lkqj9sqo","yr2004":"24.9","state":"Pennsylvania"},"type":"Feature","geometry":null},{"properties":{"county":"Butler County","yr2009":"26.9","change":"1","fips code":"42019","id":"aei3lkbe8trg","yr2004":"25.9","state":"Pennsylvania"},"type":"Feature","geometry":null},{"properties":{"county":"Centre County","yr2009":"26.6","change":"2.5","fips code":"42027","id":"aei3lkeyfegl","yr2004":"24.1","state":"Pennsylvania"},"type":"Feature","geometry":null},{"properties":{"county":"Delaware County","yr2009":"26.6","change":"2.3","fips code":"42045","id":"aei3lket8na2","yr2004":"24.3","state":"Pennsylvania"},"type":"Feature","geometry":null},{"properties":{"county":"Adams County","yr2009":"26.4","change":"0.2","fips code":"42001","id":"aei3lkejerlp","yr2004":"26.2","state":"Pennsylvania"},"type":"Feature","geometry":null},{"properties":{"county":"Lackawanna County","yr2009":"25.7","change":"1.6","fips code":"42069","id":"aei3lkfgiw73","yr2004":"24.1","state":"Pennsylvania"},"type":"Feature","geometry":null},{"properties":{"county":"Montgomery County","yr2009":"25.3","change":"5.5","fips code":"42091","id":"aei3lko34fpd","yr2004":"19.8","state":"Pennsylvania"},"type":"Feature","geometry":null},{"properties":{"county":"Bucks County","yr2009":"24.5","change":"3.7","fips code":"42017","id":"aei3lkjol77g","yr2004":"20.8","state":"Pennsylvania"},"type":"Feature","geometry":null},{"properties":{"county":"Chester County","yr2009":"21.2","change":"2.8","fips code":"42029","id":"aei3lkitfx7u","yr2004":"18.4","state":"Pennsylvania"},"type":"Feature","geometry":null}],"is_temporal":false,"author":{"url":"","metadata":null,"contact_name":null,"contact_address":null,"source":null,"contact_phone":null},"source":"","pagination":{"sort":null,"start":0,"total":67,"limit":1000000},"state":"parsed","tags":"","published":"2014-08-16T13:11:03-04:00","id":360130}