{"type":"FeatureCollection","data_type":"Dataset","url_type":null,"permissions":[{"permissions":{"download":true,"view":true},"group_id":"everyone"}],"classification":null,"title":"dpc_organizer_map_330_5","count":190,"stream_id":36155,"contributor":{"url":"http://geocommons.com/users/11204","name":"joegravellese"},"data_attributes":null,"calculation_params":null,"icon_link":null,"link":"http://geocommons.com/overlays/36155.json","extent":[-73.4134,41.4212,-69.96,42.8535],"geometry_types":["point"],"unique_name":null,"name":"dpc_organizer_map_330_5","feature_count":190,"description":"","next_feature":null,"is_raster":false,"short_classification":"Y","stats":{"latitude":{"max":42.853539,"mean":42.2875536473684,"variance":0.0858922160914253,"stdev":0.293073738317553,"min":41.42125,"median":42.325},"supporters":{"max":194.0,"mean":13.3,"variance":422.327513227513,"stdev":20.5506085853318,"min":0.0,"median":8.0},"organizers":{"max":194.0,"mean":4.87894736842105,"variance":233.06992481203,"stdev":15.2666278140272,"min":1.0,"median":2.0},"accounts":{"max":74.0,"mean":4.05291005291005,"variance":41.8056962737814,"stdev":6.46573246228,"min":0.0,"median":2.0},"longitude":{"max":-69.96,"mean":-71.4350135105263,"variance":0.47594228433059,"stdev":0.689885703816647,"min":-73.413446,"median":-71.2}},"features":[{"properties":{"city":"Abington","latitude":42.11749,"supporters":8.0,"organizers":5.0,"accounts":4.0,"longitude":-70.959888,"id":"a6aabdnx8ksc","state":"Massachusetts"},"type":"Feature","geometry":{"type":"Point","coordinates":[-70.959888,42.11749]}},{"properties":{"city":"Acton","latitude":42.485,"supporters":12.0,"organizers":7.0,"accounts":7.0,"longitude":-71.433,"id":"a6aabdsza6f7","state":"Massachusetts"},"type":"Feature","geometry":{"type":"Point","coordinates":[-71.433,42.485]}},{"properties":{"city":"Agawam","latitude":42.140549,"supporters":13.0,"organizers":4.0,"accounts":5.0,"longitude":-72.788661,"id":"a6aabdqd2rh6","state":"Massachusetts"},"type":"Feature","geometry":{"type":"Point","coordinates":[-72.788661,42.140549]}},{"properties":{"city":"Alford","latitude":42.235644,"supporters":2.0,"organizers":2.0,"accounts":2.0,"longitude":-73.413446,"id":"a6aabdgoa50a","state":"Massachusetts"},"type":"Feature","geometry":{"type":"Point","coordinates":[-73.413446,42.235644]}},{"properties":{"city":"Amesbury","latitude":42.853539,"supporters":9.0,"organizers":2.0,"accounts":2.0,"longitude":-70.948211,"id":"a6aabdhjidtr","state":"Massachusetts"},"type":"Feature","geometry":{"type":"Point","coordinates":[-70.948211,42.853539]}},{"properties":{"city":"Amherst","latitude":42.367092,"supporters":11.0,"organizers":2.0,"accounts":5.0,"longitude":-72.464571,"id":"a6aabdmzj8cl","state":"Massachusetts"},"type":"Feature","geometry":{"type":"Point","coordinates":[-72.464571,42.367092]}},{"properties":{"city":"Andover","latitude":42.647991,"supporters":28.0,"organizers":7.0,"accounts":6.0,"longitude":-71.165685,"id":"a6aabdnt56m0","state":"Massachusetts"},"type":"Feature","geometry":{"type":"Point","coordinates":[-71.165685,42.647991]}},{"properties":{"city":"Arlington","latitude":42.417695,"supporters":29.0,"organizers":7.0,"accounts":15.0,"longitude":-71.167083,"id":"a6aabdj0vlb9","state":"Massachusetts"},"type":"Feature","geometry":{"type":"Point","coordinates":[-71.167083,42.417695]}},{"properties":{"city":"Ashland","latitude":42.261,"supporters":9.0,"organizers":3.0,"accounts":3.0,"longitude":-71.463,"id":"a6aabds0pb1d","state":"Massachusetts"},"type":"Feature","geometry":{"type":"Point","coordinates":[-71.463,42.261]}},{"properties":{"city":"Attleboro","latitude":41.938976,"supporters":31.0,"organizers":4.0,"accounts":4.0,"longitude":-71.302297,"id":"a6aabdunt8px","state":"Massachusetts"},"type":"Feature","geometry":{"type":"Point","coordinates":[-71.302297,41.938976]}},{"properties":{"city":"Auburn","latitude":42.149,"supporters":4.0,"organizers":3.0,"accounts":1.0,"longitude":-71.836,"id":"a6aabdqzrshu","state":"Massachusetts"},"type":"Feature","geometry":{"type":"Point","coordinates":[-71.836,42.149]}},{"properties":{"city":"Barnstable","latitude":41.683443,"supporters":6.0,"organizers":2.0,"accounts":2.0,"longitude":-70.366135,"id":"a6aabdjfncd0","state":"Massachusetts"},"type":"Feature","geometry":{"type":"Point","coordinates":[-70.366135,41.683443]}},{"properties":{"city":"Belchertown","latitude":42.280267,"supporters":6.0,"organizers":1.0,"accounts":2.0,"longitude":-72.402056,"id":"a6aabdudpw5x","state":"Massachusetts"},"type":"Feature","geometry":{"type":"Point","coordinates":[-72.402056,42.280267]}},{"properties":{"city":"Bellingham","latitude":42.076501,"supporters":1.0,"organizers":1.0,"accounts":1.0,"longitude":-71.470464,"id":"a6aabdpmlz2e","state":"Massachusetts"},"type":"Feature","geometry":{"type":"Point","coordinates":[-71.470464,42.076501]}},{"properties":{"city":"Belmont","latitude":42.37,"supporters":37.0,"organizers":2.0,"accounts":2.0,"longitude":-71.179,"id":"a6aabdmjgevl","state":"Massachusetts"},"type":"Feature","geometry":{"type":"Point","coordinates":[-71.179,42.37]}},{"properties":{"city":"Beverly","latitude":42.565145,"supporters":17.0,"organizers":3.0,"accounts":4.0,"longitude":-70.853843,"id":"a6aabdn2ctuo","state":"Massachusetts"},"type":"Feature","geometry":{"type":"Point","coordinates":[-70.853843,42.565145]}},{"properties":{"city":"Billerica","latitude":42.5,"supporters":14.0,"organizers":4.0,"accounts":5.0,"longitude":-71.2,"id":"a6aabdm99no4","state":"Massachusetts"},"type":"Feature","geometry":{"type":"Point","coordinates":[-71.2,42.5]}},{"properties":{"city":"Blackstone","latitude":42.017,"supporters":5.0,"organizers":1.0,"accounts":1.0,"longitude":-71.541,"id":"a6aabds8i6t7","state":"Massachusetts"},"type":"Feature","geometry":{"type":"Point","coordinates":[-71.541,42.017]}},{"properties":{"city":"Boston","latitude":42.358431,"supporters":0.0,"organizers":194.0,"accounts":0.0,"longitude":-71.059773,"id":"a6aabdtpc9ek","state":"Massachusetts"},"type":"Feature","geometry":{"type":"Point","coordinates":[-71.059773,42.358431]}},{"properties":{"city":"Boxborough","latitude":42.4877,"supporters":5.0,"organizers":2.0,"accounts":2.0,"longitude":-71.5184,"id":"a6aabdsqi7gs","state":"Massachusetts"},"type":"Feature","geometry":{"type":"Point","coordinates":[-71.5184,42.4877]}},{"properties":{"city":"Boxford","latitude":42.683256,"supporters":11.0,"organizers":2.0,"accounts":2.0,"longitude":-71.017403,"id":"a6aabdw97xwo","state":"Massachusetts"},"type":"Feature","geometry":{"type":"Point","coordinates":[-71.017403,42.683256]}},{"properties":{"city":"Boylston","latitude":42.391,"supporters":2.0,"organizers":1.0,"accounts":1.0,"longitude":-71.704,"id":"a6aabdmr358u","state":"Massachusetts"},"type":"Feature","geometry":{"type":"Point","coordinates":[-71.704,42.391]}},{"properties":{"city":"Brewster","latitude":41.76,"supporters":11.0,"organizers":2.0,"accounts":4.0,"longitude":-70.083,"id":"a6aabdhe8k0u","state":"Massachusetts"},"type":"Feature","geometry":{"type":"Point","coordinates":[-70.083,41.76]}},{"properties":{"city":"Bridgewater","latitude":41.973741,"supporters":5.0,"organizers":4.0,"accounts":4.0,"longitude":-70.976558,"id":"a6aabdo3n60i","state":"Massachusetts"},"type":"Feature","geometry":{"type":"Point","coordinates":[-70.976558,41.973741]}},{"properties":{"city":"Brockton","latitude":42.083434,"supporters":24.0,"organizers":6.0,"accounts":4.0,"longitude":-71.018379,"id":"a6aabdrq6cv2","state":"Massachusetts"},"type":"Feature","geometry":{"type":"Point","coordinates":[-71.018379,42.083434]}},{"properties":{"city":"Brookline","latitude":42.308198,"supporters":55.0,"organizers":14.0,"accounts":22.0,"longitude":-71.088745,"id":"a6aabdsfgvu7","state":"Massachusetts"},"type":"Feature","geometry":{"type":"Point","coordinates":[-71.088745,42.308198]}},{"properties":{"city":"Burlington","latitude":42.504844,"supporters":6.0,"organizers":1.0,"accounts":2.0,"longitude":-71.201539,"id":"a6aabdj1hl2v","state":"Massachusetts"},"type":"Feature","geometry":{"type":"Point","coordinates":[-71.201539,42.504844]}},{"properties":{"city":"Cambridge","latitude":42.358431,"supporters":194.0,"organizers":69.0,"accounts":74.0,"longitude":-71.103663,"id":"a6aabdly01l3","state":"Massachusetts"},"type":"Feature","geometry":{"type":"Point","coordinates":[-71.103663,42.358431]}},{"properties":{"city":"Carlisle","latitude":42.5292,"supporters":6.0,"organizers":3.0,"accounts":3.0,"longitude":-71.438,"id":"a6aabdw2egr0","state":"Massachusetts"},"type":"Feature","geometry":{"type":"Point","coordinates":[-71.438,42.5292]}},{"properties":{"city":"Charlestown","latitude":42.382588,"supporters":6.0,"organizers":3.0,"accounts":4.0,"longitude":-71.065287,"id":"a6aabdgz5eij","state":"Massachusetts"},"type":"Feature","geometry":{"type":"Point","coordinates":[-71.065287,42.382588]}},{"properties":{"city":"Chatham","latitude":41.68,"supporters":3.0,"organizers":1.0,"accounts":1.0,"longitude":-69.96,"id":"a6aabdm110jl","state":"Massachusetts"},"type":"Feature","geometry":{"type":"Point","coordinates":[-69.96,41.68]}},{"properties":{"city":"Chelmsford","latitude":42.5997,"supporters":14.0,"organizers":5.0,"accounts":6.0,"longitude":-71.368,"id":"a6aabdtoupp7","state":"Massachusetts"},"type":"Feature","geometry":{"type":"Point","coordinates":[-71.368,42.5997]}},{"properties":{"city":"Chelsea","latitude":42.378197,"supporters":7.0,"organizers":3.0,"accounts":4.0,"longitude":-71.038894,"id":"a6aabdnn2yd2","state":"Massachusetts"},"type":"Feature","geometry":{"type":"Point","coordinates":[-71.038894,42.378197]}},{"properties":{"city":"Clinton","latitude":42.413972,"supporters":13.0,"organizers":1.0,"accounts":0.0,"longitude":-71.687523,"id":"a6aabdpfaotl","state":"Massachusetts"},"type":"Feature","geometry":{"type":"Point","coordinates":[-71.687523,42.413972]}},{"properties":{"city":"Cochituate","latitude":42.23,"supporters":3.0,"organizers":1.0,"accounts":2.0,"longitude":-71.364,"id":"a6aabdu2zcmh","state":"Massachusetts"},"type":"Feature","geometry":{"type":"Point","coordinates":[-71.364,42.23]}},{"properties":{"city":"Colrain","latitude":42.681539,"supporters":2.0,"organizers":2.0,"accounts":2.0,"longitude":-72.822986,"id":"a6aabdkqxp9f","state":"Massachusetts"},"type":"Feature","geometry":{"type":"Point","coordinates":[-72.822986,42.681539]}},{"properties":{"city":"Concord","latitude":42.45,"supporters":18.0,"organizers":3.0,"accounts":5.0,"longitude":-71.38,"id":"a6aabdmo31q4","state":"Massachusetts"},"type":"Feature","geometry":{"type":"Point","coordinates":[-71.38,42.45]}},{"properties":{"city":"Dartmouth","latitude":41.616,"supporters":8.0,"organizers":3.0,"accounts":3.0,"longitude":-70.983,"id":"a6aabdpa3t5y","state":"Massachusetts"},"type":"Feature","geometry":{"type":"Point","coordinates":[-70.983,41.616]}},{"properties":{"city":"Dedham","latitude":42.244733,"supporters":4.0,"organizers":4.0,"accounts":4.0,"longitude":-71.181141,"id":"a6aabdtn4aiv","state":"Massachusetts"},"type":"Feature","geometry":{"type":"Point","coordinates":[-71.181141,42.244733]}},{"properties":{"city":"Douglas","latitude":42.113076,"supporters":2.0,"organizers":1.0,"accounts":1.0,"longitude":-71.891139,"id":"a6aabdvvrsfx","state":"Massachusetts"},"type":"Feature","geometry":{"type":"Point","coordinates":[-71.891139,42.113076]}},{"properties":{"city":"Dracut","latitude":42.68,"supporters":17.0,"organizers":2.0,"accounts":2.0,"longitude":-71.32,"id":"a6aabdqjlvog","state":"Massachusetts"},"type":"Feature","geometry":{"type":"Point","coordinates":[-71.32,42.68]}},{"properties":{"city":"Dudley","latitude":42.059189,"supporters":1.0,"organizers":1.0,"accounts":1.0,"longitude":-71.937037,"id":"a6aabdh8uuhl","state":"Massachusetts"},"type":"Feature","geometry":{"type":"Point","coordinates":[-71.937037,42.059189]}},{"properties":{"city":"Duxbury","latitude":41.970474,"supporters":9.0,"organizers":4.0,"accounts":5.0,"longitude":-70.701357,"id":"a6aabdv2me83","state":"Massachusetts"},"type":"Feature","geometry":{"type":"Point","coordinates":[-70.701357,41.970474]}},{"properties":{"city":"Easthampton","latitude":42.267,"supporters":23.0,"organizers":5.0,"accounts":5.0,"longitude":-72.669,"id":"a6aabdoi84q3","state":"Massachusetts"},"type":"Feature","geometry":{"type":"Point","coordinates":[-72.669,42.267]}},{"properties":{"city":"Easton","latitude":42.023528,"supporters":2.0,"organizers":2.0,"accounts":2.0,"longitude":-71.132397,"id":"a6aabdupu08p","state":"Massachusetts"},"type":"Feature","geometry":{"type":"Point","coordinates":[-71.132397,42.023528]}},{"properties":{"city":"Fairhaven","latitude":41.631672,"supporters":6.0,"organizers":3.0,"accounts":2.0,"longitude":-70.870045,"id":"a6aabdr1bez1","state":"Massachusetts"},"type":"Feature","geometry":{"type":"Point","coordinates":[-70.870045,41.631672]}},{"properties":{"city":"Fall River","latitude":41.701,"supporters":37.0,"organizers":5.0,"accounts":6.0,"longitude":-71.155,"id":"a6aabds1lrme","state":"Massachusetts"},"type":"Feature","geometry":{"type":"Point","coordinates":[-71.155,41.701]}},{"properties":{"city":"Falmouth","latitude":41.614199,"supporters":37.0,"organizers":3.0,"accounts":4.0,"longitude":-70.493263,"id":"a6aabdjodaqr","state":"Massachusetts"},"type":"Feature","geometry":{"type":"Point","coordinates":[-70.493263,41.614199]}},{"properties":{"city":"Foxborough","latitude":42.065377,"supporters":9.0,"organizers":1.0,"accounts":2.0,"longitude":-71.247831,"id":"a6aabdlbl7iu","state":"Massachusetts"},"type":"Feature","geometry":{"type":"Point","coordinates":[-71.247831,42.065377]}},{"properties":{"city":"Framingham","latitude":42.297318,"supporters":38.0,"organizers":11.0,"accounts":11.0,"longitude":-71.437006,"id":"a6aabdv4fvjn","state":"Massachusetts"},"type":"Feature","geometry":{"type":"Point","coordinates":[-71.437006,42.297318]}},{"properties":{"city":"Gardner","latitude":42.582529,"supporters":1.0,"organizers":1.0,"accounts":1.0,"longitude":-72.025884,"id":"a6aabdi99gl8","state":"Massachusetts"},"type":"Feature","geometry":{"type":"Point","coordinates":[-72.025884,42.582529]}},{"properties":{"city":"Georgetown","latitude":42.72377,"supporters":5.0,"organizers":2.0,"accounts":2.0,"longitude":-70.981298,"id":"a6aabdr3y2gz","state":"Massachusetts"},"type":"Feature","geometry":{"type":"Point","coordinates":[-70.981298,42.72377]}},{"properties":{"city":"Gloucester","latitude":42.630011,"supporters":10.0,"organizers":3.0,"accounts":3.0,"longitude":-70.694179,"id":"a6aabdijopks","state":"Massachusetts"},"type":"Feature","geometry":{"type":"Point","coordinates":[-70.694179,42.630011]}},{"properties":{"city":"Grafton","latitude":42.203944,"supporters":4.0,"organizers":3.0,"accounts":3.0,"longitude":-71.682862,"id":"a6aabdspbpnd","state":"Massachusetts"},"type":"Feature","geometry":{"type":"Point","coordinates":[-71.682862,42.203944]}},{"properties":{"city":"Great Barrington","latitude":42.1959,"supporters":9.0,"organizers":1.0,"accounts":1.0,"longitude":-73.3621,"id":"a6aabdt3a1wi","state":"Massachusetts"},"type":"Feature","geometry":{"type":"Point","coordinates":[-73.3621,42.1959]}},{"properties":{"city":"Greenfield","latitude":42.587,"supporters":9.0,"organizers":2.0,"accounts":3.0,"longitude":-72.6,"id":"a6aabdthliud","state":"Massachusetts"},"type":"Feature","geometry":{"type":"Point","coordinates":[-72.6,42.587]}},{"properties":{"city":"Groton","latitude":42.611,"supporters":11.0,"organizers":5.0,"accounts":5.0,"longitude":-71.575,"id":"a6aabdqnncky","state":"Massachusetts"},"type":"Feature","geometry":{"type":"Point","coordinates":[-71.575,42.611]}},{"properties":{"city":"Hamilton","latitude":41.743437,"supporters":2.0,"organizers":1.0,"accounts":2.0,"longitude":-70.711979,"id":"a6aabdlzkqrn","state":"Massachusetts"},"type":"Feature","geometry":{"type":"Point","coordinates":[-70.711979,41.743437]}},{"properties":{"city":"Hampden","latitude":42.067614,"supporters":4.0,"organizers":2.0,"accounts":2.0,"longitude":-72.417507,"id":"a6aabdk6ao01","state":"Massachusetts"},"type":"Feature","geometry":{"type":"Point","coordinates":[-72.417507,42.067614]}},{"properties":{"city":"Hanover","latitude":42.123534,"supporters":2.0,"organizers":1.0,"accounts":1.0,"longitude":-70.851048,"id":"a6aabdnjolul","state":"Massachusetts"},"type":"Feature","geometry":{"type":"Point","coordinates":[-70.851048,42.123534]}},{"properties":{"city":"Hanson","latitude":42.055701,"supporters":3.0,"organizers":1.0,"accounts":1.0,"longitude":-70.875936,"id":"a6aabdpliefc","state":"Massachusetts"},"type":"Feature","geometry":{"type":"Point","coordinates":[-70.875936,42.055701]}},{"properties":{"city":"Harvard","latitude":42.500187,"supporters":3.0,"organizers":1.0,"accounts":1.0,"longitude":-71.575864,"id":"a6aabdgrs88j","state":"Massachusetts"},"type":"Feature","geometry":{"type":"Point","coordinates":[-71.575864,42.500187]}},{"properties":{"city":"Haverhill","latitude":42.792639,"supporters":22.0,"organizers":6.0,"accounts":8.0,"longitude":-71.072501,"id":"a6aabdnlbmrq","state":"Massachusetts"},"type":"Feature","geometry":{"type":"Point","coordinates":[-71.072501,42.792639]}},{"properties":{"city":"Hingham","latitude":42.212105,"supporters":14.0,"organizers":1.0,"accounts":1.0,"longitude":-70.884989,"id":"a6aabdrjh44z","state":"Massachusetts"},"type":"Feature","geometry":{"type":"Point","coordinates":[-70.884989,42.212105]}},{"properties":{"city":"Holbrook","latitude":42.144424,"supporters":2.0,"organizers":1.0,"accounts":2.0,"longitude":-71.00289,"id":"a6aabds50d0e","state":"Massachusetts"},"type":"Feature","geometry":{"type":"Point","coordinates":[-71.00289,42.144424]}},{"properties":{"city":"Holden","latitude":42.336791,"supporters":21.0,"organizers":5.0,"accounts":4.0,"longitude":-71.845316,"id":"a6aabdtkuzcs","state":"Massachusetts"},"type":"Feature","geometry":{"type":"Point","coordinates":[-71.845316,42.336791]}},{"properties":{"city":"Holliston","latitude":42.1996,"supporters":12.0,"organizers":4.0,"accounts":3.0,"longitude":-71.435,"id":"a6aabdu931l4","state":"Massachusetts"},"type":"Feature","geometry":{"type":"Point","coordinates":[-71.435,42.1996]}},{"properties":{"city":"Holyoke","latitude":42.198291,"supporters":15.0,"organizers":5.0,"accounts":6.0,"longitude":-72.64207,"id":"a6aabdii6eah","state":"Massachusetts"},"type":"Feature","geometry":{"type":"Point","coordinates":[-72.64207,42.198291]}},{"properties":{"city":"Hudson","latitude":42.391,"supporters":13.0,"organizers":1.0,"accounts":4.0,"longitude":-71.566,"id":"a6aabdt79vew","state":"Massachusetts"},"type":"Feature","geometry":{"type":"Point","coordinates":[-71.566,42.391]}},{"properties":{"city":"Hull","latitude":42.2291,"supporters":10.0,"organizers":4.0,"accounts":2.0,"longitude":-70.8367,"id":"a6aabdtbrpj2","state":"Massachusetts"},"type":"Feature","geometry":{"type":"Point","coordinates":[-70.8367,42.2291]}},{"properties":{"city":"Ipswich","latitude":42.68571,"supporters":9.0,"organizers":3.0,"accounts":2.0,"longitude":-70.864132,"id":"a6aabduogy0n","state":"Massachusetts"},"type":"Feature","geometry":{"type":"Point","coordinates":[-70.864132,42.68571]}},{"properties":{"city":"Lakeville","latitude":41.843757,"supporters":5.0,"organizers":2.0,"accounts":2.0,"longitude":-70.959981,"id":"a6aabdr044zf","state":"Massachusetts"},"type":"Feature","geometry":{"type":"Point","coordinates":[-70.959981,41.843757]}},{"properties":{"city":"Lancaster","latitude":42.427188,"supporters":1.0,"organizers":1.0,"accounts":1.0,"longitude":-71.91177,"id":"a6aabdmn7971","state":"Massachusetts"},"type":"Feature","geometry":{"type":"Point","coordinates":[-71.91177,42.427188]}},{"properties":{"city":"Lanesborough","latitude":42.517306,"supporters":3.0,"organizers":1.0,"accounts":1.0,"longitude":-73.22816,"id":"a6aabdg4t1rs","state":"Massachusetts"},"type":"Feature","geometry":{"type":"Point","coordinates":[-73.22816,42.517306]}},{"properties":{"city":"Lawrence","latitude":42.70734,"supporters":16.0,"organizers":5.0,"accounts":4.0,"longitude":-71.161052,"id":"a6aabdgrac48","state":"Massachusetts"},"type":"Feature","geometry":{"type":"Point","coordinates":[-71.161052,42.70734]}},{"properties":{"city":"Leicester","latitude":42.238192,"supporters":2.0,"organizers":1.0,"accounts":1.0,"longitude":-72.012379,"id":"a6aabdgm5hhd","state":"Massachusetts"},"type":"Feature","geometry":{"type":"Point","coordinates":[-72.012379,42.238192]}},{"properties":{"city":"Leominster","latitude":42.471316,"supporters":4.0,"organizers":2.0,"accounts":1.0,"longitude":-71.837509,"id":"a6aabdgbsr00","state":"Massachusetts"},"type":"Feature","geometry":{"type":"Point","coordinates":[-71.837509,42.471316]}},{"properties":{"city":"Leverett","latitude":42.474681,"supporters":1.0,"organizers":1.0,"accounts":1.0,"longitude":-72.467543,"id":"a6aabdk8spzv","state":"Massachusetts"},"type":"Feature","geometry":{"type":"Point","coordinates":[-72.467543,42.474681]}},{"properties":{"city":"Lexington","latitude":42.446396,"supporters":21.0,"organizers":12.0,"accounts":13.0,"longitude":-71.225,"id":"a6aabdq2emuo","state":"Massachusetts"},"type":"Feature","geometry":{"type":"Point","coordinates":[-71.225,42.446396]}},{"properties":{"city":"Lincoln","latitude":42.4248,"supporters":10.0,"organizers":2.0,"accounts":6.0,"longitude":-71.3124,"id":"a6aabdt15sbq","state":"Massachusetts"},"type":"Feature","geometry":{"type":"Point","coordinates":[-71.3124,42.4248]}},{"properties":{"city":"Littleton","latitude":42.533,"supporters":8.0,"organizers":2.0,"accounts":2.0,"longitude":-71.466,"id":"a6aabdtj31rt","state":"Massachusetts"},"type":"Feature","geometry":{"type":"Point","coordinates":[-71.466,42.533]}},{"properties":{"city":"Longmeadow","latitude":42.049194,"supporters":24.0,"organizers":6.0,"accounts":4.0,"longitude":-72.567882,"id":"a6aabdwddvig","state":"Massachusetts"},"type":"Feature","geometry":{"type":"Point","coordinates":[-72.567882,42.049194]}},{"properties":{"city":"Lowell","latitude":42.633,"supporters":20.0,"organizers":11.0,"accounts":16.0,"longitude":-71.316,"id":"a6aabdsbj9c7","state":"Massachusetts"},"type":"Feature","geometry":{"type":"Point","coordinates":[-71.316,42.633]}},{"properties":{"city":"Ludlow","latitude":42.173276,"supporters":10.0,"organizers":2.0,"accounts":3.0,"longitude":-72.627038,"id":"a6aabdu0mdis","state":"Massachusetts"},"type":"Feature","geometry":{"type":"Point","coordinates":[-72.627038,42.173276]}},{"properties":{"city":"Lunenburg","latitude":42.583322,"supporters":3.0,"organizers":1.0,"accounts":1.0,"longitude":-71.752266,"id":"a6aabdjapojc","state":"Massachusetts"},"type":"Feature","geometry":{"type":"Point","coordinates":[-71.752266,42.583322]}},{"properties":{"city":"Lynn","latitude":42.461246,"supporters":41.0,"organizers":7.0,"accounts":8.0,"longitude":-70.946743,"id":"a6aabdnn6gbi","state":"Massachusetts"},"type":"Feature","geometry":{"type":"Point","coordinates":[-70.946743,42.461246]}},{"properties":{"city":"Malden","latitude":42.436545,"supporters":13.0,"organizers":7.0,"accounts":12.0,"longitude":-71.085396,"id":"a6aabdmig9oc","state":"Massachusetts"},"type":"Feature","geometry":{"type":"Point","coordinates":[-71.085396,42.436545]}},{"properties":{"city":"Manchester","latitude":42.579503,"supporters":5.0,"organizers":2.0,"accounts":2.0,"longitude":-70.755062,"id":"a6aabdmid2fj","state":"Massachusetts"},"type":"Feature","geometry":{"type":"Point","coordinates":[-70.755062,42.579503]}},{"properties":{"city":"Mansfield","latitude":42.022619,"supporters":6.0,"organizers":3.0,"accounts":2.0,"longitude":-71.218079,"id":"a6aabdklpytn","state":"Massachusetts"},"type":"Feature","geometry":{"type":"Point","coordinates":[-71.218079,42.022619]}},{"properties":{"city":"Marblehead","latitude":42.500096,"supporters":6.0,"organizers":1.0,"accounts":1.0,"longitude":-70.836991,"id":"a6aabdvz5jsu","state":"Massachusetts"},"type":"Feature","geometry":{"type":"Point","coordinates":[-70.836991,42.500096]}},{"properties":{"city":"Marion","latitude":41.736735,"supporters":5.0,"organizers":1.0,"accounts":1.0,"longitude":-70.754015,"id":"a6aabdl1srka","state":"Massachusetts"},"type":"Feature","geometry":{"type":"Point","coordinates":[-70.754015,41.736735]}},{"properties":{"city":"Marlborough","latitude":42.716759,"supporters":22.0,"organizers":3.0,"accounts":2.0,"longitude":-70.97311,"id":"a6aabdm070u6","state":"Massachusetts"},"type":"Feature","geometry":{"type":"Point","coordinates":[-70.97311,42.716759]}},{"properties":{"city":"Marshfield","latitude":42.116769,"supporters":20.0,"organizers":3.0,"accounts":3.0,"longitude":-70.71615,"id":"a6aabdt5q9ek","state":"Massachusetts"},"type":"Feature","geometry":{"type":"Point","coordinates":[-70.71615,42.116769]}},{"properties":{"city":"Mashpee","latitude":41.648,"supporters":2.0,"organizers":2.0,"accounts":2.0,"longitude":-70.481,"id":"a6aabdhjbvuc","state":"Massachusetts"},"type":"Feature","geometry":{"type":"Point","coordinates":[-70.481,41.648]}},{"properties":{"city":"Mattapoisett","latitude":41.664976,"supporters":7.0,"organizers":5.0,"accounts":4.0,"longitude":-70.810856,"id":"a6aabdsexr1b","state":"Massachusetts"},"type":"Feature","geometry":{"type":"Point","coordinates":[-70.810856,41.664976]}},{"properties":{"city":"Maynard","latitude":42.26,"supporters":9.0,"organizers":1.0,"accounts":1.0,"longitude":-71.27,"id":"a6aabdg2e3kq","state":"Massachusetts"},"type":"Feature","geometry":{"type":"Point","coordinates":[-71.27,42.26]}},{"properties":{"city":"Medfield","latitude":42.033434,"supporters":3.0,"organizers":1.0,"accounts":2.0,"longitude":-70.99671,"id":"a6aabdtaq5km","state":"Massachusetts"},"type":"Feature","geometry":{"type":"Point","coordinates":[-70.99671,42.033434]}},{"properties":{"city":"Medford","latitude":42.412596,"supporters":37.0,"organizers":4.0,"accounts":8.0,"longitude":-71.125331,"id":"a6aabdgujh4f","state":"Massachusetts"},"type":"Feature","geometry":{"type":"Point","coordinates":[-71.125331,42.412596]}},{"properties":{"city":"Medway","latitude":42.156282,"supporters":20.0,"organizers":6.0,"accounts":4.0,"longitude":-71.427663,"id":"a6aabdojhv6f","state":"Massachusetts"},"type":"Feature","geometry":{"type":"Point","coordinates":[-71.427663,42.156282]}},{"properties":{"city":"Melrose","latitude":42.458995,"supporters":11.0,"organizers":1.0,"accounts":3.0,"longitude":-71.053095,"id":"a6aabdnynblq","state":"Massachusetts"},"type":"Feature","geometry":{"type":"Point","coordinates":[-71.053095,42.458995]}},{"properties":{"city":"Merrimac","latitude":42.802441,"supporters":1.0,"organizers":1.0,"accounts":1.0,"longitude":-71.0896,"id":"a6aabdr4iwj5","state":"Massachusetts"},"type":"Feature","geometry":{"type":"Point","coordinates":[-71.0896,42.802441]}},{"properties":{"city":"Methuen","latitude":42.73184,"supporters":5.0,"organizers":3.0,"accounts":3.0,"longitude":-71.186915,"id":"a6aabdrjgukz","state":"Massachusetts"},"type":"Feature","geometry":{"type":"Point","coordinates":[-71.186915,42.73184]}},{"properties":{"city":"Middleton","latitude":42.644942,"supporters":3.0,"organizers":1.0,"accounts":1.0,"longitude":-71.087905,"id":"a6aabdng9exd","state":"Massachusetts"},"type":"Feature","geometry":{"type":"Point","coordinates":[-71.087905,42.644942]}},{"properties":{"city":"Milford","latitude":42.147087,"supporters":9.0,"organizers":3.0,"accounts":4.0,"longitude":-71.528085,"id":"a6aabdn3h9u4","state":"Massachusetts"},"type":"Feature","geometry":{"type":"Point","coordinates":[-71.528085,42.147087]}},{"properties":{"city":"Millis","latitude":42.165249,"supporters":1.0,"organizers":1.0,"accounts":1.0,"longitude":-71.36126,"id":"a6aabdv2erpi","state":"Massachusetts"},"type":"Feature","geometry":{"type":"Point","coordinates":[-71.36126,42.165249]}},{"properties":{"city":"Milton","latitude":42.436545,"supporters":21.0,"organizers":12.0,"accounts":9.0,"longitude":-71.085396,"id":"a6aabdtxu6gz","state":"Massachusetts"},"type":"Feature","geometry":{"type":"Point","coordinates":[-71.085396,42.436545]}},{"properties":{"city":"Monson","latitude":42.095323,"supporters":2.0,"organizers":1.0,"accounts":1.0,"longitude":-72.282063,"id":"a6aabdt9p99y","state":"Massachusetts"},"type":"Feature","geometry":{"type":"Point","coordinates":[-72.282063,42.095323]}},{"properties":{"city":"Monterey","latitude":42.18669,"supporters":4.0,"organizers":1.0,"accounts":2.0,"longitude":-73.206498,"id":"a6aabdm5zfat","state":"Massachusetts"},"type":"Feature","geometry":{"type":"Point","coordinates":[-73.206498,42.18669]}},{"properties":{"city":"Nahant","latitude":42.427296,"supporters":3.0,"organizers":2.0,"accounts":2.0,"longitude":-70.922442,"id":"a6aabdjigg5g","state":"Massachusetts"},"type":"Feature","geometry":{"type":"Point","coordinates":[-70.922442,42.427296]}},{"properties":{"city":"Natick","latitude":42.283,"supporters":43.0,"organizers":9.0,"accounts":14.0,"longitude":-71.36,"id":"a6aabdnuw5rt","state":"Massachusetts"},"type":"Feature","geometry":{"type":"Point","coordinates":[-71.36,42.283]}},{"properties":{"city":"Needham","latitude":42.180048,"supporters":3.0,"organizers":2.0,"accounts":2.0,"longitude":-71.08923,"id":"a6aabdklpdl0","state":"Massachusetts"},"type":"Feature","geometry":{"type":"Point","coordinates":[-71.08923,42.180048]}},{"properties":{"city":"New Bedford","latitude":41.633416,"supporters":10.0,"organizers":5.0,"accounts":2.0,"longitude":-70.951045,"id":"a6aabdkdf3jj","state":"Massachusetts"},"type":"Feature","geometry":{"type":"Point","coordinates":[-70.951045,41.633416]}},{"properties":{"city":"Newbury","latitude":42.7667,"supporters":8.0,"organizers":1.0,"accounts":2.0,"longitude":-70.84583,"id":"a6aabdurqox1","state":"Massachusetts"},"type":"Feature","geometry":{"type":"Point","coordinates":[-70.84583,42.7667]}},{"properties":{"city":"Newburyport","latitude":42.8125,"supporters":14.0,"organizers":4.0,"accounts":6.0,"longitude":-70.87727,"id":"a6aabdvq9bvg","state":"Massachusetts"},"type":"Feature","geometry":{"type":"Point","coordinates":[-70.87727,42.8125]}},{"properties":{"city":"Newton","latitude":42.330653,"supporters":0.0,"organizers":27.0,"accounts":null,"longitude":-71.199499,"id":"a6aabdivsgst","state":"Massachusetts"},"type":"Feature","geometry":{"type":"Point","coordinates":[-71.199499,42.330653]}},{"properties":{"city":"North Andover","latitude":42.706,"supporters":5.0,"organizers":2.0,"accounts":3.0,"longitude":-71.163,"id":"a6aabdp1c6gj","state":"Massachusetts"},"type":"Feature","geometry":{"type":"Point","coordinates":[-71.163,42.706]}},{"properties":{"city":"North Attleboro","latitude":41.983333,"supporters":2.0,"organizers":1.0,"accounts":1.0,"longitude":-71.3333,"id":"a6aabdhmrmvk","state":"Massachusetts"},"type":"Feature","geometry":{"type":"Point","coordinates":[-71.3333,41.983333]}},{"properties":{"city":"North Reading","latitude":42.575,"supporters":9.0,"organizers":2.0,"accounts":2.0,"longitude":-71.0792,"id":"a6aabdnqaaf9","state":"Massachusetts"},"type":"Feature","geometry":{"type":"Point","coordinates":[-71.0792,42.575]}},{"properties":{"city":"Northampton","latitude":42.325,"supporters":28.0,"organizers":7.0,"accounts":7.0,"longitude":-72.641,"id":"a6aabdkkarci","state":"Massachusetts"},"type":"Feature","geometry":{"type":"Point","coordinates":[-72.641,42.325]}},{"properties":{"city":"Northborough","latitude":42.3195,"supporters":24.0,"organizers":8.0,"accounts":10.0,"longitude":-71.6412,"id":"a6aabdr3c54r","state":"Massachusetts"},"type":"Feature","geometry":{"type":"Point","coordinates":[-71.6412,42.3195]}},{"properties":{"city":"Northbridge","latitude":42.15138,"supporters":12.0,"organizers":1.0,"accounts":2.0,"longitude":-71.65,"id":"a6aabdl5052x","state":"Massachusetts"},"type":"Feature","geometry":{"type":"Point","coordinates":[-71.65,42.15138]}},{"properties":{"city":"Northfield","latitude":42.522178,"supporters":3.0,"organizers":1.0,"accounts":1.0,"longitude":-72.624164,"id":"a6aabdhnlyxq","state":"Massachusetts"},"type":"Feature","geometry":{"type":"Point","coordinates":[-72.624164,42.522178]}},{"properties":{"city":"Norton","latitude":41.959149,"supporters":1.0,"organizers":1.0,"accounts":1.0,"longitude":-71.180393,"id":"a6aabdtiqsl2","state":"Massachusetts"},"type":"Feature","geometry":{"type":"Point","coordinates":[-71.180393,41.959149]}},{"properties":{"city":"Norwell","latitude":42.154145,"supporters":16.0,"organizers":4.0,"accounts":3.0,"longitude":-70.823035,"id":"a6aabdgp16xo","state":"Massachusetts"},"type":"Feature","geometry":{"type":"Point","coordinates":[-70.823035,42.154145]}},{"properties":{"city":"Norwood","latitude":42.182798,"supporters":2.0,"organizers":2.0,"accounts":2.0,"longitude":-71.196277,"id":"a6aabdlqc7tf","state":"Massachusetts"},"type":"Feature","geometry":{"type":"Point","coordinates":[-71.196277,42.182798]}},{"properties":{"city":"Orange","latitude":42.578325,"supporters":1.0,"organizers":1.0,"accounts":1.0,"longitude":-72.556589,"id":"a6aabdq0y6zo","state":"Massachusetts"},"type":"Feature","geometry":{"type":"Point","coordinates":[-72.556589,42.578325]}},{"properties":{"city":"Orleans","latitude":41.7898,"supporters":4.0,"organizers":1.0,"accounts":1.0,"longitude":-69.9897,"id":"a6aabdls8hew","state":"Massachusetts"},"type":"Feature","geometry":{"type":"Point","coordinates":[-69.9897,41.7898]}},{"properties":{"city":"Peabody","latitude":42.536996,"supporters":2.0,"organizers":1.0,"accounts":1.0,"longitude":-70.973646,"id":"a6aabdtx9t2e","state":"Massachusetts"},"type":"Feature","geometry":{"type":"Point","coordinates":[-70.973646,42.536996]}},{"properties":{"city":"Pepperell","latitude":42.665,"supporters":2.0,"organizers":1.0,"accounts":1.0,"longitude":-71.588,"id":"a6aabdj81xps","state":"Massachusetts"},"type":"Feature","geometry":{"type":"Point","coordinates":[-71.588,42.665]}},{"properties":{"city":"Pittsfield","latitude":42.479475,"supporters":25.0,"organizers":5.0,"accounts":8.0,"longitude":-73.24807,"id":"a6aabdhbqiot","state":"Massachusetts"},"type":"Feature","geometry":{"type":"Point","coordinates":[-73.24807,42.479475]}},{"properties":{"city":"Plymouth","latitude":41.958,"supporters":48.0,"organizers":1.0,"accounts":3.0,"longitude":-70.6672,"id":"a6aabdwed6kd","state":"Massachusetts"},"type":"Feature","geometry":{"type":"Point","coordinates":[-70.6672,41.958]}},{"properties":{"city":"Princeton","latitude":42.448146,"supporters":8.0,"organizers":1.0,"accounts":1.0,"longitude":-71.924519,"id":"a6aabdggd1rx","state":"Massachusetts"},"type":"Feature","geometry":{"type":"Point","coordinates":[-71.924519,42.448146]}},{"properties":{"city":"Quincy","latitude":42.241799,"supporters":17.0,"organizers":10.0,"accounts":13.0,"longitude":-71.006042,"id":"a6aabdlru01x","state":"Massachusetts"},"type":"Feature","geometry":{"type":"Point","coordinates":[-71.006042,42.241799]}},{"properties":{"city":"Randolph","latitude":42.171467,"supporters":17.0,"organizers":8.0,"accounts":9.0,"longitude":-71.055602,"id":"a6aabdrxc8z0","state":"Massachusetts"},"type":"Feature","geometry":{"type":"Point","coordinates":[-71.055602,42.171467]}},{"properties":{"city":"Reading","latitude":42.537065,"supporters":10.0,"organizers":4.0,"accounts":4.0,"longitude":-71.107172,"id":"a6aabdn6tqsp","state":"Massachusetts"},"type":"Feature","geometry":{"type":"Point","coordinates":[-71.107172,42.537065]}},{"properties":{"city":"Revere","latitude":42.437,"supporters":14.0,"organizers":2.0,"accounts":2.0,"longitude":-71.003,"id":"a6aabduopy80","state":"Massachusetts"},"type":"Feature","geometry":{"type":"Point","coordinates":[-71.003,42.437]}},{"properties":{"city":"Rutland","latitude":42.383516,"supporters":2.0,"organizers":1.0,"accounts":1.0,"longitude":-71.95463,"id":"a6aabdv31c3i","state":"Massachusetts"},"type":"Feature","geometry":{"type":"Point","coordinates":[-71.95463,42.383516]}},{"properties":{"city":"Salem","latitude":42.5195,"supporters":12.0,"organizers":6.0,"accounts":9.0,"longitude":-70.8967,"id":"a6aabds5d79v","state":"Massachusetts"},"type":"Feature","geometry":{"type":"Point","coordinates":[-70.8967,42.5195]}},{"properties":{"city":"Sandwich","latitude":41.711291,"supporters":23.0,"organizers":2.0,"accounts":2.0,"longitude":-70.477482,"id":"a6aabdiyu0nz","state":"Massachusetts"},"type":"Feature","geometry":{"type":"Point","coordinates":[-70.477482,41.711291]}},{"properties":{"city":"Saugus","latitude":42.472112,"supporters":13.0,"organizers":3.0,"accounts":3.0,"longitude":-70.997794,"id":"a6aabdvtja3w","state":"Massachusetts"},"type":"Feature","geometry":{"type":"Point","coordinates":[-70.997794,42.472112]}},{"properties":{"city":"Scituate","latitude":42.2089,"supporters":7.0,"organizers":2.0,"accounts":2.0,"longitude":-70.75,"id":"a6aabdq2mjbs","state":"Massachusetts"},"type":"Feature","geometry":{"type":"Point","coordinates":[-70.75,42.2089]}},{"properties":{"city":"Sharon","latitude":42.105288,"supporters":16.0,"organizers":3.0,"accounts":4.0,"longitude":-71.184785,"id":"a6aabduywlxv","state":"Massachusetts"},"type":"Feature","geometry":{"type":"Point","coordinates":[-71.184785,42.105288]}},{"properties":{"city":"Shelburne","latitude":42.589807,"supporters":2.0,"organizers":2.0,"accounts":2.0,"longitude":-72.688424,"id":"a6aabdvvum3y","state":"Massachusetts"},"type":"Feature","geometry":{"type":"Point","coordinates":[-72.688424,42.589807]}},{"properties":{"city":"Shirley","latitude":42.543,"supporters":7.0,"organizers":1.0,"accounts":0.0,"longitude":-71.65,"id":"a6aabdgpt1bd","state":"Massachusetts"},"type":"Feature","geometry":{"type":"Point","coordinates":[-71.65,42.543]}},{"properties":{"city":"Shrewsbury","latitude":42.286992,"supporters":28.0,"organizers":1.0,"accounts":1.0,"longitude":-71.715313,"id":"a6aabdl5pv2z","state":"Massachusetts"},"type":"Feature","geometry":{"type":"Point","coordinates":[-71.715313,42.286992]}},{"properties":{"city":"Somerville","latitude":42.38092,"supporters":104.0,"organizers":26.0,"accounts":27.0,"longitude":-71.098896,"id":"a6aabdur0bc8","state":"Massachusetts"},"type":"Feature","geometry":{"type":"Point","coordinates":[-71.098896,42.38092]}},{"properties":{"city":"South Hadley","latitude":42.356804,"supporters":7.0,"organizers":2.0,"accounts":2.0,"longitude":-72.576613,"id":"a6aabdh5vxh8","state":"Massachusetts"},"type":"Feature","geometry":{"type":"Point","coordinates":[-72.576613,42.356804]}},{"properties":{"city":"Southborough","latitude":42.30565,"supporters":10.0,"organizers":4.0,"accounts":6.0,"longitude":-71.524509,"id":"a6aabdm665po","state":"Massachusetts"},"type":"Feature","geometry":{"type":"Point","coordinates":[-71.524509,42.30565]}},{"properties":{"city":"Southwick","latitude":42.066644,"supporters":5.0,"organizers":4.0,"accounts":2.0,"longitude":-72.541205,"id":"a6aabdm0l6yg","state":"Massachusetts"},"type":"Feature","geometry":{"type":"Point","coordinates":[-72.541205,42.066644]}},{"properties":{"city":"Springfield","latitude":42.101483,"supporters":52.0,"organizers":14.0,"accounts":17.0,"longitude":-72.589811,"id":"a6aabdgosi4j","state":"Massachusetts"},"type":"Feature","geometry":{"type":"Point","coordinates":[-72.589811,42.101483]}},{"properties":{"city":"Stoneham","latitude":42.474595,"supporters":4.0,"organizers":2.0,"accounts":3.0,"longitude":-71.098146,"id":"a6aabdjjgyut","state":"Massachusetts"},"type":"Feature","geometry":{"type":"Point","coordinates":[-71.098146,42.474595]}},{"properties":{"city":"Stoughton","latitude":42.118416,"supporters":5.0,"organizers":4.0,"accounts":3.0,"longitude":-71.105733,"id":"a6aabdlijaln","state":"Massachusetts"},"type":"Feature","geometry":{"type":"Point","coordinates":[-71.105733,42.118416]}},{"properties":{"city":"Stow","latitude":42.4269,"supporters":12.0,"organizers":5.0,"accounts":2.0,"longitude":-71.5124,"id":"a6aabdgla7eh","state":"Massachusetts"},"type":"Feature","geometry":{"type":"Point","coordinates":[-71.5124,42.4269]}},{"properties":{"city":"Sudbury","latitude":42.36,"supporters":18.0,"organizers":2.0,"accounts":3.0,"longitude":-71.4,"id":"a6aabdiy13sh","state":"Massachusetts"},"type":"Feature","geometry":{"type":"Point","coordinates":[-71.4,42.36]}},{"properties":{"city":"Sutton","latitude":42.150095,"supporters":7.0,"organizers":2.0,"accounts":2.0,"longitude":-71.762848,"id":"a6aabdgs9les","state":"Massachusetts"},"type":"Feature","geometry":{"type":"Point","coordinates":[-71.762848,42.150095]}},{"properties":{"city":"Swampscott","latitude":42.471,"supporters":17.0,"organizers":7.0,"accounts":7.0,"longitude":-70.918,"id":"a6aabdnm3xto","state":"Massachusetts"},"type":"Feature","geometry":{"type":"Point","coordinates":[-70.918,42.471]}},{"properties":{"city":"Taunton","latitude":41.9,"supporters":8.0,"organizers":2.0,"accounts":3.0,"longitude":-71.09,"id":"a6aabdlef41g","state":"Massachusetts"},"type":"Feature","geometry":{"type":"Point","coordinates":[-71.09,41.9]}},{"properties":{"city":"Templeton","latitude":42.555059,"supporters":2.0,"organizers":1.0,"accounts":2.0,"longitude":-72.072285,"id":"a6aabdt4g2pi","state":"Massachusetts"},"type":"Feature","geometry":{"type":"Point","coordinates":[-72.072285,42.555059]}},{"properties":{"city":"Tewksbury","latitude":42.6222,"supporters":7.0,"organizers":3.0,"accounts":4.0,"longitude":-71.26,"id":"a6aabdwbo2h8","state":"Massachusetts"},"type":"Feature","geometry":{"type":"Point","coordinates":[-71.26,42.6222]}},{"properties":{"city":"Topsfield","latitude":42.661793,"supporters":3.0,"organizers":1.0,"accounts":2.0,"longitude":-70.954487,"id":"a6aabdhwsptw","state":"Massachusetts"},"type":"Feature","geometry":{"type":"Point","coordinates":[-70.954487,42.661793]}},{"properties":{"city":"Uxbridge","latitude":42.0774,"supporters":1.0,"organizers":1.0,"accounts":1.0,"longitude":-71.6384,"id":"a6aabdjttsia","state":"Massachusetts"},"type":"Feature","geometry":{"type":"Point","coordinates":[-71.6384,42.0774]}},{"properties":{"city":"Wakefield","latitude":42.495929,"supporters":13.0,"organizers":1.0,"accounts":1.0,"longitude":-71.07033,"id":"a6aabdn64et9","state":"Massachusetts"},"type":"Feature","geometry":{"type":"Point","coordinates":[-71.07033,42.495929]}},{"properties":{"city":"Walpole","latitude":42.148624,"supporters":10.0,"organizers":4.0,"accounts":2.0,"longitude":-71.255533,"id":"a6aabdorba1c","state":"Massachusetts"},"type":"Feature","geometry":{"type":"Point","coordinates":[-71.255533,42.148624]}},{"properties":{"city":"Waltham","latitude":42.388938,"supporters":22.0,"organizers":5.0,"accounts":8.0,"longitude":-71.2398,"id":"a6aabdqvgr8t","state":"Massachusetts"},"type":"Feature","geometry":{"type":"Point","coordinates":[-71.2398,42.388938]}},{"properties":{"city":"Wareham","latitude":41.760216,"supporters":5.0,"organizers":2.0,"accounts":3.0,"longitude":-70.694662,"id":"a6aabdgev1td","state":"Massachusetts"},"type":"Feature","geometry":{"type":"Point","coordinates":[-70.694662,41.760216]}},{"properties":{"city":"Warren","latitude":42.204027,"supporters":1.0,"organizers":1.0,"accounts":1.0,"longitude":-72.199439,"id":"a6aabdqtjfk1","state":"Massachusetts"},"type":"Feature","geometry":{"type":"Point","coordinates":[-72.199439,42.204027]}},{"properties":{"city":"Washington","latitude":42.36592,"supporters":3.0,"organizers":2.0,"accounts":3.0,"longitude":-73.116214,"id":"a6aabdthy7ek","state":"Massachusetts"},"type":"Feature","geometry":{"type":"Point","coordinates":[-73.116214,42.36592]}},{"properties":{"city":"Watertown","latitude":42.372596,"supporters":23.0,"organizers":5.0,"accounts":5.0,"longitude":-71.177998,"id":"a6aabdqjai8b","state":"Massachusetts"},"type":"Feature","geometry":{"type":"Point","coordinates":[-71.177998,42.372596]}},{"properties":{"city":"Wayland","latitude":42.446396,"supporters":6.0,"organizers":4.0,"accounts":5.0,"longitude":-71.459405,"id":"a6aabdvt8hgk","state":"Massachusetts"},"type":"Feature","geometry":{"type":"Point","coordinates":[-71.459405,42.446396]}},{"properties":{"city":"Webster","latitude":42.243149,"supporters":4.0,"organizers":1.0,"accounts":1.0,"longitude":-71.831461,"id":"a6aabdl44cdp","state":"Massachusetts"},"type":"Feature","geometry":{"type":"Point","coordinates":[-71.831461,42.243149]}},{"properties":{"city":"Wellesley","latitude":42.300596,"supporters":26.0,"organizers":8.0,"accounts":10.0,"longitude":-71.27875,"id":"a6aabdtuw28a","state":"Massachusetts"},"type":"Feature","geometry":{"type":"Point","coordinates":[-71.27875,42.300596]}},{"properties":{"city":"Wenham","latitude":42.597691,"supporters":2.0,"organizers":1.0,"accounts":1.0,"longitude":-70.8732,"id":"a6aabdjy278w","state":"Massachusetts"},"type":"Feature","geometry":{"type":"Point","coordinates":[-70.8732,42.597691]}},{"properties":{"city":"West Boylston","latitude":42.300037,"supporters":4.0,"organizers":3.0,"accounts":2.0,"longitude":-71.943458,"id":"a6aabdity8fh","state":"Massachusetts"},"type":"Feature","geometry":{"type":"Point","coordinates":[-71.943458,42.300037]}},{"properties":{"city":"West Bridgewater","latitude":42.0189,"supporters":1.0,"organizers":1.0,"accounts":1.0,"longitude":-71.0083,"id":"a6aabdp3oxwk","state":"Massachusetts"},"type":"Feature","geometry":{"type":"Point","coordinates":[-71.0083,42.0189]}},{"properties":{"city":"West Newbury","latitude":42.7917,"supporters":6.0,"organizers":1.0,"accounts":1.0,"longitude":-70.974,"id":"a6aabdhbcpdh","state":"Massachusetts"},"type":"Feature","geometry":{"type":"Point","coordinates":[-70.974,42.7917]}},{"properties":{"city":"West Springfield","latitude":42.101483,"supporters":11.0,"organizers":1.0,"accounts":1.0,"longitude":-72.64,"id":"a6aabdtnq175","state":"Massachusetts"},"type":"Feature","geometry":{"type":"Point","coordinates":[-72.64,42.101483]}},{"properties":{"city":"West Tisbury","latitude":41.42125,"supporters":4.0,"organizers":1.0,"accounts":1.0,"longitude":-70.642806,"id":"a6aabdk3jnl0","state":"Massachusetts"},"type":"Feature","geometry":{"type":"Point","coordinates":[-70.642806,41.42125]}},{"properties":{"city":"Westborough","latitude":42.269,"supporters":33.0,"organizers":8.0,"accounts":6.0,"longitude":-71.616,"id":"a6aabdkrd29z","state":"Massachusetts"},"type":"Feature","geometry":{"type":"Point","coordinates":[-71.616,42.269]}},{"properties":{"city":"Westfield","latitude":41.886212,"supporters":9.0,"organizers":1.0,"accounts":2.0,"longitude":-71.135602,"id":"a6aabdjnavut","state":"Massachusetts"},"type":"Feature","geometry":{"type":"Point","coordinates":[-71.135602,41.886212]}},{"properties":{"city":"Weston","latitude":42.3278,"supporters":11.0,"organizers":3.0,"accounts":2.0,"longitude":-71.3053,"id":"a6aabdvqqnbz","state":"Massachusetts"},"type":"Feature","geometry":{"type":"Point","coordinates":[-71.3053,42.3278]}},{"properties":{"city":"Westport","latitude":41.638992,"supporters":13.0,"organizers":1.0,"accounts":1.0,"longitude":-71.049486,"id":"a6aabdttxuu2","state":"Massachusetts"},"type":"Feature","geometry":{"type":"Point","coordinates":[-71.049486,41.638992]}},{"properties":{"city":"Weymouth","latitude":42.20794,"supporters":39.0,"organizers":5.0,"accounts":4.0,"longitude":-70.95514,"id":"a6aabdt31ccy","state":"Massachusetts"},"type":"Feature","geometry":{"type":"Point","coordinates":[-70.95514,42.20794]}},{"properties":{"city":"Whately","latitude":42.442673,"supporters":1.0,"organizers":1.0,"accounts":1.0,"longitude":-72.652511,"id":"a6aabdjkm7er","state":"Massachusetts"},"type":"Feature","geometry":{"type":"Point","coordinates":[-72.652511,42.442673]}},{"properties":{"city":"Wilbraham","latitude":42.125974,"supporters":2.0,"organizers":1.0,"accounts":1.0,"longitude":-72.489988,"id":"a6aabdh29tn3","state":"Massachusetts"},"type":"Feature","geometry":{"type":"Point","coordinates":[-72.489988,42.125974]}},{"properties":{"city":"Williamsburg","latitude":42.413069,"supporters":1.0,"organizers":1.0,"accounts":1.0,"longitude":-72.821653,"id":"a6aabdh5b602","state":"Massachusetts"},"type":"Feature","geometry":{"type":"Point","coordinates":[-72.821653,42.413069]}},{"properties":{"city":"Williamstown","latitude":42.642075,"supporters":4.0,"organizers":3.0,"accounts":4.0,"longitude":-73.257699,"id":"a6aabdrtctxu","state":"Massachusetts"},"type":"Feature","geometry":{"type":"Point","coordinates":[-73.257699,42.642075]}},{"properties":{"city":"Winchester","latitude":42.466762,"supporters":33.0,"organizers":6.0,"accounts":6.0,"longitude":-71.125887,"id":"a6aabdi5x1kz","state":"Massachusetts"},"type":"Feature","geometry":{"type":"Point","coordinates":[-71.125887,42.466762]}},{"properties":{"city":"Woburn","latitude":42.488595,"supporters":3.0,"organizers":2.0,"accounts":2.0,"longitude":-71.157271,"id":"a6aabdtc17g0","state":"Massachusetts"},"type":"Feature","geometry":{"type":"Point","coordinates":[-71.157271,42.488595]}},{"properties":{"city":"Worcester","latitude":42.262593,"supporters":140.0,"organizers":42.0,"accounts":21.0,"longitude":-71.802293,"id":"a6aabdon8fnm","state":"Massachusetts"},"type":"Feature","geometry":{"type":"Point","coordinates":[-71.802293,42.262593]}},{"properties":{"city":"Yarmouth","latitude":41.705666,"supporters":12.0,"organizers":3.0,"accounts":4.0,"longitude":-70.228631,"id":"a6aabdi58ysk","state":"Massachusetts"},"type":"Feature","geometry":{"type":"Point","coordinates":[-70.228631,41.705666]}}],"is_temporal":false,"author":{"url":"","metadata":"","contact_name":"","contact_address":"","source":"","contact_phone":""},"source":"","pagination":{"sort":null,"start":0,"total":190,"limit":1000000},"state":"complete","tags":"","published":"2014-08-10T16:50:52-04:00","id":36155}