{"type":"FeatureCollection","data_type":"Dataset","url_type":null,"permissions":[{"permissions":{"download":true,"view":true},"group_id":"everyone"}],"classification":null,"title":"City and State","count":89,"stream_id":36195,"contributor":{"url":"http://geocommons.com/users/12451","name":"loiscole"},"data_attributes":null,"calculation_params":null,"icon_link":null,"link":"http://geocommons.com/overlays/36195.json","extent":[-122.676,27.8006,-71.0598,47.7557],"geometry_types":["point"],"unique_name":null,"name":"City and State","feature_count":89,"description":"","next_feature":null,"is_raster":false,"short_classification":"Y","stats":{"units connected":{"max":2062,"mean":297.191011235955,"variance":223799.088100102,"stdev":473.074083099151,"min":0,"median":132},"geo_score":{"max":0.857,"mean":0.817921348314606,"variance":0.0243123687436159,"stdev":0.155924240397752,"min":0.0,"median":0.857},"ac/dc":{"max":32,"mean":1.24719101123595,"variance":16.0972931562819,"stdev":4.01214321233451,"min":0,"median":0},"digital connectors":{"max":2,"mean":0.573033707865168,"variance":0.315628192032687,"stdev":0.561807967220728,"min":0,"median":1},"access":{"max":4,"mean":0.314606741573034,"variance":0.490806945863125,"stdev":0.700576152793631,"min":0,"median":0},"programs":{"max":32,"mean":2.14606741573034,"variance":14.3988764044944,"stdev":3.79458514260708,"min":1,"median":1}},"features":[{"properties":{"city":"Birmingham","units connected":0,"geo_score":0.857,"ac/dc":0,"digital connectors":1,"access":0,"programs":1,"id":"a65y2b72gvbw","geo_precision":"city","state":"AL"},"type":"Feature","geometry":{"type":"Point","coordinates":[-86.80249,33.520661]}},{"properties":{"city":"Little Rock","units connected":301,"geo_score":0.857,"ac/dc":0,"digital connectors":0,"access":3,"programs":3,"id":"a65y2b5wutbk","geo_precision":"city","state":"AR"},"type":"Feature","geometry":{"type":"Point","coordinates":[-92.289595,34.746481]}},{"properties":{"city":"Antioch","units connected":315,"geo_score":0.857,"ac/dc":0,"digital connectors":0,"access":2,"programs":2,"id":"a65y2azyf0jd","geo_precision":"city","state":"CA"},"type":"Feature","geometry":{"type":"Point","coordinates":[-121.906748,37.931997]}},{"properties":{"city":"Bakersfield","units connected":384,"geo_score":0.857,"ac/dc":0,"digital connectors":2,"access":1,"programs":3,"id":"a65y2azteuo6","geo_precision":"city","state":"CA"},"type":"Feature","geometry":{"type":"Point","coordinates":[-119.018713,35.373292]}},{"properties":{"city":"Belmont","units connected":0,"geo_score":0.798,"ac/dc":0,"digital connectors":0,"access":0,"programs":1,"id":"a65y2b7ayqj0","geo_precision":"city","state":"CA"},"type":"Feature","geometry":{"type":"Point","coordinates":[-117.206988,34.624159]}},{"properties":{"city":"Chula Vista","units connected":0,"geo_score":0.857,"ac/dc":2,"digital connectors":0,"access":0,"programs":2,"id":"a65y2b67mkxb","geo_precision":"city","state":"CA"},"type":"Feature","geometry":{"type":"Point","coordinates":[-116.846046,33.016928]}},{"properties":{"city":"El Dorado Hills","units connected":168,"geo_score":0.802,"ac/dc":0,"digital connectors":0,"access":1,"programs":1,"id":"a65y2b4w3fyn","geo_precision":"city","state":"CA"},"type":"Feature","geometry":{"type":"Point","coordinates":[-120.84598,38.676272]}},{"properties":{"city":"Hayward","units connected":252,"geo_score":0.857,"ac/dc":0,"digital connectors":0,"access":1,"programs":1,"id":"a65y2b0l2qol","geo_precision":"city","state":"CA"},"type":"Feature","geometry":{"type":"Point","coordinates":[-122.080796,37.668821]}},{"properties":{"city":"Indio","units connected":268,"geo_score":0.857,"ac/dc":0,"digital connectors":1,"access":0,"programs":1,"id":"a65y2awn2nr8","geo_precision":"city","state":"CA"},"type":"Feature","geometry":{"type":"Point","coordinates":[-116.035705,33.728721]}},{"properties":{"city":"Lomita","units connected":372,"geo_score":0.857,"ac/dc":0,"digital connectors":0,"access":2,"programs":2,"id":"a65y2b0fzfje","geo_precision":"city","state":"CA"},"type":"Feature","geometry":{"type":"Point","coordinates":[-118.298662,33.786594]}},{"properties":{"city":"Los Angeles","units connected":1079,"geo_score":0.857,"ac/dc":4,"digital connectors":0,"access":0,"programs":4,"id":"a65y2ax51duz","geo_precision":"city","state":"CA"},"type":"Feature","geometry":{"type":"Point","coordinates":[-118.243685,34.052234]}},{"properties":{"city":"North Hollywood","units connected":0,"geo_score":0.857,"ac/dc":1,"digital connectors":1,"access":0,"programs":2,"id":"a65y2b3624ov","geo_precision":"city","state":"CA"},"type":"Feature","geometry":{"type":"Point","coordinates":[-118.378968,34.172228]}},{"properties":{"city":"Pasadena","units connected":313,"geo_score":0.857,"ac/dc":0,"digital connectors":1,"access":0,"programs":1,"id":"a65y2b741ph7","geo_precision":"city","state":"CA"},"type":"Feature","geometry":{"type":"Point","coordinates":[-118.144516,34.147785]}},{"properties":{"city":"Richmond","units connected":238,"geo_score":0.857,"ac/dc":1,"digital connectors":0,"access":0,"programs":1,"id":"a65y2aw6mbhu","geo_precision":"city","state":"CA"},"type":"Feature","geometry":{"type":"Point","coordinates":[-122.347749,37.935758]}},{"properties":{"city":"Sacramento","units connected":306,"geo_score":0.857,"ac/dc":0,"digital connectors":1,"access":1,"programs":2,"id":"a65y2b7kxyig","geo_precision":"city","state":"CA"},"type":"Feature","geometry":{"type":"Point","coordinates":[-121.4944,38.581572]}},{"properties":{"city":"San Diego","units connected":794,"geo_score":0.857,"ac/dc":2,"digital connectors":0,"access":0,"programs":2,"id":"a65y2bba0p80","geo_precision":"city","state":"CA"},"type":"Feature","geometry":{"type":"Point","coordinates":[-117.157255,32.715329]}},{"properties":{"city":"San Francisco","units connected":604,"geo_score":0.857,"ac/dc":4,"digital connectors":0,"access":0,"programs":4,"id":"a65y2b4lgpf3","geo_precision":"city","state":"CA"},"type":"Feature","geometry":{"type":"Point","coordinates":[-122.419416,37.77493]}},{"properties":{"city":"San Jose","units connected":438,"geo_score":0.857,"ac/dc":2,"digital connectors":0,"access":0,"programs":2,"id":"a65y2b6f8v35","geo_precision":"city","state":"CA"},"type":"Feature","geometry":{"type":"Point","coordinates":[-121.894956,37.339386]}},{"properties":{"city":"Stockton","units connected":318,"geo_score":0.857,"ac/dc":0,"digital connectors":2,"access":0,"programs":2,"id":"a65y2b8t3kn2","geo_precision":"city","state":"CA"},"type":"Feature","geometry":{"type":"Point","coordinates":[-121.298794,37.672196]}},{"properties":{"city":"Sunnyvale","units connected":211,"geo_score":0.857,"ac/dc":0,"digital connectors":0,"access":1,"programs":1,"id":"a65y2b32is10","geo_precision":"city","state":"CA"},"type":"Feature","geometry":{"type":"Point","coordinates":[-122.03635,37.36883]}},{"properties":{"city":"Hartford","units connected":0,"geo_score":0.857,"ac/dc":0,"digital connectors":1,"access":0,"programs":1,"id":"a65y2b8xm2nk","geo_precision":"city","state":"CT"},"type":"Feature","geometry":{"type":"Point","coordinates":[-72.685093,41.763711]}},{"properties":{"city":"Washington","units connected":1454,"geo_score":0.857,"ac/dc":7,"digital connectors":0,"access":0,"programs":7,"id":"a65y2b1z1iqy","geo_precision":"city","state":"DC"},"type":"Feature","geometry":{"type":"Point","coordinates":[-77.036366,38.895112]}},{"properties":{"city":"Orlanda","units connected":0,"geo_score":0.837,"ac/dc":0,"digital connectors":1,"access":0,"programs":1,"id":"a65y2b1k1sai","geo_precision":"city","state":"FL"},"type":"Feature","geometry":{"type":"Point","coordinates":[-81.379237,28.538336]}},{"properties":{"city":"Atlanta","units connected":1927,"geo_score":0.857,"ac/dc":7,"digital connectors":0,"access":0,"programs":7,"id":"a65y2b04rs0s","geo_precision":"city","state":"GA"},"type":"Feature","geometry":{"type":"Point","coordinates":[-84.387982,33.748995]}},{"properties":{"city":"Buford","units connected":152,"geo_score":0.857,"ac/dc":0,"digital connectors":0,"access":1,"programs":1,"id":"a65y2avzct63","geo_precision":"city","state":"GA"},"type":"Feature","geometry":{"type":"Point","coordinates":[-84.037859,33.960353]}},{"properties":{"city":"Doraville","units connected":0,"geo_score":0.857,"ac/dc":0,"digital connectors":1,"access":0,"programs":1,"id":"a65y2b9dly5m","geo_precision":"city","state":"GA"},"type":"Feature","geometry":{"type":"Point","coordinates":[-84.283256,33.898158]}},{"properties":{"city":"Marietta","units connected":0,"geo_score":0.857,"ac/dc":1,"digital connectors":0,"access":0,"programs":1,"id":"a65y2ax3ff8r","geo_precision":"city","state":"GA"},"type":"Feature","geometry":{"type":"Point","coordinates":[-84.549933,33.952602]}},{"properties":{"city":"Norcross","units connected":196,"geo_score":0.857,"ac/dc":0,"digital connectors":0,"access":1,"programs":1,"id":"a65y2b13b7zy","geo_precision":"city","state":"GA"},"type":"Feature","geometry":{"type":"Point","coordinates":[-84.213531,33.941213]}},{"properties":{"city":"Chicago","units connected":1998,"geo_score":0.857,"ac/dc":15,"digital connectors":0,"access":0,"programs":15,"id":"a65y2b48erej","geo_precision":"city","state":"IL"},"type":"Feature","geometry":{"type":"Point","coordinates":[-87.650052,41.850033]}},{"properties":{"city":"Kankakee","units connected":132,"geo_score":0.857,"ac/dc":0,"digital connectors":0,"access":1,"programs":1,"id":"a65y2b5jflo1","geo_precision":"city","state":"IL"},"type":"Feature","geometry":{"type":"Point","coordinates":[-87.874618,41.111151]}},{"properties":{"city":"Indianapolis","units connected":0,"geo_score":0.857,"ac/dc":0,"digital connectors":1,"access":0,"programs":1,"id":"a65y2b2uc8dg","geo_precision":"city","state":"IN"},"type":"Feature","geometry":{"type":"Point","coordinates":[-86.158042,39.768377]}},{"properties":{"city":"Lexington","units connected":0,"geo_score":0.857,"ac/dc":0,"digital connectors":1,"access":0,"programs":1,"id":"a65y2aw88nbu","geo_precision":"city","state":"KY"},"type":"Feature","geometry":{"type":"Point","coordinates":[-84.477715,37.988689]}},{"properties":{"city":"Louisville","units connected":0,"geo_score":0.857,"ac/dc":0,"digital connectors":1,"access":0,"programs":1,"id":"a65y2b3mfckx","geo_precision":"city","state":"KY"},"type":"Feature","geometry":{"type":"Point","coordinates":[-85.759407,38.254238]}},{"properties":{"city":"Boston","units connected":718,"geo_score":0.857,"ac/dc":1,"digital connectors":0,"access":0,"programs":1,"id":"a65y2b5nc9iw","geo_precision":"city","state":"MA"},"type":"Feature","geometry":{"type":"Point","coordinates":[-71.059773,42.358431]}},{"properties":{"city":"Brighton","units connected":242,"geo_score":0.857,"ac/dc":0,"digital connectors":0,"access":1,"programs":1,"id":"a65y2b4qcfnr","geo_precision":"city","state":"MA"},"type":"Feature","geometry":{"type":"Point","coordinates":[-71.104888,42.349768]}},{"properties":{"city":"Cambridge","units connected":162,"geo_score":0.813,"ac/dc":1,"digital connectors":2,"access":0,"programs":3,"id":"a65y2b6muqc2","geo_precision":"city","state":"MA"},"type":"Feature","geometry":{"type":"Point","coordinates":[-71.103663,42.358431]}},{"properties":{"city":"Charlestown","units connected":262,"geo_score":0.857,"ac/dc":0,"digital connectors":1,"access":0,"programs":1,"id":"a65y2b25vulp","geo_precision":"city","state":"MA"},"type":"Feature","geometry":{"type":"Point","coordinates":[-71.065287,42.382588]}},{"properties":{"city":"Dorchester","units connected":270,"geo_score":0.857,"ac/dc":0,"digital connectors":0,"access":1,"programs":1,"id":"a65y2b6tlq7t","geo_precision":"city","state":"MA"},"type":"Feature","geometry":{"type":"Point","coordinates":[-71.074495,42.297321]}},{"properties":{"city":"Framingham","units connected":540,"geo_score":0.804,"ac/dc":1,"digital connectors":0,"access":0,"programs":1,"id":"a65y2bc4rv0s","geo_precision":"city","state":"MA"},"type":"Feature","geometry":{"type":"Point","coordinates":[-71.437006,42.297318]}},{"properties":{"city":"Holland","units connected":0,"geo_score":0.857,"ac/dc":0,"digital connectors":1,"access":0,"programs":1,"id":"a65y2b9yobqp","geo_precision":"city","state":"MA"},"type":"Feature","geometry":{"type":"Point","coordinates":[-72.163991,42.061063]}},{"properties":{"city":"Holyoke","units connected":225,"geo_score":0.857,"ac/dc":0,"digital connectors":0,"access":1,"programs":1,"id":"a65y2axsyf2w","geo_precision":"city","state":"MA"},"type":"Feature","geometry":{"type":"Point","coordinates":[-72.64207,42.198291]}},{"properties":{"city":"Mattapan","units connected":254,"geo_score":0.857,"ac/dc":0,"digital connectors":0,"access":1,"programs":1,"id":"a65y2bc9lmd4","geo_precision":"city","state":"MA"},"type":"Feature","geometry":{"type":"Point","coordinates":[-71.105195,42.301247]}},{"properties":{"city":"New Bedford","units connected":200,"geo_score":0.755,"ac/dc":0,"digital connectors":1,"access":0,"programs":1,"id":"a65y2b4gfl78","geo_precision":"city","state":"MA"},"type":"Feature","geometry":{"type":"Point","coordinates":[-71.270891,42.516205]}},{"properties":{"city":"Pittsfield","units connected":101,"geo_score":0.857,"ac/dc":0,"digital connectors":1,"access":0,"programs":1,"id":"a65y2ba7n8z7","geo_precision":"city","state":"MA"},"type":"Feature","geometry":{"type":"Point","coordinates":[-73.24807,42.479475]}},{"properties":{"city":"Roxbury","units connected":331,"geo_score":0.857,"ac/dc":0,"digital connectors":0,"access":1,"programs":1,"id":"a65y2aw52olb","geo_precision":"city","state":"MA"},"type":"Feature","geometry":{"type":"Point","coordinates":[-71.095329,42.325098]}},{"properties":{"city":"Baltimore","units connected":0,"geo_score":0.857,"ac/dc":0,"digital connectors":1,"access":0,"programs":1,"id":"a65y2axo1h3w","geo_precision":"city","state":"MD"},"type":"Feature","geometry":{"type":"Point","coordinates":[-76.612189,39.290385]}},{"properties":{"city":"Detroit","units connected":280,"geo_score":0.857,"ac/dc":1,"digital connectors":0,"access":0,"programs":1,"id":"a65y2b43mcok","geo_precision":"city","state":"MI"},"type":"Feature","geometry":{"type":"Point","coordinates":[-83.045754,42.331427]}},{"properties":{"city":"St. Paul","units connected":0,"geo_score":0.762,"ac/dc":0,"digital connectors":1,"access":0,"programs":1,"id":"a65y2ba4f0t0","geo_precision":"city","state":"MN"},"type":"Feature","geometry":{"type":"Point","coordinates":[-92.259625,47.415205]}},{"properties":{"city":"Independence","units connected":745,"geo_score":0.857,"ac/dc":1,"digital connectors":0,"access":0,"programs":1,"id":"a65y2b52wk4w","geo_precision":"city","state":"MO"},"type":"Feature","geometry":{"type":"Point","coordinates":[-94.409828,39.107798]}},{"properties":{"city":"Kansas City","units connected":779,"geo_score":0.857,"ac/dc":4,"digital connectors":0,"access":0,"programs":4,"id":"a65y2b223fnu","geo_precision":"city","state":"MO"},"type":"Feature","geometry":{"type":"Point","coordinates":[-94.598583,39.102404]}},{"properties":{"city":"Savannah","units connected":72,"geo_score":0.857,"ac/dc":0,"digital connectors":0,"access":1,"programs":1,"id":"a65y2b57nbhu","geo_precision":"city","state":"MO"},"type":"Feature","geometry":{"type":"Point","coordinates":[-94.837827,39.953094]}},{"properties":{"city":"Springfield","units connected":0,"geo_score":0.792,"ac/dc":0,"digital connectors":1,"access":0,"programs":1,"id":"a65y2b7m8n0w","geo_precision":"city","state":"MO"},"type":"Feature","geometry":{"type":"Point","coordinates":[-91.237925,38.295605]}},{"properties":{"city":"St. Louis","units connected":765,"geo_score":0.0,"ac/dc":0,"digital connectors":0,"access":2,"programs":2,"id":"a65y2baemfqe","geo_precision":"unmatched","state":"MO"},"type":"Feature","geometry":null},{"properties":{"city":"Troy","units connected":297,"geo_score":0.75,"ac/dc":0,"digital connectors":1,"access":0,"programs":1,"id":"a65y2bc5i1mf","geo_precision":"city","state":"MO"},"type":"Feature","geometry":{"type":"Point","coordinates":[-92.468224,37.5481]}},{"properties":{"city":"Charlotte","units connected":0,"geo_score":0.857,"ac/dc":0,"digital connectors":1,"access":0,"programs":1,"id":"a65y2b7nqd2d","geo_precision":"city","state":"NC"},"type":"Feature","geometry":{"type":"Point","coordinates":[-80.843127,35.227087]}},{"properties":{"city":"Durham","units connected":0,"geo_score":0.857,"ac/dc":0,"digital connectors":1,"access":0,"programs":1,"id":"a65y2b1sgs2z","geo_precision":"city","state":"NC"},"type":"Feature","geometry":{"type":"Point","coordinates":[-78.898619,35.994033]}},{"properties":{"city":"Raleigh","units connected":1877,"geo_score":0.857,"ac/dc":32,"digital connectors":0,"access":0,"programs":32,"id":"a65y2ayufx6g","geo_precision":"city","state":"NC"},"type":"Feature","geometry":{"type":"Point","coordinates":[-78.638615,35.772096]}},{"properties":{"city":"Albuquerque","units connected":0,"geo_score":0.857,"ac/dc":0,"digital connectors":1,"access":0,"programs":1,"id":"a65y2bc5v2rz","geo_precision":"city","state":"NM"},"type":"Feature","geometry":{"type":"Point","coordinates":[-106.651137,35.084491]}},{"properties":{"city":"Las Vegas","units connected":0,"geo_score":0.857,"ac/dc":0,"digital connectors":1,"access":0,"programs":1,"id":"a65y2b7czsr8","geo_precision":"city","state":"NV"},"type":"Feature","geometry":{"type":"Point","coordinates":[-115.137223,36.174971]}},{"properties":{"city":"Columbia","units connected":0,"geo_score":0.0,"ac/dc":0,"digital connectors":1,"access":0,"programs":1,"id":"a65y2ba7orok","geo_precision":"unmatched","state":"NY"},"type":"Feature","geometry":null},{"properties":{"city":"Hudson","units connected":132,"geo_score":0.857,"ac/dc":0,"digital connectors":1,"access":0,"programs":1,"id":"a65y2azclpfa","geo_precision":"city","state":"NY"},"type":"Feature","geometry":{"type":"Point","coordinates":[-73.742997,42.184313]}},{"properties":{"city":"New York City","units connected":0,"geo_score":0.805,"ac/dc":0,"digital connectors":1,"access":0,"programs":1,"id":"a65y2b55u6km","geo_precision":"city","state":"NY"},"type":"Feature","geometry":{"type":"Point","coordinates":[-74.005973,40.714269]}},{"properties":{"city":"Rochester","units connected":0,"geo_score":0.857,"ac/dc":0,"digital connectors":1,"access":0,"programs":1,"id":"a65y2ax4jmsx","geo_precision":"city","state":"NY"},"type":"Feature","geometry":{"type":"Point","coordinates":[-77.615557,43.154785]}},{"properties":{"city":"Akron","units connected":0,"geo_score":0.857,"ac/dc":0,"digital connectors":1,"access":0,"programs":1,"id":"a65y2b3ejx2n","geo_precision":"city","state":"OH"},"type":"Feature","geometry":{"type":"Point","coordinates":[-81.519005,41.081445]}},{"properties":{"city":"Cleveland","units connected":0,"geo_score":0.857,"ac/dc":0,"digital connectors":1,"access":0,"programs":1,"id":"a65y2b9lngd7","geo_precision":"city","state":"OH"},"type":"Feature","geometry":{"type":"Point","coordinates":[-81.695409,41.499495]}},{"properties":{"city":"Columbus","units connected":0,"geo_score":0.776,"ac/dc":0,"digital connectors":1,"access":0,"programs":1,"id":"a65y2b91nlsr","geo_precision":"city","state":"OH"},"type":"Feature","geometry":{"type":"Point","coordinates":[-82.695724,39.998397]}},{"properties":{"city":"Oklahoma City","units connected":0,"geo_score":0.857,"ac/dc":0,"digital connectors":1,"access":0,"programs":1,"id":"a65y2ba1pvs6","geo_precision":"city","state":"OK"},"type":"Feature","geometry":{"type":"Point","coordinates":[-97.516428,35.46756]}},{"properties":{"city":"Tulsa","units connected":866,"geo_score":0.857,"ac/dc":0,"digital connectors":0,"access":4,"programs":4,"id":"a65y2avx627a","geo_precision":"city","state":"OK"},"type":"Feature","geometry":{"type":"Point","coordinates":[-95.992775,36.153982]}},{"properties":{"city":"Portland","units connected":1326,"geo_score":0.857,"ac/dc":7,"digital connectors":0,"access":0,"programs":7,"id":"a65y2avssi8t","geo_precision":"city","state":"OR"},"type":"Feature","geometry":{"type":"Point","coordinates":[-122.676207,45.523452]}},{"properties":{"city":"Alllentown","units connected":0,"geo_score":0.843,"ac/dc":0,"digital connectors":1,"access":0,"programs":1,"id":"a65y2awmvdhv","geo_precision":"city","state":"PA"},"type":"Feature","geometry":{"type":"Point","coordinates":[-75.490183,40.608431]}},{"properties":{"city":"Chester","units connected":0,"geo_score":0.857,"ac/dc":0,"digital connectors":1,"access":0,"programs":1,"id":"a65y2b2yv9jf","geo_precision":"city","state":"PA"},"type":"Feature","geometry":{"type":"Point","coordinates":[-75.437102,39.878817]}},{"properties":{"city":"Philadelphia","units connected":586,"geo_score":0.857,"ac/dc":6,"digital connectors":0,"access":0,"programs":6,"id":"a65y2b6illtx","geo_precision":"city","state":"PA"},"type":"Feature","geometry":{"type":"Point","coordinates":[-75.163789,39.952335]}},{"properties":{"city":"Pittsburgh","units connected":0,"geo_score":0.857,"ac/dc":0,"digital connectors":1,"access":0,"programs":1,"id":"a65y2b7txqi6","geo_precision":"city","state":"PA"},"type":"Feature","geometry":{"type":"Point","coordinates":[-79.995886,40.440625]}},{"properties":{"city":"Providence","units connected":0,"geo_score":0.857,"ac/dc":0,"digital connectors":1,"access":0,"programs":1,"id":"a65y2ax2xo63","geo_precision":"city","state":"RI"},"type":"Feature","geometry":{"type":"Point","coordinates":[-71.412834,41.823989]}},{"properties":{"city":"Pierre","units connected":234,"geo_score":0.857,"ac/dc":0,"digital connectors":1,"access":0,"programs":1,"id":"a65y2awk7424","geo_precision":"city","state":"SD"},"type":"Feature","geometry":{"type":"Point","coordinates":[-100.094195,44.334073]}},{"properties":{"city":"Chattanooga","units connected":0,"geo_score":0.857,"ac/dc":0,"digital connectors":1,"access":0,"programs":1,"id":"a65y2b69xj50","geo_precision":"city","state":"TN"},"type":"Feature","geometry":{"type":"Point","coordinates":[-85.30968,35.04563]}},{"properties":{"city":"Memphis","units connected":0,"geo_score":0.857,"ac/dc":0,"digital connectors":1,"access":0,"programs":1,"id":"a65y2b7xwdw2","geo_precision":"city","state":"TN"},"type":"Feature","geometry":{"type":"Point","coordinates":[-90.04898,35.149534]}},{"properties":{"city":"Nashville","units connected":0,"geo_score":0.857,"ac/dc":0,"digital connectors":1,"access":0,"programs":1,"id":"a65y2b80tblf","geo_precision":"city","state":"TN"},"type":"Feature","geometry":{"type":"Point","coordinates":[-86.784443,36.16589]}},{"properties":{"city":"Austin","units connected":0,"geo_score":0.857,"ac/dc":0,"digital connectors":1,"access":0,"programs":1,"id":"a65y2ax7g3y3","geo_precision":"city","state":"TX"},"type":"Feature","geometry":{"type":"Point","coordinates":[-97.743061,30.267153]}},{"properties":{"city":"Corpus Christi","units connected":0,"geo_score":0.857,"ac/dc":0,"digital connectors":1,"access":0,"programs":1,"id":"a65y2b8nzsiu","geo_precision":"city","state":"TX"},"type":"Feature","geometry":{"type":"Point","coordinates":[-97.396381,27.800583]}},{"properties":{"city":"Houston","units connected":0,"geo_score":0.816,"ac/dc":0,"digital connectors":1,"access":0,"programs":1,"id":"a65y2b8w3bch","geo_precision":"city","state":"TX"},"type":"Feature","geometry":{"type":"Point","coordinates":[-96.919704,29.845783]}},{"properties":{"city":"San Antonio","units connected":0,"geo_score":0.857,"ac/dc":0,"digital connectors":1,"access":0,"programs":1,"id":"a65y2b2tjia2","geo_precision":"city","state":"TX"},"type":"Feature","geometry":{"type":"Point","coordinates":[-98.493628,29.424122]}},{"properties":{"city":"Norfolk","units connected":300,"geo_score":0.857,"ac/dc":1,"digital connectors":0,"access":0,"programs":1,"id":"a65y2ax2novx","geo_precision":"city","state":"VA"},"type":"Feature","geometry":{"type":"Point","coordinates":[-76.285218,36.846815]}},{"properties":{"city":"Jasper","units connected":0,"geo_score":0.0,"ac/dc":0,"digital connectors":1,"access":0,"programs":1,"id":"a65y2avuf6yc","geo_precision":"unmatched","state":"WA"},"type":"Feature","geometry":null},{"properties":{"city":"Kent","units connected":494,"geo_score":0.857,"ac/dc":2,"digital connectors":0,"access":0,"programs":2,"id":"a65y2b23ay9j","geo_precision":"city","state":"WA"},"type":"Feature","geometry":{"type":"Point","coordinates":[-122.234843,47.380934]}},{"properties":{"city":"Mercer Island","units connected":0,"geo_score":0.738,"ac/dc":1,"digital connectors":0,"access":0,"programs":1,"id":"a65y2awcq97t","geo_precision":"city","state":"WA"},"type":"Feature","geometry":{"type":"Point","coordinates":[-119.223349,46.239302]}},{"properties":{"city":"Seattle","units connected":2062,"geo_score":0.857,"ac/dc":7,"digital connectors":0,"access":0,"programs":7,"id":"a65y2b5om5an","geo_precision":"city","state":"WA"},"type":"Feature","geometry":{"type":"Point","coordinates":[-122.332071,47.60621]}},{"properties":{"city":"Shoreline","units connected":110,"geo_score":0.857,"ac/dc":0,"digital connectors":0,"access":1,"programs":1,"id":"a65y2b9fngz1","geo_precision":"city","state":"WA"},"type":"Feature","geometry":{"type":"Point","coordinates":[-122.341518,47.755653]}},{"properties":{"city":"Tacoma","units connected":0,"geo_score":0.857,"ac/dc":0,"digital connectors":1,"access":0,"programs":1,"id":"a65y2b5krxhr","geo_precision":"city","state":"WA"},"type":"Feature","geometry":{"type":"Point","coordinates":[-122.444291,47.252877]}}],"is_temporal":false,"author":{"url":"","metadata":"","contact_name":"","contact_address":"","source":"","contact_phone":""},"source":"","pagination":{"sort":null,"start":0,"total":89,"limit":1000000},"state":"complete","tags":"","published":"2014-08-10T16:51:49-04:00","id":36195}