{"type":"FeatureCollection","data_type":"Dataset","url_type":null,"permissions":[{"permissions":{"download":true,"view":true},"group_id":"everyone"}],"classification":null,"title":"lendersmay30","count":131,"stream_id":363439,"contributor":{"url":"http://geocommons.com/users/72497","name":"rmbjspd"},"data_attributes":null,"calculation_params":null,"icon_link":null,"link":"http://geocommons.com/overlays/363439.json","extent":[-87.8153,41.678,-87.5348,42.0164],"geometry_types":["point"],"unique_name":null,"name":"lendersmay30","feature_count":131,"description":"","next_feature":null,"is_raster":false,"short_classification":"Y","stats":{},"features":[{"properties":{"name":"2N Corporation","city":"Chicago","zip":"60603","dba":null,"geo_score":1.0,"id":"aep9kvik3bnr","address":"1 South Dearborn Street","geo_precision":"range","state":"IL"},"type":"Feature","geometry":{"type":"Point","coordinates":[-87.629382,41.881349]}},{"properties":{"name":"Illinois Lending Corporation","city":"Chicago","zip":"60601","dba":null,"geo_score":0.571,"id":"aep9kvohn0ud","address":"100 West Randolph, Suite 111","geo_precision":"street","state":"IL"},"type":"Feature","geometry":{"type":"Point","coordinates":[-87.626247,41.884496]}},{"properties":{"name":"Illinois Title Loans, Inc.","city":"Chicago","zip":"60628","dba":null,"geo_score":1.0,"id":"aep9kveeeo5m","address":"10258 South Halsted Street","geo_precision":"range","state":"IL"},"type":"Feature","geometry":{"type":"Point","coordinates":[-87.642948,41.708472]}},{"properties":{"name":"Americash Loans, LLC","city":"Chicago","zip":"60606","dba":null,"geo_score":0.814,"id":"aep9kvpozkp7","address":"103 North Wells Street","geo_precision":"street","state":"IL"},"type":"Feature","geometry":{"type":"Point","coordinates":[-87.633912,41.885103]}},{"properties":{"name":"Americash Loans, LLC","city":"Chicago","zip":"60610","dba":"D/b/a First Rate Financial","geo_score":0.932,"id":"aep9kvrzei5m","address":"103 West Division","geo_precision":"range","state":"IL"},"type":"Feature","geometry":{"type":"Point","coordinates":[-87.632138,41.903815]}},{"properties":{"name":"America's Financial Choice, Inc.","city":"Chicago","zip":"60628","dba":null,"geo_score":1.0,"id":"aep9kvdah4r0","address":"10302 South Halsted Street","geo_precision":"range","state":"IL"},"type":"Feature","geometry":{"type":"Point","coordinates":[-87.642895,41.706487]}},{"properties":{"name":"Americash Loans, LLC","city":"Chicago","zip":"60602","dba":null,"geo_score":0.902,"id":"aep9kvhf324u","address":"105 West Madison Street","geo_precision":"range","state":"IL"},"type":"Feature","geometry":{"type":"Point","coordinates":[-87.632359,41.881961]}},{"properties":{"name":"First American Cash Advance, Inc.","city":"Chicago","zip":"60643","dba":null,"geo_score":1.0,"id":"aep9kvogstxk","address":"10503 South Western Avenue","geo_precision":"range","state":"IL"},"type":"Feature","geometry":{"type":"Point","coordinates":[-87.681372,41.700944]}},{"properties":{"name":"OneMain Financial, Inc.","city":"Chicago","zip":"60643","dba":null,"geo_score":1.0,"id":"aep9kvh74rh1","address":"10660 South Western Avenue","geo_precision":"range","state":"IL"},"type":"Feature","geometry":{"type":"Point","coordinates":[-87.681513,41.700678]}},{"properties":{"name":"Opportunity Financial, LLC","city":"Chicago","zip":"60604","dba":null,"geo_score":0.805,"id":"aep9kvemrudv","address":"11 East Adams Street","geo_precision":"range","state":"IL"},"type":"Feature","geometry":{"type":"Point","coordinates":[-87.627281,41.879419]}},{"properties":{"name":"Buckeye Check Cashing of Illinois, LLC","city":"Chicago","zip":"60622","dba":"D/b/a First Cash Advance","geo_score":1.0,"id":"aep9kvsonduc","address":"1113 West Chicago Avenue","geo_precision":"range","state":"IL"},"type":"Feature","geometry":{"type":"Point","coordinates":[-87.655937,41.896257]}},{"properties":{"name":"Springleaf Financial Services of Illinois, Inc.","city":"Chicago","zip":"60643","dba":null,"geo_score":1.0,"id":"aep9kvf8benw","address":"11844 South Western Avenue","geo_precision":"range","state":"IL"},"type":"Feature","geometry":{"type":"Point","coordinates":[-87.6808,41.678006]}},{"properties":{"name":"The Payday Loan Store of Illinois, Inc.","city":"Chicago","zip":"60619","dba":null,"geo_score":0.935,"id":"aep9kvpq7ptd","address":"1215 East 87th Street","geo_precision":"range","state":"IL"},"type":"Feature","geometry":{"type":"Point","coordinates":[-87.593977,41.736725]}},{"properties":{"name":"Buckeye Check Cashing of Illinois, LLC","city":"Chicago","zip":"60622","dba":"D/b/a First Cash Advance","geo_score":1.0,"id":"aep9kvqgb4qd","address":"1238 North Ashland Avenue","geo_precision":"range","state":"IL"},"type":"Feature","geometry":{"type":"Point","coordinates":[-87.667542,41.905108]}},{"properties":{"name":"AA Legal Cash Advance LLC","city":"Chicago","zip":"60610","dba":null,"geo_score":1.0,"id":"aep9kvecqytg","address":"1300 North State Parkway","geo_precision":"range","state":"IL"},"type":"Feature","geometry":{"type":"Point","coordinates":[-87.628774,41.906763]}},{"properties":{"name":"U.S. Cash Advance Illinois, L.L.C.","city":"Chicago","zip":"60619","dba":"D/b/a The Loan Machine","geo_score":0.935,"id":"aep9kvkpvknh","address":"1315 East 87th Street","geo_precision":"range","state":"IL"},"type":"Feature","geometry":{"type":"Point","coordinates":[-87.592999,41.736814]}},{"properties":{"name":"Global Funding Solutions LLC","city":"Chicago","zip":"60602","dba":null,"geo_score":0.977,"id":"aep9kvr9um0l","address":"134 North LaSalle Street","geo_precision":"range","state":"IL"},"type":"Feature","geometry":{"type":"Point","coordinates":[-87.632505,41.884167]}},{"properties":{"name":"Americash Loans, LLC","city":"Chicago","zip":"60613","dba":null,"geo_score":1.0,"id":"aep9kvfxuqgw","address":"1431 West Montrose Avenue","geo_precision":"range","state":"IL"},"type":"Feature","geometry":{"type":"Point","coordinates":[-87.666537,41.961553]}},{"properties":{"name":"Americash Loans, LLC","city":"Chicago","zip":"60619","dba":"D/b/a First Rate Financial","geo_score":0.935,"id":"aep9kvmiygcx","address":"1507 East 87th Street","geo_precision":"range","state":"IL"},"type":"Feature","geometry":{"type":"Point","coordinates":[-87.587906,41.736806]}},{"properties":{"name":"Americash Loans, LLC","city":"Chicago","zip":"60615","dba":null,"geo_score":0.935,"id":"aep9kvrncv2q","address":"1513 East 53rd Street","geo_precision":"range","state":"IL"},"type":"Feature","geometry":{"type":"Point","coordinates":[-87.588348,41.799474]}},{"properties":{"name":"The Payday Loan Store of Illinois, Inc","city":"Chicago","zip":"60601","dba":null,"geo_score":1.0,"id":"aep9kvpv97wa","address":"154 North Wabash Avenue","geo_precision":"range","state":"IL"},"type":"Feature","geometry":{"type":"Point","coordinates":[-87.626263,41.885127]}},{"properties":{"name":"Brother Loan &amp; Finance Company","city":"Chicago","zip":"60606","dba":null,"geo_score":0.585,"id":"aep9kvctu28b","address":"160 North Wacker Drive","geo_precision":"zip","state":"IL"},"type":"Feature","geometry":{"type":"Point","coordinates":[-87.68732,41.811929]}},{"properties":{"name":"Americash Loans, LLC","city":"Chicago","zip":"60636","dba":null,"geo_score":0.935,"id":"aep9kvchkesm","address":"1612 West 59th Street","geo_precision":"range","state":"IL"},"type":"Feature","geometry":{"type":"Point","coordinates":[-87.664523,41.786821]}},{"properties":{"name":"The Payday Loan Store of Illinois, Inc.","city":"Chicago","zip":"60639","dba":null,"geo_score":1.0,"id":"aep9kvlvzkvb","address":"1617 North Cicero Avenue","geo_precision":"range","state":"IL"},"type":"Feature","geometry":{"type":"Point","coordinates":[-87.745922,41.91045]}},{"properties":{"name":"Devon Financial Services, Inc.","city":"Chicago","zip":"60602","dba":null,"geo_score":1.0,"id":"aep9kvhmzq6i","address":"172A West Madison Street","geo_precision":"range","state":"IL"},"type":"Feature","geometry":{"type":"Point","coordinates":[-87.633184,41.882027]}},{"properties":{"name":"The Payday Loan Store of Illinois, Inc.","city":"Chicago","zip":"60601","dba":null,"geo_score":1.0,"id":"aep9kvgytb23","address":"177 West Lake Street","geo_precision":"range","state":"IL"},"type":"Feature","geometry":{"type":"Point","coordinates":[-87.633255,41.885657]}},{"properties":{"name":"Americash Loans, LLC","city":"Chicago","zip":"60605","dba":null,"geo_score":0.937,"id":"aep9kvf1f7ki","address":"179 West Van Buren","geo_precision":"range","state":"IL"},"type":"Feature","geometry":{"type":"Point","coordinates":[-87.633618,41.876777]}},{"properties":{"name":"Sun Legal Finance, Inc.","city":"Chicago","zip":"60606","dba":null,"geo_score":0.585,"id":"aep9kvra2r9n","address":"180 North Wacker Drive","geo_precision":"zip","state":"IL"},"type":"Feature","geometry":{"type":"Point","coordinates":[-87.68732,41.811929]}},{"properties":{"name":"Capital Solutions Investments II, Inc.","city":"Chicago","zip":"60602","dba":"D/b/a Loan Express","geo_score":0.657,"id":"aep9kvmy9pes","address":"180 West Washington, Suite 300","geo_precision":"street","state":"IL"},"type":"Feature","geometry":{"type":"Point","coordinates":[-87.62787,41.883217]}},{"properties":{"name":"Investment Evolution Corporation","city":"Chicago","zip":"60647","dba":"D/b/a Mr. Amazing Loans","geo_score":1.0,"id":"aep9kvr7zdsj","address":"1845 North Western Avenue","geo_precision":"range","state":"IL"},"type":"Feature","geometry":{"type":"Point","coordinates":[-87.687263,41.914779]}},{"properties":{"name":"U.S. Cash Advance Illinois, L.L.C.","city":"Chicago","zip":"60620","dba":"D/B/A The Loan Machine","geo_score":0.935,"id":"aep9kvo0ct8q","address":"1909 West 87th Street","geo_precision":"range","state":"IL"},"type":"Feature","geometry":{"type":"Point","coordinates":[-87.670431,41.735618]}},{"properties":{"name":"Buckeye Check Cashing of Illinois, LLC","city":"Chicago","zip":"60617","dba":"D/b/a First Cash Advance","geo_score":0.935,"id":"aep9kvssi3kg","address":"1916 East 95th Street","geo_precision":"range","state":"IL"},"type":"Feature","geometry":{"type":"Point","coordinates":[-87.577344,41.722516]}},{"properties":{"name":"Illinois Title Loans, Inc.","city":"Chicago","zip":"60647","dba":null,"geo_score":1.0,"id":"aep9kvk6v71d","address":"1920 North Milwaukee Avenue","geo_precision":"range","state":"IL"},"type":"Feature","geometry":{"type":"Point","coordinates":[-87.685426,41.91543]}},{"properties":{"name":"Legal Capital Corp.","city":"Chicago","zip":"60602","dba":null,"geo_score":0.614,"id":"aep9kvnj300i","address":"20 North Clark Street, 30th Floor","geo_precision":"street","state":"IL"},"type":"Feature","geometry":{"type":"Point","coordinates":[-87.630883,41.881977]}},{"properties":{"name":"Great American Finance Co.","city":"Chicago","zip":"60606","dba":null,"geo_score":0.857,"id":"aep9kvmh7syo","address":"20 North Wacker Drive, Suite 2275","geo_precision":"zip","state":"IL"},"type":"Feature","geometry":{"type":"Point","coordinates":[-87.68732,41.811929]}},{"properties":{"name":"CNU of Illinois, LLC","city":"Chicago","zip":"60606","dba":"D/b/a TitleLoanASAP","geo_score":0.585,"id":"aep9kvn5rd3m","address":"200 West Jackson Boulevard","geo_precision":"zip","state":"IL"},"type":"Feature","geometry":{"type":"Point","coordinates":[-87.68732,41.811929]}},{"properties":{"name":"Great Lakes Specialty Finance, Inc.","city":"Chicago","zip":"60620","dba":"D/b/a Check 'N Go","geo_score":0.935,"id":"aep9kvmqruz4","address":"2003 West 79th Street","geo_precision":"range","state":"IL"},"type":"Feature","geometry":{"type":"Point","coordinates":[-87.674296,41.750144]}},{"properties":{"name":"Illinois Lending Corporation","city":"Chicago","zip":"60616","dba":null,"geo_score":1.0,"id":"aep9kvmxtgde","address":"2109 South Wabash Avenue","geo_precision":"range","state":"IL"},"type":"Feature","geometry":{"type":"Point","coordinates":[-87.625428,41.853032]}},{"properties":{"name":"Americash Loans, LLC","city":"Chicago","zip":"60604","dba":null,"geo_score":1.0,"id":"aep9kvgyz30j","address":"212 South Clark Street","geo_precision":"range","state":"IL"},"type":"Feature","geometry":{"type":"Point","coordinates":[-87.630887,41.879203]}},{"properties":{"name":"The Payday Loan Store of Illinois, Inc.","city":"Chicago","zip":"60649","dba":null,"geo_score":0.935,"id":"aep9kvhmci42","address":"2132 East 71st Street","geo_precision":"range","state":"IL"},"type":"Feature","geometry":{"type":"Point","coordinates":[-87.571983,41.766197]}},{"properties":{"name":"Devon Financial Services, Inc.","city":"Chicago","zip":"60603","dba":null,"geo_score":1.0,"id":"aep9kviihhgp","address":"22 East Adams Street","geo_precision":"range","state":"IL"},"type":"Feature","geometry":{"type":"Point","coordinates":[-87.626126,41.879522]}},{"properties":{"name":"Lawsuit Lending, LLC","city":"Chicago","zip":"60601","dba":null,"geo_score":0.977,"id":"aep9kvfexbgh","address":"221 North LaSalle Street","geo_precision":"range","state":"IL"},"type":"Feature","geometry":{"type":"Point","coordinates":[-87.632483,41.886876]}},{"properties":{"name":"A-All Financial Services, Inc.","city":"Chicago","zip":"60612","dba":null,"geo_score":1.0,"id":"aep9kvovf46s","address":"2216 West Taylor Street","geo_precision":"range","state":"IL"},"type":"Feature","geometry":{"type":"Point","coordinates":[-87.682368,41.869105]}},{"properties":{"name":"Great Lakes Specialty Finance, Inc.","city":"Chicago","zip":"60625","dba":"D/b/a Check 'N Go","geo_score":0.663,"id":"aep9kvi8y1vg","address":"2307 West Lawrence Avenue, Unit A","geo_precision":"street","state":"IL"},"type":"Feature","geometry":{"type":"Point","coordinates":[-87.679186,41.968756]}},{"properties":{"name":"Springleaf Financial Services of Illinois, Inc.","city":"Chicago","zip":"60643","dba":null,"geo_score":0.935,"id":"aep9kvch9qro","address":"2313 West 95th Street","geo_precision":"range","state":"IL"},"type":"Feature","geometry":{"type":"Point","coordinates":[-87.680384,41.720889]}},{"properties":{"name":"Great Lakes Specialty Finance, Inc.","city":"Chicago","zip":"60804","dba":"D/b/a Check 'N Go","geo_score":0.763,"id":"aep9kvo9jouz","address":"2317A South Cicero Avenue","geo_precision":"street","state":"IL"},"type":"Feature","geometry":{"type":"Point","coordinates":[-87.743533,41.822006]}},{"properties":{"name":"Great Lakes Specialty Finance, Inc.","city":"Chicago","zip":"60628","dba":"D/b/a Check 'N Go","geo_score":1.0,"id":"aep9kvorctf9","address":"238 East 103rd Street","geo_precision":"range","state":"IL"},"type":"Feature","geometry":{"type":"Point","coordinates":[-87.616292,41.707349]}},{"properties":{"name":"Devon Financial Services, Inc.","city":"Chicago","zip":"60629","dba":null,"geo_score":0.935,"id":"aep9kvhzn3ah","address":"2754 West 63rd Street","geo_precision":"range","state":"IL"},"type":"Feature","geometry":{"type":"Point","coordinates":[-87.693011,41.779197]}},{"properties":{"name":"Total Finance, LLC","city":"Chicago","zip":"60618","dba":null,"geo_score":1.0,"id":"aep9kvgkqhv2","address":"2917 West Irving Park Road","geo_precision":"range","state":"IL"},"type":"Feature","geometry":{"type":"Point","coordinates":[-87.701904,41.953956]}},{"properties":{"name":"Check Into Cash of Illinois, LLC","city":"Chicago","zip":"60641","dba":"D/b/a Check Into Cash","geo_score":1.0,"id":"aep9kvpng88n","address":"3023 North Pulaski Road","geo_precision":"range","state":"IL"},"type":"Feature","geometry":{"type":"Point","coordinates":[-87.727021,41.935998]}},{"properties":{"name":"Springleaf Financial Services of Illinois, Inc.","city":"Chicago","zip":"60634","dba":null,"geo_score":1.0,"id":"aep9kvpf0hxc","address":"3051 North Central Avenue","geo_precision":"range","state":"IL"},"type":"Feature","geometry":{"type":"Point","coordinates":[-87.766332,41.935823]}},{"properties":{"name":"Springleaf Financial Services of Illinois, Inc.","city":"Chicago","zip":"60641","dba":null,"geo_score":1.0,"id":"aep9kvghsz4z","address":"3051 North Pulaski Road","geo_precision":"range","state":"IL"},"type":"Feature","geometry":{"type":"Point","coordinates":[-87.72705,41.937]}},{"properties":{"name":"Springleaf Financial Services of Illinois, Inc.","city":"Chicago","zip":"60657","dba":null,"geo_score":1.0,"id":"aep9kvk6rzpo","address":"3119 North Lincoln Avenue","geo_precision":"range","state":"IL"},"type":"Feature","geometry":{"type":"Point","coordinates":[-87.668232,41.939406]}},{"properties":{"name":"Great Lakes Specialty Finance, Inc.","city":"Chicago","zip":"60608","dba":"D/b/a Check 'N Go","geo_score":1.0,"id":"aep9kvli4iyb","address":"3125 South Ashland Avenue","geo_precision":"range","state":"IL"},"type":"Feature","geometry":{"type":"Point","coordinates":[-87.665667,41.837698]}},{"properties":{"name":"Illinois Title Loans, Inc.","city":"Chicago","zip":"60623","dba":null,"geo_score":1.0,"id":"aep9kvhfddt8","address":"3159 West Cermak Road","geo_precision":"range","state":"IL"},"type":"Feature","geometry":{"type":"Point","coordinates":[-87.70485,41.851695]}},{"properties":{"name":"QC Financial Services, Inc.","city":"Chicago","zip":"60608","dba":"D/b/a National Quik Cash","geo_score":1.0,"id":"aep9kvs6f2v8","address":"3168 South Ashland Avenue","geo_precision":"range","state":"IL"},"type":"Feature","geometry":{"type":"Point","coordinates":[-87.665766,41.835657]}},{"properties":{"name":"Devon Financial Services, Inc.","city":"Chicago","zip":"60652","dba":null,"geo_score":0.935,"id":"aep9kvnz6fi9","address":"3222 West 87th Street","geo_precision":"range","state":"IL"},"type":"Feature","geometry":{"type":"Point","coordinates":[-87.706633,41.7352]}},{"properties":{"name":"Title Lenders, Inc.","city":"Chicago","zip":"60634","dba":"D/b/a USA Payday Loans","geo_score":1.0,"id":"aep9kvjjyka7","address":"3243 North Harlem Avenue","geo_precision":"range","state":"IL"},"type":"Feature","geometry":{"type":"Point","coordinates":[-87.806729,41.939513]}},{"properties":{"name":"Great Lakes Specialty Finance, Inc.","city":"Chicago","zip":"60647","dba":"D/b/a Check 'N Go","geo_score":0.894,"id":"aep9kvo5w3gt","address":"3329 West North Avenue","geo_precision":"range","state":"IL"},"type":"Feature","geometry":{"type":"Point","coordinates":[-87.709532,41.910072]}},{"properties":{"name":"The Payday Loan Store of Illinois, Inc.","city":"Chicago","zip":"60606","dba":null,"geo_score":0.932,"id":"aep9kvmosf6l","address":"337 South Franklin","geo_precision":"range","state":"IL"},"type":"Feature","geometry":{"type":"Point","coordinates":[-87.635113,41.877296]}},{"properties":{"name":"Nationwide Loans LLC","city":"Chicago","zip":"60641","dba":null,"geo_score":1.0,"id":"aep9kvicb0sh","address":"3435 North Cicero Avenue","geo_precision":"range","state":"IL"},"type":"Feature","geometry":{"type":"Point","coordinates":[-87.746893,41.942615]}},{"properties":{"name":"Chicago Finance Center","city":"Chicago","zip":"60618","dba":null,"geo_score":1.0,"id":"aep9kvrmanll","address":"3538 West Irving Park Road","geo_precision":"range","state":"IL"},"type":"Feature","geometry":{"type":"Point","coordinates":[-87.717706,41.953867]}},{"properties":{"name":"America's Financial Choice, Inc.","city":"Chicago","zip":"60618","dba":null,"geo_score":1.0,"id":"aep9kvict6ck","address":"3555 West Irving Park Road","geo_precision":"range","state":"IL"},"type":"Feature","geometry":{"type":"Point","coordinates":[-87.717426,41.953721]}},{"properties":{"name":"Springleaf Financial Services of Illinois, Inc.","city":"Chicago","zip":"60617","dba":null,"geo_score":1.0,"id":"aep9kvo972md","address":"3641 East 106th Street","geo_precision":"range","state":"IL"},"type":"Feature","geometry":{"type":"Point","coordinates":[-87.534809,41.702656]}},{"properties":{"name":"Preferred Capital Funding of Illinois, LLC","city":"Chicago","zip":"60654","dba":null,"geo_score":0.805,"id":"aep9kvqfqlvf","address":"368 West Huron Street","geo_precision":"range","state":"IL"},"type":"Feature","geometry":{"type":"Point","coordinates":[-87.638334,41.894811]}},{"properties":{"name":"Advance Case Loans LLC","city":"Chicago","zip":"60654","dba":null,"geo_score":0.586,"id":"aep9kvdq0dxt","address":"368 West Huron, Suite 3N","geo_precision":"street","state":"IL"},"type":"Feature","geometry":{"type":"Point","coordinates":[-87.631777,41.894825]}},{"properties":{"name":"Midwest Title Loans, Inc.","city":"Chicago","zip":"60652","dba":null,"geo_score":0.87,"id":"aep9kviupo6u","address":"3751 79th Street","geo_precision":"range","state":"IL"},"type":"Feature","geometry":{"type":"Point","coordinates":[-87.716918,41.749501]}},{"properties":{"name":"Broadway Loan Company","city":"Chicago","zip":"60613","dba":null,"geo_score":1.0,"id":"aep9kvet1ky7","address":"3755 North Halsted Street","geo_precision":"range","state":"IL"},"type":"Feature","geometry":{"type":"Point","coordinates":[-87.649547,41.950744]}},{"properties":{"name":"Consumer Financial Services Corporation","city":"Chicago","zip":"60641","dba":null,"geo_score":1.0,"id":"aep9kvrar4hr","address":"3849 North Cicero Avenue","geo_precision":"range","state":"IL"},"type":"Feature","geometry":{"type":"Point","coordinates":[-87.747199,41.949771]}},{"properties":{"name":"U.S. Cash Advance Illinois, L.L.C.","city":"Chicago","zip":"60632","dba":"D/b/a The Loan Machine","geo_score":1.0,"id":"aep9kvcwg7mt","address":"3901 South Archer Avenue","geo_precision":"range","state":"IL"},"type":"Feature","geometry":{"type":"Point","coordinates":[-87.691437,41.821943]}},{"properties":{"name":"Turner Acceptance Corporation","city":"Chicago","zip":"60623","dba":null,"geo_score":0.688,"id":"aep9kvhy3tjz","address":"3934 West 24th Street, Unit B","geo_precision":"street","state":"IL"},"type":"Feature","geometry":{"type":"Point","coordinates":[-87.695332,41.847882]}},{"properties":{"name":"Springleaf Financial Services of Illinois, Inc.","city":"Chicago","zip":"60623","dba":null,"geo_score":0.935,"id":"aep9kvlrtvkn","address":"3945 West 26th Street","geo_precision":"range","state":"IL"},"type":"Feature","geometry":{"type":"Point","coordinates":[-87.723754,41.844187]}},{"properties":{"name":"America's Financial Choice, Inc.","city":"Chicago","zip":"60641","dba":null,"geo_score":0.512,"id":"aep9kvi4eg2t","address":"4016-1/2 North Cicero Avenue","geo_precision":"street","state":"IL"},"type":"Feature","geometry":{"type":"Point","coordinates":[-87.74663,41.932446]}},{"properties":{"name":"Title Lenders, Inc.","city":"Chicago","zip":"60641","dba":"D/b/a USA Payday Loans","geo_score":1.0,"id":"aep9kvcijaxt","address":"4124 North Milwaukee Avenue","geo_precision":"range","state":"IL"},"type":"Feature","geometry":{"type":"Point","coordinates":[-87.75019,41.955446]}},{"properties":{"name":"Advance Case Lending, Inc.","city":"Chicago","zip":"60610","dba":null,"geo_score":0.932,"id":"aep9kvcpfz8v","address":"415 North LaSalle Street","geo_precision":"range","state":"IL"},"type":"Feature","geometry":{"type":"Point","coordinates":[-87.63256,41.889593]}},{"properties":{"name":"Sir Finance Corporation","city":"Chicago","zip":"60616","dba":null,"geo_score":0.935,"id":"aep9kvijxjv9","address":"424 West 31st Street","geo_precision":"range","state":"IL"},"type":"Feature","geometry":{"type":"Point","coordinates":[-87.63726,41.838239]}},{"properties":{"name":"Springleaf Financial Services of Illinois, Inc.","city":"Chicago","zip":"60632","dba":null,"geo_score":1.0,"id":"aep9kvffi3al","address":"4284 South Archer Avenue","geo_precision":"range","state":"IL"},"type":"Feature","geometry":{"type":"Point","coordinates":[-87.701664,41.815819]}},{"properties":{"name":"Turner Acceptance Corporation","city":"Chicago","zip":"60625","dba":null,"geo_score":1.0,"id":"aep9kvp8ixi0","address":"4454 North Western Avenue","geo_precision":"range","state":"IL"},"type":"Feature","geometry":{"type":"Point","coordinates":[-87.688683,41.961313]}},{"properties":{"name":"Springleaf Financial Services of Illinois, Inc.","city":"Chicago","zip":"60609","dba":null,"geo_score":1.0,"id":"aep9kvdfpoib","address":"4617 South Ashland Avenue","geo_precision":"range","state":"IL"},"type":"Feature","geometry":{"type":"Point","coordinates":[-87.664938,41.810148]}},{"properties":{"name":"Buckeye Check Cashing of Illinois, LLC","city":"Chicago","zip":"60630","dba":"D/b/a First Cash Advance","geo_score":1.0,"id":"aep9kvsr0kf8","address":"4705 North Pulaski Road","geo_precision":"range","state":"IL"},"type":"Feature","geometry":{"type":"Point","coordinates":[-87.727937,41.96771]}},{"properties":{"name":"Workforce Loans LLC","city":"Chicago","zip":"60630","dba":null,"geo_score":1.0,"id":"aep9kvpg00rz","address":"4732 North Austin Avenue","geo_precision":"range","state":"IL"},"type":"Feature","geometry":{"type":"Point","coordinates":[-87.777325,41.967171]}},{"properties":{"name":"Springleaf Financial Services of Illinois, Inc.","city":"Chicago","zip":"60639","dba":null,"geo_score":1.0,"id":"aep9kvpdcl0s","address":"4750 West Fullerton Avenue","geo_precision":"range","state":"IL"},"type":"Feature","geometry":{"type":"Point","coordinates":[-87.746302,41.924239]}},{"properties":{"name":"Americash Loans, LLC","city":"Chicago","zip":"60641","dba":null,"geo_score":1.0,"id":"aep9kvjbh2oi","address":"4815 West Irving Park Road","geo_precision":"range","state":"IL"},"type":"Feature","geometry":{"type":"Point","coordinates":[-87.747613,41.953335]}},{"properties":{"name":"QC Financial Services, Inc.","city":"Chicago","zip":"60641","dba":"D/b/a National Quik Cash","geo_score":1.0,"id":"aep9kvp7h4g4","address":"4820 West Irving Park Road","geo_precision":"range","state":"IL"},"type":"Feature","geometry":{"type":"Point","coordinates":[-87.748275,41.953479]}},{"properties":{"name":"The Payday Loan Store of Illinois, Inc.","city":"Chicago","zip":"60638","dba":null,"geo_score":1.0,"id":"aep9kve0zoud","address":"4838 South Cicero Avenue","geo_precision":"range","state":"IL"},"type":"Feature","geometry":{"type":"Point","coordinates":[-87.743142,41.804677]}},{"properties":{"name":"Buckeye Check Cashing of Illinois, LLC","city":"Chicago","zip":"60640","dba":"D/b/a First Cash Advance","geo_score":0.865,"id":"aep9kveb5aol","address":"4853-A North Broadway","geo_precision":"range","state":"IL"},"type":"Feature","geometry":{"type":"Point","coordinates":[-87.659653,41.971176]}},{"properties":{"name":"Midwest Title Loans, Inc.","city":"Chicago","zip":"60632","dba":null,"geo_score":1.0,"id":"aep9kvqghrxe","address":"5010 South Archer Avenue","geo_precision":"range","state":"IL"},"type":"Feature","geometry":{"type":"Point","coordinates":[-87.723997,41.802101]}},{"properties":{"name":"Great Lakes Specialty Finance, Inc.","city":"Chicago","zip":"60632","dba":"D/b/a Check 'N Go","geo_score":0.643,"id":"aep9kveo3smq","address":"5160 South Pulaski Avenue, Suite 111","geo_precision":"street","state":"IL"},"type":"Feature","geometry":{"type":"Point","coordinates":[-87.724042,41.822627]}},{"properties":{"name":"Illinois Title Loans, Inc.","city":"Chicago","zip":"60639","dba":null,"geo_score":0.894,"id":"aep9kvm6x9rq","address":"5201 West North Avenue","geo_precision":"range","state":"IL"},"type":"Feature","geometry":{"type":"Point","coordinates":[-87.756881,41.909487]}},{"properties":{"name":"Americash Loans, LLC","city":"Chicago","zip":"60640","dba":null,"geo_score":0.932,"id":"aep9kvdxlzml","address":"5310 North Broadway","geo_precision":"range","state":"IL"},"type":"Feature","geometry":{"type":"Point","coordinates":[-87.660027,41.979402]}},{"properties":{"name":"Great Lakes Specialty Finance, Inc.","city":"Chicago","zip":"60639","dba":"D/b/a Check 'N Go","geo_score":1.0,"id":"aep9kveelppr","address":"5638 West Fullerton Avenue","geo_precision":"range","state":"IL"},"type":"Feature","geometry":{"type":"Point","coordinates":[-87.768339,41.924018]}},{"properties":{"name":"America's Financial Choice, Inc.","city":"Chicago","zip":"60607","dba":null,"geo_score":1.0,"id":"aep9kvfg5bqd","address":"570 West Roosevelt Road","geo_precision":"range","state":"IL"},"type":"Feature","geometry":{"type":"Point","coordinates":[-87.639218,41.867253]}},{"properties":{"name":"Illinois Title Loans, Inc.","city":"Chicago","zip":"60646","dba":null,"geo_score":1.0,"id":"aep9kvj4w04m","address":"5762 North Milwaukee Avenue","geo_precision":"range","state":"IL"},"type":"Feature","geometry":{"type":"Point","coordinates":[-87.777272,41.985886]}},{"properties":{"name":"Sun Cash of Wisconsin, LLC","city":"Chicago","zip":"60639","dba":null,"geo_score":0.894,"id":"aep9kvi6uqic","address":"5800 West North Avenue","geo_precision":"range","state":"IL"},"type":"Feature","geometry":{"type":"Point","coordinates":[-87.770754,41.909313]}},{"properties":{"name":"Check Into Cash of Illinois, LLC","city":"Chicago","zip":"60629","dba":"D/b/a Check Into Cash","geo_score":1.0,"id":"aep9kvq9u2in","address":"5851 South Kedzie Avenue","geo_precision":"range","state":"IL"},"type":"Feature","geometry":{"type":"Point","coordinates":[-87.703305,41.787624]}},{"properties":{"name":"Springleaf Financial Services of Illinois, Inc.","city":"Chicago","zip":"60638","dba":null,"geo_score":1.0,"id":"aep9kvnslj76","address":"5901 South Archer Avenue","geo_precision":"range","state":"IL"},"type":"Feature","geometry":{"type":"Point","coordinates":[-87.763148,41.795525]}},{"properties":{"name":"QC Financial Services, Inc.","city":"Chicago","zip":"60659","dba":"D/b/a National Quik Cash","geo_score":1.0,"id":"aep9kvj8kxdj","address":"6029 North Lincoln Avenue","geo_precision":"range","state":"IL"},"type":"Feature","geometry":{"type":"Point","coordinates":[-87.709599,41.991749]}},{"properties":{"name":"Sir Finance Corporation","city":"Chicago","zip":"60659","dba":null,"geo_score":1.0,"id":"aep9kvs5j0yn","address":"6140 North Lincoln Avenue","geo_precision":"range","state":"IL"},"type":"Feature","geometry":{"type":"Point","coordinates":[-87.714009,41.994356]}},{"properties":{"name":"Great Lakes Specialty Finance, Inc.","city":"Chicago","zip":"60636","dba":"D/b/a Check 'N Go","geo_score":0.703,"id":"aep9kvjqez4h","address":"6311 South Western Avenue, Suite B","geo_precision":"street","state":"IL"},"type":"Feature","geometry":{"type":"Point","coordinates":[-87.683996,41.792279]}},{"properties":{"name":"Devon Financial Services, Inc.","city":"Chicago","zip":"60645","dba":null,"geo_score":1.0,"id":"aep9kvhr45pg","address":"6414 North Western Avenue","geo_precision":"range","state":"IL"},"type":"Feature","geometry":{"type":"Point","coordinates":[-87.689965,41.997918]}},{"properties":{"name":"OneMain Financial, Inc.","city":"Chicago","zip":"60634","dba":null,"geo_score":0.963,"id":"aep9kvoycjrm","address":"6500 Irving Park Road","geo_precision":"range","state":"IL"},"type":"Feature","geometry":{"type":"Point","coordinates":[-87.789594,41.95294]}},{"properties":{"name":"Green Hill Financial LLC","city":"Chicago","zip":"60631","dba":null,"geo_score":1.0,"id":"aep9kvnydfn3","address":"6547 North Avondale Avenue","geo_precision":"range","state":"IL"},"type":"Feature","geometry":{"type":"Point","coordinates":[-87.815255,41.999933]}},{"properties":{"name":"Illinois Title Loans, Inc.","city":"Chicago","zip":"60638","dba":null,"geo_score":1.0,"id":"aep9kvnglm3d","address":"6555 South Cicero Avenue","geo_precision":"range","state":"IL"},"type":"Feature","geometry":{"type":"Point","coordinates":[-87.742051,41.773965]}},{"properties":{"name":"Springleaf Financial Services of Illinois, Inc.","city":"Chicago","zip":"60629","dba":null,"geo_score":1.0,"id":"aep9kvjoa8w3","address":"6618 South Pulaski Road","geo_precision":"range","state":"IL"},"type":"Feature","geometry":{"type":"Point","coordinates":[-87.722681,41.772619]}},{"properties":{"name":"Check Into Cash of Illinois, LLC","city":"Chicago","zip":"60707","dba":"D/b/a Check Into Cash","geo_score":0.804,"id":"aep9kvs1fk7d","address":"6816 West North Avenue","geo_precision":"range","state":"IL"},"type":"Feature","geometry":{"type":"Point","coordinates":[-87.795709,41.90909]}},{"properties":{"name":"Calzante Investments Inc.","city":"Chicago","zip":"60607","dba":"D/b/a Cash Lenders","geo_score":0.504,"id":"aep9kvdawqkv","address":"6960 West North Avenue","geo_precision":"street","state":"IL"},"type":"Feature","geometry":{"type":"Point","coordinates":[-87.784796,41.909151]}},{"properties":{"name":"The Payday Loan Store of Illinois, Inc.","city":"Chicago","zip":"60626","dba":null,"geo_score":0.932,"id":"aep9kvlqru6x","address":"7001-A North Clark Street","geo_precision":"range","state":"IL"},"type":"Feature","geometry":{"type":"Point","coordinates":[-87.674235,42.010199]}},{"properties":{"name":"Illinois Title Loans, Inc.","city":"Chicago","zip":"60649","dba":null,"geo_score":0.985,"id":"aep9kvjk1bap","address":"7013-17 South Stoney Island Avenue","geo_precision":"range","state":"IL"},"type":"Feature","geometry":{"type":"Point","coordinates":[-87.586256,41.766284]}},{"properties":{"name":"Genesis Financial &amp; Payment Systems Illinois, LLC","city":"Chicago","zip":"60649","dba":null,"geo_score":1.0,"id":"aep9kvfndg6m","address":"7100 South Jeffery Boulevard","geo_precision":"range","state":"IL"},"type":"Feature","geometry":{"type":"Point","coordinates":[-87.57629,41.765684]}},{"properties":{"name":"Americash Loans, LLC","city":"Chicago","zip":"60610","dba":null,"geo_score":1.0,"id":"aep9kvl715xs","address":"719 North State Street","geo_precision":"range","state":"IL"},"type":"Feature","geometry":{"type":"Point","coordinates":[-87.628115,41.893271]}},{"properties":{"name":"Illinois Lending Corporation","city":"Chicago","zip":"60661","dba":null,"geo_score":0.931,"id":"aep9kvh9o8st","address":"724 West Washington Street","geo_precision":"range","state":"IL"},"type":"Feature","geometry":{"type":"Point","coordinates":[-87.646262,41.883154]}},{"properties":{"name":"Springleaf Financial Services of Illinois, Inc.","city":"Chicago","zip":"60645","dba":null,"geo_score":1.0,"id":"aep9kvkz4v1o","address":"7414 North Western Avenue","geo_precision":"range","state":"IL"},"type":"Feature","geometry":{"type":"Point","coordinates":[-87.690281,42.016393]}},{"properties":{"name":"First American Cash Advance, Inc.","city":"Chicago","zip":"60652","dba":null,"geo_score":1.0,"id":"aep9kve2cvo1","address":"7753 South Cicero Avenue","geo_precision":"range","state":"IL"},"type":"Feature","geometry":{"type":"Point","coordinates":[-87.741424,41.750987]}},{"properties":{"name":"A-All Loans, Inc.","city":"Chicago","zip":"60620","dba":null,"geo_score":1.0,"id":"aep9kvhn56jp","address":"7901 South Vincennes Avenue","geo_precision":"range","state":"IL"},"type":"Feature","geometry":{"type":"Point","coordinates":[-87.634335,41.750323]}},{"properties":{"name":"Great Lakes Specialty Finance, Inc.","city":"Chicago","zip":"60651","dba":"D/b/a Check 'N Go","geo_score":0.857,"id":"aep9kvire36z","address":"800 North Kedzie, Unit 225","geo_precision":"street","state":"IL"},"type":"Feature","geometry":{"type":"Point","coordinates":[-87.706572,41.896029]}},{"properties":{"name":"The Payday Loan Store of Illinois, Inc.","city":"Chicago","zip":"60651","dba":null,"geo_score":0.415,"id":"aep9kvdqt0xn","address":"801 1/2 North Pulaski Road","geo_precision":"street","state":"IL"},"type":"Feature","geometry":{"type":"Point","coordinates":[-87.725972,41.891694]}},{"properties":{"name":"Title Lenders, Inc.","city":"Chicago","zip":"60652","dba":"D/b/a USA Payday Loans","geo_score":1.0,"id":"aep9kvcjcqrw","address":"8127 South Cicero Ave","geo_precision":"range","state":"IL"},"type":"Feature","geometry":{"type":"Point","coordinates":[-87.741098,41.743819]}},{"properties":{"name":"ZOA, LLC","city":"Chicago","zip":"60607","dba":"D/b/a Get Cash USA","geo_score":0.585,"id":"aep9kvib1iwt","address":"820 West Jackson Boulevard","geo_precision":"zip","state":"IL"},"type":"Feature","geometry":{"type":"Point","coordinates":[-87.81381,41.928881]}},{"properties":{"name":"QC Financial Services, Inc.","city":"Chicago","zip":"60617","dba":"D/b/a National Quik Cash","geo_score":1.0,"id":"aep9kvjq89ci","address":"8202 South Stony Island Avenue","geo_precision":"range","state":"IL"},"type":"Feature","geometry":{"type":"Point","coordinates":[-87.585874,41.744234]}},{"properties":{"name":"Devon Financial Services, Inc","city":"Chicago","zip":"60619","dba":null,"geo_score":0.487,"id":"aep9kvi1pzsa","address":"8256 South Cottage Grove Avenue","geo_precision":"street","state":"IL"},"type":"Feature","geometry":{"type":"Point","coordinates":[-87.64226,41.849545]}},{"properties":{"name":"Motion Funding Inc.","city":"Chicago","zip":"60652","dba":"D/b/a Cash Loans by BMAC Inc.","geo_score":0.512,"id":"aep9kvgywk6z","address":"8314 1/2 South Kedzie Avenue","geo_precision":"street","state":"IL"},"type":"Feature","geometry":{"type":"Point","coordinates":[-87.702552,41.755272]}},{"properties":{"name":"Great Lakes Specialty Finance, Inc.","city":"Chicago","zip":"60619","dba":"D/b/a Check 'N Go","geo_score":0.487,"id":"aep9kvrpae3f","address":"8357 South Cottage Grove Avenue","geo_precision":"street","state":"IL"},"type":"Feature","geometry":{"type":"Point","coordinates":[-87.64226,41.849545]}},{"properties":{"name":"Capital Solutions Investments II, Inc.","city":"Chicago","zip":"60652","dba":"d/b/a Surety Finance","geo_score":1.0,"id":"aep9kvjlnioa","address":"8511 South Pulaski Road","geo_precision":"range","state":"IL"},"type":"Feature","geometry":{"type":"Point","coordinates":[-87.721423,41.736763]}},{"properties":{"name":"Check Into Cash of Illinois, LLC","city":"Chicago","zip":"60652","dba":"D/b/a Check Into Cash","geo_score":1.0,"id":"aep9kvhwqaha","address":"8547 South Cicero Avenue","geo_precision":"range","state":"IL"},"type":"Feature","geometry":{"type":"Point","coordinates":[-87.740896,41.738111]}},{"properties":{"name":"Springleaf Financial Services of Illinois, Inc.","city":"Chicago","zip":"60609","dba":null,"geo_score":0.935,"id":"aep9kvhzmp3s","address":"856 West 35th Street","geo_precision":"range","state":"IL"},"type":"Feature","geometry":{"type":"Point","coordinates":[-87.647085,41.830814]}},{"properties":{"name":"Uptown Cash, L.L.C.","city":"Chicago","zip":"60619","dba":null,"geo_score":0.493,"id":"aep9kvhm5x8q","address":"8641 South Cottage Grove","geo_precision":"street","state":"IL"},"type":"Feature","geometry":{"type":"Point","coordinates":[-87.657032,41.878237]}},{"properties":{"name":"Illinois Title Loans, Inc.","city":"Chicago","zip":"60620","dba":null,"geo_score":1.0,"id":"aep9kvpu6x2r","address":"8700 South Ashland Avenue","geo_precision":"range","state":"IL"},"type":"Feature","geometry":{"type":"Point","coordinates":[-87.663052,41.735288]}},{"properties":{"name":"Motion Funding, Inc.","city":"Chicago","zip":"60620","dba":"D/b/a Cash Loans by BMAC, Inc.","geo_score":1.0,"id":"aep9kvrcigfy","address":"9401 South Ashland Avenue","geo_precision":"range","state":"IL"},"type":"Feature","geometry":{"type":"Point","coordinates":[-87.662694,41.721676]}},{"properties":{"name":"Devon Financial Services, Inc.","city":"Chicago","zip":"60620","dba":null,"geo_score":1.0,"id":"aep9kvrmr3s5","address":"9455 South Ashland Avenue","geo_precision":"range","state":"IL"},"type":"Feature","geometry":{"type":"Point","coordinates":[-87.662634,41.722695]}},{"properties":{"name":"Americash Loans, LLC","city":"Chicago","zip":"60628","dba":"D/b/a First Rate Financial","geo_score":0.927,"id":"aep9kvmzbiuz","address":"9500 South Halsted","geo_precision":"range","state":"IL"},"type":"Feature","geometry":{"type":"Point","coordinates":[-87.643166,41.719646]}},{"properties":{"name":"The Payday Loan Store of Illinois, Inc.","city":"Chicago","zip":"60643","dba":null,"geo_score":1.0,"id":"aep9kvm5tj1u","address":"9920 South Western Avenue","geo_precision":"range","state":"IL"},"type":"Feature","geometry":{"type":"Point","coordinates":[-87.681894,41.713005]}}],"is_temporal":false,"author":{"url":"","metadata":"","contact_name":"","contact_address":"","source":"","contact_phone":""},"source":"","pagination":{"sort":null,"start":0,"total":131,"limit":1000000},"state":"complete","tags":"","published":"2014-08-16T18:00:24-04:00","id":363439}