{"type":"FeatureCollection","data_type":"Dataset","url_type":null,"permissions":[{"permissions":{"download":true,"view":true},"group_id":"everyone"}],"classification":null,"title":"DATA_TEST","count":50,"stream_id":363657,"contributor":{"url":"http://geocommons.com/users/73848","name":"tbrewer2"},"data_attributes":null,"calculation_params":null,"icon_link":null,"link":"http://geocommons.com/overlays/363657.json","extent":[0.0,0.0,0.0,0.0],"geometry_types":null,"unique_name":null,"name":"DATA_TEST","feature_count":50,"description":"","next_feature":null,"is_raster":false,"short_classification":"Y","features":[{"properties":{"amount":"0","id":"aepp0p74suu9","state":"Alabama"},"type":"Feature","geometry":null},{"properties":{"amount":"0","id":"aepp0p6u64gd","state":"Alaska"},"type":"Feature","geometry":null},{"properties":{"amount":"0","id":"aepp0ph92mmj","state":"Arizona"},"type":"Feature","geometry":null},{"properties":{"amount":"0","id":"aepp0pf6e1md","state":"Arkansas"},"type":"Feature","geometry":null},{"properties":{"amount":"0","id":"aepp0pjyi3u9","state":"California"},"type":"Feature","geometry":null},{"properties":{"amount":"1","id":"aepp0plkf5cw","state":"Colorado"},"type":"Feature","geometry":null},{"properties":{"amount":"2","id":"aepp0p9ra6xl","state":"Connecticut"},"type":"Feature","geometry":null},{"properties":{"amount":"2","id":"aepp0pho4ba6","state":"Delaware"},"type":"Feature","geometry":null},{"properties":{"amount":"2","id":"aepp0pjd2rbi","state":"Florida"},"type":"Feature","geometry":null},{"properties":{"amount":"2","id":"aepp0pjy3kvn","state":"Georgia"},"type":"Feature","geometry":null},{"properties":{"amount":"4","id":"aepp0pa6uox6","state":"Hawaii"},"type":"Feature","geometry":null},{"properties":{"amount":"5","id":"aepp0p8enu8w","state":"Idaho"},"type":"Feature","geometry":null},{"properties":{"amount":"0","id":"aepp0p9au3ru","state":"Illinois"},"type":"Feature","geometry":null},{"properties":{"amount":"0","id":"aepp0pis8frt","state":"Indiana"},"type":"Feature","geometry":null},{"properties":{"amount":"0","id":"aepp0pf1gcye","state":"Iowa"},"type":"Feature","geometry":null},{"properties":{"amount":"10","id":"aepp0pi2lsq9","state":"Kansas"},"type":"Feature","geometry":null},{"properties":{"amount":"20","id":"aepp0pcgcb0y","state":"Kentucky"},"type":"Feature","geometry":null},{"properties":{"amount":"3","id":"aepp0pbji1kp","state":"Louisiana"},"type":"Feature","geometry":null},{"properties":{"amount":"4","id":"aepp0pbn5l0a","state":"Maine"},"type":"Feature","geometry":null},{"properties":{"amount":"5","id":"aepp0p952j0x","state":"Maryland"},"type":"Feature","geometry":null},{"properties":{"amount":"0","id":"aepp0pj08tgz","state":"Massachusetts"},"type":"Feature","geometry":null},{"properties":{"amount":"0","id":"aepp0p5ssoms","state":"Michigan"},"type":"Feature","geometry":null},{"properties":{"amount":"0","id":"aepp0pes63yi","state":"Minnesota"},"type":"Feature","geometry":null},{"properties":{"amount":"2","id":"aepp0pg6rcf1","state":"Mississippi"},"type":"Feature","geometry":null},{"properties":{"amount":"1","id":"aepp0pag79rm","state":"Missouri"},"type":"Feature","geometry":null},{"properties":{"amount":"5","id":"aepp0pbhlebr","state":"Montana"},"type":"Feature","geometry":null},{"properties":{"amount":"6","id":"aepp0p7isw13","state":"Nebraska"},"type":"Feature","geometry":null},{"properties":{"amount":"7","id":"aepp0pe2vbjp","state":"Nevada"},"type":"Feature","geometry":null},{"properties":{"amount":"0","id":"aepp0pjnfiaj","state":"New Hampshire"},"type":"Feature","geometry":null},{"properties":{"amount":"0","id":"aepp0plfejg0","state":"New Jersey"},"type":"Feature","geometry":null},{"properties":{"amount":"0","id":"aepp0pbrwrk7","state":"New Mexico"},"type":"Feature","geometry":null},{"properties":{"amount":"0","id":"aepp0ph95nko","state":"New York"},"type":"Feature","geometry":null},{"properties":{"amount":"0","id":"aepp0phqqhj2","state":"North Carolina"},"type":"Feature","geometry":null},{"properties":{"amount":"0","id":"aepp0p7hu8u0","state":"North Dakota"},"type":"Feature","geometry":null},{"properties":{"amount":"0","id":"aepp0p6fqf46","state":"Ohio"},"type":"Feature","geometry":null},{"properties":{"amount":"0","id":"aepp0pbzgw4h","state":"Oklahoma"},"type":"Feature","geometry":null},{"properties":{"amount":"0","id":"aepp0p5tnbdo","state":"Oregon"},"type":"Feature","geometry":null},{"properties":{"amount":"0","id":"aepp0p5skxiy","state":"Pennsylvania"},"type":"Feature","geometry":null},{"properties":{"amount":"0","id":"aepp0p7130ww","state":"Rhode Island"},"type":"Feature","geometry":null},{"properties":{"amount":"0","id":"aepp0paqohb8","state":"South Carolina"},"type":"Feature","geometry":null},{"properties":{"amount":"0","id":"aepp0pfwphqo","state":"South Dakota"},"type":"Feature","geometry":null},{"properties":{"amount":"1","id":"aepp0pchrnpy","state":"Tennessee"},"type":"Feature","geometry":null},{"properties":{"amount":"2","id":"aepp0pcfg74q","state":"Texas"},"type":"Feature","geometry":null},{"properties":{"amount":"6","id":"aepp0pfxp32r","state":"Utah"},"type":"Feature","geometry":null},{"properties":{"amount":"5","id":"aepp0pgdxlcr","state":"Vermont"},"type":"Feature","geometry":null},{"properties":{"amount":"30","id":"aepp0pckp5ic","state":"Virginia"},"type":"Feature","geometry":null},{"properties":{"amount":"7","id":"aepp0p7dgdrt","state":"Washington"},"type":"Feature","geometry":null},{"properties":{"amount":"3","id":"aepp0pjnu6kk","state":"West Virginia"},"type":"Feature","geometry":null},{"properties":{"amount":"5","id":"aepp0ph8sf27","state":"Wisconsin"},"type":"Feature","geometry":null},{"properties":{"amount":"6","id":"aepp0pgciwpx","state":"Wyoming"},"type":"Feature","geometry":null}],"is_temporal":false,"author":{"url":"","metadata":null,"contact_name":null,"contact_address":null,"source":null,"contact_phone":null},"source":"","pagination":{"sort":null,"start":0,"total":50,"limit":1000000},"state":"parsed","tags":"","published":"2014-08-16T18:09:08-04:00","id":363657}