{"type":"FeatureCollection","data_type":"Dataset","url_type":null,"permissions":[{"permissions":{"download":true,"view":true},"group_id":"everyone"}],"classification":null,"title":"BackSack sites May 2011","count":25,"stream_id":363640,"contributor":{"url":"http://geocommons.com/users/32393","name":"eoliver88"},"data_attributes":null,"calculation_params":null,"icon_link":null,"link":"http://geocommons.com/overlays/363640.json","extent":[-86.2891,38.7141,-85.4578,39.9076],"geometry_types":["point"],"unique_name":null,"name":"BackSack sites May 2011","feature_count":25,"description":"","next_feature":null,"is_raster":false,"short_classification":"Y","stats":{},"features":[{"properties":{"name":"Cummins","city":"Columbus","zip":"47201","geo_score":0.749,"id":"aepnn35y1lcc","address":"2725 W. 450 S.","geo_precision":"range","state":"IN"},"type":"Feature","geometry":{"type":"Point","coordinates":[-85.929205,39.134959]}},{"properties":{"name":"Stout Field Elem.","city":"Indianapolis","zip":"46241","geo_score":0.602,"id":"aepnn38egy6t","address":"3820 W. Bradbury Ave.","geo_precision":"street","state":"IN"},"type":"Feature","geometry":{"type":"Point","coordinates":[-86.22524,39.731598]}},{"properties":{"name":"Garden City School","city":"Indianapolis","zip":"46224","geo_score":0.585,"id":"aepnn3arxyjz","address":"4901 Rockville Rd.","geo_precision":"zip","state":"IN"},"type":"Feature","geometry":{"type":"Point","coordinates":[-86.267213,39.802265]}},{"properties":{"name":"IPS 14","city":"Indianapolis","zip":"46202","geo_score":0.61,"id":"aepnn38eade6","address":"1250 E. Market St.","geo_precision":"street","state":"IN"},"type":"Feature","geometry":{"type":"Point","coordinates":[-86.156225,39.768477]}},{"properties":{"name":"Cummins","city":"Indianapolis","zip":"47274","geo_score":0.527,"id":"aepnn31d69y9","address":"800 E. Third St.","geo_precision":"street","state":"IN"},"type":"Feature","geometry":{"type":"Point","coordinates":[-85.888853,38.960415]}},{"properties":{"name":"IPS 27","city":"Indianapolis","zip":"46202","geo_score":0.619,"id":"aepnn3bt8lv4","address":"545 E. 19th St.","geo_precision":"street","state":"IN"},"type":"Feature","geometry":{"type":"Point","coordinates":[-86.156035,39.792592]}},{"properties":{"name":"IPS 54","city":"Indianapolis","zip":"46201","geo_score":0.619,"id":"aepnn37dltmn","address":"3150 E. 10th St.","geo_precision":"street","state":"IN"},"type":"Feature","geometry":{"type":"Point","coordinates":[-86.132907,39.781276]}},{"properties":{"name":"Hanover SW","city":"Hanover","zip":"47243","geo_score":0.811,"id":"aepnn3h6hiuk","address":"484 Ball Dr.","geo_precision":"street","state":"IN"},"type":"Feature","geometry":{"type":"Point","coordinates":[-85.457792,38.714099]}},{"properties":{"name":"Harrison Hill Elem.","city":"Indianapolis","zip":"46226","geo_score":0.619,"id":"aepnn37wtl46","address":"7510 E. 53rd St.","geo_precision":"street","state":"IN"},"type":"Feature","geometry":{"type":"Point","coordinates":[-86.036726,39.849195]}},{"properties":{"name":"LifeBridge Community","city":"Indianapolis","zip":"46237","geo_score":1.0,"id":"aepnn3dlcn08","address":"4640 Nikki Dr.","geo_precision":"range","state":"IN"},"type":"Feature","geometry":{"type":"Point","coordinates":[-86.09573,39.698729]}},{"properties":{"name":"IPS 51","city":"Indianapolis","zip":"46218","geo_score":1.0,"id":"aepnn3efyyjk","address":"3426 Roosevelt Ave.","geo_precision":"range","state":"IN"},"type":"Feature","geometry":{"type":"Point","coordinates":[-86.108353,39.79931]}},{"properties":{"name":"IPS 46","city":"Indianapolis","zip":"46221","geo_score":0.607,"id":"aepnn3e90uwp","address":"1450 S. Reisner St.","geo_precision":"street","state":"IN"},"type":"Feature","geometry":{"type":"Point","coordinates":[-86.190001,39.758469]}},{"properties":{"name":"Westminster Neighborhood Min.","city":"Indianapolis","zip":"46201","geo_score":0.61,"id":"aepnn3591zew","address":"445 N. State Ave.","geo_precision":"street","state":"IN"},"type":"Feature","geometry":{"type":"Point","coordinates":[-86.130626,39.767861]}},{"properties":{"name":"Edna Martin Center","city":"Indianapolis","zip":"46218","geo_score":1.0,"id":"aepnn3d3q59j","address":"1970 Caroline Ave.","geo_precision":"range","state":"IN"},"type":"Feature","geometry":{"type":"Point","coordinates":[-86.124656,39.793733]}},{"properties":{"name":"IPS 60","city":"Indianapolis","zip":"46205","geo_score":0.597,"id":"aepnn34jc3b9","address":"3330 N. Pennsylvania St.","geo_precision":"street","state":"IN"},"type":"Feature","geometry":{"type":"Point","coordinates":[-86.155731,39.799243]}},{"properties":{"name":"U.S. Dream Academy","city":"Indianapolis","zip":"46226","geo_score":0.619,"id":"aepnn39ds7zn","address":"8902 E. 38th St.","geo_precision":"street","state":"IN"},"type":"Feature","geometry":{"type":"Point","coordinates":[-86.056103,39.825618]}},{"properties":{"name":"Emmanuel Missionary Baptist","city":"Indianapolis","zip":"46218","geo_score":1.0,"id":"aepnn35zqez9","address":"4958 Ribble Rd.","geo_precision":"range","state":"IN"},"type":"Feature","geometry":{"type":"Point","coordinates":[-86.088655,39.810492]}},{"properties":{"name":"Redeemer Hospitality","city":"Indianapolis","zip":"46205","geo_score":0.614,"id":"aepnn3ay43vp","address":"3421 N. Park Ave.","geo_precision":"street","state":"IN"},"type":"Feature","geometry":{"type":"Point","coordinates":[-86.147951,39.799385]}},{"properties":{"name":"Destiny's Place","city":"Indianapolis","zip":"46201","geo_score":0.619,"id":"aepnn3h61syy","address":"4805 E. 10th St.","geo_precision":"street","state":"IN"},"type":"Feature","geometry":{"type":"Point","coordinates":[-86.132907,39.781276]}},{"properties":{"name":"IPS 94","city":"Indianapolis","zip":"46219","geo_score":0.947,"id":"aepnn3a4sp1t","address":"2701 Devon Ave.","geo_precision":"range","state":"IN"},"type":"Feature","geometry":{"type":"Point","coordinates":[-86.022877,39.807863]}},{"properties":{"name":"IPS 69","city":"Indianapolis","zip":"46218","geo_score":0.958,"id":"aepnn372gb74","address":"3421 Keystone Ave.","geo_precision":"range","state":"IN"},"type":"Feature","geometry":{"type":"Point","coordinates":[-86.121602,39.819547]}},{"properties":{"name":"Chapelwood Elementary","city":"Indianapolis","zip":"46214","geo_score":0.597,"id":"aepnn3c61apr","address":"1129 N. Girls School Road","geo_precision":"street","state":"IN"},"type":"Feature","geometry":{"type":"Point","coordinates":[-86.289121,39.766705]}},{"properties":{"name":"SENSE Charter School","city":"Indianapolis","zip":"46203","geo_score":0.947,"id":"aepnn3feb7rw","address":"1601 South Barth Ave.","geo_precision":"range","state":"IN"},"type":"Feature","geometry":{"type":"Point","coordinates":[-86.141105,39.744395]}},{"properties":{"name":"Indiana School for the Blind and Visually Impaired","city":"Indianapolis","zip":"46240","geo_score":0.614,"id":"aepnn3a7fe2g","address":"7725 N. College Ave.","geo_precision":"street","state":"IN"},"type":"Feature","geometry":{"type":"Point","coordinates":[-86.147649,39.9076]}},{"properties":{"name":"Good Samaritan Food Pantry","city":"North Vernon","zip":"47265","geo_score":0.514,"id":"aepnn39lsv8n","address":"2250 N. State Rd. 7","geo_precision":"street","state":"IN"},"type":"Feature","geometry":{"type":"Point","coordinates":[-85.625911,39.002936]}}],"is_temporal":false,"author":{"url":"","metadata":"","contact_name":"","contact_address":"","source":"","contact_phone":""},"source":"","pagination":{"sort":null,"start":0,"total":25,"limit":1000000},"state":"complete","tags":"gfbeo","published":"2014-08-16T18:08:29-04:00","id":363640}